t,x_s1,x_s2,x_s3,x_s_d1,x_s_d2,x_s_d3,propellers_rpms1,propellers_rpms2,propellers_rpms3,propellers_rpms4,rollRad,pitchRad,yawRad,v_s1,v_s2,v_s3,v_s_d1,v_s_d2,v_s_d3,insideCount
0,-0.0599999986588955,2.94000005722046,1.17999994754791,-0.0599999986588955,2.94000005722046,1.17999994754791,0,0,0,0,0,45.0048027038574,0,0,0,0,-1.06581410364015E-15,4.44089209850063E-16,-7.105427357601E-16,0
0.0199999921023846,-0.0599999986588955,2.94000005722046,1.17999994754791,-0.0600018689851485,2.93999925247132,1.18000109010103,0,0,0,0,-4.71187853179345E-08,45.0048027038574,4.57171331902373E-08,-3.68531795724258E-15,-8.77082051431444E-09,8.78962147510265E-09,-0.000279986375734238,-0.000120470315563732,0.000171039307833442,5
0.0399999842047691,-0.0599999986588955,2.94000005722046,1.17607593536377,-0.0600148713857818,2.93999365790158,1.18000903306468,0,0,0,0,-9.42375706358689E-08,45.0048027038574,9.14342663804746E-08,-3.68531838075906E-15,-8.77082051431444E-09,-0.1961999386549,-0.00111096802362334,-0.000478018503710732,0.00067867302931599,5
0.059999980032444,-0.0599999986588955,2.94000005722046,1.16822791099548,-0.060049891741204,2.93997858962099,1.18003042645333,2483.083,2426.844,2293.842,2352.139,-1.41356366611944E-07,45.0048027038574,1.37151431545135E-07,-3.68531880427553E-15,-8.77082051431444E-09,-0.392399907112122,-0.00247956031385756,-0.00106688553215623,0.00151472470295854,5
0.0799999684095383,-0.0599999986588955,2.94000005722046,1.16085958480835,-0.0601175492801009,2.93994947847214,1.18007175738807,2752.317,2696.703,2565.271,2622.737,359.916717529297,45.0049209594727,0.0319096520543098,-4.57352067328998E-09,-2.06532604352105E-08,-0.368417710065842,-0.00437248577996248,-0.00188135847800576,0.00267108333168264,5
0.0999999642372131,-0.0600069686770439,2.93999695777893,1.1544691324234,-0.0602281988646503,2.9399018690471,1.18013935149261,2804.174,2721.6,2514.16,2602.958,359.751068115234,45.0049896240234,0.0954134687781334,-0.000348506087902933,-0.000155469824676402,-0.319525182247162,-0.00677657765502183,-0.00291577204929212,0.00413970554304249,5
0.119999960064888,-0.0600347816944122,2.93998456001282,1.14905917644501,-0.0603919330116387,2.93983141881785,1.18023937412799,2689.077,2657.792,2565.294,2603.739,359.457794189453,45.0048866271973,0.209595665335655,-0.00139064132235944,-0.000619977538008243,-0.270499885082245,-0.0096787755294144,-0.00416450671662093,0.00591261293660416,5
0.139999955892563,-0.060107558965683,2.93995237350464,1.14457094669342,-0.0606185841441557,2.93973389716743,1.18037783176802,2543.464,2578.869,2641.899,2612.373,359.110015869141,45.004337310791,0.346874803304672,-0.00363888661377132,-0.00161435711197555,-0.224410489201546,-0.0130661279819148,-0.00562198984525972,0.00798189369124403,5
0.159999936819077,-0.0602533295750618,2.93988800048828,1.14093995094299,-0.0609177264885074,2.93960518457372,1.18056057315816,2432.644,2512.065,2686.601,2609.186,358.805603027344,45.0036849975586,0.469852656126022,-0.00728844478726387,-0.00321653205901384,-0.181551456451416,-0.0169257889229127,-0.00728269412172734,0.0103397003312784,5
0.179999932646751,-0.0604960210621357,2.93978142738342,1.13810288906097,-0.0612986791863105,2.93944127127045,1.1807932912166,2396.697,2474.344,2659.312,2579.359,358.612945556641,45.003604888916,0.55134117603302,-0.0121345464140177,-0.00532572250813246,-0.141854628920555,-0.0212450294505367,-0.0091411426551529,0.0129782569691846,5
0.199999928474426,-0.0608501546084881,2.93962693214417,1.13599908351898,-0.0617705071352352,2.93923825688537,1.18108152354787,2429.502,2465.146,2565.013,2525.182,358.535858154297,45.0043144226074,0.587957859039307,-0.0177066847681999,-0.00772738736122847,-0.10519102960825,-0.026011220582377,-0.0111919015472184,0.0158898487566799,5
0.219999924302101,-0.0613208077847958,2.93942260742188,1.13457083702087,-0.0623420239858836,2.93899234915087,1.18143065427358,2488.845,2469.807,2445.443,2462.151,358.518463134766,45.0053291320801,0.598923206329346,-0.0235326886177063,-0.0102141499519348,-0.0714127123355865,-0.031211844417406,-0.0134295846948213,0.0190668287033645,5
0.239999920129776,-0.0619081892073154,2.93916893005371,1.13376343250275,-0.0630217941146897,2.93869986305502,1.18184591523767,2523.544,2468.834,2352.561,2409.163,358.48193359375,45.0059852600098,0.61316841840744,-0.0293691735714674,-0.0126892440021038,-0.0403683260083199,-0.0368344914346654,-0.0158488526277751,0.0225016160265319,5
0.25999990105629,-0.0626137927174568,2.93886494636536,1.13352525234222,-0.0638181341527546,2.93835722018381,1.18233238694028,2502.521,2448.77,2318.978,2378.273,358.370147705078,45.0059089660645,0.652920842170715,-0.0352800600230694,-0.0151978647336364,-0.0119111966341734,-0.0428668558492025,-0.0184444105105986,0.0261866933141822,4
0.279999911785126,-0.0634446442127228,2.9385073184967,1.1338073015213,-0.0647391183472776,2.93796094641423,1.18289500181304,2429.348,2408.878,2342.405,2369.053,358.177581787109,45.0051307678223,0.722808599472046,-0.0415426604449749,-0.0178767684847116,0.0141010619699955,-0.0492967588323918,-0.0212110181335712,0.0301146207099552,4
0.299999892711639,-0.0644137114286423,2.93809008598328,1.13456356525421,-0.0657925735053613,2.93750767408983,1.18353854113027,2336.692,2359.715,2390.448,2370.677,357.946746826172,45.0039901733398,0.809725940227509,-0.048453439027071,-0.0208610743284225,0.0378110483288765,-0.0561120968528548,-0.0241434676852743,0.0342780043554035,4
0.319999873638153,-0.0655367374420166,2.9376060962677,1.13575088977814,-0.066986089843436,2.93699413735254,1.18426764163675,2265.095,2316.365,2421.673,2368.791,357.739593505859,45.0030632019043,0.891962289810181,-0.056151457130909,-0.0242032036185265,0.0593648329377174,-0.0633009032247692,-0.0272366102351091,0.0386695339888948,4
0.339999884366989,-0.0668277442455292,2.93704915046692,1.1373291015625,-0.0683270199764796,2.93641717257755,1.18508679493022,2239.901,2289.918,2409.204,2353.646,357.601318359375,45.0028800964355,0.95178347826004,-0.0645504146814346,-0.0278475806117058,0.0789135918021202,-0.0708513218684839,-0.0304853444432222,0.0432819669163807,4
0.359999865293503,-0.0682957693934441,2.93641591072083,1.13926136493683,-0.0698224741524531,2.93577372042378,1.18600034455022,2259.066,2282.08,2353.823,2324.653,357.537567138672,45.0034713745117,0.984354078769684,-0.0734012946486473,-0.0316679514944553,0.0966132506728172,-0.0787515710530303,-0.0338846009599213,0.0481081058622627,4
0.379999876022339,-0.0699444636702538,2.93570518493652,1.1415137052536,-0.0714793369853421,2.93506081863418,1.1870124962,2297.396,2285.256,2280.488,2289.487,357.515563964844,45.0043487548828,0.998728513717651,-0.0824349224567413,-0.0355397053062916,0.112619429826736,-0.086990023450842,-0.0374293768709845,0.0531408478735714,4
0.399999856948853,-0.0717744156718254,2.93491721153259,1.14405524730682,-0.0733042517476919,2.93427560879415,1.18812730815108,2322.791,2287.765,2222.194,2258.74,357.486083984375,45.0048789978027,1.01131176948547,-0.091497614979744,-0.0394029542803764,0.1270791888237,-0.0955551120403749,-0.0411146952101866,0.0583731268373454,4
0.419999837875366,-0.073786586523056,2.93405151367188,1.14685773849487,-0.0753036392233569,2.93341532821979,1.18934870276014,2314.687,2280.361,2200.838,2240.11,357.412353515625,45.004711151123,1.03632378578186,-0.100608453154564,-0.0432839021086693,0.140126332640648,-0.104435414773886,-0.0449356413894786,0.0637979652028557,4
0.439999848604202,-0.075984925031662,2.93310618400574,1.14989542961121,-0.0774836936378566,2.9324773117089,1.19068046398288,2273.863,2260.982,2216.534,2234.552,357.288482666016,45.0039100646973,1.07855916023254,-0.109917141497135,-0.047266062349081,0.151882648468018,-0.11361961986258,-0.0488873482621572,0.0694084527748449,4
0.459999829530716,-0.0783768892288208,2.93207740783691,1.15314471721649,-0.0798503739108672,2.93145899530482,1.19212623203034,2219.737,2234.813,2249.743,2236.763,357.139404296875,45.0028457641602,1.13209998607635,-0.119598090648651,-0.0514343753457069,0.162463247776031,-0.123096482606157,-0.0529649775478235,0.0751977203413694,4
0.479999840259552,-0.0809717923402786,2.93096089363098,1.15658438205719,-0.0824094292610639,2.93035790527936,1.19368951901051,2177.449,2210.739,2274.261,2238.634,357.003509521484,45.0020561218262,1.18480086326599,-0.12974514067173,-0.0558243207633495,0.171981483697891,-0.132854922276536,-0.0571637615187439,0.0811589988585558,5
0.499999821186066,-0.0837782621383667,2.92975282669067,1.16019535064697,-0.0851663731207339,2.92917166935664,1.19537369299312,2163.567,2196.046,2272.081,2234.014,356.910247802734,45.0018882751465,1.22555780410767,-0.140323415398598,-0.0604046657681465,0.180551320314407,-0.142883909221989,-0.0614789544239126,0.0872855504842776,5
0.519999802112579,-0.0868021994829178,2.9284508228302,1.16396105289459,-0.0881265112831755,2.92789800460203,1.19718199520451,2177.774,2192.825,2242.497,2221.569,356.86474609375,45.0023231506348,1.2500661611557,-0.151196986436844,-0.0650988295674324,0.188286691904068,-0.153172565600841,-0.0659058758319492,0.0935707301148019,5
0.539999783039093,-0.0900463610887527,2.92705416679382,1.16786694526672,-0.0912949291136132,2.92653472292494,1.19911753221494,2204.999,2197.389,2200.458,2204.838,356.847717285156,45.002986907959,1.2622857093811,-0.162208154797554,-0.0698289349675179,0.195297360420227,-0.163710107617,-0.0704398857766591,0.100007950097373,5
0.559999823570251,-0.0935115367174149,2.92556309700012,1.17190062999725,-0.0946765077855201,2.92507972409279,1.20118328585711,2225.3,2202.842,2166.632,2189.725,356.828704833984,45.0033874511719,1.27133798599243,-0.173258885741234,-0.0745564177632332,0.201683193445206,-0.174485892312833,-0.0750764048907026,0.106590708815253,5
0.579999804496765,-0.0971985459327698,2.92397713661194,1.17605125904083,-0.0982758855033902,2.92353101241576,1.20338208953778,2225.3,2203.164,2155.41,2180.961,356.783874511719,45.0032424926758,1.28602349758148,-0.184350535273552,-0.0792961120605469,0.207531243562698,-0.185489288397106,-0.0798108588264658,0.113312511778526,5
0.599999785423279,-0.101109854876995,2.92229509353638,1.18030965328217,-0.102097520116728,2.92188666980575,1.20571666648763,2204.667,2196.312,2167.754,2179.712,356.708282470703,45.0026168823242,1.3102217912674,-0.195565447211266,-0.0841001570224762,0.212917134165764,-0.196709868977879,-0.0846387611836407,0.120166989361613,5
0.619999766349792,-0.105250000953674,2.92051458358765,1.18466782569885,-0.106145651628018,2.92014487190815,1.20818960685803,2174.951,2184.667,2191.936,2183.514,356.616424560547,45.001823425293,1.34152138233185,-0.207007139921188,-0.0890227854251862,0.217909008264542,-0.208137283778369,-0.0895556585272806,0.127147818741941,5
0.639999747276306,-0.109624728560448,2.9186327457428,1.18911921977997,-0.110424314118205,2.91830388297061,1.21080337500608,2151.73,2173.298,2211.513,2187.91,356.532073974609,45.0012168884277,1.37330460548401,-0.218736588954926,-0.0940878689289093,0.222571954131126,-0.219761290901539,-0.0945571440552161,0.134248743304431,5
0.659999787807465,-0.114239513874054,2.91664719581604,1.19365859031677,-0.114937351717038,2.91636204897151,1.21356031925064,2145.645,2166.851,2214.748,2189.094,356.473999023438,45.0011024475098,1.39881920814514,-0.230739310383797,-0.0992768108844757,0.226970419287682,-0.231571792295924,-0.0996388728580087,0.141463594307021,5
0.679999768733978,-0.119098260998726,2.91455626487732,1.19828200340271,-0.119688366274122,2.91431782013557,1.21646263990544,2157.079,2167.106,2200.501,2185.805,356.446350097656,45.0014038085938,1.41480731964111,-0.242937594652176,-0.104541271924973,0.231167793273926,-0.243558692403314,-0.104796501098997,0.148786204530738,5
0.699999749660492,-0.124202966690063,2.91235971450806,1.20298647880554,-0.124680800209538,2.91216971528562,1.2195124398912,2177.003,2172.395,2177.724,2179.569,356.437835693359,45.0018577575684,1.4227991104126,-0.255235552787781,-0.109830781817436,0.235223397612572,-0.25571210939136,-0.11002577690179,0.156210537318403,5
0.719999730587006,-0.129554331302643,2.91005730628967,1.20777022838593,-0.129917885593406,2.90991634375217,1.22271169362909,2193.137,2178.763,2159.202,2173.617,356.429626464844,45.002140045166,1.42773687839508,-0.267569035291672,-0.115119159221649,0.239189073443413,-0.268022234882335,-0.115322479995463,0.16373060088512,5
0.739999711513519,-0.135152965784073,2.90764904022217,1.21263241767883,-0.135402659412275,2.90755639880475,1.22606225636683,2196.789,2182.515,2154.369,2170.706,356.406494140625,45.0020484924316,1.43489563465118,-0.279932200908661,-0.120414286851883,0.243107244372368,-0.280479368878259,-0.120682436741875,0.171340469653488,5
0.759999752044678,-0.141000360250473,2.90513396263123,1.2175726890564,-0.141137983205286,2.90508864920302,1.22956587617402,2187.428,2181.917,2164.167,2171.964,356.364685058594,45.0016212463379,1.44711995124817,-0.292369693517685,-0.125748619437218,0.247011870145798,-0.29307395749094,-0.126101536369839,0.179034307302295,5
0.779999732971191,-0.147099196910858,2.90251088142395,1.22259128093719,-0.147126476115806,2.90251196800275,1.23322415304447,2171.832,2178.035,2181.715,2176.251,356.312652587891,45.0010681152344,1.46360445022583,-0.304942190647125,-0.131156697869301,0.250931441783905,-0.305796442389055,-0.131575666196417,0.186806274796091,5
0.799999713897705,-0.153452932834625,2.89977788925171,1.22768914699554,-0.153370619602546,2.89982528750158,1.23703860286258,2159.67,2173.618,2196.732,2181.253,356.264953613281,45.000659942627,1.48084151744843,-0.317687302827835,-0.136654019355774,0.25489205121994,-0.318637486048877,-0.137100808546009,0.194650667987342,5
0.819999694824219,-0.160064890980721,2.89693331718445,1.23286747932434,-0.159872691993147,2.89702762739878,1.24101061742316,2157.713,2171.606,2201.708,2184.608,356.233551025391,45.000560760498,1.49479806423187,-0.330597937107086,-0.142228737473488,0.258919417858124,-0.331587821991737,-0.142672976311719,0.202561826128828,5
0.839999675750732,-0.166937425732613,2.89397644996643,1.23812830448151,-0.16663478736965,2.89411808666934,1.24514147596825,2166.49,2173.353,2195.6,2185.325,356.221557617188,45.0007629394531,1.50318253040314,-0.343627095222473,-0.147849202156067,0.263038545846939,-0.344638292118709,-0.148288229019428,0.210534154680825,5
0.859999716281891,-0.174071714282036,2.8909068107605,1.24347376823425,-0.173658839061432,2.89109583345565,1.24943235953859,2180.753,2178.126,2183.593,2184.061,356.222351074219,45.0010681152344,1.50644552707672,-0.356714457273483,-0.15348182618618,0.267272084951401,-0.357779886002355,-0.15394268973393,0.218562149313816,5
0.879999697208405,-0.181468039751053,2.88772463798523,1.24890649318695,-0.180946537299623,2.88796014049848,1.25388430067001,2192.815,2183.819,2173.74,2182.43,356.224395751953,45.0012588500977,1.50718224048615,-0.36981663107872,-0.159108087420464,0.271638035774231,-0.371003583951354,-0.159632477534032,0.226640300039122,5
0.899999678134918,-0.189126551151276,2.88442993164063,1.25442945957184,-0.188499456976537,2.88471033016565,1.25849826143965,2197.216,2188.087,2171.972,2182.186,356.218048095703,45.0012092590332,1.5085277557373,-0.382924944162369,-0.164731428027153,0.276148498058319,-0.384300592040009,-0.165353808639179,0.234763234784762,5
0.919999659061432,-0.197047799825668,2.88102245330811,1.26004564762115,-0.196318976867224,2.88134580920878,1.26327508411967,2193.341,2189.744,2179.211,2184.103,356.200592041016,45.0009422302246,1.51240730285645,-0.39606237411499,-0.170371383428574,0.280810385942459,-0.397662185688703,-0.1711029291065,0.242925623841192,5
0.939999639987946,-0.205233037471771,2.87750148773193,1.26575815677643,-0.204406302339104,2.87786605899195,1.26821550505022,2185.232,2189.136,2191.358,2187.793,356.176910400391,45.0005912780762,1.51870214939117,-0.409263134002686,-0.176049575209618,0.28562730550766,-0.411079748697569,-0.1768761316259,0.251122203706367,5
0.959999680519104,-0.213684007525444,2.87386608123779,1.27157020568848,-0.212762492824401,2.87427062367106,1.27332017142191,2178.802,2187.834,2202.127,2191.967,356.155914306641,45.0003280639648,1.52556502819061,-0.42254900932312,-0.181775614619255,0.290601789951324,-0.424544813437776,-0.18266977281325,0.259347801637967,5
0.979999661445618,-0.222402304410934,2.87011528015137,1.27748489379883,-0.221388363573279,2.87055915246675,1.27858958125834,2178.384,2187.565,2206.708,2195.291,356.145202636719,45.0002708435059,1.53064918518066,-0.435914993286133,-0.187541410326958,0.295736402273178,-0.438048900190371,-0.188480204082383,0.267597237508009,5
0.999999642372131,-0.231388956308365,2.86624884605408,1.28350555896759,-0.230284637237593,2.86673133444211,1.28402417601625,2184.494,2189.308,2204.268,2197.034,356.14697265625,45.0003890991211,1.53242099285126,-0.449331283569336,-0.193325906991959,0.301033854484558,-0.451583757957464,-0.194303875259412,0.275865470910636,5
1.01999962329865,-0.240644112229347,2.86226677894592,1.28963541984558,-0.239451847229689,2.86278694008471,1.28962428154893,2194.069,2192.805,2197.823,2197.433,356.157409667969,45.0005798339844,1.53088808059692,-0.4627585709095,-0.199106305837631,0.306495994329453,-0.465141204058494,-0.200137265565489,0.284147503173981,5
1.03999960422516,-0.250167429447174,2.85816931724548,1.29587781429291,-0.248890364392249,2.85872580983131,1.29539012439839,2202.41,2196.934,2192.309,2197.316,356.169525146484,45.0007057189941,1.52738308906555,-0.476166754961014,-0.204869091510773,0.312122225761414,-0.478713164192651,-0.205976900854545,0.292438401833676,5
1.05999958515167,-0.259958356618881,2.85395693778992,1.30223596096039,-0.258600399165891,2.85454785313518,1.3013218331195,2206.008,2200.306,2191.557,2197.7,356.177185058594,45.0006866455078,1.52372419834137,-0.489546477794647,-0.210614949464798,0.317908853292465,-0.492291672438868,-0.211819353613287,0.300733300632847,5
1.07999956607819,-0.270016521215439,2.8496298789978,1.30871295928955,-0.268582003756762,2.85025304753347,1.3074194396042,2204.358,2202.07,2196.274,2199.19,356.178497314453,45.0005149841309,1.5211888551712,-0.502907991409302,-0.216355130076408,0.323849380016327,-0.505868871255825,-0.2176612429612,0.309027399522117,5
1.09999966621399,-0.280341893434525,2.84518790245056,1.31531167030334,-0.278835136225848,2.84584141107139,1.31368291823258,2199.831,2202.322,2204.077,2201.662,356.176239013672,45.0002937316895,1.51988661289215,-0.516269505023956,-0.22210256755352,0.329935669898987,-0.519437092312213,-0.22349926942955,0.31731601403755,5
1.1199996471405,-0.29093474149704,2.84063053131104,1.32203483581543,-0.289359416585141,2.84131310724714,1.32011203687592,2196.046,2201.942,2211.137,2204.415,356.175872802734,45.0001258850098,1.51886284351349,-0.529642462730408,-0.227862864732742,0.336159467697144,-0.532988533043588,-0.229330075792835,0.325594377714285,5
1.13999962806702,-0.301795184612274,2.8359580039978,1.32888507843018,-0.3001544956463,2.83666828630672,1.32670658222049,2195.71,2201.941,2214.471,2206.689,356.18212890625,45.0000877380371,1.51677441596985,-0.543022394180298,-0.233630433678627,0.342513144016266,-0.546515741955651,-0.235150455881228,0.333857938550731,5
1.15999960899353,-0.312922954559326,2.83117008209229,1.33586490154266,-0.311219814352623,2.8319071887966,1.33346621274729,2199.441,2202.923,2213.237,2208.076,356.196655273438,45.0001564025879,1.51265048980713,-0.556389451026917,-0.239390954375267,0.348989516496658,-0.560011295026715,-0.240957215345602,0.342102161327892,6
1.17999958992004,-0.324317306280136,2.82626748085022,1.34297657012939,-0.32255466625091,2.82703011868387,1.34039049689508,2205.305,2204.951,2209.378,2208.492,356.217254638672,45.0002708435059,1.50632238388062,-0.569717168807983,-0.245128691196442,0.355581551790237,-0.573467876614841,-0.246747206469604,0.350322577034264,6
1.19999957084656,-0.335977017879486,2.82125091552734,1.35022222995758,-0.334158199659061,2.82203744242354,1.34747891438455,2210.512,2207.326,2205.811,2208.49,356.239624023438,45.000358581543,1.49848413467407,-0.582984209060669,-0.250833630561829,0.362281233072281,-0.586878279457835,-0.252517328169661,0.358514782865839,6
1.21999955177307,-0.347900658845901,2.81612086296082,1.35760378837585,-0.346029419833664,2.81692958802591,1.35473085754248,2212.809,2209.283,2205.006,2208.61,356.259948730469,45.0003509521484,1.49015486240387,-0.596181571483612,-0.25650480389595,0.369079113006592,-0.60023540467325,-0.258264525994975,0.366674442226107,6
1.23999953269958,-0.360086888074875,2.81087779998779,1.36512303352356,-0.358167191137591,2.8117070441239,1.36214563262586,2211.727,2210.336,2207.576,2209.19,356.276824951172,45.0002555847168,1.48211872577667,-0.609312474727631,-0.262148350477219,0.3759645819664,-0.613532261758385,-0.263985792127526,0.374797284726053,6
1.2599995136261,-0.3725346326828,2.80552244186401,1.37278151512146,-0.370570239207589,2.80637035904043,1.36972246114608,2208.675,2210.429,2212.118,2210.273,356.291900634766,45.000129699707,1.47457385063171,-0.622385501861572,-0.267771780490875,0.382926434278488,-0.626761968590286,-0.269678165382072,0.382879106184158,6
1.27999949455261,-0.385242730379105,2.80005478858948,1.38058054447174,-0.383237153121874,2.80092013985572,1.37746048119302,2205.944,2209.928,2216.217,2211.618,356.308471679688,45.0000228881836,1.46709394454956,-0.635405778884888,-0.273378133773804,0.38995373249054,-0.639917751425747,-0.275338731206147,0.390915768626398,6
1.29999959468842,-0.398210078477859,2.79447555541992,1.3885213136673,-0.396166465410552,2.79535701798107,1.38535879631223,2205.24,2209.556,2218.017,2212.652,356.329559326172,44.9999961853027,1.45888698101044,-0.648368954658508,-0.278963208198547,0.39703631401062,-0.652993022582349,-0.280964655104045,0.398903247740383,6
1.31999957561493,-0.411435306072235,2.7887852191925,1.39660465717316,-0.409356344400193,2.78968178153439,1.393416287563,2207.028,2209.643,2216.926,2213.176,356.356262207031,45.0000343322754,1.4493533372879,-0.661261141300201,-0.284517198801041,0.404164910316467,-0.665981069175534,-0.286553048709076,0.40683744272969,6
1.33999955654144,-0.424916595220566,2.78298473358154,1.40483129024506,-0.422805058782351,2.78389517544933,1.40163189731601,2210.126,2210.277,2214.136,2213.095,356.387359619141,45.0001029968262,1.43830871582031,-0.6740642786026,-0.290028899908066,0.411330461502075,-0.678875520783022,-0.292101171006504,0.414714462002755,6
1.35999953746796,-0.438651919364929,2.77707481384277,1.41320180892944,-0.43651067307629,2.77799803250919,1.41000444321629,2212.89,2211.153,2211.363,2212.654,356.420196533203,45.0001602172852,1.42606174945831,-0.686762928962708,-0.295490920543671,0.418523818254471,-0.691670037181239,-0.297606293975249,0.422530432415935,6
1.37999951839447,-0.452638864517212,2.77105689048767,1.4217164516449,-0.45047112608072,2.77199123959129,1.41853266610812,2213.822,2211.858,2210.249,2212.127,356.452362060547,45.0001525878906,1.41317737102509,-0.699348986148834,-0.300901621580124,0.425735294818878,-0.704358386526357,-0.303065736227009,0.430281547033081,6
1.39999949932098,-0.466875284910202,2.76493167877197,1.43037557601929,-0.464684233041386,2.76587573673435,1.42721523135923,2212.715,2211.986,2211.078,2211.856,356.482971191406,45.0000953674316,1.40018105506897,-0.711821973323822,-0.306263983249664,0.432954967021942,-0.716934445354295,-0.30847686300626,0.43796406512554,6
1.4199994802475,-0.48135894536972,2.75870013237,1.43917906284332,-0.47914768781867,2.75965251620584,1.43605073018491,2210.247,2211.515,2213.211,2211.833,356.512847900391,45.0000076293945,1.38724148273468,-0.724184811115265,-0.311582058668137,0.440172851085663,-0.729392198580716,-0.313837086190255,0.445574312172155,6
1.43999946117401,-0.4960877597332,2.75236296653748,1.44812667369843,-0.493859065055175,2.75332262156927,1.44503768097218,2207.865,2210.656,2215.126,2211.934,356.544036865234,44.999942779541,1.37416541576385,-0.736439049243927,-0.316857218742371,0.447379261255264,-0.741725739501034,-0.319143864289024,0.453108679859267,6
1.45999944210052,-0.51105934381485,2.74592113494873,1.45721793174744,-0.508815822343323,2.7468871467516,1.45417453060391,2206.647,2209.739,2215.667,2211.918,356.578399658203,44.999927520752,1.36054062843323,-0.748580455780029,-0.322086304426193,0.454565286636353,-0.753929269790406,-0.324394702445373,0.460563626080709,6
1.47999942302704,-0.526271343231201,2.73937582969666,1.4664523601532,-0.524015302392944,2.74034723511057,1.46345965578302,2206.961,2209.066,2214.394,2211.572,356.616760253906,44.9999542236328,1.34598314762115,-0.760599136352539,-0.327262461185455,0.461722820997238,-0.765997099503737,-0.329587152434887,0.467935674937814,6
1.49999952316284,-0.541720986366272,2.73272824287415,1.47582924365997,-0.539454827934603,2.7337040386004,1.47289142100737,2208.174,2208.654,2211.94,2210.89,356.658386230469,44.9999961853027,1.33035457134247,-0.772482395172119,-0.332377851009369,0.468844175338745,-0.777923717731525,-0.334718843067164,0.475221459901963,6
1.51999950408936,-0.557405412197113,2.72597980499268,1.48534762859344,-0.555131334348531,2.72695887584137,1.48246795414858,2209.219,2208.42,2209.422,2209.918,356.70166015625,45.0000267028809,1.31377184391022,-0.784218847751617,-0.33742681145668,0.475921779870987,-0.789703509085649,-0.339787358197571,0.482417550620178,6
1.53999948501587,-0.573321461677551,2.71913170814514,1.4950065612793,-0.571041924015683,2.72011299359802,1.49218748509639,2209.127,2208.057,2207.898,2208.89,356.745025634766,45.0000305175781,1.29655110836029,-0.795801639556885,-0.342407405376434,0.4829480946064,-0.801331180275272,-0.344790420270939,0.489520713503688,6
1.55999946594238,-0.589466035366058,2.71218538284302,1.50480484962463,-0.587183501790833,2.71316772362485,1.50204812307488,2207.702,2207.445,2207.616,2207.886,356.787872314453,45.0000038146973,1.27897620201111,-0.80722850561142,-0.347320914268494,0.489915490150452,-0.812801474874933,-0.34972576759424,0.496527737484203,6
1.5799994468689,-0.605836033821106,2.7051420211792,1.51474118232727,-0.603552868484143,2.70612444244388,1.51204791374889,2205.422,2206.457,2208.115,2207.03,356.830657958984,44.9999542236328,1.26121366024017,-0.818499684333801,-0.352169394493103,0.496816426515579,-0.824109244838915,-0.35459118510722,0.50343547770093,6
1.59999942779541,-0.622428238391876,2.69800305366516,1.52481400966644,-0.620146723028754,2.69898457041196,1.5221848405482,2203.117,2205.203,2208.54,2206.251,356.874633789063,44.999927520752,1.24320650100708,-0.829614520072937,-0.356953263282776,0.503643810749054,-0.835249450501249,-0.359384504382406,0.510240855500568,5
1.61999940872192,-0.63923966884613,2.6907696723938,1.53502178192139,-0.636961664648381,2.69174957078812,1.53245682599164,2201.562,2203.855,2208.065,2205.446,356.920989990234,44.9999046325684,1.22475051879883,-0.840569138526917,-0.361670047044754,0.510391175746918,-0.846217160575712,-0.364103603625099,0.516940858437317,5
1.63999938964844,-0.656266748905182,2.68344330787659,1.54536283016205,-0.653994195024907,2.68442094880091,1.54286173301126,2200.89,2202.585,2206.531,2204.478,356.970245361328,44.9999198913574,1.20561373233795,-0.851356267929077,-0.366314858198166,0.517052531242371,-0.857007552155828,-0.368746407673381,0.523532540272869,5
1.65999937057495,-0.673506081104279,2.67602562904358,1.55583524703979,-0.67124072046597,2.67700025071577,1.55339736627649,2200.826,2201.508,2204.204,2203.254,357.021942138672,44.9999389648438,1.18566882610321,-0.861966848373413,-0.37088218331337,0.523622512817383,-0.867615910714866,-0.373310887998107,0.530013020976415,5
1.67999935150146,-0.6909539103508,2.66851830482483,1.56643712520599,-0.688697554072563,2.66948906290232,1.56406147351824,2200.675,2200.495,2201.816,2201.884,357.075134277344,44.9999542236328,1.16497802734375,-0.872392535209656,-0.375367701053619,0.530095636844635,-0.878037630105846,-0.377795062702911,0.536379486724641,5
1.69999945163727,-0.708606541156769,2.66092300415039,1.57716643810272,-0.706361023796448,2.66188896534035,1.57485181153955,2199.876,2199.455,2199.969,2200.426,357.128845214844,44.9999542236328,1.14369583129883,-0.882627665996552,-0.379769623279572,0.536466658115387,-0.888268272962199,-0.382197022512927,0.542629226799553,5
1.71999943256378,-0.726459920406342,2.65324115753174,1.58802103996277,-0.724227052244719,2.65420171241811,1.58576588952472,2198.231,2198.262,2198.9,2198.982,357.182586669922,44.9999389648438,1.1220006942749,-0.892669439315796,-0.384088039398193,0.542730450630188,-0.898303327916801,-0.386514826312912,0.548759485277375,5
1.7399994134903,-0.744510233402252,2.6454746723175,1.59899866580963,-0.742291790573715,2.64642896018551,1.59680135627522,2195.97,2196.893,2198.399,2197.565,357.236633300781,44.9999198913574,1.09999895095825,-0.902516722679138,-0.388323932886124,0.548882067203522,-0.90813857551568,-0.390746658589701,0.554767684559518,5
1.75999939441681,-0.76275360584259,2.63762521743774,1.61009705066681,-0.760551200733267,2.63857244610272,1.60795574500922,2193.721,2195.313,2197.813,2196.248,357.291748046875,44.9998970031738,1.07771039009094,-0.912168025970459,-0.392477363348007,0.554916858673096,-0.917769843131486,-0.394890723978315,0.560651275653047,4
1.77999937534332,-0.781185984611511,2.62969422340393,1.62131369113922,-0.779001162304534,2.63063394307086,1.61922653862713,2191.896,2193.656,2196.716,2194.922,357.3486328125,44.9998779296875,1.05502331256866,-0.921619892120361,-0.396546304225922,0.560830533504486,-0.927193066516615,-0.398945273746551,0.566407775772521,4
1.79999935626984,-0.799803256988525,2.6216835975647,1.63264608383179,-0.797637474667596,2.62261525849933,1.63061117103581,2190.64,2192.076,2194.943,2193.463,357.407684326172,44.9998970031738,1.03179466724396,-0.93086701631546,-0.400527328252792,0.566619217395782,-0.93640428980321,-0.402908605794985,0.572034768339997,4
1.81999933719635,-0.818601310253143,2.61359524726868,1.64409160614014,-0.816455859169051,2.61451823337315,1.64210702847264,2189.78,2190.548,2192.665,2191.91,357.468597412109,44.9999046325684,1.00797355175018,-0.93990284204483,-0.404416531324387,0.572279274463654,-0.945399665503159,-0.406779064656968,0.577529902985026,3
1.83999931812286,-0.837575793266296,2.6054310798645,1.65564775466919,-0.835451961289599,2.60634474132034,1.65371145082976,2188.883,2189.058,2190.335,2190.268,357.530792236328,44.9999122619629,0.983571827411652,-0.94872123003006,-0.408210664987564,0.577807247638702,-0.954175454508099,-0.410555041498632,0.582890895544657,3
1.85999929904938,-0.856722056865692,2.59719300270081,1.66731178760529,-0.854621352811647,2.5980966876792,1.66542173297812,2187.595,2187.573,2188.329,2188.555,357.593627929688,44.9999122619629,0.95865398645401,-0.957317769527435,-0.411908119916916,0.583199918270111,-0.962728026089412,-0.414234974118882,0.588115528063434,0
1.87999927997589,-0.876035869121552,2.58888292312622,1.67908084392548,-0.87395953398689,2.58977600856573,1.67723512609171,2185.798,2186.053,2186.789,2186.796,357.656799316406,44.9999084472656,0.933316946029663,-0.965689778327942,-0.415508687496185,0.588454127311707,-0.971053857898228,-0.417817346949402,0.593201648793396,0
1.89999938011169,-0.895512640476227,2.58050274848938,1.6909521818161,-0.893462052427636,2.58138461971797,1.68914891027637,2183.587,2184.385,2185.636,2185.102,357.720397949219,44.9998970031738,0.907663404941559,-0.973835587501526,-0.419012635946274,0.593566715717316,-0.979149583526931,-0.421300711519042,0.598147201248664,0
1.91999936103821,-0.915147721767426,2.57205438613892,1.70292282104492,-0.913124039316749,2.57292461605191,1.70116011124767,2181.371,2182.64,2184.445,2183.421,357.784881591797,44.9998817443848,0.881704151630402,-0.981753528118134,-0.422419816255569,0.598534822463989,-0.987011800861963,-0.424683603993382,0.602950107131153,0
1.93999934196472,-0.934936463832855,2.56353974342346,1.71498990058899,-0.932940909077627,2.56439797061305,1.71326592774844,2179.372,2180.831,2182.99,2181.751,357.850738525391,44.999885559082,0.855411231517792,-0.98944091796875,-0.42572882771492,0.603356003761292,-0.99463736163763,-0.427964669761646,0.607608443214478,0
1.95999932289124,-0.954874336719513,2.55496096611023,1.72715044021606,-0.952907897514699,2.55580673330166,1.72546344940593,2177.78,2179.038,2181.07,2180.036,357.918182373047,44.999885559082,0.82872599363327,-0.996893703937531,-0.428937196731567,0.608027815818787,-1.00202317702469,-0.431142579786905,0.612120322581059,0
1.97999930381775,-0.974956452846527,2.54632019996643,1.73940134048462,-0.973020179739669,2.54715298013237,1.73774972877119,2176.453,2177.237,2178.824,2178.306,357.987091064453,44.9998970031738,0.801613926887512,-1.00410735607147,-0.432042092084885,0.612548053264618,-1.00916626657366,-0.434216051665007,0.61648392452081,0
1.99999928474426,-0.99517810344696,2.5376193523407,1.75173962116241,-0.993272872339099,2.53843881230157,1.75012178264315,2175.145,2175.483,2176.513,2176.5,358.057006835938,44.9999046325684,0.774045646190643,-1.01107740402222,-0.435041159391403,0.616914689540863,-1.01606375821479,-0.437183849624576,0.620697494531142,0
2.01999926567078,-1.01553416252136,2.52886080741882,1.76416218280792,-1.01366103554201,2.52966635525469,1.7625765933928,2173.545,2173.765,2174.463,2174.617,358.127563476563,44.9999046325684,0.746044039726257,-1.0178005695343,-0.437933057546616,0.621125817298889,-1.02271288825808,-0.440044784527016,0.624759344316961,0
2.03999924659729,-1.03601956367493,2.52004647254944,1.77666580677032,-1.03417967538748,2.52083775775362,1.77511111028733,2171.666,2172.018,2172.662,2172.732,358.198486328125,44.9999046325684,0.717679083347321,-1.02427458763123,-0.440717428922653,0.625179529190063,-1.02911100139329,-0.442797713866505,0.628667851790669,0
2.0599992275238,-1.05662953853607,2.51117849349976,1.7892472743988,-1.05482374589221,2.511955190944,1.7877222508143,2169.52,2170.26,2171.113,2170.814,358.269866943359,44.9998931884766,0.689009666442871,-1.03049802780151,-0.443394362926483,0.629074037075043,-1.03525555068989,-0.44544154177,0.632421461072165,0
2.07999920845032,-1.07735896110535,2.50225925445557,1.80190336704254,-1.07558815121816,2.50302084742257,1.80040690200577,2167.299,2168.388,2169.624,2168.976,358.341949462891,44.9998970031738,0.660104036331177,-1.03646922111511,-0.445963770151138,0.632807731628418,-1.04114409759714,-0.447975218997234,0.636018682488842,0
2.09999918937683,-1.0982027053833,2.4932906627655,1.81463098526001,-1.09646774784009,2.49403694030456,1.81316192176243,2165.3,2166.466,2167.89,2167.165,358.415069580078,44.9998893737793,0.630947470664978,-1.04218637943268,-0.44842454791069,0.63637912273407,-1.04677431194403,-0.45039774294072,0.639458092575592,0
2.11999917030334,-1.11915576457977,2.48427510261536,1.82742667198181,-1.11745734671321,2.48500570229096,1.82598414017778,2163.513,2164.567,2165.917,2165.316,358.489318847656,44.9999008178711,0.601492822170258,-1.04764676094055,-0.450774967670441,0.639786958694458,-1.05214397193928,-0.452708157625744,0.642738334074801,0
2.13999915122986,-1.14021277427673,2.47521471977234,1.84028720855713,-1.13855171544072,2.47592938473595,1.83887036086229,2161.918,2162.644,2163.73,2163.478,358.564636230469,44.9999008178711,0.571718335151672,-1.05284714698792,-0.453013122081757,0.643029928207397,-1.05725096417139,-0.454905553710372,0.645858115936351,0
2.15999913215637,-1.16136837005615,2.46611213684082,1.85320937633514,-1.15974558044144,2.46681025671419,1.85181736226749,2160.35,2160.809,2161.493,2161.546,358.640716552734,44.9999046325684,0.541588068008423,-1.05778443813324,-0.455137401819229,0.646107017993927,-1.06209328360857,-0.456989068485446,0.648816213317619,0
2.17999911308289,-1.18261742591858,2.45696926116943,1.86618971824646,-1.18103362911738,2.45765060408816,1.86482189901017,2158.693,2158.965,2159.328,2159.609,358.717346191406,44.9999046325684,0.511142909526825,-1.06245636940002,-0.457146912813187,0.649017155170441,-1.0666690335988,-0.458957885874587,0.651611467583481,0
2.19999933242798,-1.20395469665527,2.44778847694397,1.87922489643097,-1.20241076736204,2.44845261870959,1.87788085918017,2156.713,2157.14,2157.484,2157.635,358.794219970703,44.9998970031738,0.480423450469971,-1.0668613910675,-0.459041357040405,0.651759266853333,-1.07097647561163,-0.460811257836709,0.654242816692812,0
2.21999931335449,-1.22537469863892,2.43857216835022,1.89231157302856,-1.22387110132782,2.43921883653644,1.89099064231796,2154.618,2155.275,2155.748,2155.691,358.871459960938,44.9999046325684,0.449492901563644,-1.07099854946136,-0.460820913314819,0.654332518577576,-1.07501382704219,-0.462548417366737,0.656709171680113,0
2.23999929428101,-1.24687206745148,2.4293224811554,1.90544629096985,-1.24540946868523,2.42995147877487,1.904148094837,2152.429,2153.333,2154.109,2153.805,358.949188232422,44.9999008178711,0.418385446071625,-1.07486701011658,-0.462485432624817,0.656736075878143,-1.07877956933011,-0.464168711070571,0.659009604880557,0
2.25999927520752,-1.26844143867493,2.42004179954529,1.91862571239471,-1.26702042244467,2.42065288911233,1.91734988925636,2150.409,2151.412,2152.294,2151.894,359.027648925781,44.9999046325684,0.387075960636139,-1.07846546173096,-0.464034378528595,0.658969223499298,-1.08227223934366,-0.465671509403495,0.66114322248979,0
2.27999925613403,-1.29007720947266,2.41073250770569,1.93184638023376,-1.28869848743772,2.41132542336085,1.93059268088108,2148.591,2149.483,2150.268,2149.991,359.10693359375,44.9999046325684,0.355560809373856,-1.08179211616516,-0.465466558933258,0.661031246185303,-1.08549048233082,-0.46705622945357,0.663109196910956,0
2.29999923706055,-1.31177413463593,2.40139698982239,1.9451048374176,-1.31043816248474,2.40197144852433,1.94387310912637,2146.94,2147.582,2148.071,2148.063,359.186981201172,44.9999122619629,0.323828458786011,-1.08484494686127,-0.466780662536621,0.662921607494354,-1.08843305191934,-0.468322334941636,0.664906766754694,0
2.31999921798706,-1.33352661132813,2.3920373916626,1.95839762687683,-1.33223392256247,2.39259334186593,1.95718779884172,2145.257,2145.66,2145.907,2146.154,359.267517089844,44.9999046325684,0.291890263557434,-1.08762204647064,-0.467975646257401,0.664639949798584,-1.09109881011673,-0.469469336221307,0.66653523683914,0
2.33999919891357,-1.35532903671265,2.38265633583069,1.97172129154205,-1.35408022097161,2.38319348997539,1.97053336163511,2143.444,2143.81,2143.874,2144.176,359.348327636719,44.9999046325684,0.259741634130478,-1.0901221036911,-0.469050943851471,0.666185677051544,-1.09348672731021,-0.470496790278978,0.667993978189923,0
2.35999917984009,-1.37717604637146,2.37325620651245,1.98507249355316,-1.37597149150444,2.37377428783641,1.98390639719707,2141.529,2141.931,2141.944,2142.232,359.429351806641,44.9999084472656,0.227436423301697,-1.0923445224762,-0.4700066447258,0.667558491230011,-1.09559588226677,-0.471404300733819,0.669282428040172,0
2.3799991607666,-1.39906167984009,2.36383938789368,1.99844765663147,-1.39790215061238,2.36433813789396,1.99730349462492,2139.471,2140.015,2140.168,2140.323,359.510528564453,44.9999046325684,0.195003151893616,-1.09428894519806,-0.470842868089676,0.668758153915405,-1.09742546213314,-0.472191517837776,0.670400089830511,0
2.39999914169312,-1.42098093032837,2.35440826416016,2.01184344291687,-1.41986659957358,2.35488744912162,2.01072123374686,2137.465,2138.149,2138.345,2138.37,359.592041015625,44.9999122619629,0.162437424063683,-1.09595501422882,-0.471559673547745,0.669784307479858,-1.09897476243581,-0.472858138475575,0.671346533209057,0
2.41999912261963,-1.44292771816254,2.34496521949768,2.02525615692139,-1.44185922666057,2.34542463608896,2.02415618644612,2135.464,2136.196,2136.529,2136.508,359.673919677734,44.9999160766602,0.129776924848557,-1.09734225273132,-0.472156792879105,0.670636832714081,-1.100243187081,-0.473403906164717,0.672121394031427,0
2.43999910354614,-1.46489667892456,2.33551263809204,2.03868246078491,-1.46387440930777,2.33595211802887,2.03760491798514,2133.661,2134.33,2134.521,2134.571,359.756286621094,44.9999122619629,0.0969833061099052,-1.09844982624054,-0.472633749246597,0.671315550804138,-1.10123024835468,-0.473828611055482,0.672724374360731,0
2.45999908447266,-1.48688209056854,2.32605266571045,2.05211877822876,-1.48590651627916,2.32647231790489,2.05106398832971,2131.912,2132.446,2132.47,2132.661,359.839019775391,44.9999198913574,0.0640867426991463,-1.09927690029144,-0.472989976406097,0.671820461750031,-1.10193556692257,-0.474132089930926,0.673155242467576,0
2.47999906539917,-1.50887870788574,2.31658840179443,2.06556177139282,-1.50794990983581,2.31698766147859,2.0645299534731,2130.155,2130.621,2130.442,2130.705,359.921997070313,44.9999198913574,0.0310988463461399,-1.0998227596283,-0.473225057125092,0.672151625156403,-1.10235887183014,-0.474314226206882,0.673413832830065,0
2.49999904632568,-1.5308803319931,2.30712127685547,2.07900786399841,-1.52999894790352,2.30750057637687,2.07799936676021,2128.391,2128.645,2128.431,2128.911,0.0051139434799552,44.9999313354492,-0.00192536751274019,-1.10008716583252,-0.473338752985001,0.672309041023254,-1.10250000050259,-0.47437494993196,0.673500046133798,0
2.5199990272522,-1.55288183689117,2.29765486717224,2.09245371818542,-1.55204798624038,2.29801349115933,2.09146878021174,2126.489,2126.914,2126.575,2126.887,0.0882423147559166,44.9999237060547,359.964935302734,-1.10007011890411,-0.473331034183502,0.672292828559875,-1.1023588987449,-0.474314237787549,0.673413849271869,0
2.53999900817871,-1.57487726211548,2.2881908416748,2.10589575767517,-1.5740913806044,2.28852883438564,2.10493474584833,2124.636,2124.928,2124.683,2125.133,0.171409264206886,44.999927520752,359.931793212891,-1.09977185726166,-0.473202466964722,0.67210328578949,-1.10193562074175,-0.474132113087814,0.67315527534487,0
2.55999898910522,-1.59686100482941,2.27873182296753,2.11933064460754,-1.59612348892105,2.27904903368284,2.1183938170147,2122.695,2123.15,2122.897,2123.188,0.254597872495651,44.9999313354492,359.898590087891,-1.09919273853302,-0.472952961921692,0.671740531921387,-1.10123032905761,-0.473828645779696,0.672724423660887,0
2.57999897003174,-1.61882781982422,2.26928019523621,2.13275480270386,-1.61813867345089,2.2695765148127,2.13184254970381,2120.842,2121.322,2121.044,2121.306,0.337877303361893,44.999942779541,359.865356445313,-1.09833312034607,-0.472583085298538,0.67120486497879,-1.10024329463667,-0.473403952442914,0.672121459735503,0
2.59999918937683,-1.64077162742615,2.25983834266663,2.14616465568542,-1.64013156497321,2.26011358800091,2.14527766394249,2118.984,2119.463,2119.214,2119.475,0.421246320009232,44.999942779541,359.832122802734,-1.0971931219101,-0.472092807292938,0.670496642589569,-1.09897488000713,-0.472858189063228,0.67134660503154,0
2.61999917030334,-1.66268706321716,2.25040864944458,2.15955686569214,-1.66209601652007,2.25066289811603,2.15869540464396,2117.324,2117.707,2117.209,2117.563,0.504717886447906,44.999942779541,359.798889160156,-1.09577310085297,-0.471482068300247,0.669616222381592,-1.09742560311921,-0.472191578500142,0.6704001759567,0
2.63999915122986,-1.68456840515137,2.24099349975586,2.17292809486389,-1.68402667868143,2.24122674685977,2.17209250393709,2115.537,2115.86,2115.353,2115.762,0.588139832019806,44.9999465942383,359.765716552734,-1.09407317638397,-0.470750898122787,0.668564260005951,-1.09559604661333,-0.471404371447551,0.66928252843692,0
2.65999913215637,-1.70641040802002,2.23159575462341,2.18627500534058,-1.70591795273427,2.23180754320623,2.18546554164938,2113.826,2114.074,2113.444,2113.922,0.67148232460022,44.9999542236328,359.732604980469,-1.09209418296814,-0.469899415969849,0.667341113090515,-1.09348691495395,-0.470496871016837,0.667994092818555,0
2.67999911308289,-1.72820711135864,2.22221708297729,2.19959402084351,-1.72776425512866,2.22240768960096,2.19881110687729,2112.094,2112.177,2111.579,2112.215,0.754657864570618,44.9999542236328,359.699523925781,-1.08983683586121,-0.468927919864655,0.665947377681732,-1.0910990209853,-0.469469426952161,0.666535365655457,0
2.6999990940094,-1.74995315074921,2.21286034584045,2.21288180351257,-1.74956001965534,2.2130295810283,2.21212579931044,2110.288,2110.499,2109.812,2110.315,0.837607979774475,44.9999504089355,359.666442871094,-1.08730220794678,-0.467836916446686,0.664383709430695,-1.08843328593135,-0.468322435630462,0.664906909708975,0
2.71999907493591,-1.77164280414581,2.20352745056152,2.22613477706909,-1.77129969961328,2.20367560407874,2.22540623055573,2108.519,2108.731,2108.033,2108.532,0.920349299907684,44.9999618530273,359.633453369141,-1.08449125289917,-0.466627210378647,0.662650763988495,-1.08549073939581,-0.467056340061457,0.663109353947952,0
2.73999905586243,-1.7932710647583,2.19422149658203,2.23934984207153,-1.79297776997733,2.19434813601627,2.23864902546151,2106.736,2107.076,2106.298,2106.662,1.00287783145905,44.9999694824219,359.600524902344,-1.08140504360199,-0.465299248695374,0.66074925661087,-1.08227251936216,-0.465671629887637,0.661143393548728,0
2.75999903678894,-1.81483197212219,2.18494462966919,2.25252342224121,-1.81458872956577,2.18504954384568,2.25185082344172,2105.052,2105.218,2104.498,2105.02,1.08521461486816,44.9999732971191,359.567779541016,-1.07804477214813,-0.463853478431702,0.658680081367493,-1.0787798721936,-0.464168841384272,0.659009789895139,0
2.77999901771545,-1.83632016181946,2.17569875717163,2.2656524181366,-1.83612710320793,2.17578218337996,2.26500827980002,2103.443,2103.497,2102.652,2103.269,1.16730880737305,44.9999694824219,359.535125732422,-1.07441186904907,-0.462290287017822,0.656444132328033,-1.07501415263309,-0.462548557459409,0.656709370578518,0
2.79999899864197,-1.85773026943207,2.16648650169373,2.278733253479,-1.85758744391174,2.16654839830762,2.27811806705396,2101.752,2101.847,2100.915,2101.48,1.2490553855896,44.9999847412109,359.502563476563,-1.07050740718842,-0.460610151290894,0.65404224395752,-1.07097682380333,-0.460811407653873,0.654243029397692,0
2.81999897956848,-1.87905693054199,2.15731024742126,2.2917628288269,-1.87896433503139,2.15735051926004,2.29117687625915,2100.117,2100.162,2099.157,2099.757,1.33043479919434,44.9999809265137,359.470153808594,-1.06633305549622,-0.458813935518265,0.651475489139557,-1.06666945720677,-0.458958068141266,0.651611726358984,0
2.839998960495,-1.9002947807312,2.14817214012146,2.30473780632019,-1.90025239243486,2.1481908628788,2.30418141833334,2098.467,2098.471,2097.448,2098.071,1.41139185428619,44.9999923706055,359.437927246094,-1.06189036369324,-0.456902235746384,0.648744881153107,-1.06209373272561,-0.456989261727965,0.648816487676215,0
2.85999894142151,-1.92143821716309,2.13907480239868,2.31765484809875,-1.92144626667155,2.13907173088305,2.31712842538065,2096.814,2096.822,2095.774,2096.377,1.49190258979797,45,359.405853271484,-1.05718123912811,-0.454875886440277,0.645851492881775,-1.05725143862179,-0.454905757853127,0.645858405770701,0
2.87999892234802,-1.94248247146606,2.13001990318298,2.33051085472107,-1.94254064513985,2.12999540913685,2.33001465201565,2095.26,2095.177,2094.041,2094.711,1.57195663452148,45,359.373962402344,-1.05220746994019,-0.452735722064972,0.642796516418457,-1.052144471537,-0.452708372588685,0.642738639271252,0
2.89999890327454,-1.96342206001282,2.12101030349731,2.34330248832703,-1.96353025425476,2.1209641667165,2.34283687668756,2093.557,2093.574,2092.481,2093.05,1.65147495269775,45,359.34228515625,-1.04697096347809,-0.450482487678528,0.639581203460693,-1.04677483649268,-0.45039796863935,0.639458413014177,0
2.91999888420105,-1.98425149917603,2.11204814910889,2.3560266494751,-1.98440986161545,2.1119802549779,2.35559190300436,2092.043,2091.928,2090.784,2091.456,1.73052334785461,45.0000114440918,359.310821533203,-1.04147398471832,-0.448117285966873,0.636206865310669,-1.04114464689001,-0.447975455342608,0.636019018043281,0
2.93999886512756,-2.00496602058411,2.10313510894775,2.36868023872375,-2.00517427817288,2.10304590662387,2.36827656105696,2090.559,2090.37,2089.094,2089.812,1.80901825428009,45.0000152587891,359.279571533203,-1.03571844100952,-0.445640742778778,0.632674872875214,-1.03525612450991,-0.445441788668724,0.632421811609861,0
2.95999884605408,-2.02556014060974,2.09427380561829,2.38125991821289,-2.02581836039739,2.09416333477156,2.38088770874336,2088.96,2088.854,2087.548,2088.174,1.88686919212341,45.0000228881836,359.248565673828,-1.0297064781189,-0.443053930997849,0.628986537456512,-1.02911159951308,-0.442797971220741,0.628668217172715,0
2.97999882698059,-2.04602885246277,2.08546686172485,2.39376282691956,-2.04633701244627,2.0853347320197,2.39342223309277,2087.508,2087.329,2085.911,2086.573,1.96410071849823,45.0000305175781,359.217834472656,-1.02344059944153,-0.440357983112335,0.62514340877533,-1.02271351043992,-0.440045052234476,0.624759724398133,0
2.99999904632568,-2.06636738777161,2.07671546936035,2.40618586540222,-2.06672543057999,2.07656216528323,2.40587719957567,2086.094,2085.73,2084.274,2085.088,2.04063010215759,45.0000267028809,359.187408447266,-1.0169233083725,-0.437553822994232,0.621147096157074,-1.01606432346125,-0.437184092834336,0.620697839831383,0
3.0199990272522,-2.08657050132751,2.06802272796631,2.41852593421936,-2.08697813469083,2.06784799249938,2.41824926047977,2084.533,2084.282,2082.817,2083.504,2.11636066436768,45.0000343322754,359.157287597656,-1.01015734672546,-0.434642463922501,0.616999089717865,-1.00916685243125,-0.434216303743162,0.61648428241207,0
3.03999900817871,-2.10663318634033,2.05939078330994,2.43077993392944,-2.1070904288371,2.05919423420069,2.43053554712756,2083.095,2082.707,2081.286,2082.083,2.19133806228638,45.0000343322754,359.127471923828,-1.00314545631409,-0.431625306606293,0.612701117992401,-1.00202378325828,-0.431142840632279,0.612120692919695,0
3.05999898910522,-2.12655115127563,2.05082035064697,2.44294500350952,-2.12705742960057,2.0506029915856,2.44273307631506,2081.738,2081.229,2079.726,2080.603,2.26552176475525,45.0000457763672,359.097930908203,-0.99589067697525,-0.428503513336182,0.608254909515381,-0.994637988003018,-0.427964939269174,0.60760882585132,0
3.07999897003174,-2.14631915092468,2.0423150062561,2.45501828193665,-2.14687431208796,2.04207634067088,2.45483890059026,2080.107,2079.919,2078.458,2079.027,2.33882021903992,45.0000534057617,359.068664550781,-0.988395690917969,-0.425278425216675,0.603662252426147,-0.987012447105925,-0.424683882054105,0.602950501911505,0
3.09999895095825,-2.16593217849731,2.03387594223022,2.46699666976929,-2.16653631209854,2.03361633135901,2.46685010957726,2078.883,2078.448,2076.865,2077.623,2.41139578819275,45.0000495910645,359.039764404297,-0.980663478374481,-0.421951681375504,0.598924994468689,-0.979150249387196,-0.421300998020112,0.598147608012309,0
3.11999893188477,-2.18538665771484,2.02550530433655,2.47887754440308,-2.18603872829175,2.02522498650551,2.47876383130049,2077.585,2077.174,2075.379,2076.083,2.48308205604553,45.0000648498535,359.01123046875,-0.972696959972382,-0.418524175882339,0.594045042991638,-0.971054592046769,-0.41781766283301,0.593202097273285,0
3.13999891281128,-2.20467615127563,2.01720571517944,2.49065804481506,-2.20537692435472,2.01690430098627,2.49057723350876,2076.174,2075.69,2074.046,2074.809,2.55379986763,45.000072479248,358.983154296875,-0.964499354362488,-0.414997309446335,0.589024484157562,-0.962728780664334,-0.41423529879139,0.588115989021478,0
3.15999889373779,-2.22379755973816,2.00897836685181,2.5023353099823,-2.22454633116994,2.00865624076491,2.50228752499948,2075.146,2074.396,2072.419,2073.354,2.62358140945435,45.000072479248,358.955444335938,-0.956074237823486,-0.411372363567352,0.583865284919739,-0.954176229199323,-0.410555374826624,0.582891368791438,0
3.17999887466431,-2.24274611473083,2.00082540512085,2.51390671730042,-2.2435424489828,2.00048274196013,2.51389195694279,2073.703,2073.027,2071.207,2072.073,2.69216418266296,45.0000839233398,358.928161621094,-0.947424829006195,-0.407650768756866,0.57856947183609,-0.945400459990917,-0.406779406502856,0.577530388325201,0
3.19999885559082,-2.26151752471924,1.99274873733521,2.52536940574646,-2.26236084956923,1.99238570991304,2.52538782420568,2072.375,2071.717,2069.95,2070.767,2.75965046882629,45.0000877380371,358.901306152344,-0.938555300235748,-0.403834313154221,0.573139309883118,-0.936405103758047,-0.402908956017012,0.572035265572306,0
3.21999883651733,-2.28010678291321,1.98475027084351,2.53672099113464,-2.28099717840322,1.98436701825452,2.5367724666762,2071.07,2070.43,2068.718,2069.494,2.82607007026672,45.0000953674316,358.874877929688,-0.929469347000122,-0.399924874305725,0.567577123641968,-0.927193899599382,-0.398945632198791,0.566408284689784,0
3.23999881744385,-2.29851031303406,1.97683167457581,2.54795861244202,-2.29944715682451,1.97642850797257,2.54804327058752,2069.953,2069.29,2067.363,2068.115,2.89145469665527,45.0000991821289,358.848815917969,-0.920170664787292,-0.395923972129822,0.561885118484497,-0.917770694993346,-0.394891090510675,0.560651796042165,0
3.25999879837036,-2.31672334671021,1.96899509429932,2.55907988548279,-2.31770658420609,1.96857198647962,2.55919766984219,2068.769,2068.077,2066.115,2066.875,2.95570158958435,45.0000991821289,358.8232421875,-0.910662651062012,-0.391833186149597,0.556065678596497,-0.908139445798107,-0.390747033047917,0.554768216201473,0
3.27999877929688,-2.33474254608154,1.96124196052551,2.57008218765259,-2.33577134012187,1.96079922667992,2.57023314733618,2067.781,2066.908,2064.748,2065.624,3.01878237724304,45.0001029968262,358.798217773438,-0.900949418544769,-0.387654155492783,0.550121247768402,-0.898304216251578,-0.386515208538549,0.548760027947228,0
3.29999876022339,-2.35256290435791,1.95357418060303,2.5809633731842,-2.3536373865142,1.95311196603685,2.5811472362831,2066.594,2065.686,2063.613,2064.506,3.0805299282074,45.0000991821289,358.773712158203,-0.891034960746765,-0.38338840007782,0.544054329395294,-0.888269178971418,-0.382197412343383,0.542629780266447,0
3.3199987411499,-2.37018132209778,1.9459935426712,2.59172081947327,-2.37130076986152,1.9455119056403,2.59193752153832,2065.599,2064.601,2062.365,2063.281,3.14096760749817,45.0001106262207,358.749725341797,-0.880923807621002,-0.379037886857986,0.537867546081543,-0.878038614955035,-0.377795486456005,0.536380088353644,0
3.33999872207642,-2.38759398460388,1.93850123882294,2.60235214233398,-2.38875762334595,1.93800070927398,2.60260164092313,2064.454,2063.412,2061.303,2062.24,3.19998359680176,45.0001106262207,358.726287841797,-0.870620369911194,-0.374604493379593,0.531563460826874,-0.867616913579587,-0.37331131950278,0.530013633610823,0
3.35999870300293,-2.40479636192322,1.93109953403473,2.61285495758057,-2.40600416902084,1.93058000248278,2.61313728654888,2063.282,2062.353,2060.322,2061.136,3.25761485099792,45.0001220703125,358.703369140625,-0.860129356384277,-0.370090246200562,0.525144755840302,-0.857008572601967,-0.368746846742847,0.523533163647493,0
3.37999868392944,-2.42178535461426,1.92378950119019,2.6232271194458,-2.42303671997839,1.92325137164014,2.62354220614113,2062.41,2061.343,2059.128,2060.012,3.31394386291504,45.0001220703125,358.680938720703,-0.849455177783966,-0.365497291088104,0.518614232540131,-0.846218198158826,-0.364104050068127,0.516941492280651,0
3.39999890327454,-2.43855762481689,1.91657304763794,2.63346672058105,-2.43985188165647,1.91601627733129,2.63381432601484,2061.409,2060.377,2058.099,2058.929,3.36883187294006,45.0001220703125,358.659088134766,-0.838602244853973,-0.360827475786209,0.51197475194931,-0.835250372983481,-0.35938490130074,0.51024141903057,0
3.41999888420105,-2.4551088809967,1.90945136547089,2.64357137680054,-2.45644575479329,1.90887639729967,2.64395126417184,2060.518,2059.343,2057.037,2057.962,3.42226195335388,45.0001220703125,358.637878417969,-0.827575206756592,-0.356082916259766,0.505229294300079,-0.824110181511089,-0.35459158813109,0.503436049899345,0
3.43999886512756,-2.4714367389679,1.90242576599121,2.65353894233704,-2.47281514035847,1.90183310799866,2.65395106637439,2059.654,2058.483,2056.008,2056.881,3.47416424751282,45.0001220703125,358.617218017578,-0.816378951072693,-0.351265519857407,0.498380690813065,-0.81280242532103,-0.349726176544644,0.496528318096893,0
3.45999884605408,-2.48753690719604,1.89549839496613,2.66336750984192,-2.48895673727672,1.89488782978875,2.6638117160471,2058.671,2057.509,2055.143,2055.998,3.52446246147156,45.0001220703125,358.597259521484,-0.805018484592438,-0.346377491950989,0.49143198132515,-0.801332144070227,-0.344790834964984,0.489521302270987,0
3.47999882698059,-2.50340700149536,1.88866996765137,2.67305517196655,-2.50486734634964,1.88804193919563,2.67353125884958,2057.997,2056.592,2054.074,2055.081,3.57320785522461,45.0001220703125,358.577941894531,-0.793499052524567,-0.341421037912369,0.48438635468483,-0.789704485795351,-0.33978777844847,0.482418147276894,0
3.4999988079071,-2.51904344558716,1.88194215297699,2.6826000213623,-2.5205438724232,1.88129676797762,2.68310780400056,2057.075,2055.719,2053.274,2054.229,3.62022829055786,45.0001220703125,358.559265136719,-0.78182578086853,-0.336398184299469,0.477246880531311,-0.777924706912824,-0.334719268684242,0.475222064177383,0
3.51999878883362,-2.53444385528564,1.87531590461731,2.69200038909912,-2.53598332655545,1.87465360219292,2.69253952560202,2056.339,2054.906,2052.381,2053.355,3.66557645797729,45.000114440918,358.541229248047,-0.770004272460938,-0.331311464309692,0.470016896724701,-0.765998172218811,-0.329587613994215,0.467936330242713,0
3.53999876976013,-2.54960489273071,1.86879253387451,2.70125436782837,-2.55118282818402,1.86811368126707,2.70182466396336,2055.472,2054.112,2051.658,2052.555,3.70918369293213,45.0001220703125,358.523864746094,-0.758039712905884,-0.326163321733475,0.462699711322784,-0.75393035488922,-0.324395169333078,0.460564288950643,0
3.55999875068665,-2.56452345848083,1.86237359046936,2.71036028862,-2.56613960729377,1.86167819706018,2.71096152692557,2054.79,2053.425,2050.84,2051.695,3.75111174583435,45.000114440918,358.507141113281,-0.745937705039978,-0.320956170558929,0.455298602581024,-0.741726836479713,-0.319144336288304,0.453109349986424,0
3.57999873161316,-2.57919716835022,1.85605978965759,2.71931672096252,-2.58085100658435,1.85534829293436,2.71994849118533,2054.263,2052.731,2049.948,2050.898,3.79130268096924,45.0001106262207,358.491180419922,-0.73370349407196,-0.315692365169525,0.447816997766495,-0.729393306925695,-0.313837563080137,0.445574989242809,0
3.59999871253967,-2.59362411499023,1.84985220432281,2.7281219959259,-2.59531448363783,1.84912506282102,2.72878400361919,2053.631,2052.079,2049.21,2050.148,3.82959485054016,45.0001182556152,358.475982666016,-0.721342861652374,-0.31037425994873,0.44025844335556,-0.716935564542318,-0.308477344561601,0.437964748820039,0
3.61999869346619,-2.60780143737793,1.84375214576721,2.73677444458008,-2.60952761308623,1.84300955028824,2.73746658260771,2052.902,2051.338,2048.626,2049.569,3.86594080924988,45.000114440918,358.461608886719,-0.708861887454987,-0.305004239082336,0.432626396417618,-0.704359516024482,-0.303066222218498,0.430282237025861,0
3.6399986743927,-2.62172698974609,1.83776044845581,2.74527287483215,-2.62348808877919,1.8370027476081,2.74599481935961,2052.351,2050.658,2047.963,2048.977,3.90041041374207,45.0001182556152,358.447967529297,-0.696266949176788,-0.299585074186325,0.424924612045288,-0.691671176446824,-0.297606784169402,0.422531128375503,0
3.65999865531921,-2.63539838790894,1.83187806606293,2.75361609458923,-2.6371937259515,1.83110559482403,2.75436737923592,2051.777,2050.067,2047.377,2048.386,3.93294811248779,45.0001182556152,358.435089111328,-0.683563947677612,-0.294119119644165,0.41715669631958,-0.678876669263746,-0.292101665165675,0.414715163591708,0
3.67999863624573,-2.64881324768066,1.82610595226288,2.76180267333984,-2.65064246339072,1.82531897881816,2.76258300307414,2051.327,2049.573,2046.751,2047.761,3.96355247497559,45.0001182556152,358.422882080078,-0.670758962631226,-0.288609236478806,0.409326523542404,-0.665982226309379,-0.286553546591444,0.4068381496047,0
3.69999861717224,-2.66197037696838,1.82044458389282,2.76983141899109,-2.66383236560479,1.81964373237865,2.77064050851235,2050.963,2049.164,2046.118,2047.117,3.99214196205139,45.0001182556152,358.411468505859,-0.657857954502106,-0.283058166503906,0.401437878608704,-0.652994187797613,-0.28096515646362,0.398903959552207,0
