t,x_s1,x_s2,x_s3,x_s_d1,x_s_d2,x_s_d3,propellers_rpms1,propellers_rpms2,propellers_rpms3,propellers_rpms4,rollRad,pitchRad,yawRad,v_s1,v_s2,v_s3,v_s_d1,v_s_d2,v_s_d3,insideCount
0,-0.0599999986588955,2.94000005722046,1.17999994754791,-0.0599999986588955,2.94000005722046,1.17999994754791,0,0,0,0,0,45.0048027038574,0,0,0,0,-1.06581410364015E-15,4.44089209850063E-16,-7.105427357601E-16,0
0.0200042724609375,-0.0599999986588955,2.94000005722046,1.17705690860748,-0.0600018701838461,2.93999925195556,1.1800010908333,0,0,0,0,0.937003672122955,44.8630027770996,-0.00115976633969694,3.71994488546079E-08,3.50004931704007E-08,-0.147149950265884,-0.000280105751305916,-0.000120521679537258,0.000171112232507361,5
0.040008544921875,-0.0599999986588955,2.94000005722046,1.17018985748291,-0.060014880898484,2.93999365380853,1.18000903887584,0,0,0,0,1.87400352954865,44.7211418151855,-0.00311126722954214,3.70364325874561E-08,3.5142885934647E-08,-0.343349903821945,-0.00111143977225461,-0.000478221483967637,0.000678961213193342,6
0.0600128173828125,-0.0599062256515026,2.94009447097778,1.16346514225006,-0.0600499235789167,2.93997857592211,1.18003044590249,3197.413,2848.753,1517.161,2782.299,1.40362048149109,44.7413520812988,0.0289088562130928,0.00468869181349874,0.00471886387094855,-0.336237877607346,-0.00248060856799822,-0.00106733656662813,0.00151536506505538,6
0.0800018310546875,-0.0597377829253674,2.94026732444763,1.15723752975464,-0.0601175574246769,2.93994947496775,1.18007176236346,2865.655,2651.739,2344.543,2562.237,0.339607834815979,44.8158149719238,0.0998255088925362,0.00842216610908508,0.00864463858306408,-0.31138002872467,-0.00437268608126799,-0.00188144466206175,0.00267120569262453,6
0.100006103515625,-0.0595562979578972,2.94046425819397,1.15151941776276,-0.0602282404704493,2.93990185114529,1.18013937690895,2239.674,2528.016,3138.206,2508.677,359.321655273438,44.919116973877,0.178491100668907,0.00907427631318569,0.00984889734536409,-0.285904288291931,-0.00677739276378709,-0.00291612276782231,0.00414020348026766,5
0.120010375976563,-0.0594243854284286,2.94063210487366,1.14656889438629,-0.0603920338334453,2.93983137543704,1.18023943571846,2124.102,2454.9,3351.585,2464.308,358.750091552734,44.9998741149902,0.253322005271912,0.00659562647342682,0.00839816406369209,-0.247524708509445,-0.00968041450003567,-0.00416521191989172,0.00591361415818106,5
0.139999389648438,-0.0593829490244389,2.94074010848999,1.14257061481476,-0.0606185767455666,2.93973390035084,1.18037782724834,2312.319,2456.675,3068.999,2463.368,358.636199951172,45.0326385498047,0.326449781656265,0.00207172939553857,0.00539908371865749,-0.199915394186974,-0.0130660253322238,-0.00562194567796536,0.00798183098414958,5
0.160003662109375,-0.0594432838261127,2.9407856464386,1.13952422142029,-0.0609177895434042,2.93960515744296,1.18056061167741,2536.291,2486.576,2635.727,2492.092,358.757019042969,45.0249938964844,0.398186028003693,-0.00301668420433998,0.00228026346303523,-0.15231841802597,-0.0169265510445065,-0.00728302204135792,0.0103401658994673,5
0.180007934570313,-0.0595999732613564,2.94078159332275,1.13730919361115,-0.0612988491946875,2.93944119812059,1.18079339507206,2666.792,2506.194,2302.323,2513.058,358.864318847656,44.9985389709473,0.467377483844757,-0.00783438701182604,-0.000196879962459207,-0.110751278698444,-0.0212468478482708,-0.00914192506089775,0.0129793677999848,5
0.20001220703125,-0.0598475001752377,2.94073987007141,1.13576114177704,-0.0617708265342762,2.93923811945689,1.18108171866376,2653.603,2500.191,2183.156,2508.578,358.816986083984,44.9743766784668,0.532959520816803,-0.0123764332383871,-0.00209049321711063,-0.0774027556180954,-0.0260142813927851,-0.0111932185284278,0.0158917185579952,5
0.220001220703125,-0.0601894073188305,2.94066214561462,1.13474559783936,-0.0623420644491781,2.93899233174064,1.18143067899198,2540.376,2470.494,2245.646,2478.973,358.6123046875,44.9636650085449,0.594659090042114,-0.0170952789485455,-0.00388027587905526,-0.0507797747850418,-0.03121219533433,-0.0134297356845702,0.0190670430730375,5
0.240005493164063,-0.0606386475265026,2.9405415058136,1.13419342041016,-0.0630219993990999,2.93869977472688,1.18184604064271,2411.299,2429.513,2374.663,2437.49,358.334533691406,44.9659309387207,0.652629852294922,-0.0224620383232832,-0.00603098468855023,-0.0276100989431143,-0.0368361158647881,-0.0158495515746756,0.0225026083655451,5
0.260009765625,-0.0612130165100098,2.94036602973938,1.13409078121185,-0.0638185570309634,2.93835703823113,1.18233264526998,2330.046,2392.187,2462.264,2398.324,358.076354980469,44.9738731384277,0.707807600498199,-0.0287184789776802,-0.00876861531287432,-0.00513282231986523,-0.0428699302682246,-0.0184457333472145,0.0261885714287875,4
0.279998779296875,-0.0619295611977577,2.94012498855591,1.13444101810455,-0.0647390625194898,2.93796097043536,1.18289496770872,2305.862,2365.138,2469.844,2370.712,357.887023925781,44.9803009033203,0.760659277439117,-0.0358272306621075,-0.0120564559474587,0.01751265861094,-0.0492963837173861,-0.0212108567320638,0.0301143915580518,4
0.300003051757813,-0.0628011152148247,2.93981075286865,1.13523650169373,-0.0657927507678135,2.93750759781875,1.18353864941714,2316.987,2347.988,2416.179,2353.711,357.765075683594,44.981803894043,0.811255216598511,-0.0435776263475418,-0.015706205740571,0.039774477481842,-0.0561132031658829,-0.0241439437008635,0.0342786801847687,4
0.32000732421875,-0.0638359636068344,2.93942022323608,1.13644969463348,-0.0669865614821475,2.93699393441958,1.18426792975347,2335.269,2336.741,2342.309,2341.375,357.678771972656,44.9788246154785,0.860051870346069,-0.0517423078417778,-0.0195243004709482,0.0606585443019867,-0.0633036493784043,-0.0272377918282996,0.0386712115712976,4
0.340011596679688,-0.0650396272540092,2.93895220756531,1.13803672790527,-0.0683278498358171,2.93641681551226,1.18508730187834,2337.99,2324.803,2286.479,2330.071,357.594421386719,44.9741134643555,0.90667188167572,-0.0601833574473858,-0.0234039574861526,0.0793539881706238,-0.0708558471483356,-0.0304872915447207,0.0432847313392265,4
0.360000610351563,-0.0664171725511551,2.93840527534485,1.13995146751404,-0.0698225328270578,2.93577369517774,1.18600038039362,2322.246,2310.579,2261.645,2315.988,357.494293212891,44.970272064209,0.950948476791382,-0.0688773617148399,-0.0273417662829161,0.0957345739006996,-0.0787518717320621,-0.0338847303337087,0.0481082895423912,4
0.3800048828125,-0.0679745003581047,2.93777751922607,1.14215421676636,-0.0714797725314022,2.93506063123087,1.18701276226829,2294.746,2294.03,2261.75,2299.778,357.379577636719,44.9685935974121,0.992678165435791,-0.0778662711381912,-0.0313890390098095,0.110138043761253,-0.0869921272359981,-0.0374302820709642,0.0531421330430943,4
0.400009155273438,-0.069718524813652,2.93706560134888,1.14461755752563,-0.0733051402689975,2.93427522648826,1.18812785093488,2269.147,2278.093,2268.129,2282.507,357.261566162109,44.96875,1.03244006633759,-0.0872013494372368,-0.0355991199612617,0.12316906452179,-0.0955591682828665,-0.0411164404980124,0.058375604732587,4
0.420013427734375,-0.0716564655303955,2.93626570701599,1.14732110500336,-0.0753050585276311,2.93341471753282,1.18934956979097,2249.165,2262.991,2270.679,2267.729,357.151885986328,44.9698753356934,1.07013392448425,-0.0968971401453018,-0.0399901829659939,0.135176792740822,-0.104441553474511,-0.0449382827008623,0.0638017152392751,4
0.44000244140625,-0.0737951472401619,2.93537473678589,1.15024876594543,-0.077483988232608,2.93247718495301,1.19068064394622,2237.901,2250.534,2263.397,2255.116,357.056610107422,44.9710235595703,1.10587215423584,-0.106934040784836,-0.0445488728582859,0.146385163068771,-0.113620829717891,-0.048887868829098,0.0694091918565748,4
0.460006713867188,-0.0761404857039452,2.93438982963562,1.15338444709778,-0.0798512213598696,2.93145863067119,1.19212674972372,2231.421,2240.004,2249.583,2245.13,356.975433349609,44.971736907959,1.13944518566132,-0.117266789078712,-0.0492418371140957,0.156785070896149,-0.123099793815011,-0.0529664022684887,0.0751997431071877,4
0.480010986328125,-0.07869753241539,2.93330907821655,1.15671229362488,-0.0824109101018722,2.93035726811493,1.19369042363305,2228.606,2232.25,2231.939,2235.722,356.903533935547,44.9719009399414,1.17156565189362,-0.127852141857147,-0.0540378130972385,0.166389986872673,-0.132860437136906,-0.0571661344090936,0.0811623678006979,4
0.5,-0.0814706087112427,2.93213081359863,1.16021394729614,-0.085166398670376,2.92917165836334,1.195373708601,2222.627,2224.217,2219.062,2228.324,356.835693359375,44.9719772338867,1.20193767547607,-0.138654381036758,-0.0589134134352207,0.175080373883247,-0.142884000065179,-0.0614789935111996,0.0872856059789651,5
0.520004272460938,-0.0844638049602509,2.93085360527039,1.16387236118317,-0.088127196023106,2.92789770997757,1.19718241350145,2214.28,2216.366,2212.241,2221.198,356.769958496094,44.9723472595215,1.23023104667664,-0.149659991264343,-0.0638634040951729,0.182922601699829,-0.153174893518032,-0.065906877469682,0.0935721522030874,5
0.540008544921875,-0.0876811593770981,2.92947578430176,1.16767477989197,-0.0912963635428427,2.92653410573011,1.19911840848537,2207.795,2210.299,2206.653,2213.372,356.706207275391,44.9729652404785,1.25719845294952,-0.160867914557457,-0.0688919946551323,0.190123975276947,-0.163714777034477,-0.0704418948965508,0.100010802571645,5
0.560012817382813,-0.091126561164856,2.92799592018127,1.17160904407501,-0.0946787750684717,2.92507874854427,1.20118467090489,2199.86,2203.741,2204.426,2207.431,356.645416259766,44.973934173584,1.28257012367249,-0.172269999980927,-0.073997750878334,0.196711987257004,-0.174492968360474,-0.0750794495163205,0.106595031462337,5
0.580001831054688,-0.0948038101196289,2.92641234397888,1.175665974617,-0.0982762614093182,2.92353085067394,1.20338231917284,2193.956,2198.213,2202.057,2201.924,356.589233398438,44.9750938415527,1.30634617805481,-0.183862507343292,-0.0791805982589722,0.202844724059105,-0.185490414529404,-0.0798113433697334,0.113313199715174,5
0.600006103515625,-0.0987164527177811,2.92472362518311,1.17983746528625,-0.102098762959148,2.92188613504538,1.20571742572067,2188.817,2193.226,2199.874,2197.585,356.538848876953,44.9763603210449,1.32825422286987,-0.195632219314575,-0.0844339728355408,0.208576783537865,-0.196713446836865,-0.0846403006364086,0.120169175019836,5
0.620010375976563,-0.102867811918259,2.92292857170105,1.18411862850189,-0.106147859919355,2.92014392174208,1.20819095586875,2187.958,2190.604,2193.989,2192.937,356.493743896484,44.9774398803711,1.34917676448822,-0.207568094134331,-0.0897516086697578,0.214059293270111,-0.20814339888717,-0.0895582896877615,0.127151554366483,5
0.639999389648438,-0.107260793447495,2.9210262298584,1.18850266933441,-0.110424235525481,2.91830391678686,1.21080332699501,2185.255,2187.302,2190.36,2190.478,356.452484130859,44.9785118103027,1.36874449253082,-0.21964867413044,-0.0951203256845474,0.219200506806374,-0.219761081350814,-0.0945570538913933,0.134248615293163,5
0.660003662109375,-0.111898064613342,2.91901540756226,1.19298374652863,-0.114938248900541,2.91636166293851,1.21356086732604,2182.089,2184.221,2188.982,2188.416,356.414855957031,44.979663848877,1.38651502132416,-0.231863796710968,-0.100535325706005,0.224056750535965,-0.231574097577923,-0.0996398647564507,0.141465002567821,5
0.680007934570313,-0.116782240569592,2.91689538955688,1.19755947589874,-0.119690355154666,2.91431696437584,1.21646385488153,2182.26,2183.435,2185.347,2185.328,356.380187988281,44.9807090759277,1.40348386764526,-0.244209319353104,-0.105995982885361,0.228786408901215,-0.243563621239988,-0.104798621839723,0.14878921548015,5
0.70001220703125,-0.121915653347969,2.91466546058655,1.20222556591034,-0.124683985757554,2.91216834463331,1.21951438589277,2180.011,2181.476,2184.755,2184.345,356.347869873047,44.9818344116211,1.41922223567963,-0.256670355796814,-0.111494615674019,0.233304038643837,-0.255719729227087,-0.11002905550423,0.156215192157144,5
0.720001220703125,-0.127300530672073,2.91232490539551,1.2069798707962,-0.129918284978346,2.90991617190799,1.22271193760712,2178.684,2180.236,2184.726,2183.191,356.318237304688,44.9830169677734,1.43369472026825,-0.269244343042374,-0.117031194269657,0.23771396279335,-0.268023157655716,-0.11532287703907,0.163731164592979,5
0.740005493164063,-0.132938966155052,2.90987277030945,1.2118204832077,-0.13540428105644,2.90755570105657,1.22606324700395,2176.729,2178.9,2186.18,2182.757,356.292114257813,44.9842872619629,1.44651353359222,-0.281922221183777,-0.12260265648365,0.242029756307602,-0.280482990349159,-0.120683994959631,0.171342681953548,5
0.760009765625,-0.138832986354828,2.90730857849121,1.21674871444702,-0.141140917956636,2.9050873864615,1.22956766896782,2178.951,2179.901,2183.803,2181.231,356.269165039063,44.9853744506836,1.45877683162689,-0.294701218605042,-0.128208681941032,0.246410921216011,-0.293080296154222,-0.126104263719567,0.179038179492781,5
0.779998779296875,-0.144984260201454,2.90463185310364,1.22176325321198,-0.147126184485884,2.90251209348295,1.2332239748923,2178.53,2179.459,2184.006,2181.933,356.248565673828,44.9864463806152,1.46998345851898,-0.307563692331314,-0.133839130401611,0.250727415084839,-0.305795832832518,-0.131575403921268,0.186805902427515,5
0.800003051757813,-0.151394337415695,2.90184211730957,1.22686374187469,-0.153371683173492,2.89982482987671,1.23703925258147,2177.561,2178.958,2186.048,2182.696,356.230773925781,44.9875984191895,1.47958886623383,-0.320504307746887,-0.13949216902256,0.255026608705521,-0.318639638509124,-0.13710173468952,0.194651982891718,5
0.82000732421875,-0.158064782619476,2.89893865585327,1.23205304145813,-0.159875221826383,2.89702653888221,1.24101216285881,2180.653,2180.875,2184.303,2181.987,356.215393066406,44.9885559082031,1.48873198032379,-0.333522230386734,-0.145169273018837,0.259466648101807,-0.331592781842754,-0.14267511039705,0.202564856024417,5
0.840011596679688,-0.164996802806854,2.89592146873474,1.23733103275299,-0.166638895824778,2.89411631891588,1.24514398575937,2180.558,2181.176,2185.608,2183.362,356.201629638672,44.9895324707031,1.49694061279297,-0.34660080075264,-0.150861456990242,0.263898462057114,-0.344646098867604,-0.148291588045382,0.210538923701903,5
0.860000610351563,-0.172191590070724,2.89279007911682,1.24269926548004,-0.173659158941841,2.89109569582005,1.24943255494854,2181.321,2181.901,2187.095,2184.323,356.189758300781,44.9905052185059,1.50411450862885,-0.359739482402802,-0.15656952559948,0.268412679433823,-0.357780475378537,-0.153942943326036,0.218562509354528,5
0.8800048828125,-0.179650172591209,2.88954424858093,1.24815905094147,-0.180948461186242,2.88795931270381,1.25388547594233,2180.842,2182.247,2190.245,2185.739,356.1806640625,44.9915542602539,1.50979173183441,-0.372929632663727,-0.162290751934052,0.272987097501755,-0.371007022483504,-0.159633957038354,0.226642400584755,5
0.900009155273438,-0.187373608350754,2.8861837387085,1.25371479988098,-0.188503099076414,2.88470876307182,1.25850048634164,2184.936,2184.969,2188.725,2185.62,356.173889160156,44.9923515319824,1.51520752906799,-0.386171400547028,-0.168026626110077,0.277785211801529,-0.384306908919572,-0.165356526615982,0.234767093667914,5
0.920013427734375,-0.195362523198128,2.88270831108093,1.25936734676361,-0.196324452211266,2.88134345332121,1.26327842892191,2185.494,2185.751,2190.236,2187.742,356.168548583984,44.9931449890137,1.51977360248566,-0.399446457624435,-0.173766911029816,0.28262585401535,-0.397671404529394,-0.171106895716105,0.242931255487113,5
0.94000244140625,-0.203617602586746,2.87911796569824,1.26511907577515,-0.204407453948074,2.87786556348678,1.26821620855017,2186.724,2187.013,2191.968,2189.149,356.164733886719,44.9939155578613,1.52342808246613,-0.412754446268082,-0.179512426257133,0.287589132785797,-0.411081631631503,-0.176876941799768,0.251123353961324,5
0.960006713867188,-0.21213935315609,2.87541270256042,1.27097189426422,-0.212765478812529,2.87426933888379,1.27332199551546,2186.461,2187.617,2195.501,2191.031,356.163360595703,44.9947814941406,1.52561891078949,-0.426087021827698,-0.185260757803917,0.292642116546631,-0.424549556012544,-0.182671813410681,0.259350698802886,5
0.980010986328125,-0.220928266644478,2.87159252166748,1.27693092823029,-0.221393324468958,2.87055701793193,1.27859261179209,2190.981,2190.734,2193.999,2191.085,356.164001464844,44.9953842163086,1.527676820755,-0.439445644617081,-0.19101420044899,0.29795253276825,-0.438056556301695,-0.188483498293199,0.267601914506946,5
1,-0.229984492063522,2.86765718460083,1.28299725055695,-0.230284798736574,2.86673126495361,1.28402427467346,2191.558,2191.639,2195.764,2193.467,356.165679931641,44.9959831237793,1.52895402908325,-0.452811479568481,-0.196762338280678,0.303317159414291,-0.451584000205995,-0.194303979492187,0.275865618896484,5
1.02000427246094,-0.23930811882019,2.86360716819763,1.28917264938354,-0.239454009753966,2.86278600961093,1.28962560260127,2191.146,2192.144,2199.548,2195.517,356.169403076172,44.9966850280762,1.52878415584564,-0.466182291507721,-0.202505469322205,0.308771818876266,-0.465144357597929,-0.200138622445408,0.284149429622012,5
1.04000854492188,-0.248899340629578,2.85944223403931,1.29546248912811,-0.248894644448595,2.85872396824263,1.29539273901802,2195.69,2195.281,2198.062,2195.529,356.174835205078,44.9971313476563,1.52852427959442,-0.479560941457748,-0.208247140049934,0.314491212368011,-0.47871923339115,-0.205979512261105,0.292442109412331,5
1.06001281738281,-0.258757948875427,2.85516262054443,1.30186760425568,-0.258606913342529,2.85454505026695,1.30132581252836,2195.984,2196.144,2200.046,2197.834,356.181182861328,44.9976119995117,1.52754163742065,-0.492928475141525,-0.213976979255676,0.320257246494293,-0.492300656572427,-0.21182321923497,0.300738788899844,5
1.08000183105469,-0.268883645534515,2.85076856613159,1.3083907365799,-0.268583149539609,2.85025255453512,1.30742013954506,2197.119,2197.359,2201.955,2199.294,356.188812255859,44.9980812072754,1.5257316827774,-0.506286561489105,-0.219697147607803,0.32615801692009,-0.50587040849135,-0.217661904390701,0.309028338595312,5
1.10000610351563,-0.279276162385941,2.84626054763794,1.31503367424011,-0.278838480013141,2.84583997233313,1.31368496090006,2196.545,2197.817,2205.623,2201.134,356.198852539063,44.998649597168,1.52249896526337,-0.519626677036285,-0.225405067205429,0.332144260406494,-0.519441457145546,-0.223501147495394,0.317318680446121,5
1.12001037597656,-0.289935201406479,2.84163856506348,1.32180154323578,-0.289365134970699,2.84131064678559,1.32011553014842,2201.355,2200.948,2203.385,2200.909,356.210754394531,44.9989280700684,1.51930248737335,-0.5329509973526,-0.231103360652924,0.338394790887833,-0.532995796775449,-0.22933320117373,0.325598815014731,5
1.13999938964844,-0.300859987735748,2.83690285682678,1.32869482040405,-0.300154365346813,2.83666834237095,1.32670650262257,2201.534,2201.571,2204.835,2203.147,356.223449707031,44.9992065429688,1.51543295383453,-0.546238839626312,-0.236780419945717,0.34466689825058,-0.546515580872639,-0.235150386571708,0.333857840147634,5
1.16000366210938,-0.312049716711044,2.83205413818359,1.33571469783783,-0.311222084148811,2.83190621216671,1.33346759933036,2200.578,2201.615,2208.457,2204.983,356.238037109375,44.9996109008789,1.51011693477631,-0.559488832950592,-0.242436841130257,0.350996911525726,-0.560014026276883,-0.240958390526247,0.342103829805999,6
1.18000793457031,-0.323503851890564,2.82709264755249,1.34286618232727,-0.322559451663168,2.82702805965467,1.34039342022875,2205.062,2204.572,2206.186,2204.42,356.254150390625,44.9997711181641,1.50488221645355,-0.57270485162735,-0.24807670712471,0.357572078704834,-0.573473482003304,-0.246749618311663,0.350326001278605,6
1.20001220703125,-0.335221171379089,2.82201886177063,1.3501490354538,-0.334165615614823,2.82203425154496,1.3474834446762,2204.711,2204.853,2207.791,2206.434,356.270874023438,44.9999542236328,1.4989697933197,-0.585866987705231,-0.253689229488373,0.364143967628479,-0.586886736182789,-0.252520966862155,0.358519948947149,6
1.22000122070313,-0.347200721502304,2.81683325767517,1.35756516456604,-0.346030421585499,2.81692915700008,1.35473146949704,2205.266,2205.584,2209.271,2207.35,356.288726806641,45.0001640319824,1.49230170249939,-0.598978161811829,-0.259277105331421,0.37080779671669,-0.600236516861372,-0.258265004538453,0.366675121644476,6
1.24000549316406,-0.359441339969635,2.81153655052185,1.36511528491974,-0.358170848086624,2.8117054706409,1.36214786659896,2203.862,2205.364,2212.692,2208.728,356.308959960938,45.00048828125,1.48418855667114,-0.612029731273651,-0.264837771654129,0.377504736185074,-0.613536214864368,-0.263987493038594,0.374799699616811,6
1.260009765625,-0.371941804885864,2.80612897872925,1.3728039264679,-0.37057666480527,2.80636759428526,1.36972638644343,2208.468,2208.122,2209.49,2207.722,356.3310546875,45.0005149841309,1.47626638412476,-0.625024735927582,-0.270374208688736,0.384431809186935,-0.626768731761373,-0.26968107538565,0.382883237699838,6
1.27999877929688,-0.384700655937195,2.80061149597168,1.38063025474548,-0.383236695417198,2.80092033679326,1.37746020158837,2207.911,2208.07,2210.331,2209.458,356.353851318359,45.000560760498,1.46774983406067,-0.637941479682922,-0.275873899459839,0.391316920518875,-0.639917282339435,-0.275338529371412,0.39091548206889,6
1.30000305175781,-0.397716224193573,2.79498481750488,1.3885942697525,-0.396168722856641,2.79535604666509,1.38536017535082,2206.13,2207.292,2213.498,2210.816,356.378479003906,45.0007514953613,1.45771884918213,-0.650779187679291,-0.281337648630142,0.398199737071991,-0.652995275331231,-0.280965624398954,0.398904623909522,6
1.32000732421875,-0.410987019538879,2.78924942016602,1.39669990539551,-0.409361504843077,2.78967956113998,1.39341943999703,2210.275,2209.829,2210.255,2209.364,356.404541015625,45.0006790161133,1.44790410995483,-0.663542151451111,-0.286770015954971,0.405282020568848,-0.6659860834168,-0.286555206197011,0.406840505851434,6
1.34001159667969,-0.424511224031448,2.78340625762939,1.40494573116302,-0.422813232584026,2.78389165849082,1.40163689056391,2209.086,2209.391,2211.275,2210.784,356.431121826172,45.0006713867188,1.43748986721039,-0.676210165023804,-0.292159587144852,0.412291705608368,-0.678883253871146,-0.292104498338286,0.414719186025618,6
1.36000061035156,-0.438286960124969,2.77745604515076,1.4133323431015,-0.436511415158101,2.77799771321212,1.41000489654248,2208.907,2209.347,2212.155,2211.086,356.458740234375,45.0006980895996,1.42633032798767,-0.688786923885345,-0.297509461641312,0.419333547353745,-0.691670720740693,-0.297606588091785,0.422530849991739,6
1.3800048828125,-0.452312260866165,2.77139973640442,1.42185926437378,-0.450474904562636,2.77198961381608,1.41853497432376,2206.604,2208.385,2215.129,2211.799,356.488800048828,45.0008697509766,1.41370368003845,-0.701264083385468,-0.302817076444626,0.42634391784668,-0.704361775018035,-0.303067194200314,0.43028361700977,6
1.40000915527344,-0.466585159301758,2.76523804664612,1.43052995204926,-0.464691155755482,2.76587275808388,1.42721946033724,2210.88,2210.625,2210.906,2209.928,356.520721435547,45.0007247924805,1.40139436721802,-0.713644862174988,-0.30808562040329,0.433537185192108,-0.716940488958393,-0.308479463400265,0.437967757068975,6
1.42001342773438,-0.481103271245956,2.75897192955017,1.43934226036072,-0.479157861067077,2.75964813894125,1.43605694486361,2209.527,2209.796,2211.08,2211.111,356.553283691406,45.0006141662598,1.38852119445801,-0.725907266139984,-0.313301891088486,0.440618366003036,-0.729400843645231,-0.313840805920001,0.445579593307164,6
1.44000244140625,-0.495864391326904,2.75260257720947,1.44829607009888,-0.493861275572861,2.75332167044526,1.44503903134294,2209.062,2209.425,2211.335,2211.051,356.586700439453,45.0005378723145,1.37495100498199,-0.738054692745209,-0.318468570709229,0.447691053152084,-0.741727567798258,-0.319144650954242,0.453109796737511,6
1.46000671386719,-0.510865926742554,2.74613094329834,1.45738983154297,-0.508821304757097,2.74688478782212,1.45417787972494,2206.232,2207.982,2214.036,2211.491,356.622375488281,45.0006294250488,1.3598724603653,-0.750079333782196,-0.323583453893661,0.454689770936966,-0.753933682518823,-0.324396601119133,0.46056632174764,6
1.48001098632813,-0.52610570192337,2.73955798149109,1.46662664413452,-0.524024159888143,2.74034342397783,1.46346506668862,2210.208,2209.97,2209.433,2209.08,356.659759521484,45.0004119873047,1.34519183635712,-0.761985123157501,-0.32865035533905,0.461841017007828,-0.766004036374583,-0.329590137176618,0.467939912563966,6
1.5,-0.541580677032471,2.73288488388062,1.4760035276413,-0.539455198877605,2.73370387899399,1.47289164761066,2208.291,2208.673,2209.473,2209.971,356.697601318359,45.0002593994141,1.32995307445526,-0.773751080036163,-0.33365660905838,0.468842148780823,-0.777924000354858,-0.334718964672088,0.475221632552146,6
1.52000427246094,-0.557288289070129,2.72611284255981,1.48551845550537,-0.555135099954955,2.72695725560613,1.48247025449879,2205.121,2206.765,2212.043,2210.307,356.737396240234,45.0002975463867,1.31318974494934,-0.785377621650696,-0.338603615760803,0.475744098424911,-0.789706299681991,-0.339788558913217,0.482419255351937,6
1.54000854492188,-0.573225677013397,2.719242811203,1.49517393112183,-0.571049184024557,2.72010986981902,1.49219192012252,2208.744,2208.465,2207.387,2207.593,356.778625488281,45.0000534057617,1.2968156337738,-0.796869158744812,-0.343495875597,0.482774555683136,-0.801336412291853,-0.344792671461508,0.489523909660973,6
1.56001281738281,-0.589389741420746,2.71227645874023,1.50496661663055,-0.587194353912065,2.71316305426025,1.50205475246639,2206.401,2206.943,2207.446,2208.157,356.8203125,44.9998779296875,1.27991878986359,-0.808205962181091,-0.34832164645195,0.489631712436676,-0.812809078412023,-0.349729039183831,0.496532382366361,6
1.58000183105469,-0.605777561664581,2.70521473884583,1.51489531993866,-0.60355483331529,2.70612359703193,1.51204911403357,2205.271,2205.882,2207.336,2207.503,356.862945556641,44.9997673034668,1.26232600212097,-0.819392383098602,-0.353083938360214,0.496434390544891,-0.824110582941666,-0.354591760855452,0.503436295127019,6
1.60000610351563,-0.622386038303375,2.69805908203125,1.52495753765106,-0.620152298932711,2.69898217125626,1.52218824678091,2201.698,2203.86,2209.675,2207.346,356.908050537109,44.9998435974121,1.24323463439941,-0.830420553684235,-0.357780575752258,0.503111958503723,-0.835253140422976,-0.35938609205264,0.510243109616171,5
1.62001037597656,-0.63921183347702,2.6908106803894,1.53515565395355,-0.636970945360177,2.69174557755711,1.53246249543365,2205.557,2205.394,2204.114,2204.262,356.954986572266,44.9995651245117,1.22464549541473,-0.841293692588806,-0.362414568662643,0.509906589984894,-0.846223126656604,-0.364106170663034,0.516944503023035,5
1.63999938964844,-0.656251728534698,2.68347120285034,1.54548561573029,-0.653994195024907,2.68442094880091,1.54286173301126,2203.133,2203.584,2203.444,2204.687,357.002349853516,44.9993476867676,1.20558190345764,-0.851991295814514,-0.366972893476486,0.516496002674103,-0.857007552155828,-0.368746407673381,0.523532540272869,5
1.66000366210938,-0.673502027988434,2.67604207992554,1.55594420433044,-0.671244443874359,2.67699864863716,1.55339964084857,2199.269,2201,2205.63,2204.68,357.051544189453,44.9993553161621,1.18493592739105,-0.862514138221741,-0.371456861495972,0.522931754589081,-0.867618167158098,-0.373311858882592,0.530014399402375,5
1.68000793457031,-0.690959334373474,2.66852474212646,1.56653344631195,-0.688705090349012,2.66948582025311,1.56406607731192,2202.709,2202.383,2200.236,2201.234,357.102020263672,44.9990539550781,1.16479694843292,-0.87286651134491,-0.375871449708939,0.529460072517395,-0.878042061913515,-0.377796969585941,0.536382194046789,5
1.70001220703125,-0.708619892597198,2.6609206199646,1.57724869251251,-0.706372354049449,2.66188409024902,1.5748587330143,2199.711,2200.303,2199.939,2201.432,357.152740478516,44.9988555908203,1.14417064189911,-0.883030295372009,-0.380205154418945,0.5357626080513,-0.888274735793774,-0.382199803288802,0.542633174842512,5
1.72000122070313,-0.72648012638092,2.65323138237,1.5880880355835,-0.724228658537036,2.6542010212754,1.58576687078363,2198.004,2198.803,2199.562,2200.253,357.204284667969,44.9987335205078,1.12292170524597,-0.893010437488556,-0.384461641311646,0.541967868804932,-0.898304216251578,-0.386515208538549,0.548760027947228,5
1.74000549316406,-0.744536101818085,2.64545869827271,1.59904825687408,-0.742297311768984,2.64642658456943,1.59680472908726,2193.847,2196.233,2201.647,2199.755,357.258361816406,44.9988098144531,1.10015881061554,-0.90280020236969,-0.388638854026794,0.548008680343628,-0.908141534469281,-0.390747931744771,0.554769492138099,5
1.760009765625,-0.76278418302536,2.6376039981842,1.61013102531433,-0.760560719141003,2.63856835059778,1.60796155965597,2197.651,2197.47,2195.39,2196.076,357.314208984375,44.9985237121582,1.07801008224487,-0.912401854991913,-0.392739653587341,0.55413955450058,-0.91777478390713,-0.394892849856044,0.560654293895788,4
1.77999877929688,-0.781220078468323,2.62966895103455,1.62133145332336,-0.779000609654483,2.63063418086074,1.61922620102184,2194.699,2195.202,2194.367,2196.22,357.370361328125,44.9982986450195,1.05542266368866,-0.921796679496765,-0.396751314401627,0.560020565986633,-0.927192788821983,-0.398945154262308,0.566407606133204,4
1.80000305175781,-0.799839794635773,2.62165546417236,1.63264572620392,-0.797640935141499,2.62261376955408,1.63061328498531,2190.326,2192.267,2196.307,2195.815,357.428283691406,44.9983100891113,1.03130900859833,-0.930985927581787,-0.400675475597382,0.565711140632629,-0.936405971974637,-0.402909329586356,0.572035795952272,4
1.82000732421875,-0.81863933801651,2.61356520652771,1.64407515525818,-0.816463410111527,2.61451498441355,1.64211164122557,2193.682,2193.308,2190.375,2191.918,357.487365722656,44.9980049133301,1.00780344009399,-0.939973294734955,-0.404516577720642,0.571468710899353,-0.94540321420156,-0.406780591562751,0.577532070829503,3
1.84001159667969,-0.837614059448242,2.60539984703064,1.65561437606812,-0.835463677219795,2.60633970028288,1.65371860790869,2190.219,2190.837,2189.802,2191.874,357.546508789063,44.9978179931641,0.983850121498108,-0.948742806911469,-0.408264070749283,0.576962828636169,-0.954180774018563,-0.410557330335375,0.582894145150591,3
1.86000061035156,-0.856760084629059,2.59716153144836,1.66726100444794,-0.854622615239374,2.59809614449182,1.66542250417552,2188.198,2189.06,2189.127,2190.311,357.606353759766,44.9977035522461,0.959358692169189,-0.957299649715424,-0.41192153096199,0.582330882549286,-0.962728579444532,-0.414235212212131,0.588115866099442,0
1.8800048828125,-0.876072764396667,2.58885169029236,1.67901110649109,-0.873964974649439,2.58977366760063,1.67723844970756,2183.598,2186.075,2191.032,2189.642,357.668640136719,44.9978103637695,0.933334290981293,-0.965638160705566,-0.415487498044968,0.587503790855408,-0.971056158224177,-0.417818336715394,0.593203054026622,0
1.90000915527344,-0.895547986030579,2.58047246932983,1.69086599349976,-0.893471623792247,2.58138050142717,1.68915475727365,2187.337,2187.184,2184.383,2185.426,357.732574462891,44.9975242614746,0.908076643943787,-0.973759531974792,-0.418964475393295,0.592745661735535,-0.979153483542501,-0.421302389586788,0.598149583707317,0
1.91999816894531,-0.915180861949921,2.57202577590942,1.70282018184662,-0.913122862707269,2.57292512231409,1.7011593924753,2184.056,2184.538,2183.094,2185.461,357.796630859375,44.9973182678223,0.8824223279953,-0.981647908687592,-0.422340601682663,0.597709238529205,-0.987011339258123,-0.424683405378145,0.60294982514457,0
1.94000244140625,-0.93496698141098,2.56351351737976,1.71486926078796,-0.932943991899774,2.5643966441608,1.71326781099638,2179.322,2181.325,2184.866,2184.856,357.862365722656,44.9973602294922,0.855250716209412,-0.989304900169373,-0.425617814064026,0.602456510066986,-0.994638524886308,-0.427965170275055,0.607609153824943,0
1.96000671386719,-0.954901576042175,2.55493760108948,1.7270143032074,-0.952915303453826,2.55580354673295,1.72546797357858,2182.641,2182.208,2178.609,2180.552,357.929046630859,44.9970664978027,0.828799247741699,-0.996732890605927,-0.428800076246262,0.607252359390259,-1.00202586176059,-0.431143734953757,0.612121962644322,0
1.98001098632813,-0.974979937076569,2.54629993438721,1.73924946784973,-0.973031969359004,2.54714790738853,1.73775693086567,2178.881,2179.524,2177.833,2180.33,357.995635986328,44.9968910217285,0.801999151706696,-1.00391912460327,-0.431878000497818,0.611760556697845,-1.00917036754089,-0.434217816196637,0.616486429737696,0
2,-0.995197296142578,2.53760290145874,1.75157189369202,-0.993273599084619,2.53843849960327,1.75012222660065,2176.593,2177.457,2177.039,2178.627,358.062774658203,44.9968109130859,0.774696350097656,-1.01086866855621,-0.434855163097382,0.616121113300323,-1.01606400046349,-0.437183953857422,0.620697642517089,0
2.02000427246094,-1.01554882526398,2.52884840965271,1.76397728919983,-1.01366615605493,2.52966415204104,1.76257972143423,2171.731,2174.321,2178.806,2177.757,358.132232666016,44.996940612793,0.745919644832611,-1.0175769329071,-0.437730640172958,0.620268583297729,-1.02271452148052,-0.440045487257004,0.624760342027063,0
2.04000854492188,-1.03602969646454,2.52003836631775,1.77646672725677,-1.03418924440916,2.52083364047092,1.77511695585335,2175.542,2175.225,2171.83,2173.3,358.203125,44.9966735839844,0.717978596687317,-1.02404379844666,-0.440506219863892,0.624472081661224,-1.02911391720548,-0.442798968459032,0.628669633014835,0
2.06001281738281,-1.05663478374481,2.51117491722107,1.78903424739838,-1.05483781489696,2.5119491374443,1.78773084534977,2171.983,2172.487,2170.416,2173.156,358.273956298828,44.9964942932129,0.689750015735626,-1.03025662899017,-0.443171441555023,0.628375768661499,-1.03525963910674,-0.445443300901551,0.632423958622216,0
2.08000183105469,-1.07735919952393,2.50226044654846,1.80167663097382,-1.07559088172821,2.50301967256038,1.80040857003175,2169.8,2170.372,2169.203,2171.441,358.345062255859,44.9963874816895,0.661062479019165,-1.03621971607208,-0.445729345083237,0.63211727142334,-1.04114485287423,-0.447975543971863,0.636019143875825,0
2.10000610351563,-1.09819781780243,2.49329686164856,1.8143892288208,-1.09647498538954,2.49403382618922,1.81316634306845,2164.732,2167.179,2170.948,2170.538,358.418121337891,44.996509552002,0.630934119224548,-1.04192972183228,-0.448179692029953,0.635628283023834,-1.04677621342161,-0.450398561093403,0.639459254158576,0
2.12001037597656,-1.11914551258087,2.48428630828857,1.82717287540436,-1.11746913671118,2.48500062938421,1.82599134250357,2168.411,2168.013,2164.097,2165.915,358.492340087891,44.9962501525879,0.601712644100189,-1.04738640785217,-0.450524657964706,0.639185309410095,-1.05214690704168,-0.452709420518306,0.642740127083052,0
2.13999938964844,-1.1401971578598,2.4752311706543,1.84002161026001,-1.138551967509,2.47592927627801,1.83887051484687,2164.644,2165.177,2162.834,2165.725,358.566284179688,44.9960861206055,0.572254061698914,-1.05257999897003,-0.452755331993103,0.642436146736145,-1.05725102347782,-0.454905579228273,0.645858152165725,0
2.16000366210938,-1.16134738922119,2.46613359451294,1.85293054580688,-1.15975039167652,2.46680818657414,1.85182030137592,2159.484,2161.65,2164.648,2165.043,358.641693115234,44.9961891174316,0.541340708732605,-1.05751287937164,-0.454873949289322,0.645449817180634,-1.0620943502576,-0.456989527434725,0.648816864916866,0
2.18000793457031,-1.18259108066559,2.45699596405029,1.86590051651001,-1.18104303873349,2.45764655539322,1.86482764719782,2162.966,2162.402,2158.073,2160.316,358.717864990234,44.9959335327148,0.511327147483826,-1.06218504905701,-0.456883430480957,0.648501336574554,-1.06667099276523,-0.458958728849171,0.651612664407683,0
2.20001220703125,-1.20392286777496,2.44782042503357,1.87892544269562,-1.20242455577657,2.44844668594002,1.87788928230744,2158.956,2159.489,2157.095,2160.092,358.793640136719,44.9958038330078,0.481053173542023,-1.06658911705017,-0.458776473999023,0.65124386548996,-1.07097916161324,-0.460812413548163,0.654244457529281,0
2.22000122070313,-1.22533750534058,2.43860912322998,1.89200186729431,-1.22387315175433,2.43921795429519,1.89099189489151,2156.562,2157.295,2156.098,2158.217,358.869659423828,44.9957618713379,0.450384020805359,-1.07072925567627,-0.460556209087372,0.653821527957916,-1.07501419914593,-0.462548577472581,0.656709398992482,0
2.24000549316406,-1.24682950973511,2.4293646812439,1.90512526035309,-1.24541615591711,2.42994860144581,1.90415217996261,2151.408,2154.103,2157.794,2157.223,358.94775390625,44.9959526062012,0.418377548456192,-1.07460296154022,-0.462222784757614,0.656167387962341,-1.07878069424208,-0.464169195088763,0.659010292071722,0
2.260009765625,-1.26839351654053,2.42008948326111,1.91829645633698,-1.26703177594152,2.42064800401982,1.91735682493042,2155.404,2154.81,2150.599,2152.525,359.026885986328,44.9957046508789,0.387355595827103,-1.07820761203766,-0.463776767253876,0.658558428287506,-1.08227399942825,-0.465672266718726,0.661144297698006,0
2.27999877929688,-1.29002439975739,2.41078519821167,1.93150913715363,-1.28869796983554,2.41132564607061,1.93059236468599,2151.652,2151.94,2149.064,2152.392,359.105560302734,44.9955558776855,0.356139093637466,-1.08153700828552,-0.465210467576981,0.660633683204651,-1.08549040888332,-0.467056197851165,0.663109152043028,0
2.30000305175781,-1.31171631813049,2.40145468711853,1.94475829601288,-1.31044231452835,2.40196966201596,1.94387564554502,2146.299,2148.481,2150.89,2151.64,359.185424804688,44.9956855773926,0.323568224906921,-1.0845935344696,-0.466526359319687,0.66245836019516,-1.08843358680109,-0.468322565086307,0.664907093505606,0
2.32000732421875,-1.33346366882324,2.39209985733032,1.95804464817047,-1.33224276726637,2.39258953623693,1.95719320193332,2149.909,2149.106,2144.274,2146.829,359.265747070313,44.9954490661621,0.291974484920502,-1.08737564086914,-0.467726796865463,0.664316654205322,-1.09109983431736,-0.469469776906228,0.666535862507326,0
2.34001159667969,-1.35526132583618,2.38272404670715,1.97136175632477,-1.35409377777295,2.38318765686251,1.97054164327349,2145.731,2146.287,2143.364,2146.51,359.345428466797,44.9953384399414,0.260283797979355,-1.08988010883331,-0.468806356191635,0.665858209133148,-1.09348812118877,-0.470497390025984,0.667994829688588,0
2.36000061035156,-1.37710356712341,2.3733286857605,1.98470640182495,-1.37597305876702,2.37377361348711,1.98390735461333,2143.376,2143.846,2142.33,2144.82,359.425109863281,44.9953193664551,0.22817687690258,-1.09211087226868,-0.469767957925797,0.667233228683472,-1.09559602313537,-0.471404361345641,0.669282514094601,0
2.3800048828125,-1.39898478984833,2.36391639709473,1.99807381629944,-1.39790843013262,2.36433543599182,1.99730733068585,2138.11,2140.839,2144.048,2143.689,359.506622314453,44.9955406188965,0.194850444793701,-1.09406673908234,-0.470612585544586,0.668371200561523,-1.09742594550583,-0.472191725819537,0.67040038511534,0
2.40000915527344,-1.4208996295929,2.35448956489563,2.01146483421326,-1.41987760424917,2.35488271411715,2.01072795633145,2142.152,2141.477,2136.942,2138.911,359.588989257813,44.9953308105469,0.162623971700668,-1.09574317932129,-0.47133994102478,0.669549524784088,-1.09897546783438,-0.472858441988871,0.671346964126033,0
2.41999816894531,-1.44284248352051,2.34505033493042,2.02487301826477,-1.44185817738692,2.34542508756209,2.02415554546122,2138.339,2138.604,2135.442,2138.826,359.670745849609,44.9952087402344,0.130302295088768,-1.09713816642761,-0.471944123506546,0.670410752296448,-1.10024313330221,-0.473403883025206,0.672121361178802,0
2.44000244140625,-1.46480751037598,2.33560180664063,2.0382936000824,-1.46387808506052,2.33595053645515,2.03760716344514,2133.111,2135.186,2137.102,2138.114,359.753540039063,44.9953536987305,0.0967283025383949,-1.09825432300568,-0.472427546977997,0.671023905277252,-1.10123038958312,-0.473828671822132,0.672724460634977,0
2.46000671386719,-1.48678922653198,2.32614612579346,2.05172681808472,-1.48591492338117,2.32646870056377,2.05106912409714,2136.805,2135.711,2130.513,2133.323,359.836456298828,44.9951248168945,0.0641754418611526,-1.0990879535675,-0.472791343927383,0.671663701534271,-1.10193578218388,-0.474132182551855,0.673155373967352,0
2.48001098632813,-1.50878190994263,2.31668543815613,2.06516647338867,-1.5079630509786,2.31698200721197,2.06453798119217,2132.6,2132.893,2129.617,2133.097,359.918426513672,44.9950408935547,0.0315352715551853,-1.09964025020599,-0.4730324447155,0.671985864639282,-1.10235904000526,-0.474314298567936,0.673413935565619,0
2.5,-1.53078031539917,2.30722236633301,2.07860922813416,-1.52999999932945,2.30750012397766,2.0780000090599,2130.143,2130.728,2128.743,2131.172,0.000197929781279527,44.995044708252,-0.00129495945293456,-1.09991431236267,-0.473153710365295,0.672137260437012,-1.10250000050292,-0.474374949932098,0.673500046133994,0
2.52000427246094,-1.55277848243713,2.29775929450989,2.09205031394958,-1.55205376834272,2.29801100328223,2.09147231240783,2124.979,2127.546,2130.397,2130.322,0.0836182683706284,44.995288848877,359.964691162109,-1.09991073608398,-0.473156362771988,0.672056794166565,-1.10235882472314,-0.474314205938057,0.673413804053136,0
2.54000854492188,-1.5747709274292,2.28829860687256,2.1054904460907,-1.57410188948011,2.28852431271001,2.10494116555652,2129.087,2128.193,2123.408,2125.485,0.167615845799446,44.9950904846191,359.931823730469,-1.09962284564972,-0.473039478063583,0.672012329101563,-1.10193535162022,-0.474131997292339,0.673155110942729,0
2.56001281738281,-1.59675192832947,2.27884268760681,2.11892342567444,-1.59613871703568,2.27904248145054,2.1184031196323,2125.301,2125.433,2121.927,2125.415,0.250780999660492,44.9949913024902,359.898986816406,-1.09905290603638,-0.472799122333527,0.671653687953949,-1.10122974390336,-0.473828394004169,0.672724066199287,0
2.58000183105469,-1.61871600151062,2.26939392089844,2.13234567642212,-1.61814182127198,2.26957516039323,2.13184447265859,2123.098,2123.28,2120.682,2123.639,0.333431392908096,44.9949684143066,359.865966796875,-1.09820342063904,-0.47243744134903,0.671118378639221,-1.10024313330221,-0.473403883025206,0.672121361178803,0
2.60000610351563,-1.64065742492676,2.25995469093323,2.14575242996216,-1.64013916343638,2.26011031859448,2.14528230572506,2117.929,2120.234,2122.294,2122.787,0.417294412851334,44.995189666748,359.831878662109,-1.09707593917847,-0.471956461668015,0.670343816280365,-1.09897439291323,-0.472857979480329,0.671346307473476,0
2.62001037597656,-1.66257095336914,2.25052762031555,2.15914440155029,-1.66210831390746,2.25065760689379,2.15870291692601,2121.847,2120.804,2115.67,2117.986,0.501353740692139,44.9949989318848,359.798980712891,-1.09566390514374,-0.471355378627777,0.669597089290619,-1.09742465646102,-0.47219117117957,0.670399597657984,0
2.63999938964844,-1.68445026874542,2.2411150932312,2.17251515388489,-1.68402693989188,2.24122663446822,2.17209266350648,2117.936,2117.995,2114.471,2117.999,0.58441686630249,44.9949226379395,359.766082763672,-1.09397232532501,-0.470631927251816,0.668540477752686,-1.09559602313537,-0.471404361345641,0.669282514094601,0
2.66000366210938,-1.70629036426544,2.23171925544739,2.18586015701294,-1.70592290617745,2.23180541187802,2.18546856763052,2112.951,2114.832,2116.034,2117.269,0.668151617050171,44.9951057434082,359.732116699219,-1.09200382232666,-0.469788730144501,0.667248606681824,-1.09348640563071,-0.470496651869278,0.667993781680938,0
2.68000793457031,-1.72808527946472,2.22234272956848,2.19917964935303,-1.72777388024004,2.22240354818443,2.19881698670763,2116.474,2115.289,2109.955,2112.56,0.751692116260529,44.9949340820313,359.699340820313,-1.08975207805634,-0.46882563829422,0.665972352027893,-1.09109790637238,-0.469468947365361,0.666534684755819,0
2.70001220703125,-1.74982976913452,2.21298789978027,2.21246767044067,-1.74957429229274,2.21302343991116,2.21213451824191,2112.516,2112.621,2109.021,2112.422,0.834106206893921,44.9948806762695,359.666656494141,-1.0872243642807,-0.467742025852203,0.664396107196808,-1.08843144721369,-0.468321644481621,0.664905786465049,0
2.72000122070313,-1.77151823043823,2.20365715026855,2.22572064399719,-1.77130202882336,2.20367460188472,2.22540765343382,2110.261,2110.487,2108.109,2110.712,0.915976166725159,44.9949226379395,359.633880615234,-1.08442258834839,-0.466539978981018,0.66265332698822,-1.08549040888332,-0.467056197851165,0.663109152043028,0
2.74000549316406,-1.79314529895782,2.19435262680054,2.23893427848816,-1.79298473688851,2.19434513834902,2.23865328143884,2105.382,2107.638,2109.573,2109.89,0.999049246311188,44.9951705932617,359.600128173828,-1.0813490152359,-0.465221643447876,0.660687625408173,-1.08227143928024,-0.465671165158559,0.661142733743536,0
2.760009765625,-1.81470513343811,2.18507695198059,2.25210928916931,-1.81460030360772,2.18504456385877,2.25185789384333,2109.37,2108.172,2103.08,2105.234,1.08221089839935,44.9949951171875,359.567626953125,-1.0779949426651,-0.46378481388092,0.658747136592865,-1.07877792518082,-0.464168003639063,0.659008600495412,0
2.77999877929688,-1.83619248867035,2.17583227157593,2.26523947715759,-1.83612684690458,2.17578229366013,2.2650081232283,2105.79,2105.609,2101.679,2105.239,1.16418254375458,44.9949150085449,359.535278320313,-1.07436895370483,-0.462228924036026,0.656509757041931,-1.07501419914593,-0.462548577472581,0.656709398992482,0
2.80000305175781,-1.85760188102722,2.16662120819092,2.2783203125,-1.85759178470316,2.16654653058634,2.2781207187757,2100.891,2102.539,2103.209,2104.71,1.24650526046753,44.9951019287109,359.502014160156,-1.07047390937805,-0.460556179285049,0.65403801202774,-1.07097597819164,-0.460811043810786,0.654242512826704,0
2.82000732421875,-1.87892806529999,2.15744590759277,2.29135203361511,-1.87897323600723,2.1573466894188,2.29118231372639,2104.486,2102.929,2097.363,2100.138,1.32826495170593,44.9949340820313,359.469940185547,-1.06630206108093,-0.458765983581543,0.651581168174744,-1.06666760390385,-0.458957270716794,0.65161059420515,0
2.84001159667969,-1.90016531944275,2.14830875396729,2.30432868003845,-1.90026581322863,2.14818508828617,2.30418961688683,2100.5,2100.427,2096.65,2100.068,1.408646941185,44.9949035644531,359.43798828125,-1.06186461448669,-0.456859797239304,0.648831486701965,-1.06209075728,-0.456987981476842,0.64881467002292,0
2.86000061035156,-1.92130851745605,2.13921189308167,2.31724715232849,-1.9214480311499,2.13907097167731,2.31712950327294,2098.422,2098.479,2095.814,2098.358,1.48825144767761,44.9949645996094,359.406127929688,-1.05716264247894,-0.454839497804642,0.645925760269165,-1.05725102347782,-0.454905579228273,0.645858152165725,0
2.8800048828125,-1.94235253334045,2.13015747070313,2.33010339736938,-1.94254691640495,2.12999271078668,2.33001848303364,2093.729,2095.805,2097.249,2097.646,1.56877624988556,44.9952201843262,359.373474121094,-1.05220007896423,-0.45270761847496,0.642806768417358,-1.0521429102862,-0.45270770082608,0.642737685527497,0
2.90000915527344,-1.96329188346863,2.12114858627319,2.34289765357971,-1.96354098577478,2.12095954924324,2.34284343240568,2097.631,2096.24,2091.149,2093.22,1.64912796020508,44.9950752258301,359.342071533203,-1.04696691036224,-0.4504614174366,0.639710366725922,-1.04677201701582,-0.450396755497224,0.639456690639761,0
2.91999816894531,-1.98412132263184,2.11218667030334,2.35562443733215,-1.98440911693069,2.11198057539494,2.35559144808806,2094.301,2093.78,2089.768,2093.352,1.72809517383575,44.9950141906738,359.310882568359,-1.04147517681122,-0.448101878166199,0.636334419250488,-1.04114485287423,-0.447975543971863,0.636019143875825,0
2.94000244140625,-2.0048360824585,2.10327410697937,2.36827921867371,-2.00517798053537,2.10304431360073,2.36827882277243,2089.64,2091.062,2091.222,2092.79,1.80712330341339,44.9952087402344,359.278961181641,-1.03572773933411,-0.445631414651871,0.632734715938568,-1.03525504859546,-0.445441325732794,0.632421154350513,0
2.96000671386719,-2.02543044090271,2.09441304206848,2.38086223602295,-2.02582645724542,2.09415985092405,2.38089265498147,2093.057,2091.364,2085.853,2088.482,1.8853405714035,44.9950752258301,359.248260498047,-1.02971589565277,-0.443048775196075,0.629145383834839,-1.02910913225408,-0.442796909628122,0.628666709962695,0
2.98001098632813,-2.04589939117432,2.08560585975647,2.39336800575256,-2.04634944795115,2.08532938136936,2.39342982974865,2089.396,2089.125,2085.133,2088.385,1.9620007276535,44.9950637817383,359.217864990234,-1.02345371246338,-0.440356880426407,0.625284492969513,-1.02270954399162,-0.440043345582586,0.624757301356766,0
3,-2.06623840332031,2.07685470581055,2.40579342842102,-2.06672639957428,2.07656174835205,2.40587779151916,2087.453,2087.246,2084.377,2086.9,2.03764224052429,44.9951400756836,359.187622070313,-1.01694214344025,-0.437557250261307,0.621274828910828,-1.01606400046349,-0.437183953857422,0.620697642517089,0
3.02000427246094,-2.0864417552948,2.06816172599792,2.41813468933105,-2.0869834279768,2.06784571494631,2.41825249406557,2083.047,2084.74,2085.749,2086.344,2.11387324333191,44.9953880310059,359.156707763672,-1.01018607616425,-0.434652835130692,0.61706554889679,-1.00916501115878,-0.434215511495054,0.616483157607448,0
3.04000854492188,-2.10650515556335,2.05952882766724,2.43039226531982,-2.10709998486405,2.05919012250926,2.43054138475531,2086.936,2085.245,2079.995,2082.046,2.18957924842834,44.9952583312988,359.127136230469,-1.00317490100861,-0.431640684604645,0.61287933588028,-1.00202031904361,-0.431141350077486,0.612118576685011,0
3.06001281738281,-2.12642383575439,2.05095863342285,2.44256067276001,-2.12707118369488,2.05059707358306,2.44274147847665,2083.564,2083.031,2078.948,2082.237,2.26371455192566,44.9952201843262,359.097900390625,-0.995923936367035,-0.428523421287537,0.608425438404083,-0.994632798067981,-0.427962706185117,0.607605655400993,0
3.08000183105469,-2.14619255065918,2.04245209693909,2.45463705062866,-2.14687713595163,2.04207512564123,2.45484062564451,2081.873,2081.214,2078.015,2080.909,2.33656597137451,44.9952583312988,359.068786621094,-0.988433718681335,-0.425302177667618,0.60382491350174,-0.987011339258122,-0.424683405378145,0.60294982514457,0
3.10000610351563,-2.16580653190613,2.03401279449463,2.46661758422852,-2.16654331551667,2.03361331798384,2.46685438785611,2077.586,2079.143,2079.376,2080.136,2.40961194038391,44.9954986572266,359.039276123047,-0.980709910392761,-0.421980828046799,0.599027454853058,-0.979147395688901,-0.421299770153459,0.598145864732551,0
3.12001037597656,-2.18526172637939,2.02564191818237,2.47850251197815,-2.18604984110275,2.02522020497339,2.47877061994332,2081.34,2079.283,2073.996,2076.315,2.48178791999817,44.9953727722168,359.011016845703,-0.972742438316345,-0.418556243181229,0.594251275062561,-0.971049893464309,-0.41781564116424,0.593199226982579,0
3.13999938964844,-2.20455265045166,2.01734089851379,2.4902868270874,-2.20537738341953,2.01690410346351,2.49057751394429,2077.943,2077.277,2073.226,2076.448,2.55223035812378,44.9953651428223,358.983093261719,-0.964548170566559,-0.415032505989075,0.589218080043793,-0.962728579444533,-0.414235212212131,0.588115866099442,0
3.16000366210938,-2.2236750125885,2.009113073349,2.50196671485901,-2.22455088103183,2.00865428308644,2.50229030443911,2073.925,2075.028,2074.587,2075.89,2.62237143516541,44.9955673217773,358.954833984375,-0.956129610538483,-0.411411821842194,0.583998084068298,-0.954174163352092,-0.410554485950274,0.582890106797601,0
3.18000793457031,-2.24262475967407,2.00095891952515,2.51354265213013,-2.24355101420387,2.00047905658478,2.51389718930268,2077.312,2075.098,2069.76,2072.24,2.69130969047546,44.9954643249512,358.927764892578,-0.947477877140045,-0.407692015171051,0.578792691230774,-0.945396434568188,-0.406777674475913,0.577527929257271,0
3.20001220703125,-2.26139688491821,1.99288129806519,2.52500939369202,-2.26237335188561,1.99238033051557,2.52539546167567,2073.837,2073.31,2069.351,2072.23,2.75845503807068,44.9954833984375,358.901184082031,-0.938610672950745,-0.403878271579742,0.573342561721802,-0.93639902618694,-0.402906341007952,0.572031552878955,0
3.22000122070313,-2.27998733520508,1.98488175868988,2.53636479377747,-2.28099938900442,1.98436606709459,2.53677381709797,2072.415,2071.711,2068.614,2070.955,2.82425689697266,44.9955673217773,358.874908447266,-0.929527878761292,-0.399971395730972,0.567771792411804,-0.927192788821982,-0.398945154262308,0.566407606133204,0
3.24000549316406,-2.29839205741882,1.97696232795715,2.54760527610779,-2.29945328359428,1.9764258717947,2.54804701333557,2068.652,2069.705,2069.76,2070.51,2.89004588127136,44.9958076477051,358.848297119141,-0.92023628950119,-0.39597499370575,0.562028706073761,-0.91776751470058,-0.394889722119544,0.560649853250941,0
3.260009765625,-2.31660628318787,1.96912455558777,2.55873131752014,-2.31771654397337,1.96856770107001,2.5592037541086,2072.077,2069.994,2064.969,2066.936,2.95481061935425,44.995719909668,358.822967529297,-0.910726070404053,-0.391886085271835,0.556302666664124,-0.908134108040216,-0.390744736359816,0.55476495544847,0
3.27999877929688,-2.33462691307068,1.96137022972107,2.56973838806152,-2.33577134012187,1.96079922667992,2.57023314733618,2069.298,2068.331,2064.06,2067.014,3.01767373085022,44.9957084655762,358.798217773438,-0.901014804840088,-0.387709200382233,0.550353288650513,-0.898304216251578,-0.386515208538549,0.548760027947228,0
3.30000305175781,-2.3524489402771,1.95370137691498,2.58062291145325,-2.35364119854729,1.95311032582551,2.58114956499463,2065.601,2066.07,2065.344,2066.924,3.07986450195313,44.9959182739258,358.773101806641,-0.891106128692627,-0.383446574211121,0.544231235980988,-0.888267004546666,-0.382196476749158,0.542628451944297,0
3.32000732421875,-2.37006855010986,1.94611930847168,2.59138536453247,-2.37130830610839,1.94550866300381,2.59194212531393,2068.753,2066.455,2061.1,2063.324,3.14055037498474,44.9958267211914,358.749298095703,-0.880991160869598,-0.379096508026123,0.53812450170517,-0.878034183119985,-0.377793579561194,0.536377381014769,0
3.34001159667969,-2.38748240470886,1.9386260509491,2.60202145576477,-2.38876879352593,1.93799590305759,2.60260846461177,2065.782,2064.825,2060.689,2063.46,3.19917726516724,44.9958610534668,358.726104736328,-0.870688855648041,-0.374664634466171,0.531804800033569,-0.867610144209785,-0.373308406832067,0.530009498308445,0
3.36000061035156,-2.40468645095825,1.93122315406799,2.61252903938293,-2.406005803634,1.93057929915441,2.61313828510855,2064.35,2063.365,2060.267,2062.485,3.2561948299408,44.9959526062012,358.703277587891,-0.86020028591156,-0.370152235031128,0.525374233722687,-0.857007552155826,-0.36874640767338,0.523532540272868,0
3.3800048828125,-2.42167711257935,1.92391192913055,2.62290501594543,-2.42304196557559,1.92324911460621,2.6235454105946,2061.116,2061.696,2061.321,2062.073,3.31284308433533,44.9961853027344,358.680297851563,-0.849532127380371,-0.365563064813614,0.518799364566803,-0.846214826007803,-0.364102599125748,0.516939432286212,0
3.40000915527344,-2.43845057487488,1.91669416427612,2.63314986228943,-2.43986044461333,1.91601259293018,2.63381955699157,2064.229,2062.068,2057.172,2058.844,3.36820578575134,44.9961280822754,358.65869140625,-0.838675856590271,-0.360894620418549,0.512242197990417,-0.835244706287931,-0.359382463079953,0.510237957334685,0
3.41999816894531,-2.45500373840332,1.90957093238831,2.64325976371765,-2.45644516534361,1.90887665092339,2.64395090408624,2061.857,2060.559,2056.388,2059.097,3.42150950431824,44.9961395263672,358.6376953125,-0.827649831771851,-0.356151819229126,0.505493819713593,-0.824110582941664,-0.354591760855451,0.503436295127018,0
3.44000244140625,-2.47133255004883,1.90254426002502,2.65323162078857,-2.47281804716281,1.90183185728196,2.6539528420958,2058.694,2058.773,2057.52,2058.973,3.47380447387695,44.9963340759277,358.616607666016,-0.81645804643631,-0.351337015628815,0.498598664999008,-0.812800388649434,-0.349725300221754,0.496527073925997,0
3.46000671386719,-2.48743438720703,1.89561533927917,2.66306591033936,-2.4889630419904,1.89488511704659,2.6638155674983,2061.585,2059.067,2053.862,2055.927,3.52430582046509,44.9962692260742,358.596862792969,-0.805093050003052,-0.346448659896851,0.491720646619797,-0.801327600455845,-0.344788879974649,0.489518526647863,0
3.48001098632813,-2.50330591201782,1.88878548145294,2.67275905609131,-2.50487694859767,1.88803780761656,2.67353712471306,2058.967,2057.635,2053.63,2056.226,3.57256364822388,44.9963150024414,358.577728271484,-0.793574273586273,-0.34149307012558,0.484660476446152,-0.789697369743255,-0.339784716610052,0.482413800191712,0
3.5,-2.51894402503967,1.88205599784851,2.68230938911438,-2.5205447997813,1.88129636896134,2.68310837050915,2057.806,2056.585,2053.349,2055.283,3.61898684501648,44.9964141845703,358.559143066406,-0.781903028488159,-0.336471766233444,0.477511048316956,-0.777924000354857,-0.334718964672089,0.475221632552147,0
3.52000427246094,-2.53434610366821,1.87542796134949,2.6917142868042,-2.53598752699493,1.87465179486116,2.69254209158495,2055.065,2055.191,2054.337,2055.043,3.66466116905212,44.9966430664063,358.540649414063,-0.770086765289307,-0.331388562917709,0.470243483781815,-0.765994882555673,-0.32958619854407,0.467934320638837,0
3.54000854492188,-2.54950857162476,1.86890316009521,2.70097422599792,-2.55119019794619,1.86811051026429,2.70182916603607,2057.833,2055.518,2050.879,2052.362,3.70878982543945,44.9966049194336,358.523468017578,-0.758118748664856,-0.326241284608841,0.462996959686279,-0.753924423002452,-0.324392617007921,0.460560665253582,0
3.55999755859375,-2.56442880630493,1.86248254776001,2.71008610725403,-2.56613872308604,1.86167857751006,2.71096098677687,2056.003,2054.32,2050.168,2052.645,3.75066614151001,44.9966316223145,358.506988525391,-0.746016919612885,-0.321035265922546,0.455597013235092,-0.741727567798258,-0.319144650954242,0.45310979673751,0
3.58000183105469,-2.57910442352295,1.85616719722748,2.7190477848053,-2.58085326729328,1.85534732021446,2.71994987221714,2053.446,2052.92,2051.124,2052.606,3.79110455513,44.9968070983887,358.490661621094,-0.733786165714264,-0.315773189067841,0.448078513145447,-0.729391385793765,-0.313836736470737,0.44557381565329,0
3.60000610351563,-2.59353303909302,1.84995782375336,2.72785925865173,-2.59531978247425,1.84912278287974,2.72878724059568,2055.797,2053.213,2048.3,2050.137,3.82948398590088,44.9967842102051,358.475646972656,-0.721421480178833,-0.310454398393631,0.440575808286667,-0.716930938559024,-0.308475354130224,0.437961922879033,0
3.62001037597656,-2.60771131515503,1.84385633468628,2.73651790618896,-2.60953584173048,1.8430060097325,2.73747160935808,2053.656,2052.172,2048.258,2050.387,3.86550879478455,44.9968528747559,358.461395263672,-0.708941221237183,-0.305085122585297,0.432931065559387,-0.704352136620513,-0.303063047067126,0.430277729063129,0
3.63999938964844,-2.62163853645325,1.83786273002625,2.7450225353241,-2.6234885835008,1.83700253474321,2.74599512157732,2053.031,2051.335,2047.914,2049.698,3.89943623542786,44.9969520568848,358.447845458984,-0.696347296237946,-0.29966676235199,0.425226718187332,-0.691670720740692,-0.297606588091786,0.422530849991739,0
3.66000366210938,-2.63531136512756,1.8319787979126,2.75337100028992,-2.63719712493647,1.83110413233575,2.75436945562281,2050.527,2050.232,2049.041,2049.727,3.9322202205658,44.9971809387207,358.434509277344,-0.683649003505707,-0.294203728437424,0.417423456907272,-0.678873453515702,-0.29210028151913,0.414713199141411,0
3.68000793457031,-2.6487283706665,1.8262050151825,2.76156425476074,-2.65064865588166,1.82531631436231,2.76258678597022,2053.283,2050.617,2046.072,2047.473,3.96312975883484,44.9971694946289,358.422515869141,-0.670840263366699,-0.288694322109222,0.409657925367355,-0.665976209205203,-0.286550957599616,0.406834473849655,0
3.70001220703125,-2.6618869304657,1.82054233551025,2.7695996761322,-2.66384123964357,1.81963991412768,2.77064592952416,2051.591,2049.754,2045.769,2047.892,3.99161434173584,44.9972267150879,358.411315917969,-0.657939791679382,-0.283144533634186,0.401767015457153,-0.65298533214413,-0.280961346123326,0.398898549771683,0
