t,x_s1,x_s2,x_s3,x_s_d1,x_s_d2,x_s_d3,propellers_rpms1,propellers_rpms2,propellers_rpms3,propellers_rpms4,rollRad,pitchRad,yawRad,v_s1,v_s2,v_s3,v_s_d1,v_s_d2,v_s_d3,insideCount
0,-0.0599999986588955,2.94000005722046,1.17999994754791,-0.0599999986588955,2.94000005722046,1.17999994754791,0,0,0,0,0,45.0048027038574,0,0,0,0,-1.06581410364015E-15,4.44089209850063E-16,-7.105427357601E-16,0
0.019989013671875,-0.0599999986588955,2.94000005722046,1.17705690860748,-0.0600018659130177,2.93999925379318,1.18000108822432,0,0,0,0,0.937003672122955,44.8630027770996,-0.00115976633969694,3.71994488546079E-08,3.50004931704007E-08,-0.147149950265884,-0.000279680311988734,-0.000120338624884473,0.000170852338267345,5
0.03997802734375,-0.0599999986588955,2.94000005722046,1.17018985748291,-0.060014847005691,2.93999366839165,1.18000901817127,0,0,0,0,1.87400352954865,44.7211418151855,-0.00311126722954214,3.70364325874561E-08,3.5142885934647E-08,-0.343349903821945,-0.00110975851463131,-0.000477498085781228,0.000677934159146771,6
0.05999755859375,-0.0599062256515026,2.94009447097778,1.16346502304077,-0.0600498857373401,2.93997859220429,1.18003042278566,3197.325,2848.704,1517.249,2782.322,1.40365922451019,44.7413520812988,0.0288782697170973,0.00468863174319267,0.00471880286931992,-0.336240500211716,-0.00247936261166862,-0.00106680046642749,0.00151460392977639,6
0.079986572265625,-0.0597377754747868,2.94026732444763,1.15723752975464,-0.0601174907153006,2.93994950367094,1.18007172161174,2866.013,2651.907,2344.175,2562.079,0.339566051959991,44.8157997131348,0.0999031513929367,0.00842245481908321,0.00864478945732117,-0.311372131109238,-0.00437104534358026,-0.00188073869847162,0.0026702033915743,6
0.0999755859375,-0.0595562905073166,2.94046425819397,1.15151929855347,-0.0602280337026576,2.93990194011169,1.18013925059773,2239.444,2527.902,3138.338,2508.833,359.321472167969,44.919116973877,0.178560763597488,0.00907422322779894,0.00984908081591129,-0.285909205675125,-0.00677334142420609,-0.00291437958958193,0.00413772858013753,5
0.1199951171875,-0.0594243928790092,2.94063210487366,1.14656853675842,-0.0603918861403606,2.93983143898525,1.18023934549506,2123.677,2454.725,3352.065,2464.421,358.75,44.9999008178711,0.253260344266891,0.00659493310377002,0.00839813239872456,-0.247537881135941,-0.00967801353495435,-0.00416417885169243,0.00591214744607921,5
0.139984130859375,-0.0593829825520515,2.94074010848999,1.14257037639618,-0.0606183773949454,2.93973398612584,1.18037770546816,2312.854,2456.903,3068.582,2463.071,358.636199951172,45.0326309204102,0.326482504606247,0.00207058852538466,0.00539825670421124,-0.19990673661232,-0.0130632593357409,-0.00562075554695178,0.00798014128006072,5
0.15997314453125,-0.0594433359801769,2.9407856464386,1.13952398300171,-0.0609172730813211,2.93960537966217,1.18056029617879,2536.092,2486.498,2635.79,2492.247,358.757019042969,45.0249977111816,0.398212611675262,-0.00301766907796264,0.00227969721890986,-0.152322188019753,-0.0169203082141145,-0.00728033592584475,0.0103363522517983,5
0.17999267578125,-0.0596000403165817,2.94078159332275,1.13730871677399,-0.0612985250199726,2.93944133760391,1.18079319703879,2666.416,2505.99,2302.732,2513.208,358.864501953125,44.9985656738281,0.467246055603027,-0.00783528573811054,-0.000197255052626133,-0.11076357960701,-0.0212433804254414,-0.00914043312572283,0.0129772496054864,5
0.199981689453125,-0.0598475784063339,2.94073987007141,1.13576090335846,-0.0617700327574899,2.93923846099686,1.18108123375791,2654.313,2500.524,2182.503,2508.231,358.817199707031,44.9743461608887,0.532962024211884,-0.0123769454658031,-0.00209092767909169,-0.0773895829916,-0.0260066742439309,-0.011189945384795,0.0158870714694674,5
0.219970703125,-0.0601894706487656,2.9406623840332,1.13474500179291,-0.0623411120546116,2.93899274152942,1.181430097189,2539.735,2470.19,2246.13,2479.325,358.612548828125,44.9636840820313,0.594512343406677,-0.0170945730060339,-0.00387993175536394,-0.0507952943444252,-0.0312039351396938,-0.0134261815535814,0.019061997049032,5
0.239990234375,-0.0606386847794056,2.94054174423218,1.13419282436371,-0.0630214373585105,2.93870001655724,1.18184569730089,2411.602,2429.618,2374.473,2437.304,358.334899902344,44.965934753418,0.652459979057312,-0.0224607028067112,-0.00603041378781199,-0.0276094228029251,-0.0368316683029241,-0.015847637913056,0.0224998914194052,5
0.259979248046875,-0.0612130053341389,2.94036650657654,1.13409042358398,-0.0638172488896441,2.93835760108779,1.18233184614686,2330.568,2392.475,2461.634,2398.12,358.076538085938,44.9738426208496,0.707826197147369,-0.0287160016596317,-0.00876758713275194,-0.00512250326573849,-0.0428604193878216,-0.0184416410810803,0.0261827613803636,4
0.279998779296875,-0.0619294680655003,2.94012546539307,1.13444018363953,-0.0647390625194898,2.93796097043536,1.18289496770872,2304.962,2364.669,2470.645,2371.174,357.887145996094,44.9803352355957,0.760465443134308,-0.035823218524456,-0.0120543390512466,0.0174876041710377,-0.0492963837173861,-0.0212108567320638,0.0301143915580518,4
0.29998779296875,-0.0628009587526321,2.93981146812439,1.13523614406586,-0.0657918945890516,2.93750796620855,1.18353812639089,2318.282,2348.668,2415.026,2353.023,357.764862060547,44.9817543029785,0.811438083648682,-0.0435745380818844,-0.0157051216810942,0.0397975519299507,-0.0561078595514081,-0.0241416444928383,0.0342754158540715,4
0.319976806640625,-0.0638357177376747,2.93942093849182,1.13644862174988,-0.0669846297797139,2.93699476557717,1.1842667497066,2333.857,2336.035,2343.539,2342.125,357.678405761719,44.978874206543,0.859982192516327,-0.0517380200326443,-0.01952213793993,0.0606234520673752,-0.0632924014512957,-0.0272329521594955,0.0386643403881474,4
0.339996337890625,-0.0650393217802048,2.93895292282104,1.1380352973938,-0.068326768706371,2.93641728069206,1.18508664143323,2337.635,2324.667,2287.222,2329.936,357.594573974609,44.9742012023926,0.906352996826172,-0.0601803734898567,-0.023403225466609,0.0793327838182449,-0.0708499516420146,-0.0304847548730522,0.0432811298664125,4
0.3599853515625,-0.066416822373867,2.93840599060059,1.13995051383972,-0.0698213312158394,2.93577421219747,1.18599964634808,2323.524,2311.226,2260.389,2315.406,357.494750976563,44.9702491760254,0.950911223888397,-0.0688751339912415,-0.0273423865437508,0.0957614853978157,-0.0787457139191101,-0.0338820807988248,0.0481045278305496,4
0.379974365234375,-0.0679740533232689,2.93777823448181,1.14215326309204,-0.0714771179380247,2.93506177342824,1.18701114061862,2294.509,2293.842,2261.633,2300.166,357.379852294922,44.9685745239258,0.992671728134155,-0.077861525118351,-0.0313879884779453,0.11013525724411,-0.0869793044824472,-0.0374247647983375,0.0531342998230452,4
0.399993896484375,-0.0697179511189461,2.93706631660461,1.14461612701416,-0.0733036822025899,2.9342758538535,1.18812696022487,2268.405,2277.688,2268.931,2282.801,357.261932373047,44.9687957763672,1.03216350078583,-0.0871948748826981,-0.0355970077216625,0.123144008219242,-0.0955525119207663,-0.0411135764513579,0.0583715384648505,4
0.41998291015625,-0.0716557726264,2.93626666069031,1.14732015132904,-0.075301871434707,2.93341608884986,1.18934762284564,2250.385,2263.652,2269.54,2267.086,357.152191162109,44.9698371887207,1.0701504945755,-0.0968912094831467,-0.0399887561798096,0.135198757052422,-0.104427768518458,-0.0449323514193797,0.0637932942247324,4
0.439971923828125,-0.0737942680716515,2.93537569046021,1.15024721622467,-0.0774805210173447,2.93247867679888,1.19067852587852,2236.673,2249.873,2264.44,2255.785,357.056884765625,44.9710502624512,1.10560572147369,-0.10692473500967,-0.0445455275475979,0.14635294675827,-0.113606589893581,-0.0488817418305121,0.069400492970112,4
0.459991455078125,-0.0761394202709198,2.93439102172852,1.15338289737701,-0.0798493430620752,2.93145943885026,1.1921256023009,2231.881,2240.296,2249.348,2244.704,356.975952148438,44.9717292785645,1.13920831680298,-0.117257691919804,-0.0492391809821129,0.156784400343895,-0.123092454730403,-0.0529632444654124,0.0751952597749251,4
0.47998046875,-0.0786962658166885,2.93331027030945,1.15671110153198,-0.082406855753501,2.93035901258777,1.1936879468949,2229.558,2232.694,2230.785,2235.462,356.903717041016,44.9718284606934,1.17166042327881,-0.127842262387276,-0.0540349520742893,0.166410118341446,-0.132845337826091,-0.057159637597476,0.0811531438673414,4
0.5,-0.0814690813422203,2.93213200569153,1.16021180152893,-0.085166398670376,2.92917165836334,1.195373708601,2221.065,2223.433,2220.509,2229.046,356.835784912109,44.9720191955566,1.20171165466309,-0.138640880584717,-0.0589082613587379,0.175036653876305,-0.142884000065179,-0.0614789935111996,0.0872856059789651,5
0.519989013671875,-0.0844620913267136,2.93085479736328,1.16387116909027,-0.0881248588203387,2.92789871561062,1.19718098574075,2216.505,2217.53,2210.168,2220.131,356.769592285156,44.9722442626953,1.23065066337585,-0.149650409817696,-0.063860684633255,0.182965576648712,-0.153166947611899,-0.0659034585682559,0.0935672981730243,5
0.53997802734375,-0.0876791849732399,2.92947697639465,1.16767239570618,-0.0912913676125048,2.92653625533937,1.19911535654949,2205.423,2209.088,2208.801,2214.565,356.705474853516,44.9730224609375,1.25721967220306,-0.160854667425156,-0.0688867419958115,0.190064281225204,-0.16369851368286,-0.0704348972306956,0.100000867543927,5
0.55999755859375,-0.0911243855953217,2.92799711227417,1.17160594463348,-0.094676112580471,2.92507989413848,1.20118304443252,2199.334,2203.505,2205.613,2207.224,356.645538330078,44.9740409851074,1.282186627388,-0.172260105609894,-0.073994867503643,0.196679249405861,-0.17448465888317,-0.0750758741803766,0.106589955332319,5
0.579986572265625,-0.0948015004396439,2.92641353607178,1.1756637096405,-0.0982734311149,2.92353206847056,1.20338059019015,2196.003,2199.282,2199.979,2201.035,356.589813232422,44.975040435791,1.30640578269958,-0.1838558614254,-0.0791802853345871,0.202890634536743,-0.185481935470438,-0.0798076950675377,0.113308019990364,5
0.5999755859375,-0.0987139344215393,2.924724817276,1.17983520030975,-0.102092760004862,2.92188871794891,1.20571375860958,2188.448,2192.91,2199.697,2198.201,356.539184570313,44.9763145446777,1.32835006713867,-0.195621356368065,-0.0844307169318199,0.20857347548008,-0.196696165293826,-0.0846328648712294,0.120158617994867,5
0.6199951171875,-0.102865025401115,2.92293000221252,1.18411564826965,-0.106144683970236,2.92014528826426,1.208189015731,2186.829,2189.981,2195.243,2193.366,356.494201660156,44.9774971008301,1.34885382652283,-0.207554653286934,-0.0897463858127594,0.214021563529968,-0.208134604141382,-0.0895545055543457,0.127146181793521,5
0.639984130859375,-0.107257768511772,2.92102766036987,1.18850040435791,-0.110420882305709,2.91830535958365,1.21080127856538,2187.13,2188.318,2188.56,2189.555,356.452789306641,44.9784317016602,1.36884415149689,-0.219637721776962,-0.0951167196035385,0.219236984848976,-0.219752140575416,-0.0945532069255159,0.134243153512991,5
0.65997314453125,-0.111894741654396,2.91901707649231,1.19298112392426,-0.114931182097002,2.91636470358665,1.21355655032604,2181.252,2183.843,2189.468,2188.941,356.414611816406,44.9796333312988,1.38664019107819,-0.231848821043968,-0.100529029965401,0.224035978317261,-0.231555939228262,-0.0996320517258771,0.141453909915369,5
0.67999267578125,-0.116778612136841,2.91689729690552,1.19755589962006,-0.119686638739014,2.91431856344567,1.2164615845812,2180.862,2182.664,2187.104,2185.752,356.380218505859,44.9807968139648,1.40312051773071,-0.244193479418755,-0.105989120900631,0.228736594319344,-0.243554411173546,-0.104794659005432,0.14878358919428,5
0.699981689453125,-0.12191179394722,2.91466736793518,1.20222282409668,-0.124676182095571,2.91217170233105,1.21950961875744,2182.067,2182.618,2182.85,2183.283,356.348052978516,44.9817848205566,1.41932797431946,-0.256659150123596,-0.111491017043591,0.23334376513958,-0.25570106256044,-0.110021023759057,0.156203788981777,5
0.719970703125,-0.127296343445778,2.91232681274414,1.20697605609894,-0.129910105849058,2.90991969115882,1.22270694110467,2176.733,2179.21,2186.413,2184.189,356.318542480469,44.9830780029297,1.43338906764984,-0.269227415323257,-0.117024540901184,0.237664490938187,-0.268004259419652,-0.115314745656047,0.163719619955469,5
0.739990234375,-0.132934495806694,2.90987491607666,1.21181678771973,-0.135400001298574,2.90755754251682,1.22606063256665,2177.681,2179.365,2185.509,2182.168,356.292907714844,44.9842987060547,1.44625818729401,-0.281907379627228,-0.122597552835941,0.242038175463676,-0.280473432677602,-0.12067988256057,0.171336843321139,5
0.759979248046875,-0.138828203082085,2.907310962677,1.21674573421478,-0.141131974150567,2.90509123473139,1.22956220533626,2180.497,2180.652,2181.82,2180.861,356.269470214844,44.9852676391602,1.45905423164368,-0.29468560218811,-0.128203064203262,0.246448412537575,-0.293060978423328,-0.126095951839638,0.179026378592425,5
0.779998779296875,-0.144979029893875,2.90463447570801,1.22175896167755,-0.147126184485884,2.90251209348295,1.2332239748923,2176.141,2178.16,2186.249,2183.093,356.24853515625,44.9865112304688,1.46972513198853,-0.307541370391846,-0.133829161524773,0.250661253929138,-0.305795832832518,-0.131575403921268,0.186805902427515,5
0.79998779296875,-0.151388823986053,2.90184473991394,1.22686088085175,-0.153366821193532,2.89982692185086,1.23703628247379,2180.922,2180.808,2182.853,2181.074,356.229949951172,44.9874534606934,1.48030185699463,-0.320490062236786,-0.139486700296402,0.25509449839592,-0.318629798715703,-0.137097500901303,0.194645971915464,5
0.819976806640625,-0.158058851957321,2.89894151687622,1.23204827308655,-0.159865102720482,2.89703089285078,1.24100598125492,2176.915,2178.989,2187.826,2183.729,356.213958740234,44.9886627197266,1.48883616924286,-0.333501279354095,-0.145159497857094,0.259371548891068,-0.331572942526109,-0.142666574093344,0.202552736495465,5
0.839996337890625,-0.164990603923798,2.89592432975769,1.23732531070709,-0.166633637018892,2.89411858163313,1.24514077323692,2179.823,2180.79,2187.409,2183.057,356.201507568359,44.9897117614746,1.496413230896,-0.346586793661118,-0.150856286287308,0.263851284980774,-0.344636106234817,-0.148287288494656,0.210532819358465,5
0.8599853515625,-0.172185227274895,2.89279294013977,1.24269497394562,-0.173653699721778,2.89109804476993,1.2494292199962,2184.302,2183.553,2184.031,2182.99,356.190460205078,44.9904479980469,1.50425112247467,-0.359732121229172,-0.156569167971611,0.268482655286789,-0.357770416714212,-0.153938615363784,0.218556364673454,5
0.879974365234375,-0.179643541574478,2.88954710960388,1.24815464019775,-0.180937139259224,2.88796418421271,1.25387855955379,2180.339,2181.769,2189.961,2186.644,356.180999755859,44.9914970397949,1.50998556613922,-0.372916162014008,-0.162286326289177,0.272985100746155,-0.370986786595025,-0.159625250100867,0.226630038796258,5
0.899993896484375,-0.187366634607315,2.88618683815002,1.25370931625366,-0.18849723509595,2.8847112861788,1.25849690412748,2183.381,2184.073,2190.455,2186.245,356.174438476563,44.9924201965332,1.51480162143707,-0.386154413223267,-0.168019562959671,0.277734786272049,-0.384296738353309,-0.165352150505452,0.234760880627692,5
0.91998291015625,-0.19535531103611,2.88271164894104,1.2593629360199,-0.196312316554895,2.88134867495511,1.2632710154388,2188.166,2187.25,2187.612,2186.439,356.168884277344,44.9930381774902,1.5199830532074,-0.399434089660645,-0.173762515187263,0.282681286334991,-0.397650971463704,-0.171098103938772,0.242918773246135,5
0.939971923828125,-0.203609973192215,2.87912154197693,1.26511335372925,-0.204394909045252,2.877870961208,1.26820854506479,2184.016,2185.599,2194.392,2190.466,356.164916992188,44.9939918518066,1.5230633020401,-0.412733465433121,-0.179503053426743,0.287519812583923,-0.411061119720526,-0.176868116097511,0.25111082355499,5
0.959991455078125,-0.212131351232529,2.87541651725769,1.27096629142761,-0.212759000778906,2.87427212620069,1.27331803818581,2187.508,2188.2,2194.924,2190.219,356.164001464844,44.9947929382324,1.5252913236618,-0.426069587469101,-0.185253843665123,0.292647302150726,-0.424539267042903,-0.182667386354485,0.259344413431889,5
0.97998046875,-0.220919921994209,2.87159633636475,1.2769261598587,-0.221379956358585,2.87056276985637,1.27858444542207,2192.78,2191.708,2191.749,2190.533,356.164031982422,44.9952659606934,1.52804362773895,-0.439428299665451,-0.191007569432259,0.297995626926422,-0.438035925118965,-0.188474621271639,0.267589311239359,5
1,-0.229975655674934,2.86766123771667,1.28299081325531,-0.230284798736574,2.86673126495361,1.28402427467346,2188.495,2189.983,2198.732,2194.893,356.165466308594,44.9960708618164,1.52867531776428,-0.452786505222321,-0.196751073002815,0.303232818841934,-0.451584000205995,-0.194303979492187,0.275865618896484,5
1.01998901367188,-0.239299029111862,2.86361122131348,1.28916811943054,-0.239446912293295,2.86278906344998,1.2896212668733,2195.484,2194.449,2195.405,2193.534,356.168365478516,44.9965057373047,1.52972304821014,-0.466168761253357,-0.20250041782856,0.308862805366516,-0.46513400752272,-0.200134169097193,0.284143106922576,5
1.03997802734375,-0.248889803886414,2.85944652557373,1.29545569419861,-0.248880035413094,2.85873025410248,1.2953838145862,2191.083,2192.906,2202.36,2197.747,356.173126220703,44.9972724914551,1.5286819934845,-0.479538798332214,-0.208236485719681,0.314377039670944,-0.478698517198992,-0.205970598662363,0.292429454213812,5
1.05999755859375,-0.258748084306717,2.85516715049744,1.30185973644257,-0.258599401509697,2.85454828239877,1.3013212236669,2195.158,2195.712,2202.152,2197.446,356.181091308594,44.9978370666504,1.5269136428833,-0.492915034294128,-0.213971957564354,0.32020366191864,-0.492290296490434,-0.211818761581115,0.30073246008742,5
1.07998657226563,-0.268873691558838,2.85077309608459,1.30838465690613,-0.268575430648764,2.85025587575821,1.30741542419509,2200.838,2199.396,2198.097,2197.675,356.189636230469,44.9980125427246,1.52590560913086,-0.506281316280365,-0.219697967171669,0.326247930526733,-0.50586005237609,-0.217657448443621,0.309022012206103,5
1.0999755859375,-0.279265999794006,2.84626507759094,1.31502747535706,-0.278822628233634,2.845846792911,1.31367527729532,2195.842,2197.239,2205.36,2202.231,356.199157714844,44.9985847473145,1.52273857593536,-0.519613683223724,-0.22540083527565,0.332141488790512,-0.519420764586993,-0.223492244065532,0.317306039685002,5
1.1199951171875,-0.289924651384354,2.84164309501648,1.32179415225983,-0.289357002179081,2.84131414609862,1.32011056195293,2199.428,2199.848,2205.553,2201.663,356.211303710938,44.9990043640137,1.51880657672882,-0.532933950424194,-0.231096059083939,0.338333815336227,-0.532985466132485,-0.229328756186667,0.32559250418615,5
1.13998413085938,-0.300849229097366,2.83690762519836,1.32868885993958,-0.300146026259498,2.83667193044725,1.32670140840426,2204.758,2203.435,2201.691,2201.509,356.223815917969,44.999080657959,1.51572000980377,-0.54622757434845,-0.236776500940323,0.344735145568848,-0.546505271550557,-0.235145950758426,0.333851542343647,5
1.15997314453125,-0.312038630247116,2.83205914497375,1.3357081413269,-0.311204994190806,2.83191356549821,1.3334571593417,2199.148,2200.823,2209.311,2206.005,356.237426757813,44.9995765686035,1.51039171218872,-0.55947083234787,-0.242428570985794,0.350965321063995,-0.559993461530388,-0.240949542090342,0.342091267123272,6
1.17999267578125,-0.3234923183918,2.82709789276123,1.34285795688629,-0.322550701230474,2.8270318247214,1.34038807472597,2202.695,2203.348,2209.18,2205.05,356.253967285156,44.9999122619629,1.50434756278992,-0.572685897350311,-0.248067930340767,0.357491880655289,-0.573463232144024,-0.246745208083563,0.350319739799517,6
1.19998168945313,-0.335209488868713,2.82202410697937,1.35014224052429,-0.334147705564643,2.8220419577392,1.34747250370603,2208.141,2206.784,2204.613,2204.658,356.270965576172,44.9998626708984,1.49923610687256,-0.585856974124908,-0.253686428070068,0.364214986562729,-0.586866312357874,-0.25251217906087,0.358507472351216,6
1.219970703125,-0.347188651561737,2.81683874130249,1.35755681991577,-0.346012104131023,2.81693703848901,1.35472027964994,2202.043,2203.836,2212.082,2209.04,356.2890625,45.0002555847168,1.49187421798706,-0.598958969116211,-0.259269326925278,0.37073028087616,-0.600216179640808,-0.2582562540006,0.366662697953789,6
1.239990234375,-0.359428942203522,2.81154203414917,1.36510729789734,-0.358161486344149,2.81170949873715,1.36214214765657,2205.529,2206.125,2211.469,2207.795,356.310089111328,45.0004844665527,1.48380947113037,-0.612015008926392,-0.26483291387558,0.377526313066483,-0.613526094901141,-0.263983138701136,0.374793517489195,6
1.25997924804688,-0.371929109096527,2.80613470077515,1.37279713153839,-0.370557537648727,2.80637582416637,1.36971470196197,2210.829,2209.406,2206.417,2207.053,356.331390380859,45.0003204345703,1.47677493095398,-0.625008761882782,-0.270368576049805,0.384493917226791,-0.626748599474006,-0.269672413024826,0.382870939199643,6
1.27999877929688,-0.384687393903732,2.80061745643616,1.38062143325806,-0.383236695417198,2.80092033679326,1.37746020158837,2204.137,2205.969,2213.891,2211.339,356.353668212891,45.0006294250488,1.46741580963135,-0.63791561126709,-0.275861769914627,0.391216635704041,-0.639917282339435,-0.275338529371412,0.39091548206889,6
1.29998779296875,-0.397702753543854,2.79499077796936,1.38858759403229,-0.396158759015336,2.79536033382764,1.38535408859565,2211.405,2210.17,2208.51,2208.282,356.377075195313,45.0005073547363,1.45889115333557,-0.650766253471375,-0.281332403421402,0.398310393095016,-0.652985332144132,-0.280961346123326,0.398898549771684,6
1.31997680664063,-0.410973131656647,2.78925561904907,1.39669036865234,-0.409341180862083,2.78968830598122,1.39340702439419,2204.421,2206.877,2215.757,2212.115,356.402252197266,45.0008354187012,1.44810032844543,-0.66351979970932,-0.286758601665497,0.405138403177261,-0.665966334939128,-0.286546708978778,0.406828441814593,6
1.33999633789063,-0.424497067928314,2.78341245651245,1.40493488311768,-0.422802873722428,2.78389611561957,1.401630562497,2208.03,2208.873,2213.963,2210.268,356.430847167969,45.0009269714355,1.4367288351059,-0.676198899745941,-0.29215544462204,0.412225991487503,-0.678873453515705,-0.29210028151913,0.41471319914141,6
1.3599853515625,-0.438272833824158,2.77746224403381,1.41332376003265,-0.436500861174643,2.77800225429635,1.40999844927868,2213.457,2211.833,2207.507,2209.058,356.459686279297,45.0005912780762,1.42656779289246,-0.688785433769226,-0.29751244187355,0.419444710016251,-0.69166099897751,-0.297602405088682,0.422524911118315,6
1.37997436523438,-0.45229783654213,2.77140593528748,1.42185068130493,-0.45045340944128,2.77199886256629,1.41852184328955,2205.812,2207.642,2214.729,2213.198,356.489227294922,45.0007667541504,1.41400253772736,-0.701254069805145,-0.302814275026321,0.426345348358154,-0.704342498157629,-0.303058899905815,0.430271841076558,6
1.39999389648438,-0.466570436954498,2.76524424552917,1.43052005767822,-0.464680216184654,2.76587746507559,1.42721277752413,2208.634,2209.357,2213.381,2210.836,356.521484375,45.0007934570313,1.40081453323364,-0.713630259037018,-0.308079183101654,0.43346956372261,-0.716930938559026,-0.308475354130225,0.437961922879032,6
1.41998291015625,-0.481088399887085,2.75897836685181,1.43933415412903,-0.479135601808478,2.75965771647838,1.43604334702988,2213.434,2212.001,2207.288,2209.144,356.5537109375,45.0004234313965,1.38887143135071,-0.725898504257202,-0.313299000263214,0.440703213214874,-0.729381927869995,-0.313832666990362,0.445568037955247,6
1.43997192382813,-0.495849132537842,2.75260925292969,1.44828605651855,-0.493838640129536,2.75333140984416,1.44502520370383,2205.074,2207.358,2214.86,2213.031,356.5869140625,45.0006217956543,1.37447071075439,-0.738034904003143,-0.318459093570709,0.447595089673996,-0.741708845898107,-0.319136595443637,0.453098359820858,6
1.45999145507813,-0.510850369930267,2.74613761901855,1.45738005638123,-0.508809800712713,2.74688973769103,1.45417085208374,2207.794,2208.809,2213.188,2210.306,356.623229980469,45.0006370544434,1.35944175720215,-0.750064313411713,-0.323577404022217,0.454702615737915,-0.753924423002454,-0.324392617007921,0.460560665253582,6
1.47998046875,-0.52608984708786,2.7395646572113,1.46661818027496,-0.524000783579472,2.74035348215039,1.46345078646643,2212.725,2211.354,2206.326,2208.244,356.659759521484,45.0002288818359,1.34576618671417,-0.761969923973083,-0.328644514083862,0.461905032396317,-0.76598572865452,-0.329582259876133,0.467928728663466,6
1.49996948242188,-0.541564345359802,2.73289179801941,1.47599279880524,-0.53943145879715,2.73371409368739,1.47287714516597,2203.96,2206.323,2213.601,2212.078,356.697296142578,45.0003700256348,1.3296000957489,-0.773727059364319,-0.333645075559616,0.468729466199875,-0.777905912293371,-0.334711181884553,0.475210582837643,6
1.51998901367188,-0.557271599769592,2.72611975669861,1.4855078458786,-0.555123050061237,2.72696244033876,1.48246289340675,2206.654,2207.594,2211.401,2209.03,356.737915039063,45.0003356933594,1.31283116340637,-0.785360336303711,-0.338596671819687,0.475751310586929,-0.789697369743256,-0.339784716610053,0.482413800191712,6
1.53997802734375,-0.573208510875702,2.71924996376038,1.49516463279724,-0.571024729446907,2.7201203919406,1.49217698120264,2211.428,2209.923,2204.139,2206.692,356.778533935547,44.9998779296875,1.29746639728546,-0.796853005886078,-0.343489944934845,0.482841730117798,-0.801318788528229,-0.344785088448372,0.489513143578788,6
1.55999755859375,-0.589372217655182,2.71228384971619,1.50495505332947,-0.587181951496087,2.71316839067337,1.50204717602401,2202.114,2204.572,2211.446,2210.359,356.820037841797,45.0000038146973,1.27959704399109,-0.808181703090668,-0.348310112953186,0.489521592855453,-0.812800388649436,-0.349725300221754,0.496527073925997,6
1.57998657226563,-0.605759799480438,2.70522236824036,1.51488518714905,-0.603542258451077,2.7061290076447,1.51204143224525,2209.291,2207.961,2203.927,2205.391,356.862487792969,44.9996452331543,1.2628527879715,-0.819378137588501,-0.353078186511993,0.496507942676544,-0.82410201904291,-0.354588076049064,0.503431063574906,6
1.5999755859375,-0.622367799282074,2.69806694984436,1.52494657039642,-0.620126809287134,2.69899313873865,1.52217267555419,2199.763,2202.945,2210.979,2208.553,356.906768798828,44.9998397827148,1.24368286132813,-0.830402433872223,-0.357771933078766,0.50306910276413,-0.835236272052476,-0.359378834064062,0.510232804991858,5
1.6199951171875,-0.639193475246429,2.69081878662109,1.53514289855957,-0.636958033083316,2.69175113334911,1.53245460752521,2202.741,2203.958,2207.66,2205.063,356.954681396484,44.9997749328613,1.22405469417572,-0.841277360916138,-0.36240690946579,0.509814083576202,-0.846214826007804,-0.364102599125749,0.516939432286212,5
1.63998413085938,-0.656233131885529,2.68347930908203,1.54547476768494,-0.653981118189727,2.68442657539777,1.54285374457671,2207.778,2205.999,2199.127,2202.447,357.002532958984,44.9992256164551,1.20596969127655,-0.851984441280365,-0.36697182059288,0.516595959663391,-0.856999388527105,-0.368742895092007,0.523527553239473,5
1.65997314453125,-0.67348313331604,2.67605018615723,1.55593299865723,-0.671217966514002,2.67701004110563,1.5533834662423,2197.753,2200.184,2206.155,2206.025,357.050994873047,44.9993019104004,1.18535733222961,-0.862501382827759,-0.371451675891876,0.522909760475159,-0.86760212115283,-0.373304954734798,0.530004597148149,5
1.67999267578125,-0.690940201282501,2.66853284835815,1.56652045249939,-0.688691692550512,2.66949158495151,1.56405789280588,2199.927,2200.896,2203.521,2202.208,357.102203369141,44.9992179870605,1.16419363021851,-0.872852921485901,-0.375865131616592,0.529374241828918,-0.878034183119987,-0.377793579561193,0.536377381014768,5
1.69998168945313,-0.708600640296936,2.66092872619629,1.57723772525787,-0.706345246291743,2.66189575395985,1.57484217330813,2204.377,2202.761,2195.592,2199.126,357.153045654297,44.9987030029297,1.14460384845734,-0.883024096488953,-0.380203872919083,0.535863280296326,-0.88825927318574,-0.382193150160541,0.542623728976553,5
1.719970703125,-0.726460576057434,2.65323972702026,1.58807516098022,-0.724201244699276,2.65421281668394,1.58575012409793,2193.676,2196.607,2203.165,2202.561,357.204711914063,44.9988479614258,1.122438788414,-0.89299476146698,-0.384454369544983,0.541871547698975,-0.898289055119065,-0.386508685126782,0.548750766247961,5
1.739990234375,-0.744516313076019,2.64546704292297,1.59903585910797,-0.74228345468553,2.64643254688532,1.59679626401121,2195.907,2197.174,2200.3,2198.472,357.259552001953,44.9987983703613,1.09972846508026,-0.90278822183609,-0.388634264469147,0.548034846782684,-0.908134108040217,-0.390744736359816,0.554764955448471,5
1.75997924804688,-0.762764096260071,2.63761234283447,1.61012017726898,-0.760532711099173,2.63858040167573,1.60794444998027,2200.588,2199.022,2191.746,2195.147,357.314300537109,44.9982948303223,1.07869589328766,-0.912388324737549,-0.392734199762344,0.554216921329498,-0.917760245372929,-0.394886594330938,0.560645412532115,4
1.77999877929688,-0.781199634075165,2.62967753410339,1.62131810188293,-0.779000609654483,2.63063418086074,1.61922620102184,2189.699,2192.64,2198.993,2198.653,357.369934082031,44.998420715332,1.05506527423859,-0.921775162220001,-0.396739900112152,0.559895932674408,-0.927192788821983,-0.398945154262308,0.566407606133204,4
1.79998779296875,-0.799819111824036,2.62166404724121,1.63263511657715,-0.797626646773287,2.62261991743975,1.63060455644414,2197.204,2195.697,2190.125,2192.5,357.426391601563,44.9980163574219,1.03282511234283,-0.930976748466492,-0.400671154260635,0.565853834152222,-0.936399026186941,-0.402906341007953,0.572031552878955,4
1.81997680664063,-0.818618357181549,2.61357378959656,1.64406108856201,-0.816434558901977,2.61452739828301,1.64209401647187,2186.203,2189.779,2197.078,2195.546,357.484527587891,44.9982261657715,1.00809466838837,-0.939958691596985,-0.404507339000702,0.571298837661743,-0.945389654806995,-0.406774757334075,0.577523787606953,3
1.83999633789063,-0.837593138217926,2.60540843009949,1.65559887886047,-0.835449117627072,2.60634596486888,1.6537097136807,2188.979,2190.271,2193.007,2191.213,357.546234130859,44.9981689453125,0.982974708080292,-0.948740303516388,-0.408262938261032,0.576890051364899,-0.954174163352093,-0.410554485950274,0.582890106797601,3
1.8599853515625,-0.856739163398743,2.59716987609863,1.66724836826324,-0.854607925216182,2.59810246519841,1.66541353026959,2194.005,2191.968,2183.396,2187.76,357.607543945313,44.9975814819336,0.959674477577209,-0.957304835319519,-0.411927163600922,0.582473754882813,-0.962722140342816,-0.41423244164655,0.588111932552683,0
1.87997436523438,-0.876051783561707,2.58886003494263,1.67899858951569,-0.873935340558452,2.5897864183221,1.67722034670381,2182.537,2185.284,2190.535,2191.334,357.669189453125,44.9976844787598,0.933761239051819,-0.965635597705841,-0.415487080812454,0.587511241436005,-0.971043628570469,-0.417812945555442,0.593195399856694,0
1.89999389648438,-0.895526945590973,2.5804808139801,1.69085192680359,-0.893456683142228,2.58138692997148,1.6891456302637,2184.525,2185.616,2187.365,2186.675,357.733489990234,44.9976234436035,0.907402813434601,-0.973753333091736,-0.418960273265839,0.592669665813446,-0.979147395688901,-0.421299770153459,0.598145864732551,0
1.91998291015625,-0.91515976190567,2.57203412055969,1.70280826091766,-0.91310780215452,2.5729316024492,1.70115019221864,2188.941,2187.108,2178.601,2182.926,357.797119140625,44.9971008300781,0.882848739624023,-0.981644809246063,-0.422338873147964,0.59781539440155,-0.98700543065471,-0.424680863071164,0.602946215670947,0
1.93997192382813,-0.934945642948151,2.56352186203003,1.71485662460327,-0.932913638115654,2.56440970454612,1.71324926834332,2177.042,2180.306,2186.19,2186.344,357.861389160156,44.9972953796387,0.855689287185669,-0.989296078681946,-0.425611525774002,0.602417528629303,-0.9946270711101,-0.427960242035134,0.607602156891791,0
1.95999145507813,-0.954880118370056,2.55494594573975,1.72699964046478,-0.952900013794853,2.55581012544606,1.7254586333645,2179.166,2180.552,2182.832,2181.538,357.928771972656,44.9972877502441,0.828116238117218,-0.996725142002106,-0.428794056177139,0.607148230075836,-1.00202031904361,-0.431141350077486,0.612118576685011,0
1.97998046875,-0.974958598613739,2.54630851745605,1.73923695087433,-0.973001172086935,2.54716115859433,1.73773811729275,2183.915,2182.053,2173.502,2177.67,357.995697021484,44.9967651367188,0.802434265613556,-1.00391793251038,-0.431877553462982,0.611866593360901,-1.0091596546337,-0.434213206731958,0.616479885389866,0
1.99996948242188,-0.995175719261169,2.53761148452759,1.75155746936798,-0.993242591429821,2.53845184133088,1.75010328450819,2171.932,2175.11,2180.783,2181.26,358.063293457031,44.9969635009766,0.77410089969635,-1.01086127758026,-0.434850543737411,0.616026699542999,-1.01605366423684,-0.437179506467857,0.620691328277525,0
2.01998901367188,-1.01552712917328,2.52885699272156,1.76396358013153,-1.01365055070775,2.52967086658596,1.76257018837116,2174.198,2175.43,2177.115,2176.242,358.133819580078,44.9969367980957,0.745428681373596,-1.01757121086121,-0.437728077173233,0.620307981967926,-1.02270954399163,-0.440043345582587,0.624757301356767,0
2.03997802734375,-1.03600776195526,2.5200469493866,1.77645480632782,-1.03415783849082,2.52084715356021,1.77509777046792,2178.893,2176.813,2167.714,2172.337,358.203521728516,44.996410369873,0.718684136867523,-1.02403473854065,-0.440501719713211,0.624564349651337,-1.02910434715509,-0.442794850733705,0.628663786820389,0
2.05999755859375,-1.05661261081696,2.5111837387085,1.78901982307434,-1.05482201812353,2.5119559343546,1.78772119534738,2166.562,2169.85,2175.178,2175.88,358.273742675781,44.9966125488281,0.689342021942139,-1.0302414894104,-0.443161368370056,0.628250479698181,-1.03525504859546,-0.445441325732794,0.632421154350513,0
2.07998657226563,-1.07733690738678,2.50226926803589,1.80166375637054,-1.07557499515204,2.50302650811029,1.80039886517028,2174.413,2172.581,2165.708,2168.786,358.344329833984,44.9962387084961,0.661637961864471,-1.03621017932892,-0.445723354816437,0.632197558879852,-1.04114045847258,-0.4479736531836,0.636016459404434,0
2.0999755859375,-1.0981752872467,2.49330568313599,1.81437528133392,-1.09644304044274,2.49404757120739,1.81314682839894,2162.153,2166.161,2172.778,2171.955,358.416442871094,44.9965324401855,0.631440401077271,-1.04191958904266,-0.448172569274902,0.635577797889709,-1.04676782045836,-0.450394949835787,0.639454127028294,0
2.1199951171875,-1.11912274360657,2.48429536819458,1.82715702056885,-1.11745308225396,2.48500753716864,1.82598153508617,2165.067,2166.426,2168.192,2166.901,358.491973876953,44.9965209960938,0.601048111915588,-1.04738032817841,-0.450519889593124,0.639085948467255,-1.0521429102862,-0.45270770082608,0.642737685527497,0
2.13998413085938,-1.14017426967621,2.47524046897888,1.84000813961029,-1.13853583516761,2.47593621757383,1.83886065985125,2170.294,2167.787,2157.874,2162.987,358.566589355469,44.9959449768066,0.572721540927887,-1.05257880687714,-0.45275554060936,0.642558336257935,-1.05724722779031,-0.454903946049977,0.645855833439456,0
2.15997314453125,-1.1613245010376,2.4661431312561,1.85291683673859,-1.15971797923886,2.46682213274057,1.85180050112354,2157.738,2160.728,2165.059,2166.753,358.641235351563,44.9961242675781,0.541802883148193,-1.05750870704651,-0.454870760440826,0.645435631275177,-1.06208716414724,-0.456986435452193,0.648812475034184,0
2.17999267578125,-1.18256807327271,2.45700550079346,1.86588513851166,-1.18102676265167,2.45765355853653,1.86481770439342,2159.797,2160.819,2161.581,2161.532,358.718200683594,44.9961204528809,0.510584533214569,-1.06218147277832,-0.456879496574402,0.648415088653564,-1.06666760390386,-0.458957270716794,0.65161059420515,0
2.19998168945313,-1.20389974117279,2.44782996177673,1.87891232967377,-1.20239187218348,2.44846074877705,1.87786931641044,2164.366,2162.16,2152.358,2157.242,358.793975830078,44.9956169128418,0.481477648019791,-1.06658732891083,-0.458775401115417,0.651358902454376,-1.07097279461286,-0.460809674005774,0.654240568028104,0
2.219970703125,-1.22531425952911,2.43861889839172,1.89198672771454,-1.22384034501537,2.43923207011845,1.89097185376662,2151.492,2155.024,2160.034,2160.957,358.870086669922,44.9958915710449,0.4498211145401,-1.0707231760025,-0.460551410913467,0.653721451759338,-1.07500824518964,-0.462546015651526,0.656705761813496,0
2.239990234375,-1.24680602550507,2.42937445640564,1.90511071681976,-1.24539969505118,2.42995568409656,1.90414212427648,2153.778,2155.031,2156.413,2155.716,358.948974609375,44.9959373474121,0.4178766310215,-1.07459700107574,-0.462219387292862,0.656199216842651,-1.07877792518082,-0.464168003639063,0.659008600495412,0
2.25997924804688,-1.26837015151978,2.42009902000427,1.9182835817337,-1.26699874763832,2.42066221517598,1.91733664845539,2158.699,2156.411,2146.74,2151.395,359.02685546875,44.9954490661621,0.388084828853607,-1.07819843292236,-0.463771969079971,0.658645272254944,-1.08226887897249,-0.465670063529659,0.661141169691481,0
2.27999877929688,-1.29000067710876,2.41079497337341,1.93149363994598,-1.28869796983554,2.41132564607061,1.93059236468599,2145.888,2149.293,2154.066,2155.272,359.105133056641,44.995719909668,0.355726063251495,-1.08152592182159,-0.465202450752258,0.660504221916199,-1.08549040888332,-0.467056197851165,0.663109152043028,0
2.29998779296875,-1.311692237854,2.40146446228027,1.94474589824677,-1.31042570636616,2.40197680804417,1.9438654998779,2154.175,2151.955,2144.327,2147.705,359.183319091797,44.995361328125,0.325192362070084,-1.08458685874939,-0.46652227640152,0.662614941596985,-1.08843144721369,-0.468321644481621,0.664905786465049,0
2.31997680664063,-1.33343982696533,2.39211010932922,1.95802879333496,-1.33220946960077,2.39260386329221,1.957172860909,2141.495,2145.586,2151.238,2151.073,359.262786865234,44.9956893920898,0.292305916547775,-1.08737349510193,-0.467721849679947,0.6641446352005,-1.09109597826566,-0.469468117754907,0.666533506905514,0
2.33999633789063,-1.35523748397827,2.38273406028748,1.97134459018707,-1.35407709248145,2.38319483607731,1.97053145048929,2144.492,2145.58,2146.637,2145.954,359.34521484375,44.995719909668,0.259263306856155,-1.08988726139069,-0.468808442354202,0.665788888931274,-1.09348640563071,-0.470496651869278,0.667993781680938,0
2.3599853515625,-1.37707996368408,2.37333869934082,1.98469233512878,-1.37595634130987,2.37378080654189,1.98389714217962,2149.773,2146.964,2136.38,2141.69,359.42626953125,44.9951629638672,0.228479087352753,-1.0921186208725,-0.469774216413498,0.667386472225189,-1.09559452046326,-0.471403714787811,0.669281596135657,0
2.37997436523438,-1.39896130561829,2.36392641067505,1.99805998802185,-1.39787493938994,2.36434984612278,1.99728687171376,2136.814,2139.94,2143.559,2145.683,359.507110595703,44.9953956604004,0.195234224200249,-1.09407091140747,-0.470614671707153,0.668382823467255,-1.09742336725307,-0.472190616469403,0.670398810100962,0
2.39999389648438,-1.42087638378143,2.35449957847595,2.01144957542419,-1.41986083522252,2.35488992936084,2.01071771239474,2139.092,2139.961,2140.012,2140.271,359.589935302734,44.9954299926758,0.161858767271042,-1.09574627876282,-0.471339583396912,0.669475853443146,-1.09897439291323,-0.472857979480329,0.671346307473475,0
2.41998291015625,-1.44281911849976,2.34506034851074,2.02485990524292,-1.4418413890156,2.34543231112926,2.02414528970716,2143.684,2141.086,2130.909,2135.963,359.671142578125,44.9949684143066,0.130674228072166,-1.09713852405548,-0.471943914890289,0.670522212982178,-1.10024227275454,-0.473403512755585,0.67212083548366,0
2.43997192382813,-1.46478402614594,2.33561229705811,2.03827977180481,-1.46384447819578,2.33596499655018,2.03758663353589,2130.592,2134.238,2138.438,2139.747,359.752502441406,44.9952926635742,0.0971313863992691,-1.09825384616852,-0.472425043582916,0.67098867893219,-1.10122909805959,-0.473828116115641,0.672723671663411,0
2.45999145507813,-1.48676598072052,2.32615613937378,2.0517110824585,-1.48589810917879,2.32647593524532,2.05105885256329,2133.191,2134.04,2134.673,2134.533,359.836151123047,44.995361328125,0.0633788481354713,-1.09909069538116,-0.4727903008461,0.671565413475037,-1.10193535162022,-0.474131997292339,0.673155110942729,0
2.47998046875,-1.50875878334045,2.31669521331787,2.06515288352966,-1.50792940965705,2.3169964821328,2.06451743023379,2137.877,2135.416,2125.427,2130.043,359.918426513672,44.9949150085449,0.0319216474890709,-1.09964227676392,-0.473034292459488,0.672092854976654,-1.10235860927677,-0.474314113237503,0.673413672440311,0
2.49996948242188,-1.53075695037842,2.30723237991333,2.07859373092651,-1.52996635369956,2.30751460075226,2.07797945546963,2125.15,2128.559,2132.439,2134.031,0.000789405487012118,44.9952201843262,-0.00187423161696643,-1.09991705417633,-0.473154544830322,0.672048568725586,-1.10250000017434,-0.474374949790724,0.673500045933276,0
2.51998901367188,-1.55275523662567,2.29776930809021,2.09203577041626,-1.5520369476803,2.29801824074336,2.09146203692764,2127.766,2128.45,2128.61,2128.79,0.0852198675274849,44.9952735900879,359.964172363281,-1.09991061687469,-0.473157167434692,0.672103047370911,-1.10235904000526,-0.474314298567936,0.67341393556562,0
2.53997802734375,-1.57474756240845,2.28830862045288,2.10547780990601,-1.57406826106879,2.28853878207593,2.1049206224848,2132.5,2129.683,2119.417,2124.413,0.167938604950905,44.9948081970215,359.932495117188,-1.09961760044098,-0.473037511110306,0.672105669975281,-1.10193621258339,-0.474132367740737,0.673155636891692,0
2.55999755859375,-1.59672856330872,2.27885270118713,2.11890840530396,-1.59612191359838,2.27904971150017,2.11839285467467,2119.613,2123.022,2126.558,2128.334,0.250572681427002,44.9951171875,359.898529052734,-1.0990492105484,-0.472795009613037,0.671535730361938,-1.10123038958312,-0.473828671822132,0.672724460634977,0
2.57998657226563,-1.61869239807129,2.26940393447876,2.13233232498169,-1.61812503288753,2.26958238396605,2.1318342168965,2127.895,2125.294,2117.399,2120.757,0.332618236541748,44.9948310852051,359.866516113281,-1.09819829463959,-0.472434520721436,0.671197652816772,-1.1002439936861,-0.473404253224357,0.672121886773894,0
2.5999755859375,-1.64063405990601,2.25996494293213,2.14573836326599,-1.64010562536668,2.26012474908893,2.14526181784164,2115.262,2119.338,2124.018,2124.293,0.415607482194901,44.9952125549316,359.832366943359,-1.09707486629486,-0.471954435110092,0.6703000664711,-1.09897654259203,-0.472858904427064,0.671347620678712,0
2.6199951171875,-1.6625474691391,2.25053787231445,2.15912842750549,-1.66209156852628,2.2506648119635,2.15869268743396,2118.455,2119.252,2119.55,2119.193,0.501045405864716,44.9952774047852,359.798248291016,-1.09566831588745,-0.471356302499771,0.669506967067719,-1.09742594550583,-0.472191725819537,0.67040038511534,0
2.63998413085938,-1.68442690372467,2.24112510681152,2.17250156402588,-1.6840102224118,2.24123382753286,2.17208245105877,2123.719,2120.471,2109.772,2114.967,0.584647536277771,44.9947700500488,359.766479492188,-1.09397399425507,-0.470634549856186,0.668660163879395,-1.09559752564474,-0.471405007833448,0.669283431954129,0
2.65997314453125,-1.7062668800354,2.23172926902771,2.18584632873535,-1.70588953556828,2.23181977031887,2.18544818204612,2111.011,2114.021,2116.489,2119.04,0.667709350585938,44.995044708252,359.732574462891,-1.09200727939606,-0.469790369272232,0.667237460613251,-1.09348983658457,-0.470498128112872,0.66799587759711,0
2.67999267578125,-1.72806215286255,2.2223527431488,2.19916439056396,-1.72775723139253,2.2224107117184,2.19880681618649,2113.429,2113.885,2113.135,2113.814,0.752117097377777,44.9950981140137,359.698699951172,-1.08975839614868,-0.468827575445175,0.665898084640503,-1.09109983431736,-0.469469776906228,0.666535862507326,0
2.69998168945313,-1.74980664253235,2.2129979133606,2.21245455741882,-1.74954107593572,2.21303773198162,2.21211422688774,2117.934,2114.854,2104.636,2109.598,0.83441174030304,44.994686126709,359.667053222656,-1.08722567558289,-0.467743486166,0.664506316184998,-1.08843572622736,-0.468323485621663,0.66490840044773,0
2.719970703125,-1.77149522304535,2.20366716384888,2.22570586204529,-1.77126890221328,2.20368885533958,2.22538741690465,2105.209,2108.587,2111.676,2113.488,0.916459202766418,44.995044708252,359.633331298828,-1.08442687988281,-0.466540992259979,0.662566304206848,-1.08549510920706,-0.467058220269158,0.663112023397453,0
2.739990234375,-1.79312205314636,2.19436264038086,2.23892021179199,-1.79296822271738,2.1943522439355,2.23864319318939,2107.755,2108.451,2108.334,2108.315,1.00023210048676,44.9951515197754,359.599639892578,-1.08134889602661,-0.465221971273422,0.660719931125641,-1.08227399942825,-0.465672266718727,0.661144297698006,0
2.75997924804688,-1.81468200683594,2.18508696556091,2.2520968914032,-1.81456738183361,2.18505872917844,2.25183778244526,2112.578,2109.541,2099.579,2104.07,1.08213448524475,44.9947395324707,359.568298339844,-1.07798993587494,-0.463783115148544,0.6588294506073,-1.07878346314437,-0.464170386470068,0.659011983550929,0
2.77999877929688,-1.83616924285889,2.17584252357483,2.26522493362427,-1.83612684690458,2.17578229366013,2.2650081232283,2100.17,2103.323,2106.168,2108.177,1.16378223896027,44.9950790405273,359.534912109375,-1.07436943054199,-0.462227255105972,0.656396985054016,-1.07501419914593,-0.462548577472581,0.656709398992482,0
2.79998779296875,-1.85757875442505,2.16663146018982,2.27830839157104,-1.85757544288233,2.1665535620153,2.27811073581237,2108.471,2105.416,2097.444,2100.76,1.24441194534302,44.994800567627,359.503479003906,-1.07046937942505,-0.460554152727127,0.654178559780121,-1.07097916161324,-0.460812413548163,0.654244457529281,0
2.81997680664063,-1.8789050579071,2.1574559211731,2.29133701324463,-1.87894068379188,2.15736069572766,2.291162428086,2096.262,2099.987,2103.627,2104.395,1.32556939125061,44.9951934814453,359.470184326172,-1.06631231307983,-0.458768099546432,0.651430010795593,-1.0666743814704,-0.458960186914335,0.65161473451479,0
2.83999633789063,-1.90014243125916,2.14831876754761,2.30431246757507,-1.90024960698239,2.14819206138118,2.30417971674389,2099.483,2099.999,2099.499,2099.365,1.40855014324188,44.9952735900879,359.437133789063,-1.06187975406647,-0.456866830587387,0.648775398731232,-1.06209435025759,-0.456989527434725,0.648816864916866,0
2.8599853515625,-1.92128586769104,2.13922190666199,2.31723380088806,-1.92143189875059,2.13907791299805,2.31711964824194,2104.573,2100.914,2090.471,2095.49,1.48929250240326,44.9948120117188,359.406402587891,-1.05717122554779,-0.454846769571304,0.646066904067993,-1.05725481901126,-0.454907212340279,0.645860470797877,0
2.87997436523438,-1.94233012199402,2.13016772270203,2.33009028434753,-1.94251480742951,2.13000652638179,2.32999886816159,2092.396,2095.101,2096.79,2099.519,1.56919610500336,44.9950981140137,359.373809814453,-1.05221009254456,-0.452713191509247,0.64282101392746,-1.05215090364426,-0.452711140144745,0.642742568545203,0
2.89999389648438,-1.96326971054077,2.12115836143494,2.34288334846497,-1.96352501326936,2.1209664217661,2.34283367505136,2094.832,2094.968,2093.779,2094.54,1.64996027946472,44.995189666748,359.341369628906,-1.0469788312912,-0.45046603679657,0.639650702476501,-1.04677621342161,-0.450398561093403,0.639459254158576,0
2.91998291015625,-1.98409926891327,2.11219620704651,2.35561203956604,-1.98439323028747,2.1119874109737,2.35558174318562,2099.171,2095.886,2086.011,2090.501,1.72834670543671,44.9948196411133,359.311248779297,-1.04147911071777,-0.448104232549667,0.636430144309998,-1.0411492471255,-0.447977434695422,0.636021828255355,0
2.93997192382813,-2.00481390953064,2.10328364372253,2.36826610565186,-2.00514638691846,2.10305790745146,2.36825952272487,2087.243,2090.236,2092.425,2094.397,1.8062025308609,44.9951820373535,359.279357910156,-1.03573560714722,-0.445633888244629,0.632706642150879,-1.03526422946899,-0.445445276006189,0.632426762802886,0
2.95999145507813,-2.02540874481201,2.09442257881165,2.38084745407104,-2.02581075424974,2.0941666074844,2.38088306226645,2089.858,2090.075,2089.334,2089.58,1.88518643379211,44.9953079223633,359.247650146484,-1.02972853183746,-0.443053185939789,0.629067063331604,-1.02911391720548,-0.442798968459032,0.628669633014836,0
2.97998046875,-2.04587769508362,2.08561563491821,2.39335513114929,-2.04631823718085,2.08534281049189,2.39341076357611,2094.291,2090.963,2081.536,2085.719,1.96198439598083,44.9949493408203,359.218170166016,-1.02345967292786,-0.44036066532135,0.625380039215088,-1.0227194988233,-0.440047628868552,0.624763382608097,0
2.99996948242188,-2.06621694564819,2.07686424255371,2.40577936172485,-2.06669539160406,2.07657509021538,2.40585884923402,2082.989,2085.643,2087.336,2089.503,2.03815340995789,44.9952697753906,359.187072753906,-1.01695442199707,-0.437562674283981,0.6212078332901,-1.01607433611185,-0.437188400998167,0.620703956403388,0
3.01998901367188,-2.08642053604126,2.06817102432251,2.41812133789063,-2.0869680292999,2.06785234056679,2.41824308725414,2085.391,2085.508,2084.425,2084.859,2.11517715454102,44.9953880310059,359.15625,-1.01019215583801,-0.434656739234924,0.617104053497314,-1.00917036754089,-0.434217816196637,0.616486429737696,0
3.03997802734375,-2.10648417472839,2.05953788757324,2.43038058280945,-2.10706940546153,2.05920327997188,2.43052270427549,2089.909,2086.383,2076.784,2081.032,2.18977975845337,44.9950180053711,359.127685546875,-1.00317537784576,-0.431641846895218,0.612958431243896,-1.00203140433628,-0.431146119769234,0.612125348517319,0
3.05999755859375,-2.12640285491943,2.05096769332886,2.44254732131958,-2.12705600675913,2.05060360379452,2.44273220712343,2078.55,2081.152,2082.724,2084.917,2.26361918449402,44.9953536987305,359.097534179688,-0.995931804180145,-0.428525507450104,0.608333647251129,-0.994638524886308,-0.427965170275055,0.607609153824944,0
3.07998657226563,-2.14617133140564,2.04246163368225,2.45462512969971,-2.14686207530873,2.04208160581513,2.45483142533277,2086.196,2082.721,2075.301,2078.315,2.33592319488525,44.9951515197754,359.069274902344,-0.988434672355652,-0.425302654504776,0.603894531726837,-0.987017247723776,-0.424685947625853,0.602953434534038,0
3.0999755859375,-2.16578602790833,2.03402185440063,2.4666051864624,-2.16651343412374,2.03362617511243,2.46683613377946,2075.314,2078.437,2080.656,2081.552,2.40823030471802,44.9955291748047,359.039672851563,-0.980717480182648,-0.421983480453491,0.598998725414276,-0.979159571260203,-0.421305008961644,0.598153302599065,0
3.1199951171875,-2.18524122238159,2.02565050125122,2.47848868370056,-2.18603502400946,2.02522658035469,2.47876156841225,2078.271,2078.228,2077.234,2077.309,2.48158574104309,44.9956245422363,359.010437011719,-0.972755968570709,-0.418561995029449,0.594180166721344,-0.971056158224178,-0.417818336715394,0.593203054026623,0
3.13998413085938,-2.20453214645386,2.01734972000122,2.49027490615845,-2.20536269329809,2.01691042421237,2.49056853997833,2082.896,2079.107,2069.554,2073.77,2.55244016647339,44.9952545166016,358.983489990234,-0.964553594589233,-0.41503694653511,0.589315950870514,-0.962735018414262,-0.414237982720922,0.588119799565572,0
3.15997314453125,-2.22365498542786,2.00912141799927,2.50195479393005,-2.22452176174551,2.00866681230185,2.5022725159215,2072.391,2074.328,2074.784,2077.511,2.62206125259399,44.9955215454102,358.955200195313,-0.956139802932739,-0.41141664981842,0.583997309207916,-0.954187384555097,-0.410560174664568,0.582898183424203,0
3.17999267578125,-2.24260473251343,2.00096750259399,2.51352953910828,-2.24353658854737,2.00048526354177,2.51388837689424,2074.652,2074.129,2072.31,2073.295,2.69173765182495,44.9956283569336,358.92724609375,-0.947492182254791,-0.407697826623917,0.578737378120422,-0.945403214201559,-0.406780591562751,0.577532070829503,0
3.19998168945313,-2.26137733459473,1.99288988113403,2.5249981880188,-2.26234477504321,1.99239262633251,2.52537800452858,2078.496,2074.922,2065.88,2069.781,2.75868678092957,44.9953269958496,358.901489257813,-0.938615918159485,-0.403881371021271,0.573433756828308,-0.936412917636688,-0.402912318110697,0.572040038948834,0
3.219970703125,-2.27996802330017,1.98489022254944,2.53635239601135,-2.2809710931091,1.98437824202785,2.53675653157707,2068.135,2070.327,2071.38,2073.376,2.82465720176697,44.9956703186035,358.874450683594,-0.929540753364563,-0.399976342916489,0.567708551883698,-0.927207006545169,-0.398951271751399,0.566416291518435,0
3.239990234375,-2.29837274551392,1.97697067260742,2.54759359359741,-2.2994392795179,1.97643189735754,2.54803845846384,2070.63,2070.32,2068.849,2069.124,2.89095711708069,44.9958076477051,358.847900390625,-0.920242786407471,-0.395978182554245,0.562056839466095,-0.917774783907129,-0.394892849856044,0.560654293895788,0
3.25997924804688,-2.31658744812012,1.96913290023804,2.55872082710266,-2.31768882969315,1.96857962575054,2.55918682388728,2074.566,2070.955,2062.408,2065.974,2.9547336101532,44.995532989502,358.823486328125,-0.910727679729462,-0.391887187957764,0.556366860866547,-0.908148960779607,-0.390751127078637,0.554774028755191,0
3.27999877929688,-2.33460760116577,1.96137857437134,2.56972622871399,-2.33577134012187,1.96079922667992,2.57023314733618,2064.853,2066.696,2067.355,2069.453,3.01744866371155,44.9958457946777,358.797882080078,-0.901025056838989,-0.387712329626083,0.550274789333344,-0.898304216251578,-0.386515208538549,0.548760027947228,0
3.29998779296875,-2.35242986679077,1.95370984077454,2.58061289787292,-2.35362764460945,1.95311615770631,2.58114128510551,2071.632,2068.145,2061.099,2063.6,3.07827043533325,44.9956855773926,358.774230957031,-0.891106486320496,-0.383446782827377,0.544338524341583,-0.888274735793772,-0.382199803288803,0.542633174842512,0
3.31997680664063,-2.37004971504211,1.94612777233124,2.59137320518494,-2.37128151039117,1.94552019245235,2.59192575622841,2062.294,2064.359,2065.634,2066.867,3.13857936859131,44.9960327148438,358.74951171875,-0.881009221076965,-0.379102617502213,0.538019239902496,-0.878049940595779,-0.377800359562814,0.53638700701084,0
3.33999633789063,-2.38746404647827,1.93863415718079,2.6020085811615,-2.38875555478454,1.93800159931817,2.60260037727124,2065.12,2064.526,2062.7,2062.924,3.1991114616394,44.9961280822754,358.725463867188,-0.870708227157593,-0.374673336744308,0.531769812107086,-0.867618167158097,-0.373311858882592,0.530014399402376,0
3.3599853515625,-2.40466833114624,1.9312310218811,2.6125180721283,-2.40599272667425,1.93058492580486,2.6131302965979,2068.881,2065.066,2056.578,2060.204,3.25691294670105,44.9958419799805,358.703460693359,-0.860210657119751,-0.370159387588501,0.525476336479187,-0.857015715678588,-0.368749920209162,0.523537527241535,0
3.37997436523438,-2.42165899276733,1.92391979694366,2.62289428710938,-2.42301614089521,1.92326022624472,2.62352963470034,2060.103,2061.253,2060.964,2063.455,3.31317901611328,44.9961051940918,358.680572509766,-0.849546074867249,-0.365570217370987,0.518814861774445,-0.846231427202182,-0.364109742155906,0.516949573696802,0
3.39999389648438,-2.4384331703186,1.91670167446136,2.63313841819763,-2.43984769972619,1.91601807669906,2.63381177133889,2062.267,2061.233,2058.901,2059.83,3.36886835098267,44.9962005615234,358.658233642578,-0.838692486286163,-0.360901564359665,0.512207746505737,-0.835253140422974,-0.35938609205264,0.510243109616171,0
3.41998291015625,-2.45498609542847,1.90957868099213,2.64324975013733,-2.45643259034873,1.90888206159239,2.64394322221809,2065.375,2061.808,2053.861,2057.102,3.42170095443726,44.9959907531738,358.637908935547,-0.827657878398895,-0.356155633926392,0.505562663078308,-0.824119146742881,-0.354595445619869,0.503441526619546,0
3.43997192382813,-2.47131586074829,1.90255177021027,2.65322136878967,-2.47279324219826,1.90184253016523,2.65393768913003,2057.068,2058.309,2058.226,2060.079,3.47313618659973,44.9962959289551,358.616882324219,-0.816470980644226,-0.351341873407364,0.498586744070053,-0.812817768079999,-0.3497327781052,0.496537690748928,0
3.45999145507813,-2.48741793632507,1.89562284946442,2.66305470466614,-2.48895081463434,1.8948903781363,2.66380809799729,2059.057,2058.188,2056.409,2056.841,3.52420377731323,44.9964370727539,358.596374511719,-0.80511063337326,-0.346455544233322,0.491667747497559,-0.80133641229185,-0.344792671461508,0.489523909660973,0
3.47998046875,-2.50328969955444,1.8887927532196,2.67274928092957,-2.50485284867397,1.88804817714046,2.67352240244575,2062.59,2058.885,2051.185,2054.135,3.57254505157471,44.9962348937988,358.577911376953,-0.793583512306213,-0.341498166322708,0.484730094671249,-0.789715229532172,-0.33979240117828,0.482424710458066,0
3.49996948242188,-2.51892805099487,1.88206315040588,2.68229866027832,-2.52052105914884,1.88130658389224,2.68309386772724,2054.594,2055.631,2055.303,2057.152,3.61939835548401,44.9965171813965,358.558807373047,-0.781919419765472,-0.336479365825653,0.477471709251404,-0.777942088074629,-0.334726747312594,0.475232682057902,0
3.51998901367188,-2.53432989120483,1.87543523311615,2.69170427322388,-2.53597583877076,1.87465682397749,2.69253495143119,2056.828,2055.588,2053.384,2054.041,3.66557741165161,44.996639251709,358.540344238281,-0.770096898078918,-0.331394016742706,0.470275491476059,-0.766004036374581,-0.329590137176618,0.467939912563966,0
3.53997802734375,-2.54949259757996,1.86891031265259,2.7009654045105,-2.55116718971613,1.86812041006291,2.70181511066737,2059.916,2056.225,2048.721,2051.64,3.7088725566864,44.9964485168457,358.523834228516,-0.758124470710754,-0.326244622468948,0.463054418563843,-0.753942941956194,-0.324400585196356,0.460571978193441,0
3.55999755859375,-2.56441307067871,1.86248970031738,2.71007633209229,-2.56613872308604,1.86167857751006,2.71096098677687,2052.512,2053.187,2052.633,2054.514,3.7505145072937,44.9967308044434,358.506774902344,-0.746030569076538,-0.321040600538254,0.455541610717773,-0.741727567798258,-0.319144650954242,0.45310979673751,0
3.57998657226563,-2.57908916473389,1.85617387294769,2.71903944015503,-2.58084213759183,1.85535210901407,2.7199430732562,2057.852,2054.277,2048.191,2050.169,3.7898473739624,44.9966468811035,358.491455078125,-0.733791053295135,-0.315775692462921,0.448156237602234,-0.72940084364523,-0.31384080592,0.445579593307163,0
3.5999755859375,-2.59351801872253,1.84996461868286,2.72784948348999,-2.59529790318687,1.84913219692586,2.72877387488043,2050.815,2051.845,2051.766,2052.689,3.82803773880005,44.996955871582,358.475799560547,-0.721441328525543,-0.310462296009064,0.440499186515808,-0.716950039288888,-0.308483572640672,0.437973591216846,0
3.6199951171875,-2.60769701004028,1.84386301040649,2.73650765419006,-2.60952509409627,1.84301063413925,2.73746504379605,2053.337,2051.876,2049.626,2050.025,3.86553359031677,44.9970664978027,358.460906982422,-0.708961009979248,-0.305094391107559,0.432911962270737,-0.704361775018033,-0.303067194200314,0.43028361700977,0
3.63998413085938,-2.6216242313385,1.83786964416504,2.74501371383667,-2.623478029369,1.83700707589127,2.7459886742229,2056.39,2052.499,2045.203,2048.06,3.90004539489746,44.9968757629395,358.447906494141,-0.69635933637619,-0.299674302339554,0.425305336713791,-0.691680442442073,-0.297610771068296,0.422536788827407,0
3.65997314453125,-2.63529753684998,1.83198523521423,2.75336265563965,-2.63717640706374,1.8311130466576,2.75435679939765,2049.897,2049.979,2048.642,2050.689,3.93250226974487,44.9971122741699,358.434631347656,-0.683663845062256,-0.294211477041245,0.417441457509995,-0.678893054168409,-0.29210871513241,0.414725172874286,0
3.67999267578125,-2.64871501922607,1.82621133327484,2.76155543327332,-2.65063849381582,1.82532068681534,2.76258057812278,2051.66,2050.1,2047.436,2048.169,3.96362805366516,44.9972343444824,358.422149658203,-0.670857608318329,-0.288702398538589,0.40963351726532,-0.665986083416798,-0.286555206197011,0.406840505851433,0
3.69998168945313,-2.66187405586243,1.82054817676544,2.76959180831909,-2.66382131180924,1.81964848851807,2.77063375592113,2054.223,2050.554,2043.966,2046.447,3.99176120758057,44.997127532959,358.411437988281,-0.657949864864349,-0.283149987459183,0.401819437742233,-0.653005218467595,-0.280969902652754,0.398910698016369,0
