t,x_s1,x_s2,x_s3,x_s_d1,x_s_d2,x_s_d3,propellers_rpms1,propellers_rpms2,propellers_rpms3,propellers_rpms4,rollRad,pitchRad,yawRad,v_s1,v_s2,v_s3,v_s_d1,v_s_d2,v_s_d3,insideCount
0,-0.0599999986588955,2.94000005722046,1.17999994754791,-0.0599999986588955,2.94000005722046,1.17999994754791,0,0,0,0,0,45.0048027038574,0,0,0,0,-1.06581410364015E-15,4.44089209850063E-16,-7.105427357601E-16,0
0.019989013671875,-0.0599999986588955,2.94000005722046,1.17705690860748,-0.0600018659130177,2.93999925379318,1.18000108822432,0,0,0,0,0.937003672122955,44.8630027770996,-0.00115976633969694,3.71994488546079E-08,3.50004931704007E-08,-0.147149950265884,-0.000279680311988734,-0.000120338624884473,0.000170852338267345,5
0.040008544921875,-0.0599999986588955,2.94000005722046,1.17018985748291,-0.060014880898484,2.93999365380853,1.18000903887584,0,0,0,0,1.87400352954865,44.7211418151855,-0.00311126722954214,3.70364325874561E-08,3.5142885934647E-08,-0.343349903821945,-0.00111143977225461,-0.000478221483967637,0.000678961213193342,6
0.05999755859375,-0.0599062219262123,2.94009447097778,1.16346526145935,-0.0600498857373401,2.93997859220429,1.18003042278566,3197.771,2848.928,1516.765,2782.162,1.40346252918243,44.741325378418,0.0290413368493319,0.0046889022924006,0.00471907574683428,-0.336228758096695,-0.00247936261166862,-0.00106680046642749,0.00151460392977639,6
0.079986572265625,-0.0597377978265285,2.94026732444763,1.15723741054535,-0.0601174907153006,2.93994950367094,1.18007172161174,2865.126,2651.488,2344.996,2562.505,0.339350700378418,44.815845489502,0.0998695567250252,0.00842118635773659,0.00864443555474281,-0.311391800642014,-0.00437104534358026,-0.00188073869847162,0.0026702033915743,6
0.100006103515625,-0.0595563463866711,2.94046425819397,1.15151929855347,-0.0602282404704493,2.93990185114529,1.18013937690895,2239.701,2528.041,3138.323,2508.551,359.321472167969,44.9191513061523,0.178510576486588,0.00907254219055176,0.00984819047152996,-0.285907328128815,-0.00677739276378709,-0.00291612276782231,0.00414020348026766,5
0.1199951171875,-0.0594244822859764,2.94063210487366,1.14656901359558,-0.0603918861403606,2.93983143898525,1.18023934549506,2124.44,2455.036,3351.265,2464.171,358.749908447266,44.9998779296875,0.253433853387833,0.00659324321895838,0.008397008292377,-0.247517332434654,-0.00967801353495435,-0.00416417885169243,0.00591214744607921,5
0.1400146484375,-0.0593831054866314,2.94074010848999,1.14257049560547,-0.0606187761383957,2.93973381455767,1.18037794905431,2311.774,2456.427,3069.449,2463.653,358.636108398438,45.0326805114746,0.326424688100815,0.00206880643963814,0.00539796240627766,-0.19992707669735,-0.0130687916036232,-0.00562313592726786,0.00798352085618068,5
0.160003662109375,-0.0594435147941113,2.9407856464386,1.13952445983887,-0.0609177895434042,2.93960515744296,1.18056061167741,2537.196,2486.963,2634.931,2491.674,358.7568359375,45.0249786376953,0.398370712995529,-0.00302045466378331,0.00227844319306314,-0.152299612760544,-0.0169265510445065,-0.00728302204135792,0.0103401658994673,5
0.17999267578125,-0.0596002861857414,2.94078159332275,1.13730907440186,-0.0612985250199726,2.93944133760391,1.18079319703879,2665.9,2505.805,2303.035,2513.531,358.864074707031,44.9985733032227,0.467401266098022,-0.00783852860331535,-0.000198340509086847,-0.11076945066452,-0.0212433804254414,-0.00914043312572283,0.0129772496054864,5
0.20001220703125,-0.0598479174077511,2.94073963165283,1.13576078414917,-0.0617708265342762,2.93923811945689,1.18108171866376,2653.4,2500.085,2183.587,2508.522,358.817047119141,44.9744338989258,0.532801747322083,-0.012381486594677,-0.00209261197596788,-0.0774129629135132,-0.0260142813927851,-0.0111932185284278,0.0158917185579952,5
0.220001220703125,-0.0601899214088917,2.94066190719604,1.13474559783936,-0.0623420644491781,2.93899233174064,1.18143067899198,2541.194,2470.936,2244.853,2478.559,358.612518310547,44.9636535644531,0.594686090946198,-0.0171002596616745,-0.00388294644653797,-0.0507605373859406,-0.03121219533433,-0.0134297356845702,0.0190670430730375,5
0.239990234375,-0.0606392435729504,2.94054126739502,1.13419342041016,-0.0630214373585105,2.93870001655724,1.18184569730089,2411.146,2429.377,2374.587,2437.761,358.334655761719,44.9659233093262,0.652666509151459,-0.0224660523235798,-0.00603272300213575,-0.0276096183806658,-0.0368316683029241,-0.015847637913056,0.0224998914194052,5
0.260009765625,-0.0612136796116829,2.9403657913208,1.13409042358398,-0.0638185570309634,2.93835703823113,1.18233264526998,2329.506,2391.907,2462.838,2398.539,358.076538085938,44.9739151000977,0.707641541957855,-0.0287218354642391,-0.00876971054822206,-0.00514803826808929,-0.0428699302682246,-0.0184457333472145,0.0261885714287875,4
0.279998779296875,-0.0619302913546562,2.94012475013733,1.13444101810455,-0.0647390625194898,2.93796097043536,1.18289496770872,2306.715,2365.575,2469.088,2370.254,357.88720703125,44.9802780151367,0.760676324367523,-0.0358306728303432,-0.0120579851791263,0.0175298899412155,-0.0492963837173861,-0.0212108567320638,0.0301143915580518,4
0.29998779296875,-0.0628018900752068,2.93981051445007,1.13523638248444,-0.0657918945890516,2.93750796620855,1.18353812639089,2316.63,2347.832,2416.352,2353.966,357.765014648438,44.9818077087402,0.811276257038116,-0.0435799323022366,-0.0157068222761154,0.0397683791816235,-0.0561078595514081,-0.0241416444928383,0.0342754158540715,4
0.32000732421875,-0.0638367757201195,2.9394199848175,1.13644909858704,-0.0669865614821475,2.93699393441958,1.18426792975347,2334.588,2336.399,2343.116,2341.587,357.678894042969,44.9788818359375,0.859839200973511,-0.0517442896962166,-0.0195247009396553,0.0606377571821213,-0.0633036493784043,-0.0272377918282996,0.0386712115712976,4
0.339996337890625,-0.0650404989719391,2.93895196914673,1.13803660869598,-0.068326768706371,2.93641728069206,1.18508664143323,2339.023,2325.331,2285.561,2329.536,357.594604492188,44.9741020202637,0.906685411930084,-0.0601860992610455,-0.0234053730964661,0.0793754383921623,-0.0708499516420146,-0.0304847548730522,0.0432811298664125,4
0.3599853515625,-0.0664180591702461,2.93840503692627,1.13995087146759,-0.0698213312158394,2.93577421219747,1.18599964634808,2321.282,2310.091,2262.428,2316.516,357.494567871094,44.9703025817871,0.950748920440674,-0.0688780099153519,-0.0273418705910444,0.0957136750221252,-0.0787457139191101,-0.0338820807988248,0.0481045278305496,4
0.3800048828125,-0.0679753944277763,2.9377772808075,1.1421537399292,-0.0714797725314022,2.93506063123087,1.18701276226829,2295.208,2294.239,2261.447,2299.482,357.380065917969,44.9685935974121,0.992484211921692,-0.0778668448328972,-0.0313894934952259,0.110143892467022,-0.0869921272359981,-0.0374302820709642,0.0531421330430943,4
0.399993896484375,-0.0697194114327431,2.9370653629303,1.14461755752563,-0.0733036822025899,2.9342758538535,1.18812696022487,2269.962,2278.507,2267.123,2282.261,357.261779785156,44.968692779541,1.03253567218781,-0.0872008353471756,-0.0355991050601006,0.123190678656101,-0.0955525119207663,-0.0411135764513579,0.0583715384648505,4
0.420013427734375,-0.0716572850942612,2.93626570701599,1.14732038974762,-0.0753050585276311,2.93341471753282,1.18934956979097,2247.864,2262.321,2271.86,2268.37,357.151947021484,44.9699058532715,1.06995224952698,-0.0968938246369362,-0.039988175034523,0.135144636034966,-0.104441553474511,-0.0449382827008623,0.0638017152392751,4
0.44000244140625,-0.0737959370017052,2.93537473678589,1.15024852752686,-0.077483988232608,2.93247718495301,1.19068064394622,2239.058,2251.105,2262.459,2254.493,357.056579589844,44.9709739685059,1.10593032836914,-0.106932573020458,-0.0445483662188053,0.14640574157238,-0.113620829717891,-0.048887868829098,0.0694091918565748,4
0.459991455078125,-0.0761412158608437,2.93438982963562,1.15338397026062,-0.0798493430620752,2.93145943885026,1.1921256023009,2230.81,2239.775,2250.015,2245.443,356.975128173828,44.9717292785645,1.13950598239899,-0.117263920605183,-0.0492404624819756,0.156771898269653,-0.123092454730403,-0.0529632444654124,0.0751952597749251,4
0.480010986328125,-0.0786982029676437,2.93330907821655,1.15671110153198,-0.0824109101018722,2.93035726811493,1.19369042363305,2227.644,2231.747,2233.146,2236.004,356.903564453125,44.9719619750977,1.17129194736481,-0.127849355340004,-0.0540366321802139,0.166359454393387,-0.132860437136906,-0.0571661344090936,0.0811623678006979,4
0.5,-0.081471286714077,2.93213081359863,1.16021335124969,-0.085166398670376,2.92917165836334,1.195373708601,2224.183,2225.024,2217.615,2227.572,356.835906982422,44.9719276428223,1.20200526714325,-0.138654291629791,-0.0589143820106983,0.175114721059799,-0.142884000065179,-0.0614789935111996,0.0872856059789651,5
0.519989013671875,-0.084464430809021,2.93085360527039,1.16387164592743,-0.0881248588203387,2.92789871561062,1.19718098574075,2213.821,2216.082,2212.351,2221.673,356.769958496094,44.9723167419434,1.23030853271484,-0.149657383561134,-0.063862681388855,0.182917520403862,-0.153166947611899,-0.0659034585682559,0.0935672981730243,5
0.540008544921875,-0.0876817107200623,2.92947578430176,1.16767346858978,-0.0912963635428427,2.92653410573011,1.19911840848537,2206.785,2209.759,2207.837,2213.718,356.706420898438,44.9730186462402,1.25690376758575,-0.160864174365997,-0.0688906461000443,0.190093830227852,-0.163714777034477,-0.0704418948965508,0.100010802571645,5
0.55999755859375,-0.0911270827054977,2.92799592018127,1.17160844802856,-0.094676112580471,2.92507989413848,1.20118304443252,2201.537,2204.661,2202.837,2206.588,356.645660400391,44.9738655090332,1.28266751766205,-0.172268748283386,-0.073998250067234,0.196749463677406,-0.17448465888317,-0.0750758741803766,0.106589955332319,5
0.579986572265625,-0.0948042124509811,2.92641234397888,1.17566466331482,-0.0982734311149,2.92353206847056,1.20338059019015,2192.381,2197.37,2203.393,2202.774,356.589508056641,44.9751243591309,1.3060998916626,-0.183856666088104,-0.0791783556342125,0.202809721231461,-0.185481935470438,-0.0798076950675377,0.113308019990364,5
0.600006103515625,-0.0987167656421661,2.92472362518311,1.17983639240265,-0.102098762959148,2.92188613504538,1.20571742572067,2189.521,2193.586,2199.426,2197.099,356.539428710938,44.9763565063477,1.32803392410278,-0.195627644658089,-0.0844327583909035,0.208585873246193,-0.196713446836865,-0.0846403006364086,0.120169175019836,5
0.6199951171875,-0.102868020534515,2.92292857170105,1.18411827087402,-0.106144683970236,2.92014528826426,1.208189015731,2189.155,2191.231,2192.491,2192.583,356.493927001953,44.977352142334,1.34940409660339,-0.207562938332558,-0.0897501260042191,0.214092046022415,-0.208134604141382,-0.0895545055543457,0.127146181793521,5
0.6400146484375,-0.107260793447495,2.9210262298584,1.18850123882294,-0.110427588881679,2.91830247393137,1.21080537550798,2183.27,2186.237,2192.243,2191.43,356.452453613281,44.9785537719727,1.3685439825058,-0.219638675451279,-0.0951157361268997,0.219150617718697,-0.21977002223474,-0.0945609009039674,0.134254077139634,5
0.660003662109375,-0.111898005008698,2.91901564598083,1.19298362731934,-0.114938248900541,2.91636166293851,1.21356086732604,2184.889,2185.737,2186.348,2187.065,356.414215087891,44.9795303344727,1.38713049888611,-0.231860220432281,-0.100534252822399,0.224118277430534,-0.231574097577923,-0.0996398647564507,0.141465002567821,5
0.67999267578125,-0.116782009601593,2.91689586639404,1.19755792617798,-0.119686638739014,2.91431856344567,1.2164615845812,2179.258,2181.829,2188.125,2186.865,356.379089355469,44.9807891845703,1.40354895591736,-0.244200810790062,-0.105991430580616,0.228716596961021,-0.243554411173546,-0.104794659005432,0.14878358919428,5
0.70001220703125,-0.121915355324745,2.91466593742371,1.20222330093384,-0.124683985757554,2.91216834463331,1.21951438589277,2179.378,2181.201,2186.237,2184.065,356.347839355469,44.9819679260254,1.4187490940094,-0.256667077541351,-0.111493609845638,0.233270555734634,-0.255719729227087,-0.11002905550423,0.156215192157144,5
0.720001220703125,-0.127300262451172,2.91232514381409,1.2069787979126,-0.129918284978346,2.90991617190799,1.22271193760712,2181.179,2181.626,2182.174,2182.052,356.318786621094,44.9829521179199,1.4337797164917,-0.269246131181717,-0.117034196853638,0.237777754664421,-0.268023157655716,-0.11532287703907,0.163731164592979,5
0.739990234375,-0.132938638329506,2.90987300872803,1.2118194103241,-0.135400001298574,2.90755754251682,1.22606063256665,2176.249,2178.532,2186.009,2183.482,356.292358398438,44.9842300415039,1.44667768478394,-0.281918942928314,-0.122602373361588,0.242032110691071,-0.280473432677602,-0.12067988256057,0.171336843321139,5
0.760009765625,-0.138832539319992,2.90730881690979,1.21674692630768,-0.141140917956636,2.9050873864615,1.22956766896782,2177.631,2179.092,2185.287,2181.806,356.269622802734,44.985424041748,1.45842218399048,-0.294695168733597,-0.128206208348274,0.246373623609543,-0.293080296154222,-0.126104263719567,0.179038179492781,5
0.779998779296875,-0.144983768463135,2.90463209152222,1.22176253795624,-0.147126184485884,2.90251209348295,1.2332239748923,2180.803,2180.749,2181.788,2180.796,356.248870849609,44.9863510131836,1.47016298770905,-0.307561457157135,-0.133838921785355,0.25078010559082,-0.305795832832518,-0.131575403921268,0.186805902427515,5
0.79998779296875,-0.151393711566925,2.90184235572815,1.22686266899109,-0.153366821193532,2.89982692185086,1.23703628247379,2176.565,2178.443,2186.627,2183.383,356.230407714844,44.9875679016113,1.47977554798126,-0.320497244596481,-0.139488875865936,0.255009472370148,-0.318629798715703,-0.137097500901303,0.194645971915464,5
0.82000732421875,-0.158063992857933,2.89893913269043,1.23205089569092,-0.159875221826383,2.89702653888221,1.24101216285881,2178.948,2179.998,2186.455,2182.437,356.21533203125,44.988655090332,1.48835492134094,-0.333514273166656,-0.145165488123894,0.259413659572601,-0.331592781842754,-0.14267511039705,0.202564856024417,5
0.839996337890625,-0.164995968341827,2.8959219455719,1.23732995986938,-0.166633637018892,2.89411858163313,1.24514077323692,2183.039,2182.52,2183.304,2182.131,356.201751708984,44.9894676208496,1.49711859226227,-0.346599191427231,-0.150861829519272,0.263954639434814,-0.344636106234817,-0.148287288494656,0.210532819358465,5
0.8599853515625,-0.172190606594086,2.89279055595398,1.24269723892212,-0.173653699721778,2.89109804476993,1.2494292199962,2179.009,2180.659,2189.109,2185.523,356.190063476563,44.9905738830566,1.50378465652466,-0.359731018543243,-0.156566068530083,0.268361747264862,-0.357770416714212,-0.153938615363784,0.218556364673454,5
0.8800048828125,-0.179649069905281,2.88954472541809,1.24815738201141,-0.180948461186242,2.88795931270381,1.25388547594233,2181.994,2182.809,2189.417,2185.044,356.181518554688,44.9915504455566,1.50950419902802,-0.372924208641052,-0.162289381027222,0.273005992174149,-0.371007022483504,-0.159633957038354,0.226642400584755,5
0.899993896484375,-0.187372386455536,2.88618421554565,1.25371408462524,-0.18849723509595,2.8847112861788,1.25849690412748,2186.703,2185.904,2186.44,2185.138,356.174163818359,44.9922294616699,1.51557183265686,-0.386165261268616,-0.168024733662605,0.277836263179779,-0.384296738353309,-0.165352150505452,0.234760880627692,5
0.920013427734375,-0.195361033082008,2.88270902633667,1.2593652009964,-0.196324452211266,2.88134345332121,1.26327842892191,2182.687,2184.203,2192.9,2189.109,356.16845703125,44.9932174682617,1.51952183246613,-0.399432510137558,-0.173759937286377,0.282555669546127,-0.397671404529394,-0.171106895716105,0.242931255487113,5
0.94000244140625,-0.203615963459015,2.87911891937256,1.26511788368225,-0.204407453948074,2.87786556348678,1.26821620855017,2189.157,2188.346,2189.915,2187.814,356.164398193359,44.9938507080078,1.52372241020203,-0.412747770547867,-0.179509624838829,0.287636011838913,-0.411081631631503,-0.176876941799768,0.251123353961324,5
0.959991455078125,-0.212137505412102,2.87541389465332,1.27097022533417,-0.212759000778906,2.87427212620069,1.27331803818581,2185.171,2186.993,2196.481,2191.759,356.162445068359,44.994800567627,1.5258663892746,-0.426076918840408,-0.185255870223045,0.29261440038681,-0.424539267042903,-0.182667386354485,0.259344413431889,5
0.980010986328125,-0.220926225185394,2.87159371376038,1.27692806720734,-0.221393324468958,2.87055701793193,1.27859261179209,2189.091,2189.723,2196.46,2191.593,356.163726806641,44.9955406188965,1.52722537517548,-0.439436286687851,-0.191010028123856,0.297892034053802,-0.438056556301695,-0.188483498293199,0.267601914506946,5
1,-0.2299824655056,2.86765837669373,1.28299582004547,-0.230284798736574,2.86673126495361,1.28402427467346,2194.599,2193.34,2192.862,2191.966,356.165863037109,44.9959259033203,1.52919542789459,-0.452810376882553,-0.196763589978218,0.303387641906738,-0.451584000205995,-0.194303979492187,0.275865618896484,5
1.01998901367188,-0.239305958151817,2.86360836029053,1.28917109966278,-0.239446912293295,2.86278906344998,1.2896212668733,2190.212,2191.525,2199.84,2196.458,356.169128417969,44.9966735839844,1.52903425693512,-0.466176003217697,-0.202503398060799,0.308761566877365,-0.46513400752272,-0.200134169097193,0.284143106922576,5
1.04000854492188,-0.248897030949593,2.8594434261322,1.29545986652374,-0.248894644448595,2.85872396824263,1.29539273901802,2193.852,2194.253,2200.274,2196.157,356.175048828125,44.9972610473633,1.52807009220123,-0.479553043842316,-0.208243742585182,0.314436078071594,-0.47871923339115,-0.205979512261105,0.292442109412331,5
1.05999755859375,-0.258755594491959,2.85516381263733,1.30186653137207,-0.258599401509697,2.85454828239877,1.3013212236669,2199.123,2197.892,2196.986,2196.316,356.181488037109,44.9975204467773,1.52780055999756,-0.492927432060242,-0.213977798819542,0.3203304708004,-0.492290296490434,-0.211818761581115,0.30073246008742,5
1.07998657226563,-0.26888108253479,2.85076999664307,1.3083883523941,-0.268575430648764,2.85025587575821,1.30741542419509,2194.205,2195.788,2204.477,2200.813,356.189147949219,44.998176574707,1.52535855770111,-0.506276249885559,-0.219692707061768,0.326092809438705,-0.50586005237609,-0.217657448443621,0.309022012206103,5
1.10000610351563,-0.279273480176926,2.84626197814941,1.31503164768219,-0.278838480013141,2.84583997233313,1.31368496090006,2197.893,2198.48,2204.711,2200.284,356.19970703125,44.9986610412598,1.52215659618378,-0.51962023973465,-0.225403159856796,0.33216381072998,-0.519441457145546,-0.223501147495394,0.317318680446121,5
1.1199951171875,-0.289932370185852,2.84163999557495,1.32180070877075,-0.289357002179081,2.84131414609862,1.32011056195293,2203.38,2202.089,2200.788,2200.278,356.210845947266,44.998779296875,1.51975202560425,-0.532943964004517,-0.231101155281067,0.338451862335205,-0.532985466132485,-0.229328756186667,0.32559250418615,5
1.1400146484375,-0.300856828689575,2.83690452575684,1.32869231700897,-0.300162704591434,2.83666475422696,1.32671159693698,2198.079,2199.68,2208.17,2204.788,356.223175048828,44.9993095397949,1.51513922214508,-0.546223104000092,-0.236772745847702,0.344579041004181,-0.54652589017629,-0.235154822377061,0.33386413794036,5
1.16000366210938,-0.312046557664871,2.83205580711365,1.33571434020996,-0.311222084148811,2.83190621216671,1.33346759933036,2205.394,2204.2,2203.888,2202.735,356.236755371094,44.9994239807129,1.51117885112762,-0.559485852718353,-0.242435991764069,0.35110405087471,-0.560014026276883,-0.240958390526247,0.342103829805999,6
1.17999267578125,-0.323500394821167,2.82709431648254,1.34286332130432,-0.322550701230474,2.8270318247214,1.34038807472597,2199.822,2201.887,2211.109,2206.912,356.252105712891,44.999927520752,1.50504779815674,-0.57269275188446,-0.248070105910301,0.357448905706406,-0.573463232144024,-0.246745208083563,0.350319739799517,6
1.20001220703125,-0.33521768450737,2.82202053070068,1.35014510154724,-0.334165615614823,2.82203425154496,1.3474834446762,2203.764,2204.431,2210.198,2205.926,356.270690917969,45.0002098083496,1.49829173088074,-0.585865020751953,-0.253689259290695,0.364090323448181,-0.586886736182789,-0.252520966862155,0.358519948947149,6
1.22000122070313,-0.347197353839874,2.81683492660522,1.3575633764267,-0.346030421585499,2.81692915700008,1.35473146949704,2209.417,2207.812,2204.988,2205.573,356.289611816406,45.0000839233398,1.49251878261566,-0.598985373973846,-0.259283721446991,0.37091526389122,-0.600236516861372,-0.258265004538453,0.366675121644476,6
1.239990234375,-0.35943791270256,2.8115382194519,1.36511361598969,-0.358161486344149,2.81170949873715,1.36214214765657,2203.156,2204.708,2212.308,2209.979,356.309356689453,45.0004119873047,1.48446488380432,-0.61202871799469,-0.264838814735413,0.377511352300644,-0.613526094901141,-0.263983138701136,0.374793517489195,6
1.260009765625,-0.371938318014145,2.80613088607788,1.37280106544495,-0.37057666480527,2.80636759428526,1.36972638644343,2206.376,2206.927,2211.805,2208.567,356.331695556641,45.0005950927734,1.47572016716003,-0.625019252300262,-0.270371824502945,0.384373515844345,-0.626768731761373,-0.26968107538565,0.382883237699838,6
1.27999877929688,-0.384697139263153,2.80061340332031,1.38062906265259,-0.383236695417198,2.80092033679326,1.37746020158837,2211.485,2210.082,2206.845,2207.687,356.354217529297,45.0004081726074,1.46802115440369,-0.637941896915436,-0.275875121355057,0.391399770975113,-0.639917282339435,-0.275338529371412,0.39091548206889,6
1.29998779296875,-0.397712588310242,2.79498672485352,1.38859248161316,-0.396158759015336,2.79536033382764,1.38535408859565,2204.474,2206.511,2214.521,2211.847,356.377746582031,45.0007171630859,1.45801210403442,-0.650772273540497,-0.281334280967712,0.398170173168182,-0.652985332144132,-0.280961346123326,0.398898549771684,6
1.32000732421875,-0.410983264446259,2.78925132751465,1.39669644832611,-0.409361504843077,2.78967956113998,1.39341943999703,2207.644,2208.464,2213.593,2210.069,356.404296875,45.0008506774902,1.44732856750488,-0.66353452205658,-0.28676638007164,0.405200123786926,-0.6659860834168,-0.286555206197011,0.406840505851434,6
1.33999633789063,-0.42450749874115,2.78340816497803,1.40494394302368,-0.422802873722428,2.78389611561957,1.401630562497,2212.849,2211.47,2207.827,2208.842,356.431213378906,45.0005760192871,1.43779230117798,-0.676212012767792,-0.292162448167801,0.412376254796982,-0.678873453515705,-0.29210028151913,0.41471319914141,6
1.3599853515625,-0.438283085823059,2.77745795249939,1.41332912445068,-0.436500861174643,2.77800225429635,1.40999844927868,2205.427,2207.438,2215.156,2212.965,356.459167480469,45.0008125305176,1.42586421966553,-0.688779413700104,-0.297507077455521,0.419258058071136,-0.69166099897751,-0.297602405088682,0.422524911118315,6
1.3800048828125,-0.452308297157288,2.77140164375305,1.42185664176941,-0.450474904562636,2.77198961381608,1.41853497432376,2208.427,2209.238,2213.782,2210.757,356.490081787109,45.0008697509766,1.4132981300354,-0.70126086473465,-0.302817583084106,0.426375150680542,-0.704361775018035,-0.303067194200314,0.43028361700977,6
1.39999389648438,-0.466581106185913,2.76523995399475,1.43052887916565,-0.464680216184654,2.76587746507559,1.42721277752413,2213.494,2211.99,2207.527,2209.219,356.521118164063,45.0005149841309,1.40193998813629,-0.713640093803406,-0.308085083961487,0.433612942695618,-0.716930938559026,-0.308475354130225,0.437961922879032,6
1.42001342773438,-0.481098920106888,2.75897407531738,1.43933916091919,-0.479157861067077,2.75964813894125,1.43605694486361,2205.366,2207.557,2214.972,2213.14,356.553131103516,45.0007019042969,1.38816571235657,-0.725892126560211,-0.313294500112534,0.440515965223312,-0.729400843645231,-0.313840805920001,0.445579593307164,6
1.44000244140625,-0.495859920978546,2.75260472297668,1.44829428195953,-0.493861275572861,2.75332167044526,1.44503903134294,2212.604,2211.348,2208.411,2209.06,356.586151123047,45.000415802002,1.37539649009705,-0.738049209117889,-0.318466752767563,0.447757989168167,-0.741727567798258,-0.319144650954242,0.453109796737511,6
1.45999145507813,-0.510861337184906,2.74613308906555,1.4573872089386,-0.508809800712713,2.74688973769103,1.45417085208374,2204.261,2207.092,2215.55,2212.544,356.621032714844,45.0006446838379,1.36026799678802,-0.750069916248322,-0.323579132556915,0.454647690057755,-0.753924423002454,-0.324392617007921,0.460560665253582,6
1.48001098632813,-0.526100814342499,2.7395601272583,1.4666223526001,-0.524024159888143,2.74034342397783,1.46346506668862,2207.51,2208.545,2212.924,2209.824,356.659423828125,45.0006256103516,1.34460818767548,-0.76197761297226,-0.328647434711456,0.461755782365799,-0.766004036374583,-0.329590137176618,0.467939912563966,6
1.5,-0.541575908660889,2.73288702964783,1.47600126266479,-0.539455198877605,2.73370387899399,1.47289164761066,2212.731,2211.031,2205.298,2207.83,356.697937011719,45.0001564025879,1.33034205436707,-0.773753762245178,-0.333660542964935,0.468944162130356,-0.777924000354858,-0.334718964672088,0.475221632552146,6
1.51998901367188,-0.557283401489258,2.72611498832703,1.485515832901,-0.555123050061237,2.72696244033876,1.48246289340675,2203.78,2205.896,2212.422,2211.678,356.737091064453,45.0002517700195,1.31357300281525,-0.785373866558075,-0.338603019714355,0.475730866193771,-0.789697369743256,-0.339784716610053,0.482413800191712,6
1.54000854492188,-0.573220670223236,2.71924519538879,1.49516987800598,-0.571049184024557,2.72010986981902,1.49219192012252,2206.198,2207.084,2210.387,2208.485,356.778991699219,45.0001945495605,1.29621493816376,-0.796863675117493,-0.343493640422821,0.482700198888779,-0.801336412291853,-0.344792671461508,0.489523909660973,6
1.55999755859375,-0.589384853839874,2.71227860450745,1.50496447086334,-0.587181951496087,2.71316839067337,1.50204717602401,2210.804,2209.293,2203.249,2206.026,356.820709228516,44.9997291564941,1.28027546405792,-0.808207869529724,-0.348324179649353,0.489732772111893,-0.812800388649436,-0.349725300221754,0.496527073925997,6
1.57998657226563,-0.605772435665131,2.70521688461304,1.5148913860321,-0.603542258451077,2.7061290076447,1.51204143224525,2201.121,2203.82,2210.856,2209.597,356.863372802734,44.999870300293,1.26183390617371,-0.81938362121582,-0.353080183267593,0.496344238519669,-0.82410201904291,-0.354588076049064,0.503431063574906,6
1.60000610351563,-0.622380793094635,2.69806122779846,1.52495419979095,-0.620152298932711,2.69898217125626,1.52218824678091,2203.586,2204.767,2208.464,2206.119,356.909210205078,44.9998359680176,1.24282586574554,-0.830415904521942,-0.357779651880264,0.503138899803162,-0.835253140422976,-0.35938609205264,0.510243109616171,5
1.6199951171875,-0.63920646905899,2.6908130645752,1.53515386581421,-0.636958033083316,2.69175113334911,1.53245460752521,2208.34,2206.826,2200.637,2203.445,356.955139160156,44.999340057373,1.22528600692749,-0.841287791728973,-0.362412929534912,0.509984135627747,-0.846214826007804,-0.364102599125749,0.516939432286212,5
1.6400146484375,-0.6562460064888,2.68347382545471,1.54548144340515,-0.654007271984653,2.68441532215046,1.54286972152191,2198.458,2201.091,2207.817,2206.993,357.002014160156,44.9994583129883,1.20519292354584,-0.851976454257965,-0.366964995861053,0.516381680965424,-0.857015715678588,-0.368749920209162,0.523537527241534,5
1.66000366210938,-0.673496305942535,2.67604470252991,1.55594289302826,-0.671244443874359,2.67699864863716,1.55339964084857,2205.753,2204.377,2199.687,2201.528,357.049774169922,44.999080657959,1.18634331226349,-0.862512409687042,-0.371456474065781,0.523072361946106,-0.867618167158098,-0.373311858882592,0.530014399402375,5
1.67999267578125,-0.690953433513641,2.66852736473083,1.56652891635895,-0.688691692550512,2.66949158495151,1.56405789280588,2195.631,2198.946,2206.681,2204.646,357.099334716797,44.9992561340332,1.16503036022186,-0.872857272624969,-0.375865429639816,0.529300153255463,-0.878034183119987,-0.377793579561193,0.536377381014768,5
1.70001220703125,-0.708614110946655,2.66092324256897,1.57724285125732,-0.706372354049449,2.66188409024902,1.5748587330143,2198.514,2199.756,2203.026,2200.791,357.152496337891,44.9991874694824,1.14328801631927,-0.883032977581024,-0.38020721077919,0.535695612430573,-0.888274735793774,-0.382199803288802,0.542633174842512,5
1.72000122070313,-0.726474523544312,2.65323376655579,1.58808505535126,-0.724228658537036,2.6542010212754,1.58576687078363,2203.515,2201.631,2194.044,2197.842,357.205444335938,44.9986114501953,1.12318885326385,-0.893021702766418,-0.384470671415329,0.542108237743378,-0.898304216251578,-0.386515208538549,0.548760027947228,5
1.739990234375,-0.744530498981476,2.64546084403992,1.59904539585114,-0.74228345468553,2.64643254688532,1.59679626401121,2192.855,2195.441,2201.167,2201.38,357.258911132813,44.9986953735352,1.1005220413208,-0.902802884578705,-0.388641625642776,0.548018574714661,-0.908134108040217,-0.390744736359816,0.554764955448471,5
1.760009765625,-0.762778580188751,2.63760614395142,1.61012673377991,-0.760560719141003,2.63856835059778,1.60796155965597,2194.944,2195.989,2198.299,2197.203,357.315124511719,44.9986114501953,1.07734382152557,-0.912400245666504,-0.392738491296768,0.554068028926849,-0.91777478390713,-0.394892849856044,0.560654293895788,4
1.77999877929688,-0.781214475631714,2.62967109680176,1.62132930755615,-0.779000609654483,2.63063418086074,1.61922620102184,2199.368,2197.67,2189.997,2193.864,357.370880126953,44.9980926513672,1.05581188201904,-0.921799302101135,-0.396753013134003,0.560126125812531,-0.927192788821983,-0.398945154262308,0.566407606133204,4
1.79998779296875,-0.799834191799164,2.62165760993958,1.63264286518097,-0.797626646773287,2.62261991743975,1.63060455644414,2188.175,2191.269,2197.566,2197.226,357.427398681641,44.9982566833496,1.03170561790466,-0.930981814861298,-0.400672167539597,0.565676093101501,-0.936399026186941,-0.402906341007953,0.572031552878955,4
1.82000732421875,-0.818633615970612,2.61356735229492,1.64407026767731,-0.816463410111527,2.61451498441355,1.64211164122557,2190.327,2191.66,2194.498,2192.864,357.487121582031,44.9982223510742,1.00709342956543,-0.939969480037689,-0.404513239860535,0.571369051933289,-0.94540321420156,-0.406780591562751,0.577532070829503,3
1.83999633789063,-0.837608456611633,2.60540199279785,1.65561163425446,-0.835449117627072,2.60634596486888,1.6537097136807,2195.046,2193.359,2185.573,2189.31,357.546630859375,44.9977035522461,0.984232723712921,-0.948746740818024,-0.408266842365265,0.577068209648132,-0.954174163352093,-0.410554485950274,0.582890106797601,3
1.8599853515625,-0.85675436258316,2.59716367721558,1.66725647449493,-0.854607925216182,2.59810246519841,1.66541353026959,2183.721,2186.774,2192.803,2192.778,357.606903076172,44.9978523254395,0.95877993106842,-0.957295954227448,-0.411919593811035,0.582240045070648,-0.962722140342816,-0.41423244164655,0.588111932552683,0
1.8800048828125,-0.876067101955414,2.58885383605957,1.67900729179382,-0.873964974649439,2.58977366760063,1.67723844970756,2185.945,2187.102,2189.396,2188.262,357.670227050781,44.9978065490723,0.932840347290039,-0.96563708782196,-0.415487915277481,0.587543606758118,-0.971056158224177,-0.417818336715394,0.593203054026622,0
1.89999389648438,-0.895542144775391,2.58047461509705,1.69086408615112,-0.893456683142228,2.58138692997148,1.6891456302637,2190.573,2188.752,2180.346,2184.522,357.733032226563,44.9972648620605,0.908728301525116,-0.973755419254303,-0.418963074684143,0.592837810516357,-0.979147395688901,-0.421299770153459,0.598145864732551,0
1.92001342773438,-0.915174901485443,2.57202792167664,1.70281589031219,-0.913137923350175,2.5729186421402,1.70116859278703,2178.868,2181.957,2187.721,2188.034,357.796478271484,44.997444152832,0.881992697715759,-0.981635868549347,-0.422332912683487,0.597588956356049,-0.987017247723777,-0.424685947625853,0.602953434534038,0
1.94000244140625,-0.934960901737213,2.56351566314697,1.71486806869507,-0.932943991899774,2.5643966441608,1.71326781099638,2186.447,2184.837,2178.565,2181.32,357.860504150391,44.9970512390137,0.856781244277954,-0.989302396774292,-0.425615876913071,0.602606177330017,-0.994638524886308,-0.427965170275055,0.607609153824943,0
1.95999145507813,-0.954895436763763,2.55493974685669,1.7270096540451,-0.952900013794853,2.55581012544606,1.7254586333645,2174.754,2178.572,2185.58,2184.397,357.926208496094,44.9972953796387,0.829058051109314,-0.996726870536804,-0.428793877363205,0.607079863548279,-1.00202031904361,-0.431141350077486,0.612118576685011,0
1.98001098632813,-0.974973917007446,2.54630208015442,1.73924338817596,-0.973031969359004,2.54714790738853,1.73775693086567,2177.546,2178.918,2181.212,2179.647,357.995422363281,44.9972610473633,0.801033735275269,-1.00392436981201,-0.431879758834839,0.611687839031219,-1.00917036754089,-0.434217816196637,0.616486429737696,0
2,-0.99519157409668,2.53760480880737,1.75156879425049,-0.993273599084619,2.53843849960327,1.75012222660065,2182.659,2180.446,2171.158,2175.894,358.064025878906,44.9966812133789,0.774973750114441,-1.01087975502014,-0.434863120317459,0.616271734237671,-1.01606400046349,-0.437183953857422,0.620697642517089,0
2.01998901367188,-1.01554310321808,2.52885007858276,1.76397442817688,-1.01365055070775,2.52967086658596,1.76257018837116,2170.581,2173.478,2178.307,2179.561,358.132873535156,44.9968223571777,0.746291756629944,-1.01758098602295,-0.437732815742493,0.620279550552368,-1.02270954399163,-0.440043345582587,0.624757301356767,0
2.04000854492188,-1.03602397441864,2.5200400352478,1.77646243572235,-1.03418924440916,2.52083364047092,1.77511695585335,2172.635,2173.689,2174.863,2174.547,358.204193115234,44.9967765808105,0.717250049114227,-1.02404451370239,-0.440504670143127,0.624397993087769,-1.02911391720548,-0.442798968459032,0.628669633014835,0
2.05999755859375,-1.0566291809082,2.51117658615112,1.78903222084045,-1.05482201812353,2.5119559343546,1.78772119534738,2177.117,2175.045,2165.771,2170.531,358.274566650391,44.996265411377,0.690150678157806,-1.0302586555481,-0.44317153096199,0.628488421440125,-1.03525504859546,-0.445441325732794,0.632421154350513,0
2.07998657226563,-1.07735347747803,2.50226211547852,1.80167233943939,-1.07557499515204,2.50302650811029,1.80039886517028,2164.577,2168.026,2173.493,2174.053,358.345428466797,44.9965019226074,0.660455703735352,-1.03621459007263,-0.445724159479141,0.632008790969849,-1.04114045847258,-0.4479736531836,0.636016459404434,0
2.10000610351563,-1.09819197654724,2.49329853057861,1.81438541412354,-1.09647498538954,2.49403382618922,1.81316634306845,2166.8,2168.137,2169.938,2168.962,358.419250488281,44.9965286254883,0.630414366722107,-1.04192590713501,-0.448176741600037,0.6356520652771,-1.04677621342161,-0.450398561093403,0.639459254158576,0
2.1199951171875,-1.11913967132568,2.48428821563721,1.82717084884644,-1.11745308225396,2.48500753716864,1.82598153508617,2171.599,2169.556,2160.389,2164.832,358.492340087891,44.9960250854492,0.602405846118927,-1.04738020896912,-0.450520992279053,0.639270007610321,-1.0521429102862,-0.45270770082608,0.642737685527497,0
2.13998413085938,-1.14019107818604,2.47523331642151,1.84001708030701,-1.13853583516761,2.47593621757383,1.83886065985125,2159.149,2162.465,2167.69,2168.546,358.565979003906,44.9962501525879,0.571781158447266,-1.05256986618042,-0.452747583389282,0.64231139421463,-1.05724722779031,-0.454903946049977,0.645855833439456,0
2.16000366210938,-1.16134107112885,2.46613597869873,1.85292637348175,-1.15975039167652,2.46680818657414,1.85182030137592,2161.48,2162.633,2163.897,2163.338,358.642364501953,44.9962539672852,0.540861308574677,-1.05750584602356,-0.454869568347931,0.645466268062592,-1.0620943502576,-0.456989527434725,0.648816864916866,0
2.17999267578125,-1.18258464336395,2.45699834823608,1.86589813232422,-1.18102676265167,2.45765355853653,1.86481770439342,2166.273,2164.003,2154.307,2159.155,358.717681884766,44.995735168457,0.512024700641632,-1.06217682361603,-0.456879258155823,0.648586809635162,-1.06666760390386,-0.458957270716794,0.65161059420515,0
2.20001220703125,-1.20391619205475,2.44782304763794,1.87892055511475,-1.20242455577657,2.44844668594002,1.87788928230744,2153.517,2156.905,2161.797,2162.886,358.793365478516,44.9959869384766,0.480616360902786,-1.0665785074234,-0.458769023418427,0.651122093200684,-1.07097916161324,-0.460812413548163,0.654244457529281,0
2.22000122070313,-1.22533071041107,2.43861198425293,1.89199876785278,-1.22387315175433,2.43921795429519,1.89099189489151,2161.611,2159.538,2152.194,2155.493,358.869110107422,44.9956245422363,0.450948685407639,-1.07072269916534,-0.460552453994751,0.65391331911087,-1.07501419914593,-0.462548577472581,0.656709398992482,0
2.239990234375,-1.24682247638702,2.42936754226685,1.90512132644653,-1.24539969505118,2.42995568409656,1.90414212427648,2148.987,2153.124,2159.253,2158.765,358.9462890625,44.9959564208984,0.418858647346497,-1.07459652423859,-0.46221786737442,0.656126320362091,-1.07877792518082,-0.464168003639063,0.659008600495412,0
2.260009765625,-1.26838672161102,2.42009210586548,1.91829061508179,-1.26703177594152,2.42064800401982,1.91735682493042,2152.027,2153.293,2154.569,2153.56,359.026611328125,44.9959678649902,0.386660575866699,-1.07820498943329,-0.463773787021637,0.658461928367615,-1.08227399942825,-0.465672266718726,0.661144297698006,0
2.27999877929688,-1.2900173664093,2.41078782081604,1.93150568008423,-1.28869796983554,2.41132564607061,1.93059236468599,2157.238,2154.515,2144.285,2149.563,359.105804443359,44.9954071044922,0.356588214635849,-1.08153688907623,-0.465211421251297,0.660751521587372,-1.08549040888332,-0.467056197851165,0.663109152043028,0
2.29998779296875,-1.31170916557312,2.4014573097229,1.94475448131561,-1.31042570636616,2.40197680804417,1.9438654998779,2144.475,2147.595,2151.388,2153.329,359.184906005859,44.9956169128418,0.324054718017578,-1.08459174633026,-0.466524749994278,0.662442564964294,-1.08843144721369,-0.468321644481621,0.664905786465049,0
2.32000732421875,-1.33345675468445,2.39210271835327,1.95803904533386,-1.33224276726637,2.39258953623693,1.95719320193332,2146.667,2147.536,2147.826,2148.076,359.266052246094,44.9956321716309,0.29129296541214,-1.08737540245056,-0.467724859714508,0.664230167865753,-1.09109983431736,-0.469469776906228,0.666535862507326,0
2.33999633789063,-1.35525417327881,2.38272666931152,1.97135853767395,-1.35407709248145,2.38319483607731,1.97053145048929,2151.241,2148.763,2138.658,2143.728,359.345733642578,44.9951477050781,0.260688632726669,-1.08987998962402,-0.468806475400925,0.665973544120789,-1.09348640563071,-0.470496651869278,0.667993781680938,0
2.3599853515625,-1.37709629535675,2.37333130836487,1.9847012758255,-1.37595634130987,2.37378080654189,1.98389714217962,2138.231,2141.774,2146.216,2147.492,359.425598144531,44.9954490661621,0.227633714675903,-1.09210860729218,-0.469765335321426,0.66713547706604,-1.09559452046326,-0.471403714787811,0.669281596135657,0
2.3800048828125,-1.39897763729095,2.3639190196991,1.99806940555573,-1.39790843013262,2.36433543599182,1.99730733068585,2140.54,2141.727,2142.656,2142.167,359.507934570313,44.9955291748047,0.194393903017044,-1.09406328201294,-0.470610588788986,0.668404400348663,-1.09742594550583,-0.472191725819537,0.67040038511534,0
2.39999389648438,-1.42089235782623,2.3544921875,2.01146221160889,-1.41986083522252,2.35488992936084,2.01071771239474,2145.469,2142.95,2133.121,2137.843,359.589050292969,44.9950637817383,0.163340553641319,-1.09573590755463,-0.471336096525192,0.669636487960815,-1.09897439291323,-0.472857979480329,0.671346307473475,0
2.42001342773438,-1.44283485412598,2.34505343437195,2.02486801147461,-1.44187496577138,2.34541786398928,2.02416580122331,2132.617,2136.089,2140.277,2141.701,359.67041015625,44.9953536987305,0.129884764552116,-1.09713101387024,-0.4719378054142,0.670286118984222,-1.1002439936861,-0.473404253224357,0.672121886773894,0
2.44000244140625,-1.46479988098145,2.33560490608215,2.03829145431519,-1.46387808506052,2.33595053645515,2.03760716344514,2141.021,2138.526,2130.644,2134.138,359.751403808594,44.9950256347656,0.0983063131570816,-1.09824860095978,-0.472423702478409,0.671178221702576,-1.10123038958312,-0.473828671822132,0.672724460634977,0
2.45999145507813,-1.48678171634674,2.32614898681641,2.0517213344574,-1.48589810917879,2.32647593524532,2.05105885256329,2128.214,2132.289,2137.482,2137.647,359.83349609375,44.9953880310059,0.064436636865139,-1.09908986091614,-0.472788274288177,0.671492099761963,-1.10193535162022,-0.474131997292339,0.673155110942729,0
2.48001098632813,-1.50877475738525,2.31668853759766,2.06515955924988,-1.5079630509786,2.31698200721197,2.06453798119217,2131.346,2132.366,2132.907,2132.358,359.918273925781,44.9954299926758,0.0305708702653646,-1.09965026378632,-0.473036080598831,0.671916782855988,-1.10235904000526,-0.474314298567936,0.673413935565619,0
2.5,-1.5307731628418,2.30722522735596,2.07860541343689,-1.52999999932945,2.30750012397766,2.0780000090599,2136.652,2133.499,2122.818,2128.25,0.0014137722318992,44.9948959350586,-0.00105302024167031,-1.09992265701294,-0.473160237073898,0.672290444374084,-1.10250000050292,-0.474374949932098,0.673500046133994,0
2.51998901367188,-1.55277132987976,2.29776215553284,2.0920467376709,-1.5520369476803,2.29801824074336,2.09146203692764,2123.671,2126.863,2129.864,2132.155,0.0841775164008141,44.9951553344727,359.965057373047,-1.09991669654846,-0.473159372806549,0.672069847583771,-1.10235904000526,-0.474314298567936,0.67341393556562,0
2.54000854492188,-1.57476401329041,2.28830146789551,2.10548567771912,-1.57410188948011,2.28852431271001,2.10494116555652,2126.062,2126.689,2126.373,2126.899,0.16861617565155,44.9951972961426,359.931091308594,-1.09962844848633,-0.473040193319321,0.671941339969635,-1.10193535162022,-0.474131997292339,0.673155110942729,0
2.55999755859375,-1.59674501419067,2.27884554862976,2.11892080307007,-1.59612191359838,2.27904971150017,2.11839285467467,2130.615,2127.779,2117.529,2122.564,0.251187741756439,44.9947624206543,359.899322509766,-1.09905385971069,-0.472799003124237,0.671761810779572,-1.10123038958312,-0.473828671822132,0.672724460634977,0
2.57998657226563,-1.61870908737183,2.26939678192139,2.13234114646912,-1.61812503288753,2.26958238396605,2.1318342168965,2117.632,2121.184,2124.841,2126.417,0.333716660737991,44.9950981140137,359.865356445313,-1.09820520877838,-0.472435861825943,0.671014964580536,-1.1002439936861,-0.473404253224357,0.672121886773894,0
2.60000610351563,-1.64065074920654,2.25995779037476,2.14574861526489,-1.64013916343638,2.26011031859448,2.14528230572506,2120.138,2121.067,2121.337,2121.135,0.418315887451172,44.9951934814453,359.831329345703,-1.09707486629486,-0.471955358982086,0.670368254184723,-1.09897439291323,-0.472857979480329,0.671346307473476,0
2.6199951171875,-1.66256403923035,2.25053071975708,2.15914225578308,-1.66209156852628,2.2506648119635,2.15869268743396,2125.064,2122.131,2112.153,2116.893,0.50127387046814,44.9947624206543,359.799560546875,-1.095658659935,-0.471352875232697,0.669678926467896,-1.09742594550583,-0.472191725819537,0.67040038511534,0
2.63998413085938,-1.68444323539734,2.24111819267273,2.17251086235046,-1.6840102224118,2.24123382753286,2.17208245105877,2112.348,2115.715,2119.015,2120.825,0.58415025472641,44.9950790405273,359.765594482422,-1.09397041797638,-0.470628976821899,0.668425142765045,-1.09559752564474,-0.471405007833448,0.669283431954129,0
2.66000366210938,-1.70628321170807,2.23172235488892,2.18585610389709,-1.70592290617745,2.23180541187802,2.18546856763052,2115.031,2115.657,2115.332,2115.556,0.668780088424683,44.9951553344727,359.731689453125,-1.09200012683868,-0.46978697180748,0.66726541519165,-1.09348640563071,-0.470496651869278,0.667993781680938,0
2.67999267578125,-1.72807836532593,2.22234582901001,2.19917726516724,-1.72775723139253,2.2224107117184,2.19880681618649,2119.741,2116.692,2106.459,2111.358,0.751467108726501,44.9947204589844,359.700042724609,-1.08974504470825,-0.468823075294495,0.666052758693695,-1.09109983431736,-0.469469776906228,0.666535862507326,0
2.70001220703125,-1.74982261657715,2.21299076080322,2.21246290206909,-1.74957429229274,2.21302343991116,2.21213451824191,2107.047,2110.29,2113.373,2115.384,0.833900988101959,44.9950485229492,359.666229248047,-1.08722198009491,-0.467739373445511,0.664284527301788,-1.08843144721369,-0.468321644481621,0.664905786465049,0
2.72000122070313,-1.77151107788086,2.20366024971008,2.22571778297424,-1.77130202882336,2.20367460188472,2.22540765343382,2115.334,2112.542,2104.528,2107.772,0.915469467639923,44.9947700500488,359.634429931641,-1.0844167470932,-0.466537624597549,0.662738502025604,-1.08549040888332,-0.467056197851165,0.663109152043028,0
2.739990234375,-1.79313802719116,2.19435596466064,2.23893070220947,-1.79296822271738,2.1943522439355,2.23864319318939,2102.961,2106.71,2110.872,2111.562,0.997734069824219,44.9951667785645,359.6005859375,-1.08134770393372,-0.4652199447155,0.660651743412018,-1.08227399942825,-0.465672266718727,0.661144297698006,0
2.760009765625,-1.81469798088074,2.1850802898407,2.25210404396057,-1.81460030360772,2.18504456385877,2.25185789384333,2106.164,2106.844,2106.61,2106.339,1.08207046985626,44.9952354431152,359.566955566406,-1.07799875736237,-0.46378555893898,0.658662259578705,-1.07877792518082,-0.464168003639063,0.659008600495412,0
2.77999877929688,-1.83618545532227,2.17583560943604,2.26523637771606,-1.83612684690458,2.17578229366013,2.2650081232283,2111.265,2107.857,2097.342,2102.336,1.16435468196869,44.9947662353516,359.535675048828,-1.07436800003052,-0.462229996919632,0.656617224216461,-1.07501419914593,-0.462548577472581,0.656709398992482,0
2.79998779296875,-1.85759484767914,2.16662454605103,2.27831673622131,-1.85757544288233,2.1665535620153,2.27811073581237,2098.922,2101.756,2103.768,2106.421,1.24594962596893,44.995044708252,359.502380371094,-1.07047605514526,-0.460557013750076,0.654021620750427,-1.07097916161324,-0.460812413548163,0.654244457529281,0
2.82000732421875,-1.8789210319519,2.15744924545288,2.29134678840637,-1.87897323600723,2.1573466894188,2.29118231372639,2101.431,2101.636,2100.533,2101.325,1.32857286930084,44.9951171875,359.46923828125,-1.06630778312683,-0.458767801523209,0.651504933834076,-1.06666760390385,-0.458957270716794,0.65161059420515,0
2.83999633789063,-1.90015828609467,2.14831209182739,2.30432558059692,-1.90024960698239,2.14819206138118,2.30417971674389,2105.807,2102.558,2092.489,2097.233,1.40887224674225,44.9947319030762,359.438385009766,-1.06186389923096,-0.456860721111298,0.648934185504913,-1.06209435025759,-0.456989527434725,0.648816864916866,0
2.8599853515625,-1.92130136489868,2.13921523094177,2.31724238395691,-1.92143189875059,2.13907791299805,2.31711964824194,2093.518,2096.667,2099.179,2101.135,1.48872721195221,44.9950790405273,359.405609130859,-1.05716681480408,-0.454840958118439,0.645841836929321,-1.05725481901126,-0.454907212340279,0.645860470797877,0
2.8800048828125,-1.94234561920166,2.13016128540039,2.33009910583496,-1.94254691640495,2.12999271078668,2.33001848303364,2096.101,2096.582,2096.009,2096.094,1.56993663311005,44.9952049255371,359.373016357422,-1.05219888687134,-0.452707916498184,0.642837047576904,-1.0521429102862,-0.45270770082608,0.642737685527497,0
2.89999389648438,-1.96328485012054,2.1211519241333,2.34289479255676,-1.96352501326936,2.1209664217661,2.34283367505136,2100.696,2097.364,2087.842,2092.247,1.6490763425827,44.9948234558105,359.342620849609,-1.04696071147919,-0.450459450483322,0.639786005020142,-1.04677621342161,-0.450398561093403,0.639459254158576,0
2.92001342773438,-1.98411440849304,2.11218976974487,2.35561919212341,-1.98442500350686,2.11197373984504,2.35560115294953,2088.869,2091.908,2094.015,2095.966,1.72777318954468,44.9951705932617,359.310516357422,-1.04147565364838,-0.448100954294205,0.636225879192352,-1.04114045847258,-0.4479736531836,0.636016459404434,0
2.94000244140625,-2.00482869148254,2.1032772064209,2.36827635765076,-2.00517798053537,2.10304431360073,2.36827882277243,2096.842,2093.64,2085.908,2089.031,1.80521941184998,44.9949226379395,359.280364990234,-1.03572106361389,-0.445629090070724,0.632862627506256,-1.03525504859546,-0.445441325732794,0.632421154350513,0
2.95999145507813,-2.02542328834534,2.09441637992859,2.38085651397705,-2.02581075424974,2.0941666074844,2.38088306226645,2085.36,2088.678,2091.568,2092.563,1.88291537761688,44.9953002929688,359.248565673828,-1.02972543239594,-0.443051189184189,0.629006087779999,-1.02911391720548,-0.442798968459032,0.628669633014836,0
2.98001098632813,-2.04589295387268,2.085608959198,2.39336109161377,-2.04634944795115,2.08532938136936,2.39342982974865,2088.458,2088.579,2087.747,2087.902,1.96197891235352,44.9953804016113,359.217010498047,-1.02346694469452,-0.440363168716431,0.625231862068176,-1.02270954399162,-0.440043345582586,0.624757301356766,0
3,-2.0662317276001,2.07685780525208,2.4057891368866,-2.06672639957428,2.07656174835205,2.40587779151916,2093.121,2089.54,2079.558,2084.108,2.03867101669312,44.9949722290039,359.187805175781,-1.01694738864899,-0.437563002109528,0.621401429176331,-1.01606400046349,-0.437183953857422,0.620697642517089,0
3.01998901367188,-2.08643555641174,2.06816482543945,2.41813063621521,-2.0869680292999,2.06785234056679,2.41824308725414,2081.9,2084.222,2085.229,2087.97,2.11434316635132,44.995246887207,359.157012939453,-1.01019322872162,-0.434657365083694,0.61708015203476,-1.00917036754089,-0.434217816196637,0.616486429737696,0
3.04000854492188,-2.10649919509888,2.05953192710876,2.43038702011108,-2.10709998486405,2.05919012250926,2.43054138475531,2084.204,2084.014,2082.487,2083.399,2.19046711921692,44.9953498840332,359.12646484375,-1.00318431854248,-0.431644439697266,0.612821757793427,-1.00202031904361,-0.431141350077486,0.612118576685011,0
3.05999755859375,-2.12641763687134,2.0509614944458,2.4425573348999,-2.12705600675913,2.05060360379452,2.44273220712343,2088.285,2084.871,2075.391,2079.583,2.26403188705444,44.9950180053711,359.09814453125,-0.995924115180969,-0.428524285554886,0.608515024185181,-0.994638524886308,-0.427965170275055,0.607609153824944,0
3.07998657226563,-2.14618635177612,2.04245543479919,2.45463228225708,-2.14686207530873,2.04208160581513,2.45483142533277,2077.105,2079.729,2081.341,2083.345,2.33685564994812,44.9953727722168,359.068328857422,-0.98844039440155,-0.425304591655731,0.603744745254517,-0.987017247723776,-0.424685947625853,0.602953434534038,0
3.10000610351563,-2.16580057144165,2.03401589393616,2.46661329269409,-2.16654331551667,2.03361331798384,2.46685438785611,2079.629,2079.606,2078.547,2078.814,2.4104323387146,44.9955024719238,359.038818359375,-0.980710625648499,-0.421981871128082,0.599051058292389,-0.979147395688901,-0.421299770153459,0.598145864732551,0
3.1199951171875,-2.18525552749634,2.02564477920532,2.4784996509552,-2.18603502400946,2.02522658035469,2.47876156841225,2083.894,2080.387,2071.347,2075.247,2.48164772987366,44.9951858520508,359.011505126953,-0.97273850440979,-0.418555647134781,0.594315230846405,-0.971056158224178,-0.417818336715394,0.593203054026623,0
3.13998413085938,-2.2045464515686,2.01734375953674,2.4902822971344,-2.20536269329809,2.01691042421237,2.49056853997833,2073.219,2075.573,2076.81,2078.923,2.55205249786377,44.9955062866211,358.982788085938,-0.964552283287048,-0.415033847093582,0.589130103588104,-0.962735018414262,-0.414237982720922,0.588119799565572,0
3.16000366210938,-2.22366881370544,2.00911569595337,2.50196266174316,-2.22455088103183,2.00865428308644,2.50229030443911,2075.782,2075.558,2074.007,2074.478,2.62290740013123,44.9956207275391,358.954498291016,-0.956128776073456,-0.411412358283997,0.584015011787415,-0.954174163352092,-0.410554485950274,0.582890106797601,0
3.17999267578125,-2.24261856079102,2.0009617805481,2.51353979110718,-2.24353658854737,2.00048526354177,2.51388837689424,2079.949,2076.161,2067.089,2071.18,2.69113874435425,44.9953079223633,358.928344726563,-0.947472870349884,-0.407691150903702,0.578856945037842,-0.945403214201559,-0.406780591562751,0.577532070829503,0
3.20001220703125,-2.26139068603516,1.99288403987885,2.52500510215759,-2.26237335188561,1.99238033051557,2.52539546167567,2069.428,2071.611,2072.571,2074.751,2.75835514068604,44.9956321716309,358.900848388672,-0.938614070415497,-0.403879314661026,0.573262870311737,-0.93639902618694,-0.402906341007952,0.572031552878955,0
3.22000122070313,-2.27998113632202,1.98488461971283,2.53636193275452,-2.28099938900442,1.98436606709459,2.53677381709797,2076.521,2073.145,2065.954,2068.519,2.82382416725159,44.9954681396484,358.875335693359,-0.929523885250092,-0.399970412254333,0.567837595939636,-0.927192788821982,-0.398945154262308,0.566407606133204,0
3.239990234375,-2.29838609695435,1.97696506977081,2.54760193824768,-2.2994392795179,1.97643189735754,2.54803845846384,2066.616,2069.097,2070.778,2071.85,2.88901400566101,44.9958305358887,358.848663330078,-0.920238792896271,-0.395975917577744,0.562003433704376,-0.917774783907129,-0.394892849856044,0.560654293895788,0
3.260009765625,-2.31660079956055,1.96912717819214,2.55872678756714,-2.31771654397337,1.96856770107001,2.5592037541086,2069.491,2069.063,2067.652,2067.852,2.95476746559143,44.9959335327148,358.822479248047,-0.910733640193939,-0.391889303922653,0.556241095066071,-0.908134108040216,-0.390744736359816,0.55476495544847,0
3.27999877929688,-2.3346209526062,1.9613733291626,2.56973552703857,-2.33577134012187,1.96079922667992,2.57023314733618,2073.671,2069.843,2060.858,2064.689,3.01786351203918,44.9956092834473,358.798461914063,-0.901013970375061,-0.38771054148674,0.550435304641724,-0.898304216251578,-0.386515208538549,0.548760027947228,0
3.29998779296875,-2.3524432182312,1.95370435714722,2.5806200504303,-2.35362764460945,1.95311615770631,2.58114128510551,2064.22,2065.593,2065.536,2068.227,3.07949090003967,44.9958610534668,358.773376464844,-0.891110002994537,-0.383448749780655,0.544226825237274,-0.888274735793772,-0.382199803288803,0.542633174842512,0
3.32000732421875,-2.3700635433197,1.94612216949463,2.59138154983521,-2.37130830610839,1.94550866300381,2.59194212531393,2066.264,2065.563,2063.46,2064.324,3.14079689979553,44.9959754943848,358.748809814453,-0.880999267101288,-0.379100024700165,0.538069844245911,-0.878034183119985,-0.377793579561194,0.536377381014769,0
3.33999633789063,-2.3874773979187,1.93862891197205,2.60201907157898,-2.38875555478454,1.93800159931817,2.60260037727124,2069.75,2066.183,2057.854,2061.284,3.19932675361633,44.9957313537598,358.726287841797,-0.870688319206238,-0.374665796756744,0.531876802444458,-0.867618167158097,-0.373311858882592,0.530014399402376,0
3.3599853515625,-2.40468144416809,1.93122601509094,2.61252546310425,-2.40599272667425,1.93058492580486,2.6131302965979,2060.702,2062.256,2062.578,2064.534,3.2566180229187,44.9960517883301,358.702850341797,-0.86020690202713,-0.370155572891235,0.525318741798401,-0.857015715678588,-0.368749920209162,0.523537527241535,0
3.3800048828125,-2.42167210578918,1.92391443252563,2.62290191650391,-2.42304196557559,1.92324911460621,2.6235454105946,2062.966,2062.19,2060.404,2060.888,3.31373643875122,44.9961814880371,358.679931640625,-0.849532246589661,-0.365564554929733,0.518823623657227,-0.846214826007803,-0.364102599125748,0.516939432286212,0
3.39999389648438,-2.43844556808472,1.91669654846191,2.63314771652222,-2.43984769972619,1.91601807669906,2.63381177133889,2066.387,2062.921,2054.938,2057.988,3.36821293830872,44.9959602355957,358.659118652344,-0.838671445846558,-0.360894083976746,0.512294709682465,-0.835253140422974,-0.35938609205264,0.510243109616171,0
3.42001342773438,-2.45499849319458,1.90957355499268,2.64325618743896,-2.45645774020782,1.90887124031063,2.64395858587455,2057.963,2059.164,2059.226,2061.247,3.42137217521667,44.9962501525879,358.637451171875,-0.827653646469116,-0.356153219938278,0.50542277097702,-0.824102019042908,-0.354588076049064,0.503431063574906,0
3.44000244140625,-2.47132778167725,1.90254688262939,2.65322995185852,-2.47281804716281,1.90183185728196,2.6539528420958,2063.983,2060.413,2053.869,2056.153,3.47242903709412,44.9961280822754,358.617553710938,-0.816452145576477,-0.351335257291794,0.498687416315079,-0.812800388649434,-0.349725300221754,0.496527073925997,0
3.45999145507813,-2.48742961883545,1.89561772346497,2.66306233406067,-2.48895081463434,1.8948903781363,2.66380809799729,2055.796,2057.333,2057.881,2059.017,3.52265048027039,44.9964485168457,358.596984863281,-0.805103778839111,-0.346452683210373,0.491623908281326,-0.80133641229185,-0.344792671461508,0.489523909660973,0
3.48001098632813,-2.5033016204834,1.88878774642944,2.67275476455688,-2.50487694859767,1.88803780761656,2.67353712471306,2058.455,2057.467,2055.344,2055.646,3.57261633872986,44.9965476989746,358.577178955078,-0.793585300445557,-0.34149906039238,0.484627515077591,-0.789697369743255,-0.339784716610052,0.482413800191712,0
3.5,-2.51893973350525,1.8820583820343,2.68230676651001,-2.5205447997813,1.88129636896134,2.68310837050915,2061.813,2057.928,2050.111,2053.39,3.61972665786743,44.9963150024414,358.559265136719,-0.781905233860016,-0.336475819349289,0.477596938610077,-0.777924000354857,-0.334718964672089,0.475221632552147,0
3.51998901367188,-2.53434133529663,1.87543058395386,2.69171190261841,-2.53597583877076,1.87465682397749,2.69253495143119,2054.237,2054.838,2053.945,2056.232,3.66503167152405,44.9965591430664,358.540802001953,-0.770092129707336,-0.331392526626587,0.470254927873611,-0.766004036374581,-0.329590137176618,0.467939912563966,0
3.54000854492188,-2.54950380325317,1.86890578269958,2.7009711265564,-2.55119019794619,1.86811051026429,2.70182916603607,2056.168,2054.867,2052.311,2053.16,3.70935750007629,44.9966659545898,358.523071289063,-0.758126437664032,-0.326245218515396,0.462964534759521,-0.753924423002452,-0.324392617007921,0.460560665253582,0
3.55999755859375,-2.56442427635193,1.86248481273651,2.7100841999054,-2.56613872308604,1.86167857751006,2.71096098677687,2059.017,2055.375,2048.038,2050.903,3.75072407722473,44.996509552002,358.507202148438,-0.746016800403595,-0.32103642821312,0.455650836229324,-0.741727567798258,-0.319144650954242,0.45310979673751,0
3.57998657226563,-2.57910013198853,1.85616946220398,2.71904540061951,-2.58084213759183,1.85535210901407,2.7199430732562,2051.73,2052.506,2052.005,2053.616,3.79048013687134,44.9967994689941,358.490905761719,-0.73379123210907,-0.315775781869888,0.448057621717453,-0.72940084364523,-0.31384080592,0.445579593307163,0
3.60000610351563,-2.59352874755859,1.84996020793915,2.72785592079163,-2.59531978247425,1.84912278287974,2.72878724059568,2053.879,2052.469,2050.324,2050.852,3.82940697669983,44.9969367980957,358.475280761719,-0.72143018245697,-0.310458570718765,0.44053053855896,-0.716930938559024,-0.308475354130224,0.437961922879033,0
3.6199951171875,-2.60770750045776,1.84385848045349,2.73651576042175,-2.60952509409627,1.84301063413925,2.73746504379605,2056.719,2053.181,2046.17,2048.668,3.86551451683044,44.9967765808105,358.461578369141,-0.708942592144012,-0.305087476968765,0.432986378669739,-0.704361775018033,-0.303067194200314,0.43028361700977,0
3.63998413085938,-2.6216344833374,1.83786511421204,2.74501943588257,-2.623478029369,1.83700707589127,2.7459886742229,2050.25,2050.521,2049.58,2051.332,3.89983797073364,44.9970359802246,358.447540283203,-0.696355283260345,-0.299671351909637,0.425189018249512,-0.691680442442073,-0.297610771068296,0.422536788827407,0
3.66000366210938,-2.63530731201172,1.8319810628891,2.75336837768555,-2.63719712493647,1.83110413233575,2.75436945562281,2052.172,2050.603,2048.122,2048.803,3.93301844596863,44.9971618652344,358.434265136719,-0.683651030063629,-0.294206380844116,0.417449057102203,-0.678873453515702,-0.29210028151913,0.414713199141411,0
3.67999267578125,-2.64872407913208,1.82620692253113,2.76156234741211,-2.65063849381582,1.82532068681534,2.76258057812278,2054.845,2051.221,2044.4,2046.889,3.96323180198669,44.9970321655273,358.422821044922,-0.670838832855225,-0.288695216178894,0.409698486328125,-0.665986083416798,-0.286555206197011,0.406840505851433,0
3.70001220703125,-2.66188311576843,1.8205441236496,2.76959681510925,-2.66384123964357,1.81963991412768,2.77064592952416,2048.77,2048.888,2047.763,2049.362,3.99153447151184,44.9972953796387,358.411193847656,-0.657944917678833,-0.283147096633911,0.401718199253082,-0.65298533214413,-0.280961346123326,0.398898549771683,0
