t,x_s1,x_s2,x_s3,x_s_d1,x_s_d2,x_s_d3,propellers_rpms1,propellers_rpms2,propellers_rpms3,propellers_rpms4,rollRad,pitchRad,yawRad,v_s1,v_s2,v_s3,v_s_d1,v_s_d2,v_s_d3,insideCount
0,-0.0599999986588955,2.94000005722046,1.17999994754791,-0.0599999986588955,2.94000005722046,1.17999994754791,0,0,0,0,0,45.0048027038574,0,0,0,0,-1.06581410364015E-15,4.44089209850063E-16,-7.105427357601E-16,0
0.019989013671875,-0.0599999986588955,2.94000005722046,1.17705690860748,-0.0600018659130177,2.93999925379318,1.18000108822432,0,0,0,0,0.937003672122955,44.8630027770996,-0.00115976633969694,3.71994488546079E-08,3.50004931704007E-08,-0.147149950265884,-0.000279680311988734,-0.000120338624884473,0.000170852338267345,5
0.0399932861328125,-0.0599999986588955,2.94000005722046,1.17018985748291,-0.060014863945674,2.93999366110285,1.18000902851964,0,0,0,0,1.87400352954865,44.7211418151855,-0.00311126722954214,3.70364325874561E-08,3.5142885934647E-08,-0.343349903821945,-0.00111059898697896,-0.000477859717552347,0.000678447590588643,6
0.05999755859375,-0.0599062219262123,2.94009447097778,1.16346514225006,-0.0600498857373401,2.93997859220429,1.18003042278566,3197.548,2848.816,1517.007,2782.242,1.40356075763702,44.741340637207,0.028959833085537,0.0046887663193047,0.00471893884241581,-0.336234629154205,-0.00247936261166862,-0.00106680046642749,0.00151460392977639,6
0.0800018310546875,-0.0597377866506577,2.94026732444763,1.15723752975464,-0.0601175574246769,2.93994947496775,1.18007176236346,2865.569,2651.698,2344.584,2562.293,0.339458614587784,44.8158149719238,0.0998864769935608,0.00842183083295822,0.00864457525312901,-0.311381936073303,-0.00437268608126799,-0.00188144466206175,0.00267120569262453,6
0.0999908447265625,-0.059556320309639,2.94046425819397,1.15151953697205,-0.0602281370710988,2.93990189563514,1.1801393137439,2239.838,2528.093,3138.061,2508.591,359.321350097656,44.9191131591797,0.178631111979485,0.00907337944954634,0.00984862074255943,-0.285901695489883,-0.00677536694902951,-0.00291525111632684,0.00413896594164447,5
0.1199951171875,-0.0594244487583637,2.94063210487366,1.146568775177,-0.0603918861403606,2.93983143898525,1.18023934549506,2123.527,2454.647,3352.138,2464.553,358.749847412109,44.9999008178711,0.253327608108521,0.00659362785518169,0.00839763507246971,-0.247538939118385,-0.00967801353495435,-0.00416417885169243,0.00591214744607921,5
0.139999389648438,-0.059383075684309,2.94074010848999,1.14257049560547,-0.0606185767455666,2.93973390035084,1.18037782724834,2312.496,2456.743,3068.972,2463.2,358.636169433594,45.0326614379883,0.326423346996307,0.00206869840621948,0.00539760151877999,-0.199915066361427,-0.0130660253322238,-0.00562194567796536,0.00798183098414958,5
0.160003662109375,-0.059443473815918,2.9407856464386,1.13952434062958,-0.0609177895434042,2.93960515744296,1.18056061167741,2536.712,2486.771,2635.259,2491.944,358.757019042969,45.0249786376953,0.398274898529053,-0.00301992753520608,0.00227848067879677,-0.15230792760849,-0.0169265510445065,-0.00728302204135792,0.0103401658994673,5
0.17999267578125,-0.0596002265810966,2.94078159332275,1.13730919361115,-0.0612985250199726,2.93944133760391,1.18079319703879,2666.572,2506.07,2302.418,2513.254,358.864227294922,44.99853515625,0.46744379401207,-0.00783766899257898,-0.000198294874280691,-0.110755003988743,-0.0212433804254414,-0.00914043312572283,0.0129772496054864,5
0.199996948242188,-0.0598478242754936,2.94073987007141,1.13576090335846,-0.0617704296168641,2.93923829023936,1.1810814761931,2653.153,2499.974,2183.674,2508.723,358.817016601563,44.9744033813477,0.532848596572876,-0.01237996481359,-0.00209184410050511,-0.0774163752794266,-0.0260104776919234,-0.0111915819022102,0.0158893949364944,5
0.220001220703125,-0.0601897984743118,2.94066214561462,1.13474535942078,-0.0623420644491781,2.93899233174064,1.18143067899198,2540.702,2470.662,2245.429,2478.74,358.612548828125,44.9636688232422,0.594542384147644,-0.0170987732708454,-0.00388211314566433,-0.0507754050195217,-0.03121219533433,-0.0134297356845702,0.0190670430730375,5
0.239990234375,-0.0606390945613384,2.9405415058136,1.13419342041016,-0.0630214373585105,2.93870001655724,1.18184569730089,2411.861,2429.789,2373.974,2437.323,358.334686279297,44.9659004211426,0.652697443962097,-0.0224648080766201,-0.00603249948471785,-0.0275953393429518,-0.0368316683029241,-0.015847637913056,0.0224998914194052,5
0.259994506835938,-0.0612134970724583,2.94036602973938,1.13409042358398,-0.0638179029240226,2.93835731967507,1.18233224568626,2329.226,2391.766,2462.96,2398.768,358.076446533203,44.9739074707031,0.70768791437149,-0.0287200473248959,-0.0087690856307745,-0.00515229254961014,-0.0428651747123285,-0.0184436871643672,0.0261856663338995,4
0.279998779296875,-0.0619300752878189,2.94012498855591,1.13444066047668,-0.0647390625194898,2.93796097043536,1.18289496770872,2306.129,2365.28,2469.761,2370.453,357.887268066406,44.9803085327148,0.760526180267334,-0.0358288772404194,-0.0120572559535503,0.0175126791000366,-0.0492963837173861,-0.0212108567320638,0.0301143915580518,4
0.300003051757813,-0.0628016516566277,2.93981075286865,1.13523638248444,-0.0657927507678135,2.93750759781875,1.18353864941714,2317.581,2348.29,2415.502,2353.497,357.76513671875,44.9817733764648,0.81132972240448,-0.0435789190232754,-0.0157070029526949,0.0397883541882038,-0.0561132031658829,-0.0241439437008635,0.0342786801847687,4
0.319992065429688,-0.063836507499218,2.93942022323608,1.13644933700562,-0.0669855955880233,2.93699435001684,1.18426733970383,2334.815,2336.507,2342.633,2341.673,357.678558349609,44.9788246154785,0.860104143619537,-0.0517427399754524,-0.0195242427289486,0.0606477931141853,-0.0632980253096114,-0.0272353719486164,0.0386677759154339,4
0.339996337890625,-0.065040186047554,2.93895220756531,1.13803589344025,-0.068326768706371,2.93641728069206,1.18508664143323,2337.252,2324.448,2287.4,2330.265,357.594421386719,44.9741706848145,0.906466960906982,-0.060183934867382,-0.0234040319919586,0.0793299600481987,-0.0708499516420146,-0.0304847548730522,0.0432811298664125,4
0.360000610351563,-0.0664177611470222,2.93840527534485,1.1399507522583,-0.0698225328270578,2.93577369517774,1.18600038039362,2322.734,2310.85,2261.334,2315.632,357.494689941406,44.9702911376953,0.950758516788483,-0.0688786804676056,-0.0273429062217474,0.095741018652916,-0.0787518717320621,-0.0338847303337087,0.0481082895423912,4
0.379989624023438,-0.0679750964045525,2.93777751922607,1.14215397834778,-0.0714784451857985,2.93506120235061,1.18701195141357,2295.617,2294.433,2260.668,2299.564,357.379852294922,44.9685325622559,0.992767453193665,-0.077866792678833,-0.0313900075852871,0.110161855816841,-0.0869857157641562,-0.0374275233937465,0.0531382163749952,4
0.399993896484375,-0.0697190761566162,2.93706560134888,1.1446168422699,-0.0733036822025899,2.9342758538535,1.18812696022487,2267.988,2277.477,2269.119,2283.138,357.261749267578,44.9687728881836,1.03226959705353,-0.0871990919113159,-0.0355981439352036,0.123141705989838,-0.0955525119207663,-0.0411135764513579,0.0583715384648505,4
0.419998168945313,-0.0716569796204567,2.93626570701599,1.14732038974762,-0.0753034649285836,2.93341540321397,1.18934859628618,2249.573,2263.219,2270.507,2267.365,357.152221679688,44.9698753356934,1.06996095180511,-0.0968953296542168,-0.0399897694587708,0.135178506374359,-0.104434660908044,-0.0449353170220673,0.0637975046779765,4
0.44000244140625,-0.0737955942749977,2.93537473678589,1.15024816989899,-0.077483988232608,2.93247718495301,1.19068064394622,2237.992,2250.605,2263.221,2255.088,357.057006835938,44.971004486084,1.10573840141296,-0.106930829584599,-0.0445480421185493,0.146386116743088,-0.113620829717891,-0.048887868829098,0.0694091918565748,4
0.459991455078125,-0.076140858232975,2.93438982963562,1.1533842086792,-0.0798493430620752,2.93145943885026,1.1921256023009,2232.225,2240.393,2248.641,2244.884,356.975463867188,44.9716567993164,1.13962340354919,-0.117263153195381,-0.0492406785488129,0.156803756952286,-0.123092454730403,-0.0529632444654124,0.0751952597749251,4
0.479995727539063,-0.0786977857351303,2.93330907821655,1.15671122074127,-0.0824088828700873,2.93035814037613,1.19368918522879,2227.069,2231.457,2233.426,2236.431,356.903411865234,44.9719390869141,1.17140507698059,-0.127845898270607,-0.0540347807109356,0.166349649429321,-0.132852887402757,-0.0571628859694044,0.0811577557859174,4
0.5,-0.0814707800745964,2.93213081359863,1.16021287441254,-0.085166398670376,2.92917165836334,1.195373708601,2223.092,2224.497,2218.951,2227.853,356.835906982422,44.9719924926758,1.20176637172699,-0.138650119304657,-0.0589120350778103,0.175080552697182,-0.142884000065179,-0.0614789935111996,0.0872856059789651,5
0.519989013671875,-0.0844639018177986,2.93085360527039,1.16387188434601,-0.0881248588203387,2.92789871561062,1.19718098574075,2215.316,2216.906,2211.02,2220.858,356.77001953125,44.972282409668,1.23042833805084,-0.149656161665916,-0.0638625249266624,0.182948723435402,-0.153166947611899,-0.0659034585682559,0.0935672981730243,5
0.539993286132813,-0.0876811146736145,2.92947578430176,1.16767358779907,-0.091293865515634,2.92653518056143,1.19911688247953,2206.219,2209.431,2208.105,2214.191,356.706237792969,44.9730110168457,1.25703227519989,-0.160860851407051,-0.0688890069723129,0.190084725618362,-0.163706645289342,-0.0704383960337938,0.100005835015435,5
0.55999755859375,-0.091126412153244,2.92799592018127,1.17160797119141,-0.094676112580471,2.92507989413848,1.20118304443252,2200.47,2204.081,2204.125,2206.936,356.645782470703,44.973949432373,1.28240585327148,-0.172264903783798,-0.0739961862564087,0.196716621518135,-0.17448465888317,-0.0750758741803766,0.106589955332319,5
0.580001831054688,-0.0948035418987274,2.92641234397888,1.1756649017334,-0.0982762614093182,2.92353085067394,1.20338231917284,2194.153,2198.318,2201.709,2201.907,356.589721679688,44.9750747680664,1.30623531341553,-0.183856040239334,-0.0791784450411797,0.202849105000496,-0.185490414529404,-0.0798113433697334,0.113313199715174,5
0.599990844726563,-0.0987160429358482,2.92472362518311,1.1798369884491,-0.102095761416081,2.92188742652551,1.20571559212485,2189.911,2193.744,2198.543,2197.3,356.538879394531,44.9762802124023,1.32854235172272,-0.195625513792038,-0.0844313427805901,0.208603754639626,-0.19670480600515,-0.0846365827279185,0.120163896470579,5
0.6199951171875,-0.102867186069489,2.92292881011963,1.18411707878113,-0.106144683970236,2.92014528826426,1.208189015731,2185.981,2189.573,2195.916,2193.836,356.493530273438,44.9775085449219,1.34902667999268,-0.207557395100594,-0.0897461101412773,0.214007094502449,-0.208134604141382,-0.0895545055543457,0.127146181793521,5
0.639999389648438,-0.107260018587112,2.92102646827698,1.18850111961365,-0.110424235525481,2.91830391678686,1.21080332699501,2185.862,2187.645,2190.201,2189.903,356.45263671875,44.9785499572754,1.36855888366699,-0.219641283154488,-0.0951170474290848,0.21920120716095,-0.219761081350814,-0.0945570538913933,0.134248615293163,5
0.659988403320313,-0.111897155642509,2.91901588439941,1.1929829120636,-0.114934715429503,2.91636318329238,1.21355870878373,2183.332,2184.938,2187.499,2187.961,356.414764404297,44.9795913696289,1.386798620224,-0.231857419013977,-0.100532859563828,0.224088370800018,-0.231565018351745,-0.0996359582190702,0.141459456210227,5
0.67999267578125,-0.116781130433083,2.91689610481262,1.1975576877594,-0.119686638739014,2.91431856344567,1.2164615845812,2180.282,2182.291,2187.219,2186.373,356.380065917969,44.9807777404785,1.40328693389893,-0.244198828935623,-0.105990797281265,0.228736087679863,-0.243554411173546,-0.104794659005432,0.14878358919428,5
0.699996948242188,-0.121914401650429,2.91466617584229,1.20222389698029,-0.124680083855354,2.91217002351282,1.2195120022816,2180.786,2181.912,2184.363,2183.729,356.348205566406,44.9818572998047,1.41900587081909,-0.256663262844086,-0.11149176210165,0.233310475945473,-0.255710395848158,-0.11002503961202,0.1562094905416,5
0.720001220703125,-0.12729911506176,2.91232562065125,1.20697832107544,-0.129918284978346,2.90991617190799,1.22271193760712,2178.89,2180.406,2184.333,2183.13,356.318725585938,44.9830169677734,1.43355631828308,-0.269235789775848,-0.117028087377548,0.237718775868416,-0.268023157655716,-0.11532287703907,0.163731164592979,5
0.739990234375,-0.132937386631966,2.90987372398376,1.21181964874268,-0.135400001298574,2.90755754251682,1.22606063256665,2178.085,2179.55,2184.528,2182.407,356.292022705078,44.9841918945313,1.44688534736633,-0.281913906335831,-0.122599467635155,0.242063730955124,-0.280473432677602,-0.12067988256057,0.171336843321139,5
0.759994506835938,-0.13883113861084,2.90730977058411,1.21674656867981,-0.14113644597991,2.90508931062815,1.22956493710703,2176.564,2178.582,2186.142,2182.374,356.268829345703,44.9854545593262,1.45859026908875,-0.294687837362289,-0.12820203602314,0.246347919106483,-0.293070637251543,-0.126100107763583,0.179032279019858,5
0.779998779296875,-0.144982233643532,2.90463304519653,1.22176110744476,-0.147126184485884,2.90251209348295,1.2332239748923,2179.259,2179.931,2183.803,2181.2,356.248657226563,44.9864921569824,1.46976637840271,-0.307554870843887,-0.133835554122925,0.250728845596313,-0.305795832832518,-0.131575403921268,0.186805902427515,5
0.800003051757813,-0.151392176747322,2.90184330940247,1.22686243057251,-0.153371683173492,2.89982482987671,1.23703925258147,2179.05,2179.818,2184.262,2182.161,356.230590820313,44.9875297546387,1.47994160652161,-0.320497095584869,-0.139489963650703,0.255065113306046,-0.318639638509124,-0.13710173468952,0.194651982891718,5
0.819992065429688,-0.158062413334846,2.89894008636475,1.23205125331879,-0.159870162197751,2.89702871589906,1.24100907201063,2179.58,2180.219,2185.11,2182.746,356.214569091797,44.9885559082031,1.48903906345367,-0.333512276411057,-0.145164877176285,0.259441703557968,-0.33158286215529,-0.142670842232658,0.202558796242139,5
0.839996337890625,-0.164994239807129,2.89592289924622,1.23732817173004,-0.166633637018892,2.89411858163313,1.24514077323692,2178.873,2180.263,2187.8,2183.837,356.201293945313,44.9896583557129,1.4966048002243,-0.346591651439667,-0.150857493281364,0.26384311914444,-0.344636106234817,-0.148287288494656,0.210532819358465,5
0.860000610351563,-0.172188937664032,2.8927915096283,1.24269676208496,-0.173659158941841,2.89109569582005,1.24943255494854,2182.484,2182.65,2186.277,2183.458,356.190368652344,44.9905471801758,1.50383937358856,-0.359735250473022,-0.156569331884384,0.268431723117828,-0.357780475378537,-0.153942943326036,0.218562509354528,5
0.879989624023438,-0.179647445678711,2.88954567909241,1.24815762042999,-0.18094280014554,2.88796174849148,1.2538820177009,2182.789,2183.197,2187.725,2185.307,356.180999755859,44.9914283752441,1.5101729631424,-0.372925698757172,-0.162290766835213,0.273044139146805,-0.370996904517929,-0.159629603560431,0.226636219677473,5
0.899993896484375,-0.187370657920837,2.88618516921997,1.25371205806732,-0.18849723509595,2.8847112861788,1.25849690412748,2182.37,2183.487,2191.029,2187.022,356.173950195313,44.9924049377441,1.51499032974243,-0.386159747838974,-0.16802154481411,0.277723550796509,-0.384296738353309,-0.165352150505452,0.234760880627692,5
0.919998168945313,-0.195359408855438,2.88270998001099,1.25936472415924,-0.196318384305134,2.8813460641717,1.26327472213274,2186.418,2186.325,2189.793,2186.941,356.1689453125,44.9931564331055,1.51955914497375,-0.39943864941597,-0.17376409471035,0.282633155584335,-0.397661187980262,-0.171102499820431,0.242925014356675,5
0.94000244140625,-0.203614309430122,2.87911987304688,1.26511657238007,-0.204407453948074,2.87786556348678,1.26821620855017,2186.898,2187.131,2191.61,2189.13,356.165222167969,44.9939041137695,1.5232743024826,-0.412744790315628,-0.179509028792381,0.287592619657516,-0.411081631631503,-0.176876941799768,0.251123353961324,5
0.959991455078125,-0.21213586628437,2.87541460990906,1.27097022533417,-0.212759000778906,2.87427212620069,1.27331803818581,2188.098,2188.436,2193.54,2190.561,356.163055419922,44.9946556091309,1.5260819196701,-0.426078200340271,-0.185257539153099,0.292683094739914,-0.424539267042903,-0.182667386354485,0.259344413431889,5
0.979995727539063,-0.220924466848373,2.87159442901611,1.27692759037018,-0.22138664033507,2.87055989392801,1.27858852855901,2187.836,2189.104,2197.163,2192.432,356.163391113281,44.9954833984375,1.52746260166168,-0.439430505037308,-0.191007062792778,0.297869473695755,-0.438046240701377,-0.188479059778567,0.267595612867683,5
1,-0.229980528354645,2.86765933036804,1.28299403190613,-0.230284798736574,2.86673126495361,1.28402427467346,2192.513,2192.24,2195.505,2192.531,356.165771484375,44.996036529541,1.5287379026413,-0.452803075313568,-0.196759656071663,0.303320914506912,-0.451584000205995,-0.194303979492187,0.275865618896484,5
1.01998901367188,-0.239304035902023,2.86360931396484,1.28917050361633,-0.239446912293295,2.86278906344998,1.2896212668733,2193.121,2193.151,2197.168,2194.949,356.169219970703,44.9965858459473,1.52924513816833,-0.466176390647888,-0.202504426240921,0.308825075626373,-0.46513400752272,-0.200134169097193,0.284143106922576,5
1.03999328613281,-0.248895019292831,2.85944437980652,1.29545879364014,-0.248887339851819,2.85872711120656,1.29538827675384,2192.705,2193.616,2200.886,2197.029,356.174621582031,44.9972305297852,1.52828884124756,-0.479548275470734,-0.208241730928421,0.314417243003845,-0.478708875293167,-0.205975055460915,0.292435781811908,5
1.05999755859375,-0.258753418922424,2.85516476631165,1.30186414718628,-0.258599401509697,2.85454828239877,1.3013212236669,2197.191,2196.82,2199.388,2196.925,356.181640625,44.9976425170898,1.52730286121368,-0.492921531200409,-0.213975235819817,0.320270538330078,-0.492290296490434,-0.211818761581115,0.30073246008742,5
1.08000183105469,-0.268878966569901,2.85077095031738,1.30838751792908,-0.268583149539609,2.85025255453512,1.30742013954506,2197.454,2197.583,2201.328,2199.247,356.189544677734,44.9980773925781,1.52560472488403,-0.506277620792389,-0.219694763422012,0.326168119907379,-0.50587040849135,-0.217661904390701,0.309028338595312,5
1.09999084472656,-0.279271334409714,2.84626293182373,1.31503140926361,-0.278830554044452,2.84584338265603,1.31368011904947,2198.531,2198.714,2203.188,2200.69,356.198669433594,44.9985008239746,1.52306282520294,-0.519618391990662,-0.225402414798737,0.332196205854416,-0.519431110871131,-0.223496695782555,0.317312360068532,5
1.1199951171875,-0.289930045604706,2.84164094924927,1.32179749011993,-0.289357002179081,2.84131414609862,1.32011056195293,2197.809,2199.116,2206.893,2202.457,356.210144042969,44.9990348815918,1.51908659934998,-0.532935082912445,-0.231095731258392,0.338302671909332,-0.532985466132485,-0.229328756186667,0.32559250418615,5
1.13999938964844,-0.300854682922363,2.83690547943115,1.3286908864975,-0.300154365346813,2.83666834237095,1.32670650262257,2202.58,2202.262,2204.573,2202.076,356.223541259766,44.9992713928223,1.51520979404449,-0.54623019695282,-0.236777439713478,0.344670534133911,-0.546515580872639,-0.235150386571708,0.333857840147634,5
1.15998840332031,-0.312044322490692,2.83205676078796,1.33571195602417,-0.31121353909136,2.83190988886621,1.33346237928811,2202.722,2202.733,2205.893,2204.331,356.237731933594,44.99951171875,1.51065003871918,-0.559482932090759,-0.242435678839684,0.351054459810257,-0.560003743914979,-0.240953966313175,0.342097548471566,6
1.17999267578125,-0.32349818944931,2.82709527015686,1.34286177158356,-0.322550701230474,2.8270318247214,1.34038807472597,2201.675,2202.699,2209.425,2206.093,356.253784179688,44.9998893737793,1.50463211536407,-0.572691798210144,-0.248071059584618,0.357488095760345,-0.573463232144024,-0.246745208083563,0.350319739799517,6
1.19999694824219,-0.335215389728546,2.822021484375,1.35014498233795,-0.334156660511822,2.8220381046756,1.34747797414352,2206.072,2205.616,2207.069,2205.395,356.271331787109,45.0000038146973,1.49872553348541,-0.58586061000824,-0.253687769174576,0.364159315824509,-0.58687652428584,-0.252516572968185,0.358513710658656,6
1.22000122070313,-0.347194790840149,2.81683588027954,1.35756134986877,-0.346030421585499,2.81692915700008,1.35473146949704,2205.644,2205.803,2208.567,2207.328,356.289520263672,45.0001564025879,1.49216556549072,-0.598969757556915,-0.259274959564209,0.370819866657257,-0.600236516861372,-0.258265004538453,0.366675121644476,6
1.239990234375,-0.359435200691223,2.81153917312622,1.36511266231537,-0.358161486344149,2.81170949873715,1.36214214765657,2206.073,2206.405,2209.986,2208.186,356.308776855469,45.0003280639648,1.48484301567078,-0.61202198266983,-0.264835268259048,0.377563089132309,-0.613526094901141,-0.263983138701136,0.374793517489195,6
1.25999450683594,-0.371935397386551,2.8061318397522,1.3727992773056,-0.3705671011502,2.80637170925886,1.36972054415578,2204.58,2206.076,2213.309,2209.479,356.330413818359,45.0006332397461,1.47605931758881,-0.625009000301361,-0.270366251468658,0.384331822395325,-0.626758665639206,-0.269676744214496,0.382877088462885,6
1.27999877929688,-0.384694039821625,2.80061435699463,1.38062572479248,-0.383236695417198,2.80092033679326,1.37746020158837,2209.094,2208.788,2210.002,2208.326,356.353912353516,45.0006217956543,1.4674928188324,-0.637933492660522,-0.275870859622955,0.391322255134583,-0.639917282339435,-0.275338529371412,0.39091548206889,6
1.30000305175781,-0.397709548473358,2.79498767852783,1.3885909318924,-0.396168722856641,2.79535604666509,1.38536017535082,2208.445,2208.611,2210.732,2209.996,356.378112792969,45.0006332397461,1.45833313465118,-0.650774002075195,-0.281336605548859,0.398262172937393,-0.652995275331231,-0.280965624398954,0.398904623909522,6
1.31999206542969,-0.41098016500473,2.78925228118896,1.39669585227966,-0.409351342777246,2.78968393359302,1.39341323214959,2208.59,2208.793,2211.526,2210.565,356.403259277344,45.000675201416,1.44841527938843,-0.663533210754395,-0.28676575422287,0.405245810747147,-0.665976209205206,-0.286550957599616,0.406834473849655,6
1.33999633789063,-0.42450425028801,2.78340911865234,1.40494000911713,-0.422802873722428,2.78389611561957,1.401630562497,2206.501,2208.083,2214.623,2211.444,356.430603027344,45.000862121582,1.43705153465271,-0.676202952861786,-0.29215607047081,0.412210047245026,-0.678873453515705,-0.29210028151913,0.41471319914141,6
1.36000061035156,-0.438279986381531,2.77745890617371,1.41332733631134,-0.436511415158101,2.77799771321212,1.41000489654248,2210.742,2210.43,2210.853,2209.827,356.459655761719,45.0007438659668,1.42596483230591,-0.68878710269928,-0.297511249780655,0.419366836547852,-0.691670720740693,-0.297606588091785,0.422530849991739,6
1.37998962402344,-0.452305257320404,2.77140259742737,1.42185592651367,-0.450464156928423,2.77199423822282,1.41852840876173,2209.533,2209.79,2211.356,2211.152,356.489288330078,45.0006713867188,1.41429257392883,-0.701264381408691,-0.302818924188614,0.426432341337204,-0.704352136620515,-0.303063047067127,0.430277729063129,6
1.39999389648438,-0.46657794713974,2.76524090766907,1.43052494525909,-0.464680216184654,2.76587746507559,1.42721277752413,2207.059,2208.475,2214.291,2212.008,356.520812988281,45.0007743835449,1.40110087394714,-0.713634610176086,-0.308080196380615,0.433449476957321,-0.716930938559026,-0.308475354130225,0.437961922879032,6
1.41999816894531,-0.481095999479294,2.7589750289917,1.43933761119843,-0.47914673136562,2.75965292774086,1.43605014590267,2210.924,2210.637,2210.402,2209.926,356.553833007813,45.000602722168,1.3882292509079,-0.725902259349823,-0.313299566507339,0.44063276052475,-0.729391385793766,-0.313836736470737,0.445573815653291,6
1.44000244140625,-0.495856940746307,2.752605676651,1.44829154014587,-0.493861275572861,2.75332167044526,1.44503903134294,2209.248,2209.597,2210.884,2211.013,356.587371826172,45.0004959106445,1.37474882602692,-0.738047122955322,-0.318465352058411,0.447697341442108,-0.741727567798258,-0.319144650954242,0.453109796737511,6
1.45999145507813,-0.510858356952667,2.74613404273987,1.45738649368286,-0.508809800712713,2.74688973769103,1.45417085208374,2208.567,2209.153,2211.301,2210.762,356.621917724609,45.0004463195801,1.36057913303375,-0.750072777271271,-0.323580414056778,0.454749643802643,-0.753924423002454,-0.324392617007921,0.460560665253582,6
1.47999572753906,-0.526097774505615,2.73956108093262,1.46662104129791,-0.524012471663969,2.74034845309416,1.46345792653486,2205.7,2207.624,2213.904,2211.093,356.658935546875,45.0005531311035,1.34491717815399,-0.761971294879913,-0.32864248752594,0.461726576089859,-0.765994882555672,-0.329586198544069,0.467934320638836,6
1.5,-0.541572690010071,2.73288798332214,1.47599804401398,-0.539455198877605,2.73370387899399,1.47289164761066,2209.725,2209.543,2209.043,2208.607,356.697784423828,45.0003280639648,1.32967472076416,-0.773745834827423,-0.333654522895813,0.468851834535599,-0.777924000354858,-0.334718964672088,0.475221632552146,6
1.51998901367188,-0.55728018283844,2.72611594200134,1.48551440238953,-0.555123050061237,2.72696244033876,1.48246289340675,2207.852,2208.169,2208.792,2209.463,356.737152099609,45.0001564025879,1.31387674808502,-0.78537505865097,-0.338603407144547,0.475819617509842,-0.789697369743256,-0.339784716610053,0.482413800191712,6
1.53999328613281,-0.573217332363129,2.71924614906311,1.49516797065735,-0.571036956668503,2.72011513090874,1.49218445062151,2204.584,2206.162,2211.239,2209.762,356.778381347656,45.0001831054688,1.2965304851532,-0.796859085559845,-0.343490391969681,0.482676446437836,-0.801327600455846,-0.344788879974649,0.489518526647862,6
1.55999755859375,-0.589381396770477,2.71227979660034,1.50496101379395,-0.587181951496087,2.71316839067337,1.50204717602401,2208.165,2207.845,2206.467,2206.9,356.820953369141,44.9999046325684,1.27960443496704,-0.808202564716339,-0.348320364952087,0.489654570817947,-0.812800388649436,-0.349725300221754,0.496527073925997,6
1.58000183105469,-0.605769157409668,2.70521807670593,1.51488995552063,-0.60355483331529,2.70612359703193,1.51204911403357,2205.667,2206.184,2206.533,2207.442,356.863891601563,44.9997406005859,1.26213562488556,-0.819386124610901,-0.353081583976746,0.496449500322342,-0.824110582941666,-0.354591760855452,0.503436295127019,6
1.59999084472656,-0.622377455234528,2.69806241989136,1.52495360374451,-0.620139554045575,2.69898765502515,1.52218046112824,2204.37,2205.096,2206.483,2206.639,356.907775878906,44.999626159668,1.24400424957275,-0.830414474010468,-0.357777565717697,0.503182411193848,-0.835244706287931,-0.359382463079953,0.510237957334684,5
1.6199951171875,-0.639203071594238,2.69081425666809,1.53514933586121,-0.636958033083316,2.69175113334911,1.53245460752521,2200.74,2202.953,2208.765,2206.448,356.954193115234,44.9997024536133,1.2243709564209,-0.841279983520508,-0.362405985593796,0.50978684425354,-0.846214826007804,-0.364102599125749,0.516939432286212,5
1.63999938964844,-0.656242787837982,2.68347477912903,1.54547941684723,-0.653994195024907,2.68442094880091,1.54286173301126,2204.616,2204.44,2203.052,2203.275,357.00244140625,44.9994201660156,1.20525407791138,-0.85198563337326,-0.366969853639603,0.516504466533661,-0.857007552155828,-0.368746407673381,0.523532540272869,5
1.65998840332031,-0.673492968082428,2.67604565620422,1.55593955516815,-0.67123120513297,2.67700434489773,1.55339155350804,2202.091,2202.547,2202.328,2203.667,357.051116943359,44.9992027282715,1.18565559387207,-0.862510919570923,-0.3714559674263,0.523008465766907,-0.867610144209785,-0.373308406832068,0.530009498308446,5
1.67999267578125,-0.690950155258179,2.66852831840515,1.56652665138245,-0.688691692550512,2.66949158495151,1.56405789280588,2198.182,2199.938,2204.432,2203.565,357.101593017578,44.999210357666,1.16449630260468,-0.872856736183167,-0.37586584687233,0.52935391664505,-0.878034183119987,-0.377793579561193,0.536377381014768,5
1.69999694824219,-0.708610713481903,2.66092419624329,1.57724237442017,-0.706358800111611,2.66188992212981,1.57485045312518,2201.563,2201.244,2198.984,2200.069,357.153350830078,44.9989051818848,1.14385545253754,-0.883027315139771,-0.380204111337662,0.535785853862762,-0.888267004546665,-0.382196476749158,0.542628451944297,5
1.72000122070313,-0.726470768451691,2.65323495864868,1.58808207511902,-0.724228658537036,2.6542010212754,1.58576687078363,2198.497,2199.103,2198.644,2200.215,357.205322265625,44.9987030029297,1.1227343082428,-0.893004834651947,-0.384459614753723,0.541986584663391,-0.898304216251578,-0.386515208538549,0.548760027947228,5
1.739990234375,-0.744526624679565,2.64546227455139,1.59904384613037,-0.74228345468553,2.64643254688532,1.59679626401121,2196.757,2197.542,2198.195,2198.989,357.258148193359,44.9985847473145,1.1009920835495,-0.902794361114502,-0.3886359333992,0.548085868358612,-0.908134108040217,-0.390744736359816,0.554764955448471,5
1.75999450683594,-0.762774467468262,2.63760757446289,1.61012411117554,-0.760546715064628,2.63857437616062,1.60795300478424,2192.529,2194.92,2200.241,2198.445,357.313415527344,44.998664855957,1.07773530483246,-0.912389159202576,-0.392731189727783,0.554015219211578,-0.917767514700581,-0.394889722119545,0.560649853250941,4
1.77999877929688,-0.78121030330658,2.62967252731323,1.62132465839386,-0.779000609654483,2.63063418086074,1.61922620102184,2196.262,2196.135,2193.979,2194.675,357.370483398438,44.9983749389648,1.05511915683746,-0.921791434288025,-0.396748065948486,0.56002950668335,-0.927192788821983,-0.398945154262308,0.566407606133204,4
1.80000305175781,-0.799829959869385,2.62165904045105,1.63264048099518,-0.797640935141499,2.62261376955408,1.63061328498531,2193.302,2193.81,2192.875,2194.788,357.427825927734,44.9981460571289,1.0320827960968,-0.930982887744904,-0.400674074888229,0.565791487693787,-0.936405971974637,-0.402909329586356,0.572035795952272,4
1.81999206542969,-0.818629324436188,2.6135687828064,1.64406895637512,-0.816448984455027,2.61452119137054,1.64210282881713,2191.509,2192.063,2191.938,2193.464,357.485778808594,44.997989654541,1.00844478607178,-0.93996787071228,-0.404512077569962,0.571426808834076,-0.945396434568188,-0.406777674475912,0.57752792925727,3
1.83999633789063,-0.837604105472565,2.60540366172791,1.65560626983643,-0.835449117627072,2.60634596486888,1.6537097136807,2186.957,2189.278,2193.884,2192.76,357.5458984375,44.9980697631836,0.983310520648956,-0.948740601539612,-0.408260881900787,0.576866030693054,-0.954174163352093,-0.410554485950274,0.582890106797601,3
1.86000061035156,-0.856750130653381,2.59716510772705,1.66725373268127,-0.854622615239374,2.59809614449182,1.66542250417552,2190.582,2190.322,2187.497,2188.735,357.607513427734,44.9977607727051,0.958870232105255,-0.957303643226624,-0.411923795938492,0.582375705242157,-0.962728579444532,-0.414235212212131,0.588115866099442,0
1.87998962402344,-0.87606292963028,2.58885526657104,1.67900598049164,-0.873950157556149,2.58978004298193,1.67722939817649,2187.205,2187.83,2186.525,2188.676,357.669219970703,44.99755859375,0.934064865112305,-0.965640783309937,-0.415489286184311,0.587612450122833,-0.971049893464309,-0.417815641164241,0.593199226982579,0
1.89999389648438,-0.895538032054901,2.58047604560852,1.69085884094238,-0.893456683142228,2.58138692997148,1.6891456302637,2182.511,2184.581,2188.468,2188.17,357.732696533203,44.9976005554199,0.907716989517212,-0.973753988742828,-0.418959408998489,0.592642724514008,-0.979147395688901,-0.421299770153459,0.598145864732551,0
1.91999816894531,-0.915170967578888,2.57202935218811,1.70281338691711,-0.913122862707269,2.57292512231409,1.7011593924753,2185.877,2185.523,2182.262,2183.942,357.797332763672,44.9973220825195,0.882057905197144,-0.981646001338959,-0.42233818769455,0.597730040550232,-0.987011339258123,-0.424683405378145,0.60294982514457,0
1.94000244140625,-0.934957087039948,2.56351709365845,1.71486413478851,-0.932943991899774,2.5643966441608,1.71326781099638,2182.245,2182.876,2181.458,2183.79,357.861968994141,44.9971504211426,0.856004059314728,-0.989302575588226,-0.42561548948288,0.602536678314209,-0.994638524886308,-0.427965170275055,0.607609153824943,0
1.95999145507813,-0.954891622066498,2.55494117736816,1.72700810432434,-0.952900013794853,2.55581012544606,1.7254586333645,2180.081,2180.885,2180.597,2182.134,357.927215576172,44.9970512390137,0.829414486885071,-0.996728479862213,-0.428794771432877,0.607200980186462,-1.00202031904361,-0.431141350077486,0.612118576685011,0
1.97999572753906,-0.974969863891602,2.54630374908447,1.73924124240875,-0.973016570682103,2.54715453300902,1.73774752405424,2175.277,2177.883,2182.375,2181.225,357.994812011719,44.9971656799316,0.801390111446381,-1.00391888618469,-0.431874960660934,0.61165463924408,-1.00916501115878,-0.434215511495054,0.616483157607448,0
2,-0.99518746137619,2.53760623931885,1.75156462192535,-0.993273599084619,2.53843849960327,1.75012222660065,2179.074,2178.761,2175.461,2176.903,358.063842773438,44.9968910217285,0.774174153804779,-1.01087427139282,-0.434857934713364,0.61616712808609,-1.01606400046349,-0.437183953857422,0.620697642517089,0
2.01998901367188,-1.01553893089294,2.52885174751282,1.76397228240967,-1.01365055070775,2.52967086658596,1.76257018837116,2175.471,2176.058,2174.198,2176.77,358.132873535156,44.9967002868652,0.746651172637939,-1.01758086681366,-0.437733054161072,0.620381832122803,-1.02270954399163,-0.440043345582587,0.624757301356767,0
2.03999328613281,-1.03601980209351,2.52004170417786,1.77645969390869,-1.03417354141348,2.52084039703127,1.77510736313833,2170.676,2172.62,2175.812,2176.161,358.203460693359,44.9967651367188,0.717606961727142,-1.024041056633,-0.440502345561981,0.624373137950897,-1.02910913225408,-0.442796909628122,0.628666709962695,0
2.05999755859375,-1.05662500858307,2.5111780166626,1.78902769088745,-1.05482201812353,2.5119559343546,1.78772119534738,2173.945,2173.458,2169.453,2171.619,358.274871826172,44.9964904785156,0.689359903335571,-1.03025603294373,-0.443169355392456,0.62840074300766,-1.03525504859546,-0.445441325732794,0.632421154350513,0
2.08000183105469,-1.0773491859436,2.50226378440857,1.80167031288147,-1.07559088172821,2.50301967256038,1.80040857003175,2169.983,2170.674,2168.66,2171.323,358.346038818359,44.9963493347168,0.660831868648529,-1.03621554374695,-0.445725798606873,0.632128596305847,-1.04114485287423,-0.447975543971863,0.636019143875825,0
2.09999084472656,-1.09818768501282,2.49330019950867,1.81438446044922,-1.09645901288412,2.49404069871208,1.81315658571413,2167.777,2168.428,2167.616,2169.614,358.417602539063,44.996280670166,0.631795406341553,-1.04192435741425,-0.44817516207695,0.635704874992371,-1.04677201701582,-0.450396755497224,0.639456690639761,0
2.1199951171875,-1.11913537979126,2.48428988456726,1.82716548442841,-1.11745308225396,2.48500753716864,1.82598153508617,2162.592,2165.359,2169.471,2168.563,358.491363525391,44.9964408874512,0.60138326883316,-1.04737865924835,-0.450516879558563,0.639050960540771,-1.0521429102862,-0.45270770082608,0.642737685527497,0
2.13999938964844,-1.14018678665161,2.47523474693298,1.84001445770264,-1.138551967509,2.47592927627801,1.83887051484687,2166.499,2166.082,2162.378,2164.032,358.566467285156,44.9961853027344,0.571858048439026,-1.05257761478424,-0.452752351760864,0.642450094223022,-1.05725102347782,-0.454905579228273,0.645858152165725,0
2.15998840332031,-1.161337018013,2.46613740921021,1.85292530059814,-1.15973418543027,2.46681515966915,1.85181040123298,2162.858,2163.34,2160.864,2163.8,358.641326904297,44.9960174560547,0.542134940624237,-1.05751097202301,-0.454872310161591,0.645541250705719,-1.06209075728,-0.456987981476842,0.64881467002292,0
2.17999267578125,-1.18258059024811,2.45699977874756,1.86589312553406,-1.18102676265167,2.45765355853653,1.86481770439342,2157.74,2159.767,2162.541,2163.193,358.717559814453,44.9961090087891,0.510942816734314,-1.06218123435974,-0.456878751516342,0.648390769958496,-1.06666760390386,-0.458957270716794,0.65161059420515,0
2.19999694824219,-1.20391249656677,2.44782423973083,1.87891852855682,-1.20240821395574,2.44845371736898,1.8778792993441,2161.174,2160.544,2155.996,2158.414,358.79443359375,44.995849609375,0.480668812990189,-1.06658816337585,-0.458774745464325,0.65127295255661,-1.07097597819164,-0.460811043810786,0.654242512826705,0
2.22000122070313,-1.2253270149231,2.43861317634583,1.89199542999268,-1.22387315175433,2.43921795429519,1.89099189489151,2157.061,2157.604,2155.128,2158.189,358.870819091797,44.9957237243652,0.450142621994019,-1.07072532176971,-0.460553497076035,0.653843402862549,-1.07501419914593,-0.462548577472581,0.656709398992482,0
2.239990234375,-1.24681878089905,2.42936873435974,1.90512049198151,-1.24539969505118,2.42995568409656,1.90414212427648,2154.681,2155.403,2154.143,2156.288,358.947387695313,44.9956893920898,0.419236868619919,-1.07459688186646,-0.462218403816223,0.656250774860382,-1.07877792518082,-0.464168003639063,0.659008600495412,0
2.25999450683594,-1.26838278770447,2.42009305953979,1.91828906536102,-1.26701526177039,2.4206551096063,1.91734673668097,2149.52,2152.233,2155.832,2155.271,359.026000976563,44.9958877563477,0.387028783559799,-1.07820069789886,-0.463769465684891,0.65842604637146,-1.08227143928024,-0.465671165158559,0.661142733743536,0
2.27999877929688,-1.29001355171204,2.41078925132751,1.93150186538696,-1.28869796983554,2.41132564607061,1.93059236468599,2153.413,2152.903,2148.752,2150.584,359.105682373047,44.9956550598145,0.355818808078766,-1.0815337896347,-0.465207159519196,0.660642862319946,-1.08549040888332,-0.467056197851165,0.663109152043028,0
2.29998779296875,-1.31170535087585,2.40145874023438,1.94475281238556,-1.31042570636616,2.40197680804417,1.9438654998779,2149.755,2149.954,2147.141,2150.52,359.184906005859,44.9955024719238,0.32436528801918,-1.08459043502808,-0.466524064540863,0.662548124790192,-1.08843144721369,-0.468321644481621,0.664905786465049,0
2.31999206542969,-1.3334527015686,2.39210438728333,1.95803689956665,-1.33222611841886,2.3925966997709,1.95718303141218,2144.473,2146.64,2148.852,2149.652,359.265319824219,44.9956283569336,0.291622191667557,-1.08737289905548,-0.467722594738007,0.664202928543091,-1.09109790637238,-0.469468947365361,0.666534684755819,0
2.33999633789063,-1.35525035858154,2.38272833824158,1.9713546037674,-1.35407709248145,2.38319483607731,1.97053145048929,2148.052,2147.197,2142.26,2144.9,359.346099853516,44.9953842163086,0.259864568710327,-1.08987939357758,-0.468804806470871,0.665887355804443,-1.09348640563071,-0.470496651869278,0.667993781680938,0
2.36000061035156,-1.37709248065948,2.37333297729492,1.98469972610474,-1.37597305876702,2.37377361348711,1.98390735461333,2143.828,2144.293,2141.4,2144.667,359.426177978516,44.995288848877,0.227946177124977,-1.09210741519928,-0.469765841960907,0.667254209518433,-1.09559602313537,-0.471404361345641,0.669282514094601,0
2.37998962402344,-1.3989737033844,2.36392068862915,1.99806880950928,-1.39789168475144,2.36434264106153,1.9972971011938,2141.418,2142.088,2140.438,2142.733,359.506225585938,44.9952774047852,0.195751190185547,-1.09406065940857,-0.470608681440353,0.668453752994537,-1.09742465646102,-0.47219117117957,0.670399597657984,0
2.39999389648438,-1.42088842391968,2.35449409484863,2.01145720481873,-1.41986083522252,2.35488992936084,2.01071771239474,2136.232,2138.889,2142.09,2141.799,359.588165283203,44.995491027832,0.162311524152756,-1.09573841094971,-0.471334040164948,0.669419467449188,-1.09897439291323,-0.472857979480329,0.671346307473475,0
2.41999816894531,-1.44283103942871,2.34505534172058,2.02486562728882,-1.44185817738692,2.34542508756209,2.02415554546122,2140.301,2139.514,2134.96,2137.034,359.670867919922,44.9952774047852,0.129934996366501,-1.09713578224182,-0.471941500902176,0.670424163341522,-1.10024313330221,-0.473403883025206,0.672121361178802,0
2.44000244140625,-1.46479618549347,2.33560657501221,2.0382878780365,-1.46387808506052,2.33595053645515,2.03760716344514,2136.483,2136.727,2133.458,2136.882,359.752899169922,44.9951629638672,0.097491592168808,-1.09825122356415,-0.472425639629364,0.671110987663269,-1.10123038958312,-0.473828671822132,0.672724460634977,0
2.45999145507813,-1.48677802085876,2.32615113258362,2.0517201423645,-1.48589810917879,2.32647593524532,2.05105885256329,2134.142,2134.525,2132.273,2135.069,359.834655761719,44.9951210021973,0.0648159235715866,-1.09908771514893,-0.47278892993927,0.671618402004242,-1.10193535162022,-0.474131997292339,0.673155110942729,0
2.47999572753906,-1.5087708234787,2.31669044494629,2.06515789031982,-1.50794623031618,2.31698924467309,2.06452770571198,2129.057,2131.307,2133.79,2134.227,359.917816162109,44.9953193664551,0.0308919828385115,-1.09964573383331,-0.473032742738724,0.671888947486877,-1.10235882472314,-0.474314205938057,0.673413804053135,0
2.5,-1.53076910972595,2.30722737312317,2.07860159873962,-1.52999999932945,2.30750012397766,2.0780000090599,2132.858,2132.066,2127.043,2129.271,0.00137029122561216,44.9951095581055,-0.0018385136500001,-1.09991991519928,-0.473157227039337,0.672186076641083,-1.10250000050292,-0.474374949932098,0.673500046133994,0
2.51998901367188,-1.5527675151825,2.29776430130005,2.09204506874084,-1.5520369476803,2.29801824074336,2.09146203692764,2128.948,2129.167,2125.772,2129.226,0.0841004103422165,44.9950141906738,359.965393066406,-1.09991216659546,-0.47315838932991,0.672170042991638,-1.10235904000526,-0.474314298567936,0.67341393556562,0
2.53999328613281,-1.57475996017456,2.28830361366272,2.10548329353333,-1.57408507527774,2.28853154739156,2.10493089402267,2123.702,2125.724,2127.524,2128.609,0.167743280529976,44.995189666748,359.931427001953,-1.09962522983551,-0.473038703203201,0.671910047531128,-1.10193578218388,-0.474132182551855,0.673155373967352,0
2.55999755859375,-1.59674096107483,2.27884769439697,2.11891674995422,-1.59612191359838,2.27904971150017,2.11839285467467,2127.388,2126.337,2121.116,2123.696,0.251446098089218,44.9949951171875,359.898559570313,-1.0990537405014,-0.472798854112625,0.671675562858582,-1.10123038958312,-0.473828671822132,0.672724460634977,0
2.58000183105469,-1.61870503425598,2.2693989276886,2.13233923912048,-1.61814182127198,2.26957516039323,2.13184447265859,2123.289,2123.557,2120.166,2123.538,0.334193885326385,44.9949340820313,359.865692138672,-1.09820163249969,-0.472436606884003,0.671130120754242,-1.10024313330221,-0.473403883025206,0.672121361178803,0
2.59999084472656,-1.64064657688141,2.25995993614197,2.14574766159058,-1.64012239440973,2.26011753383818,2.14527206178836,2120.959,2121.37,2119.207,2121.741,0.41659352183342,44.9949493408203,359.832702636719,-1.09707140922546,-0.471954196691513,0.67041552066803,-1.09897546783438,-0.47285844198887,0.671346964126033,0
2.6199951171875,-1.6625599861145,2.25053286552429,2.15913701057434,-1.66209156852628,2.2506648119635,2.15869268743396,2115.949,2118.331,2120.712,2120.901,0.500428140163422,44.9951782226563,359.798583984375,-1.0956643819809,-0.471353352069855,0.669471919536591,-1.09742594550583,-0.472191725819537,0.67040038511534,0
2.63999938964844,-1.68443930149078,2.24112010002136,2.17250823974609,-1.68402693989188,2.24122663446822,2.17209266350648,2119.974,2118.943,2113.948,2116.116,0.584586977958679,44.9950065612793,359.765686035156,-1.09397292137146,-0.470632582902908,0.668556928634644,-1.09559602313537,-0.471404361345641,0.669282514094601,0
2.65998840332031,-1.70627927780151,2.23172426223755,2.1858549118042,-1.70590622088595,2.23181259109281,2.18545837484632,2116.26,2116.304,2112.512,2116.024,0.667730152606964,44.9949073791504,359.732879638672,-1.09200239181519,-0.469789564609528,0.6673344373703,-1.09348812118877,-0.470497390025984,0.667994829688588,0
2.67999267578125,-1.72807466983795,2.22234773635864,2.19917225837708,-1.72775723139253,2.2224107117184,2.19880681618649,2111.22,2112.98,2114.08,2115.524,0.751444697380066,44.9950828552246,359.699005126953,-1.08975565433502,-0.468826591968536,0.66587108373642,-1.09109983431736,-0.469469776906228,0.666535862507326,0
2.69999694824219,-1.74981904029846,2.21299266815186,2.21246075630188,-1.74955768413056,2.21303058593937,2.21212437257479,2114.767,2113.424,2108.036,2110.82,0.834856867790222,44.9948997497559,359.666259765625,-1.08722603321075,-0.467743724584579,0.66442334651947,-1.08843358680109,-0.468322565086308,0.664907093505606,0
2.72000122070313,-1.77150738239288,2.20366215705872,2.22571420669556,-1.77130202882336,2.20367460188472,2.22540765343382,2110.786,2110.933,2107.156,2110.531,0.917061448097229,44.9948539733887,359.633666992188,-1.08442151546478,-0.46654087305069,0.66267603635788,-1.08549040888332,-0.467056197851165,0.663109152043028,0
2.739990234375,-1.79313433170319,2.19435787200928,2.23892951011658,-1.79296822271738,2.1943522439355,2.23864319318939,2108.577,2108.667,2106.248,2108.967,0.998643279075623,44.9948959350586,359.600952148438,-1.08134400844574,-0.465220034122467,0.660764396190643,-1.08227399942825,-0.465672266718727,0.661144297698006,0
2.75999450683594,-1.81469440460205,2.18508219718933,2.25210213661194,-1.81458384274179,2.18505164650952,2.2518478381572,2103.598,2105.914,2107.825,2108.087,1.08139371871948,44.9951553344727,359.567291259766,-1.07799625396729,-0.463783651590347,0.658628106117249,-1.07878069424208,-0.464169195088763,0.659010292071722,0
2.77999877929688,-1.836181640625,2.17583751678467,2.2652325630188,-1.83612684690458,2.17578229366013,2.2650081232283,2107.609,2106.409,2101.387,2103.466,1.16423761844635,44.9949951171875,359.534912109375,-1.07436907291412,-0.462229400873184,0.656519532203674,-1.07501419914593,-0.462548577472581,0.656709398992482,0
2.79998779296875,-1.85759115219116,2.16662621498108,2.27831482887268,-1.85757544288233,2.1665535620153,2.27811073581237,2104.068,2103.931,2099.972,2103.423,1.24590337276459,44.9949188232422,359.502716064453,-1.07047164440155,-0.46055680513382,0.654116690158844,-1.07097916161324,-0.460812413548163,0.654244457529281,0
2.81999206542969,-1.87891697883606,2.15745115280151,2.29134440422058,-1.87895695992541,2.1573536925621,2.29117237092199,2099.217,2100.797,2101.469,2103.005,1.32790434360504,44.9951019287109,359.469604492188,-1.06630682945251,-0.458767950534821,0.651480972766876,-1.06667099276523,-0.458958728849171,0.651612664407684,0
2.83999633789063,-1.90015459060669,2.14831399917603,2.30432152748108,-1.90024960698239,2.14819206138118,2.30417971674389,2102.909,2101.224,2095.562,2098.422,1.4092698097229,44.994930267334,359.437683105469,-1.06186652183533,-0.456862092018127,0.648861765861511,-1.06209435025759,-0.456989527434725,0.648816864916866,0
2.86000061035156,-1.92129790782928,2.13921713829041,2.31724047660828,-1.9214480311499,2.13907097167731,2.31712950327294,2098.806,2098.735,2094.971,2098.395,1.4892098903656,44.9949073791504,359.405914306641,-1.05716252326965,-0.454841166734695,0.645946443080902,-1.05725102347782,-0.454905579228273,0.645858152165725,0
2.87998962402344,-1.94234156608582,2.13016295433044,2.33009815216064,-1.94253086194772,2.12999961857111,2.33000867561624,2096.774,2096.86,2094.157,2096.627,1.5683581829071,44.9949760437012,359.374206542969,-1.05219578742981,-0.452707022428513,0.642878890037537,-1.05214690704168,-0.452709420518306,0.642740127083052,0
2.89999389648438,-1.96328091621399,2.12115383148193,2.34289026260376,-1.96352501326936,2.1209664217661,2.34283367505136,2092.188,2094.201,2095.517,2095.936,1.64837801456451,44.995231628418,359.341796875,-1.04697036743164,-0.45046204328537,0.639601588249207,-1.04677621342161,-0.450398561093403,0.639459254158576,0
2.91999816894531,-1.98411071300507,2.11219167709351,2.3556170463562,-1.98440911693069,2.11198057539494,2.35559144808806,2096.07,2094.533,2089.465,2091.648,1.72815191745758,44.9950790405273,359.310607910156,-1.04147636890411,-0.448103457689285,0.636345088481903,-1.04114485287423,-0.447975543971863,0.636019143875825,0
2.94000244140625,-2.00482511520386,2.10327911376953,2.36827325820923,-2.00517798053537,2.10304431360073,2.36827882277243,2092.574,2092.248,2088.28,2091.657,1.80655896663666,44.9950408935547,359.279663085938,-1.03572630882263,-0.445632725954056,0.632807195186615,-1.03525504859546,-0.445441325732794,0.632421154350513,0
2.95999145507813,-2.02541923522949,2.09441804885864,2.38085556030273,-2.02581075424974,2.0941666074844,2.38088306226645,2090.818,2090.422,2087.155,2090.086,1.88385224342346,44.9950561523438,359.248870849609,-1.02972078323364,-0.443051099777222,0.629113852977753,-1.02911391720548,-0.442798968459032,0.628669633014836,0
2.97999572753906,-2.04588866233826,2.08561086654663,2.39335966110229,-2.04633384260397,2.08533609591429,2.39342029668558,2086.259,2087.922,2088.543,2089.449,1.96154499053955,44.9952850341797,359.217407226563,-1.02346503734589,-0.440361946821213,0.625207781791687,-1.02271452148052,-0.440045487257004,0.624760342027062,0
3,-2.06622743606567,2.07685971260071,2.40578603744507,-2.06672639957428,2.07656174835205,2.40587779151916,2089.872,2088.197,2082.996,2085.291,2.03865051269531,44.9951591491699,359.187194824219,-1.01694941520691,-0.437562733888626,0.621317267417908,-1.01606400046349,-0.437183953857422,0.620697642517089,0
3.01998901367188,-2.08643126487732,2.06816649436951,2.41812920570374,-2.0869680292999,2.06785234056679,2.41824308725414,2086.535,2086.067,2081.938,2085.231,2.11420178413391,44.9951286315918,359.157348632813,-1.01018810272217,-0.434656202793121,0.617161333560944,-1.00917036754089,-0.434217816196637,0.616486429737696,0
3.03999328613281,-2.10649514198303,2.05953359603882,2.43038511276245,-2.10708469520508,2.05919670122237,2.43053204454123,2082.048,2083.336,2083.451,2084.891,2.18971014022827,44.9953422546387,359.126831054688,-1.00318419933319,-0.43164449930191,0.612796366214752,-1.00202586176059,-0.431143734953757,0.612121962644322,0
3.05999755859375,-2.12641334533691,2.05096316337585,2.44255399703979,-2.12705600675913,2.05060360379452,2.44273220712343,2085.491,2083.649,2078.303,2080.734,2.26431679725647,44.9952201843262,359.097534179688,-0.995928287506104,-0.428526014089584,0.608446002006531,-0.994638524886308,-0.427965170275055,0.607609153824944,0
3.08000183105469,-2.14618229866028,2.04245710372925,2.45463085174561,-2.14687713595163,2.04207512564123,2.45484062564451,2082.132,2081.615,2077.492,2080.661,2.33724117279053,44.9952125549316,359.068664550781,-0.988435983657837,-0.42530432343483,0.603839993476868,-0.987011339258122,-0.424683405378145,0.60294982514457,0
3.09999084472656,-2.16579627990723,2.03401756286621,2.46661257743835,-2.16652837486666,2.03361974652815,2.46684526084616,2080.162,2079.768,2076.906,2079.41,2.40899133682251,44.995288848877,359.039947509766,-0.980708420276642,-0.421980917453766,0.599087417125702,-0.979153483542501,-0.421302389586788,0.598149583707317,0
3.1199951171875,-2.18525147438049,2.0256462097168,2.47849559783936,-2.18603502400946,2.02522658035469,2.47876156841225,2076.214,2077.623,2078.06,2078.712,2.48105144500732,44.9955406188965,359.010772705078,-0.972750544548035,-0.418558984994888,0.594153463840485,-0.971056158224178,-0.417818336715394,0.593203054026623,0
3.13999938964844,-2.20454216003418,2.01734566688538,2.49028015136719,-2.20537738341953,2.01690410346351,2.49057751394429,2079.697,2077.94,2072.885,2074.845,2.55238771438599,44.9954376220703,358.982879638672,-0.964552581310272,-0.415035545825958,0.589232623577118,-0.962728579444533,-0.414235212212131,0.588115866099442,0
3.15998840332031,-2.2236647605896,2.00911712646484,2.50196146965027,-2.22453632143911,2.00866054767245,2.50228141021112,2076.847,2075.978,2071.696,2074.925,2.62198138237,44.9954032897949,358.955474853516,-0.956130504608154,-0.411413878202438,0.584071636199951,-0.954180774018563,-0.410557330335374,0.582894145150591,0
3.17999267578125,-2.24261474609375,2.00096321105957,2.51353573799133,-2.24353658854737,2.00048526354177,2.51388837689424,2072.68,2073.571,2073.101,2074.675,2.69114923477173,44.99560546875,358.927581787109,-0.947488069534302,-0.407696515321732,0.578714191913605,-0.945403214201559,-0.406780591562751,0.577532070829503,0
3.19999694824219,-2.26138710975647,1.99288558959961,2.52500319480896,-2.2623590635174,1.99238647840124,2.5253867331345,2075.934,2073.79,2068.48,2070.907,2.75906443595886,44.9955024719238,358.900909423828,-0.93861585855484,-0.403881520032883,0.573369860649109,-0.936405971974636,-0.402909329586355,0.572035795952272,0
3.22000122070313,-2.27997756004333,1.98488640785217,2.53635907173157,-2.28099938900442,1.98436606709459,2.53677381709797,2072.771,2072.005,2067.892,2070.886,2.82509756088257,44.9955215454102,358.874725341797,-0.929531335830688,-0.39997398853302,0.567792415618896,-0.927192788821982,-0.398945154262308,0.566407606133204,0
3.239990234375,-2.29838228225708,1.97696673870087,2.54760074615479,-2.2994392795179,1.97643189735754,2.54803845846384,2071.203,2070.458,2067.279,2069.66,2.88967609405518,44.9955978393555,358.848876953125,-0.920235395431519,-0.395975202322006,0.562089025974274,-0.917774783907129,-0.394892849856044,0.560654293895788,0
3.25999450683594,-2.31659722328186,1.96912908554077,2.55872511863708,-2.31770268688992,1.96857366338589,2.55919528903255,2067.373,2068.519,2068.569,2069.192,2.95421886444092,44.9958572387695,358.82275390625,-0.91073477268219,-0.391888856887817,0.556215643882751,-0.90814153446928,-0.390747931744771,0.554769492138098,0
3.27999877929688,-2.33461761474609,1.96137475967407,2.56973242759705,-2.33577134012187,1.96079922667992,2.57023314733618,2070.825,2068.725,2063.847,2065.727,3.01776361465454,44.995777130127,358.797882080078,-0.901019394397736,-0.387711733579636,0.550363719463348,-0.898304216251578,-0.386515208538549,0.548760027947228,0
3.29998779296875,-2.35243940353394,1.95370602607727,2.58061838150024,-2.35362764460945,1.95311615770631,2.58114128510551,2068.126,2067.151,2062.915,2065.773,3.07942891120911,44.995777130127,358.773620605469,-0.891107141971588,-0.383448421955109,0.544293165206909,-0.888274735793772,-0.382199803288803,0.542633174842512,0
3.31999206542969,-2.37005949020386,1.94612371921539,2.59137964248657,-2.37129490830989,1.94551442770222,2.59193394080789,2064.73,2064.989,2063.958,2065.63,3.14030003547668,44.9959564208984,358.749084472656,-0.88100129365921,-0.379101097583771,0.538057506084442,-0.878042061913513,-0.37779696958594,0.536382194046788,0
3.33999633789063,-2.38747334480286,1.93863046169281,2.60201621055603,-2.38875555478454,1.93800159931817,2.60260037727124,2067.44,2065.316,2060.098,2062.224,3.19963455200195,44.9958915710449,358.725830078125,-0.87069433927536,-0.374668389558792,0.531824588775635,-0.867618167158097,-0.373311858882592,0.530014399402376,0
3.36000061035156,-2.40467762947083,1.93122732639313,2.61252403259277,-2.406005803634,1.93057929915441,2.61313828510855,2064.782,2063.604,2059.573,2062.402,3.25691103935242,44.995922088623,358.703125,-0.860204041004181,-0.370155483484268,0.525393843650818,-0.857007552155826,-0.36874640767338,0.523532540272868,0
3.37998962402344,-2.42166805267334,1.92391610145569,2.62290096282959,-2.42302905329872,1.92325467039821,2.62353752268616,2063.297,2062.356,2059.198,2061.322,3.31254911422729,44.996021270752,358.680847167969,-0.849532008171082,-0.365564227104187,0.518850982189178,-0.846223126656603,-0.364106170663035,0.516944503023036,0
3.39999389648438,-2.43844175338745,1.91669821739197,2.63314437866211,-2.43984769972619,1.91601807669906,2.63381177133889,2060.221,2060.735,2060.176,2060.907,3.36774349212646,44.9962539672852,358.658508300781,-0.838684856891632,-0.36089813709259,0.512169659137726,-0.835253140422974,-0.35938609205264,0.510243109616171,0
3.41999816894531,-2.45499515533447,1.90957498550415,2.64325451850891,-2.45644516534361,1.90887665092339,2.64395090408624,2063.216,2060.983,2056.167,2057.887,3.42159175872803,44.9961929321289,358.637481689453,-0.827654719352722,-0.35615473985672,0.505503594875336,-0.824110582941664,-0.354591760855451,0.503436295127018,0
3.44000244140625,-2.47132444381714,1.90254807472229,2.65322756767273,-2.47281804716281,1.90183185728196,2.6539528420958,2060.815,2059.561,2055.499,2058.104,3.47339916229248,44.9962120056152,358.617095947266,-0.816459834575653,-0.351339131593704,0.498650223016739,-0.812800388649434,-0.349725300221754,0.496527073925997,0
3.45999145507813,-2.48742628097534,1.89561903476715,2.66306161880493,-2.48895081463434,1.8948903781363,2.66380809799729,2059.775,2058.438,2054.881,2057.146,3.52332782745361,44.996280670166,358.597229003906,-0.80510139465332,-0.346452593803406,0.491697818040848,-0.80133641229185,-0.344792671461508,0.489523909660973,0
3.47999572753906,-2.50329828262329,1.88878905773163,2.67275381088257,-2.50486489870395,1.88804299234919,2.67352976362102,2056.883,2056.937,2055.837,2056.901,3.57237982749939,44.9964828491211,358.577392578125,-0.793587327003479,-0.34149906039238,0.484612882137299,-0.789706299681989,-0.339788558913217,0.482419255351936,0
3.5,-2.51893615722656,1.8820595741272,2.6823046207428,-2.5205447997813,1.88129636896134,2.68310837050915,2059.565,2057.174,2052.372,2054.15,3.619788646698,44.9964447021484,358.558837890625,-0.781910836696625,-0.336476922035217,0.477542161941528,-0.777924000354857,-0.334718964672089,0.475221632552147,0
3.51998901367188,-2.53433799743652,1.87543177604675,2.69171071052551,-2.53597583877076,1.87465682397749,2.69253495143119,2057.484,2056.023,2051.797,2054.242,3.66494798660278,44.9964752197266,358.541046142578,-0.770089864730835,-0.331391632556915,0.470308214426041,-0.766004036374581,-0.329590137176618,0.467939912563966,0
3.53999328613281,-2.54950070381165,1.86890697479248,2.70096969604492,-2.55117869390181,1.86811546013321,2.70182213839487,2054.624,2054.351,2052.957,2054.328,3.70886969566345,44.9966659545898,358.523284912109,-0.758129358291626,-0.326245784759521,0.462947905063629,-0.753933682518821,-0.324396601119134,0.46056632174764,0
3.55999755859375,-2.5644211769104,1.86248624324799,2.7100818157196,-2.56613872308604,1.86167857751006,2.71096098677687,2057.177,2054.676,2049.88,2051.64,3.7509286403656,44.9966430664063,358.506774902344,-0.746023058891296,-0.321038365364075,0.455607771873474,-0.741727567798258,-0.319144650954242,0.45310979673751,0
3.58000183105469,-2.57909679412842,1.85617089271545,2.71904420852661,-2.58085326729328,1.85534732021446,2.71994987221714,2055.072,2053.593,2049.603,2051.83,3.79070329666138,44.9967041015625,358.491058349609,-0.733789384365082,-0.315775364637375,0.448117583990097,-0.729391385793765,-0.313836736470737,0.44557381565329,0
3.59999084472656,-2.59352540969849,1.84996151924133,2.72785520553589,-2.59530884290342,1.84912748987145,2.72878055778257,2054.186,2052.667,2049.305,2051.143,3.82846403121948,44.9968070983887,358.475952148438,-0.721430540084839,-0.310458362102509,0.440553545951843,-0.716940488958392,-0.308479463400265,0.437967757068975,0
3.6199951171875,-2.60770463943481,1.84385979175568,2.7365128993988,-2.60952509409627,1.84301063413925,2.73746504379605,2051.746,2051.536,2050.291,2051.006,3.86515378952026,44.9970207214355,358.461120605469,-0.708954811096191,-0.305091351270676,0.43288791179657,-0.704361775018033,-0.303067194200314,0.43028361700977,0
3.63999938964844,-2.62163186073303,1.83786630630493,2.74501800537109,-2.6234885835008,1.83700253474321,2.74599512157732,2054.394,2051.784,2047.254,2048.77,3.90003418922424,44.9970092773438,358.447540283203,-0.696356594562531,-0.299672544002533,0.425250649452209,-0.691670720740692,-0.297606588091786,0.422530849991739,0
3.65998840332031,-2.63530492782593,1.83198213577271,2.75336766242981,-2.63718676607487,1.8311085894645,2.7543631275559,2052.68,2050.924,2046.842,2049.024,3.93252801895142,44.9970436096191,358.434783935547,-0.683653891086578,-0.294207841157913,0.417481243610382,-0.678883253871145,-0.292104498338286,0.414719186025619,0
3.67999267578125,-2.64872169494629,1.82620823383331,2.76155996322632,-2.65063849381582,1.82532068681534,2.76258057812278,2050.58,2049.747,2047.751,2049.08,3.96338081359863,44.9972190856934,358.422302246094,-0.670851588249207,-0.288699895143509,0.409619957208633,-0.665986083416798,-0.286555206197011,0.406840505851433,0
3.69999694824219,-2.66188097000122,1.82054507732391,2.76959562301636,-2.66383127580226,1.81964420129024,2.77063984276899,2052.8,2050.102,2045.32,2046.977,3.99201035499573,44.9972114562988,358.411163330078,-0.657946407794952,-0.283148407936096,0.401782244443893,-0.65299527533123,-0.280965624398954,0.398904623909523,0
