t,x_s1,x_s2,x_s3,x_s_d1,x_s_d2,x_s_d3,propellers_rpms1,propellers_rpms2,propellers_rpms3,propellers_rpms4,rollRad,pitchRad,yawRad,v_s1,v_s2,v_s3,v_s_d1,v_s_d2,v_s_d3,insideCount
0,-0.0599999986588955,2.94000005722046,1.17999994754791,-0.0599999986588955,2.94000005722046,1.17999994754791,0,0,0,0,0,45.0048027038574,0,0,0,0,-1.06581410364015E-15,4.44089209850063E-16,-7.105427357601E-16,0
0.019989013671875,-0.0599999986588955,2.94000005722046,1.17705690860748,-0.0600018659130177,2.93999925379318,1.18000108822432,0,0,0,0,0.937003672122955,44.8630027770996,-0.00115976633969694,3.71994488546079E-08,3.50004931704007E-08,-0.147149950265884,-0.000279680311988734,-0.000120338624884473,0.000170852338267345,5
0.040008544921875,-0.0599999986588955,2.94000005722046,1.17018985748291,-0.060014880898484,2.93999365380853,1.18000903887584,0,0,0,0,1.87400352954865,44.7211418151855,-0.00311126722954214,3.70364325874561E-08,3.5142885934647E-08,-0.343349903821945,-0.00111143977225461,-0.000478221483967637,0.000678961213193342,6
0.05999755859375,-0.0599062219262123,2.94009447097778,1.16346526145935,-0.0600498857373401,2.93997859220429,1.18003042278566,3197.771,2848.928,1516.765,2782.162,1.40346252918243,44.741325378418,0.0290413368493319,0.0046889022924006,0.00471907574683428,-0.336228758096695,-0.00247936261166862,-0.00106680046642749,0.00151460392977639,6
0.079986572265625,-0.0597377978265285,2.94026732444763,1.15723741054535,-0.0601174907153006,2.93994950367094,1.18007172161174,2865.126,2651.488,2344.996,2562.505,0.339350700378418,44.815845489502,0.0998695567250252,0.00842118635773659,0.00864443555474281,-0.311391800642014,-0.00437104534358026,-0.00188073869847162,0.0026702033915743,6
0.100006103515625,-0.0595563463866711,2.94046425819397,1.15151929855347,-0.0602282404704493,2.93990185114529,1.18013937690895,2239.701,2528.041,3138.323,2508.551,359.321472167969,44.9191513061523,0.178510576486588,0.00907254219055176,0.00984819047152996,-0.285907328128815,-0.00677739276378709,-0.00291612276782231,0.00414020348026766,5
0.1199951171875,-0.0594244822859764,2.94063210487366,1.14656901359558,-0.0603918861403606,2.93983143898525,1.18023934549506,2124.44,2455.036,3351.265,2464.171,358.749908447266,44.9998779296875,0.253433853387833,0.00659324321895838,0.008397008292377,-0.247517332434654,-0.00967801353495435,-0.00416417885169243,0.00591214744607921,5
0.1400146484375,-0.0593831054866314,2.94074010848999,1.14257049560547,-0.0606187761383957,2.93973381455767,1.18037794905431,2311.774,2456.427,3069.449,2463.653,358.636108398438,45.0326805114746,0.326424688100815,0.00206880643963814,0.00539796240627766,-0.19992707669735,-0.0130687916036232,-0.00562313592726786,0.00798352085618068,5
0.160003662109375,-0.0594435147941113,2.9407856464386,1.13952445983887,-0.0609177895434042,2.93960515744296,1.18056061167741,2537.196,2486.963,2634.931,2491.674,358.7568359375,45.0249786376953,0.398370712995529,-0.00302045466378331,0.00227844319306314,-0.152299612760544,-0.0169265510445065,-0.00728302204135792,0.0103401658994673,5
0.17999267578125,-0.0596002861857414,2.94078159332275,1.13730907440186,-0.0612985250199726,2.93944133760391,1.18079319703879,2665.9,2505.805,2303.035,2513.531,358.864074707031,44.9985733032227,0.467401266098022,-0.00783852860331535,-0.000198340509086847,-0.11076945066452,-0.0212433804254414,-0.00914043312572283,0.0129772496054864,5
0.20001220703125,-0.0598479174077511,2.94073963165283,1.13576078414917,-0.0617708265342762,2.93923811945689,1.18108171866376,2653.4,2500.085,2183.587,2508.522,358.817047119141,44.9744338989258,0.532801747322083,-0.012381486594677,-0.00209261197596788,-0.0774129629135132,-0.0260142813927851,-0.0111932185284278,0.0158917185579952,5
0.220001220703125,-0.0601899214088917,2.94066190719604,1.13474559783936,-0.0623420644491781,2.93899233174064,1.18143067899198,2541.194,2470.936,2244.853,2478.559,358.612518310547,44.9636535644531,0.594686090946198,-0.0171002596616745,-0.00388294644653797,-0.0507605373859406,-0.03121219533433,-0.0134297356845702,0.0190670430730375,5
0.239990234375,-0.0606392435729504,2.94054126739502,1.13419342041016,-0.0630214373585105,2.93870001655724,1.18184569730089,2411.146,2429.377,2374.587,2437.761,358.334655761719,44.9659233093262,0.652666509151459,-0.0224660523235798,-0.00603272300213575,-0.0276096183806658,-0.0368316683029241,-0.015847637913056,0.0224998914194052,5
0.260009765625,-0.0612136796116829,2.9403657913208,1.13409042358398,-0.0638185570309634,2.93835703823113,1.18233264526998,2329.506,2391.907,2462.838,2398.539,358.076538085938,44.9739151000977,0.707641541957855,-0.0287218354642391,-0.00876971054822206,-0.00514803826808929,-0.0428699302682246,-0.0184457333472145,0.0261885714287875,4
0.279998779296875,-0.0619302913546562,2.94012475013733,1.13444101810455,-0.0647390625194898,2.93796097043536,1.18289496770872,2306.715,2365.575,2469.088,2370.254,357.88720703125,44.9802780151367,0.760676324367523,-0.0358306728303432,-0.0120579851791263,0.0175298899412155,-0.0492963837173861,-0.0212108567320638,0.0301143915580518,4
0.29998779296875,-0.0628018900752068,2.93981051445007,1.13523638248444,-0.0657918945890516,2.93750796620855,1.18353812639089,2316.63,2347.832,2416.352,2353.966,357.765014648438,44.9818077087402,0.811276257038116,-0.0435799323022366,-0.0157068222761154,0.0397683791816235,-0.0561078595514081,-0.0241416444928383,0.0342754158540715,4
0.32000732421875,-0.0638367757201195,2.9394199848175,1.13644909858704,-0.0669865614821475,2.93699393441958,1.18426792975347,2334.588,2336.399,2343.116,2341.587,357.678894042969,44.9788818359375,0.859839200973511,-0.0517442896962166,-0.0195247009396553,0.0606377571821213,-0.0633036493784043,-0.0272377918282996,0.0386712115712976,4
0.339996337890625,-0.0650404989719391,2.93895196914673,1.13803660869598,-0.068326768706371,2.93641728069206,1.18508664143323,2339.023,2325.331,2285.561,2329.536,357.594604492188,44.9741020202637,0.906685411930084,-0.0601860992610455,-0.0234053730964661,0.0793754383921623,-0.0708499516420146,-0.0304847548730522,0.0432811298664125,4
0.360015869140625,-0.0664180591702461,2.93840503692627,1.13995087146759,-0.0698237345322385,2.93577317811757,1.18600111449656,2321.282,2310.091,2262.428,2316.516,357.494567871094,44.9703025817871,0.950748920440674,-0.0688780099153519,-0.0273418705910444,0.0957136750221252,-0.0787580297418618,-0.0338873799532906,0.048112051374484,4
0.3800048828125,-0.0679754242300987,2.9377772808075,1.14215445518494,-0.0714797725314022,2.93506063123087,1.18701276226829,2296.492,2294.876,2260.055,2299.029,357.379486083984,44.9685134887695,0.992954015731812,-0.077868290245533,-0.0313901416957378,0.110177673399448,-0.0869921272359981,-0.0374302820709642,0.0531421330430943,4
0.399993896484375,-0.0697194412350655,2.9370653629303,1.14461708068848,-0.0733036822025899,2.9342758538535,1.18812696022487,2267.418,2277.24,2269.603,2283.418,357.261169433594,44.9687843322754,1.0324273109436,-0.0872008129954338,-0.0355982184410095,0.12313125282526,-0.0955525119207663,-0.0411135764513579,0.0583715384648505,4
0.420013427734375,-0.0716574043035507,2.93626546859741,1.14732015132904,-0.0753050585276311,2.93341471753282,1.18934956979097,2248.707,2262.796,2271.618,2267.59,357.152008056641,44.969970703125,1.06981205940247,-0.0968983545899391,-0.0399906747043133,0.135154619812965,-0.104441553474511,-0.0449382827008623,0.0638017152392751,4
0.44000244140625,-0.0737961381673813,2.93537449836731,1.15024852752686,-0.077483988232608,2.93247718495301,1.19068064394622,2239.397,2251.314,2261.938,2254.419,357.057037353516,44.9709854125977,1.10588014125824,-0.106936901807785,-0.044551208615303,0.146421030163765,-0.113620829717891,-0.048887868829098,0.0694091918565748,4
0.459991455078125,-0.0761414766311646,2.93438959121704,1.1533842086792,-0.0798493430620752,2.93145943885026,1.1921256023009,2231.095,2239.772,2249.521,2245.578,356.975646972656,44.9717025756836,1.13948547840118,-0.117266856133938,-0.0492422804236412,0.156784906983376,-0.123092454730403,-0.0529632444654124,0.0751952597749251,4
0.480010986328125,-0.0786984860897064,2.93330883979797,1.15671145915985,-0.0824109101018722,2.93035726811493,1.19369042363305,2227.712,2231.759,2232.935,2236.067,356.903869628906,44.9719390869141,1.17127811908722,-0.127850532531738,-0.05403708294034,0.166364446282387,-0.132860437136906,-0.0571661344090936,0.0811623678006979,4
0.5,-0.0814715698361397,2.93213057518005,1.16021370887756,-0.085166398670376,2.92917165836334,1.195373708601,2224.091,2225.018,2217.682,2227.574,356.835968017578,44.9719200134277,1.20199418067932,-0.13865427672863,-0.0589139088988304,0.175112709403038,-0.142884000065179,-0.0614789935111996,0.0872856059789651,5
0.519989013671875,-0.0844647139310837,2.93085336685181,1.1638720035553,-0.0881248588203387,2.92789871561062,1.19718098574075,2213.678,2216.054,2212.55,2221.649,356.769866943359,44.9723243713379,1.23029720783234,-0.149657025933266,-0.0638619661331177,0.182912543416023,-0.153166947611899,-0.0659034585682559,0.0935672981730243,5
0.540008544921875,-0.0876819938421249,2.92947554588318,1.16767382621765,-0.0912963635428427,2.92653410573011,1.19911840848537,2206.684,2209.728,2208.014,2213.692,356.706298828125,44.9730339050293,1.25689101219177,-0.160864055156708,-0.0688901171088219,0.190089747309685,-0.163714777034477,-0.0704418948965508,0.100010802571645,5
0.55999755859375,-0.0911273658275604,2.9279956817627,1.17160880565643,-0.094676112580471,2.92507989413848,1.20118304443252,2201.515,2204.644,2202.905,2206.573,356.645599365234,44.9738883972168,1.28265273571014,-0.172269061207771,-0.0739981234073639,0.196748182177544,-0.17448465888317,-0.0750758741803766,0.106589955332319,5
0.579986572265625,-0.094804510474205,2.9264121055603,1.17566502094269,-0.0982734311149,2.92353206847056,1.20338059019015,2192.409,2197.374,2203.368,2202.769,356.589538574219,44.9751358032227,1.30608725547791,-0.183857217431068,-0.0791784226894379,0.202810570597649,-0.185481935470438,-0.0798076950675377,0.113308019990364,5
0.600006103515625,-0.0987170785665512,2.92472338676453,1.17983675003052,-0.102098762959148,2.92188613504538,1.20571742572067,2189.571,2193.589,2199.352,2197.11,356.539520263672,44.9763641357422,1.32802021503448,-0.195628106594086,-0.0844327881932259,0.208587631583214,-0.196713446836865,-0.0846403006364086,0.120169175019836,5
0.6199951171875,-0.1028683334589,2.92292833328247,1.18411862850189,-0.106144683970236,2.92014528826426,1.208189015731,2189.192,2191.241,2192.424,2192.588,356.493988037109,44.9773559570313,1.34939229488373,-0.207563117146492,-0.0897499471902847,0.214093312621117,-0.208134604141382,-0.0895545055543457,0.127146181793521,5
0.6400146484375,-0.10726110637188,2.92102599143982,1.18850159645081,-0.110427588881679,2.91830247393137,1.21080537550798,2183.279,2186.241,2192.215,2191.433,356.452484130859,44.9785614013672,1.36853396892548,-0.219638556241989,-0.0951153263449669,0.219150736927986,-0.21977002223474,-0.0945609009039674,0.134254077139634,5
0.660003662109375,-0.111898303031921,2.91901540756226,1.1929839849472,-0.114938248900541,2.91636166293851,1.21356086732604,2184.873,2185.734,2186.361,2187.066,356.414215087891,44.9795379638672,1.3871214389801,-0.231859862804413,-0.100533716380596,0.224117338657379,-0.231574097577923,-0.0996398647564507,0.141465002567821,5
0.67999267578125,-0.116782307624817,2.91689562797546,1.19755828380585,-0.119686638739014,2.91431856344567,1.2164615845812,2179.238,2181.829,2188.152,2186.857,356.379089355469,44.9807929992676,1.40354371070862,-0.244200393557549,-0.105990886688232,0.228715285658836,-0.243554411173546,-0.104794659005432,0.14878358919428,5
0.70001220703125,-0.121915645897388,2.91466569900513,1.20222365856171,-0.124683985757554,2.91216834463331,1.21951438589277,2179.36,2181.192,2186.265,2184.065,356.347808837891,44.9819755554199,1.4187433719635,-0.256666630506516,-0.111493028700352,0.233269199728966,-0.255719729227087,-0.11002905550423,0.156215192157144,5
0.720001220703125,-0.127300545573235,2.91232514381409,1.20697915554047,-0.129918284978346,2.90991617190799,1.22271193760712,2181.183,2181.623,2182.177,2182.05,356.318786621094,44.9829711914063,1.43377363681793,-0.269245713949203,-0.117033690214157,0.237777054309845,-0.268023157655716,-0.11532287703907,0.163731164592979,5
0.739990234375,-0.132938921451569,2.90987300872803,1.21181976795197,-0.135400001298574,2.90755754251682,1.22606063256665,2176.278,2178.509,2185.974,2183.509,356.292358398438,44.9842414855957,1.44664907455444,-0.281918585300446,-0.122601836919785,0.24203222990036,-0.280473432677602,-0.12067988256057,0.171336843321139,5
0.760009765625,-0.138832807540894,2.90730881690979,1.21674716472626,-0.141140917956636,2.9050873864615,1.22956766896782,2177.611,2179.122,2185.301,2181.777,356.269622802734,44.9854278564453,1.45839631557465,-0.294694662094116,-0.128205716609955,0.24637246131897,-0.293080296154222,-0.126104263719567,0.179038179492781,5
0.779998779296875,-0.144984021782875,2.90463209152222,1.22176277637482,-0.147126184485884,2.90251209348295,1.2332239748923,2180.797,2180.755,2181.799,2180.787,356.248840332031,44.9863586425781,1.47014713287354,-0.30756089091301,-0.13383848965168,0.250779062509537,-0.305795832832518,-0.131575403921268,0.186805902427515,5
0.79998779296875,-0.151393949985504,2.90184235572815,1.22686290740967,-0.153366821193532,2.89982692185086,1.23703628247379,2176.568,2178.439,2186.626,2183.387,356.230377197266,44.9875755310059,1.47976541519165,-0.320496648550034,-0.139488458633423,0.255008697509766,-0.318629798715703,-0.137097500901303,0.194645971915464,5
0.82000732421875,-0.158064216375351,2.89893913269043,1.2320511341095,-0.159875221826383,2.89702653888221,1.24101216285881,2178.952,2179.994,2186.451,2182.442,356.215301513672,44.9886627197266,1.48834657669067,-0.333513647317886,-0.145165055990219,0.259413003921509,-0.331592781842754,-0.14267511039705,0.202564856024417,5
0.839996337890625,-0.164996191859245,2.8959219455719,1.23733019828796,-0.166633637018892,2.89411858163313,1.24514077323692,2183.042,2182.519,2183.302,2182.133,356.201751708984,44.9894752502441,1.49711096286774,-0.346598565578461,-0.150861456990242,0.263953983783722,-0.344636106234817,-0.148287288494656,0.210532819358465,5
0.8599853515625,-0.172190815210342,2.89279055595398,1.24269735813141,-0.173653699721778,2.89109804476993,1.2494292199962,2179.001,2180.659,2189.115,2185.524,356.190063476563,44.9905815124512,1.50377774238586,-0.359730392694473,-0.156565740704536,0.268360882997513,-0.357770416714212,-0.153938615363784,0.218556364673454,5
0.8800048828125,-0.179649263620377,2.88954472541809,1.2481575012207,-0.180948461186242,2.88795931270381,1.25388547594233,2181.994,2182.81,2189.419,2185.043,356.181488037109,44.9915618896484,1.50949859619141,-0.372923582792282,-0.162289068102837,0.273005247116089,-0.371007022483504,-0.159633957038354,0.226642400584755,5
0.899993896484375,-0.18737256526947,2.88618421554565,1.25371420383453,-0.18849723509595,2.8847112861788,1.25849690412748,2186.708,2185.904,2186.436,2185.139,356.174163818359,44.9922409057617,1.51556730270386,-0.386164665222168,-0.168024465441704,0.277835696935654,-0.384296738353309,-0.165352150505452,0.234760880627692,5
0.920013427734375,-0.195361196994781,2.88270902633667,1.25936532020569,-0.196324452211266,2.88134345332121,1.26327842892191,2182.686,2184.203,2192.901,2189.109,356.16845703125,44.993221282959,1.51951897144318,-0.39943191409111,-0.173759713768959,0.282555013895035,-0.397671404529394,-0.171106895716105,0.242931255487113,5
0.94000244140625,-0.203616127371788,2.87911891937256,1.26511800289154,-0.204407453948074,2.87786556348678,1.26821620855017,2189.156,2188.347,2189.916,2187.814,356.164398193359,44.9938621520996,1.52372133731842,-0.412747204303741,-0.179509416222572,0.287635385990143,-0.411081631631503,-0.176876941799768,0.251123353961324,5
0.959991455078125,-0.212137669324875,2.87541389465332,1.27097022533417,-0.212759000778906,2.87427212620069,1.27331803818581,2185.169,2186.989,2196.483,2191.764,356.162445068359,44.9948120117188,1.5258641242981,-0.426076382398605,-0.185255691409111,0.292613804340363,-0.424539267042903,-0.182667386354485,0.259344413431889,5
0.980010986328125,-0.220926374197006,2.87159371376038,1.27692806720734,-0.221393324468958,2.87055701793193,1.27859261179209,2189.09,2189.724,2196.463,2191.592,356.163726806641,44.9955520629883,1.52722239494324,-0.43943578004837,-0.191009804606438,0.297891438007355,-0.438056556301695,-0.188483498293199,0.267601914506946,5
1,-0.22998258471489,2.86765837669373,1.28299582004547,-0.230284798736574,2.86673126495361,1.28402427467346,2194.605,2193.341,2192.855,2191.969,356.165863037109,44.9959335327148,1.52919125556946,-0.452809810638428,-0.196763411164284,0.303387343883514,-0.451584000205995,-0.194303979492187,0.275865618896484,5
1.01998901367188,-0.239306092262268,2.86360836029053,1.28917109966278,-0.239446912293295,2.86278906344998,1.2896212668733,2190.217,2191.536,2199.835,2196.448,356.169128417969,44.9966850280762,1.52903699874878,-0.466175407171249,-0.202503263950348,0.308761298656464,-0.46513400752272,-0.200134169097193,0.284143106922576,5
1.04000854492188,-0.248897135257721,2.8594434261322,1.29545986652374,-0.248894644448595,2.85872396824263,1.29539273901802,2193.844,2194.244,2200.282,2196.167,356.175048828125,44.9972686767578,1.52807188034058,-0.479552447795868,-0.208243682980537,0.314435571432114,-0.47871923339115,-0.205979512261105,0.292442109412331,5
1.05999755859375,-0.258755654096603,2.85516381263733,1.30186641216278,-0.258599401509697,2.85454828239877,1.3013212236669,2199.124,2197.897,2196.989,2196.31,356.181488037109,44.9975242614746,1.52780795097351,-0.492926836013794,-0.213977843523026,0.320330172777176,-0.492290296490434,-0.211818761581115,0.30073246008742,5
1.07998657226563,-0.268881171941757,2.85076999664307,1.30838823318481,-0.268575430648764,2.85025587575821,1.30741542419509,2194.206,2195.792,2204.476,2200.812,356.189147949219,44.9981803894043,1.52537214756012,-0.506275713443756,-0.219692766666412,0.326092690229416,-0.50586005237609,-0.217657448443621,0.309022012206103,5
1.10000610351563,-0.279273569583893,2.84626197814941,1.3150315284729,-0.278838480013141,2.84583997233313,1.31368496090006,2197.888,2198.464,2204.717,2200.301,356.19970703125,44.998664855957,1.52216351032257,-0.519619703292847,-0.225403219461441,0.332163572311401,-0.519441457145546,-0.223501147495394,0.317318680446121,5
1.1199951171875,-0.289932429790497,2.84163999557495,1.32180058956146,-0.289357002179081,2.84131414609862,1.32011056195293,2203.385,2202.098,2200.784,2200.271,356.210845947266,44.9987907409668,1.5197594165802,-0.532943546772003,-0.231101289391518,0.338451981544495,-0.532985466132485,-0.229328756186667,0.32559250418615,5
1.1400146484375,-0.30085688829422,2.83690452575684,1.32869219779968,-0.300162704591434,2.83666475422696,1.32671159693698,2198.078,2199.683,2208.17,2204.787,356.223175048828,44.9993095397949,1.51514911651611,-0.546222686767578,-0.23677285015583,0.344579100608826,-0.54652589017629,-0.235154822377061,0.33386413794036,5
1.16000366210938,-0.312046617269516,2.83205580711365,1.33571422100067,-0.311222084148811,2.83190621216671,1.33346759933036,2205.397,2204.196,2203.884,2202.74,356.236755371094,44.9994239807129,1.51118683815002,-0.55948543548584,-0.242436081171036,0.351104229688644,-0.560014026276883,-0.240958390526247,0.342103829805999,6
1.17999267578125,-0.323500424623489,2.82709431648254,1.34286320209503,-0.322550701230474,2.8270318247214,1.34038807472597,2199.822,2201.889,2211.108,2206.912,356.252075195313,44.999927520752,1.50505471229553,-0.572692394256592,-0.248070150613785,0.357449054718018,-0.573463232144024,-0.246745208083563,0.350319739799517,6
1.20001220703125,-0.335217744112015,2.82202053070068,1.35014498233795,-0.334165615614823,2.82203425154496,1.3474834446762,2203.765,2204.431,2210.197,2205.926,356.270660400391,45.0002136230469,1.49829769134521,-0.585864663124084,-0.253689289093018,0.364090502262115,-0.586886736182789,-0.252520966862155,0.358519948947149,6
1.22000122070313,-0.347197443246841,2.81683492660522,1.35756325721741,-0.346030421585499,2.81692915700008,1.35473146949704,2209.411,2207.808,2204.996,2205.576,356.289611816406,45.0000839233398,1.49252140522003,-0.598985016345978,-0.259283721446991,0.370915234088898,-0.600236516861372,-0.258265004538453,0.366675121644476,6
1.239990234375,-0.359438002109528,2.8115382194519,1.3651134967804,-0.358161486344149,2.81170949873715,1.36214214765657,2203.155,2204.708,2212.311,2209.979,356.309356689453,45.0004119873047,1.48446440696716,-0.612028479576111,-0.264838844537735,0.377511471509933,-0.613526094901141,-0.263983138701136,0.374793517489195,6
1.260009765625,-0.37193837761879,2.80613088607788,1.37280094623566,-0.37057666480527,2.80636759428526,1.36972638644343,2206.375,2206.929,2211.807,2208.565,356.331695556641,45.0005950927734,1.47571778297424,-0.625019013881683,-0.270371913909912,0.384373754262924,-0.626768731761373,-0.26968107538565,0.382883237699838,6
1.27999877929688,-0.384697169065475,2.80061340332031,1.3806289434433,-0.383236695417198,2.80092033679326,1.37746020158837,2211.493,2210.092,2206.836,2207.677,356.354217529297,45.0004119873047,1.46802639961243,-0.637941718101501,-0.275875180959702,0.391400218009949,-0.639917282339435,-0.275338529371412,0.39091548206889,6
1.29998779296875,-0.397712618112564,2.79498672485352,1.38859236240387,-0.396158759015336,2.79536033382764,1.38535408859565,2204.477,2206.504,2214.516,2211.857,356.377746582031,45.0007171630859,1.45801687240601,-0.650772094726563,-0.281334310770035,0.398170530796051,-0.652985332144132,-0.280961346123326,0.398898549771684,6
1.32000732421875,-0.410983324050903,2.78925132751465,1.39669632911682,-0.409361504843077,2.78967956113998,1.39341943999703,2207.641,2208.463,2213.596,2210.071,356.404296875,45.000862121582,1.44733142852783,-0.66353440284729,-0.286766409873962,0.405200302600861,-0.6659860834168,-0.286555206197011,0.406840505851434,6
1.33999633789063,-0.424507528543472,2.78340816497803,1.40494382381439,-0.422802873722428,2.78389611561957,1.401630562497,2212.84,2211.465,2207.838,2208.846,356.431213378906,45.0005874633789,1.43779015541077,-0.676211953163147,-0.292162448167801,0.412376224994659,-0.678873453515705,-0.29210028151913,0.41471319914141,6
1.3599853515625,-0.438283145427704,2.77745795249939,1.41332900524139,-0.436500861174643,2.77800225429635,1.40999844927868,2205.435,2207.443,2215.152,2212.956,356.459167480469,45.0008163452148,1.42586386203766,-0.688779354095459,-0.297507166862488,0.419258445501328,-0.69166099897751,-0.297602405088682,0.422524911118315,6
1.3800048828125,-0.452308356761932,2.77140164375305,1.42185652256012,-0.450474904562636,2.77198961381608,1.41853497432376,2208.422,2209.238,2213.788,2210.756,356.490081787109,45.0008811950684,1.41329872608185,-0.701260805130005,-0.302817583084106,0.426375299692154,-0.704361775018035,-0.303067194200314,0.43028361700977,6
1.39999389648438,-0.466581165790558,2.76523995399475,1.43052875995636,-0.464680216184654,2.76587746507559,1.42721277752413,2213.502,2211.984,2207.519,2209.225,356.521118164063,45.0005226135254,1.40193748474121,-0.713640034198761,-0.308085083961487,0.433613419532776,-0.716930938559026,-0.308475354130225,0.437961922879032,6
1.42001342773438,-0.481099039316177,2.75897407531738,1.4393390417099,-0.479157861067077,2.75964813894125,1.43605694486361,2205.366,2207.564,2214.971,2213.135,356.553131103516,45.0007095336914,1.38816392421722,-0.725892066955566,-0.313294470310211,0.440516352653503,-0.729400843645231,-0.313840805920001,0.445579593307164,6
1.44000244140625,-0.495859980583191,2.75260472297668,1.44829416275024,-0.493861275572861,2.75332167044526,1.44503903134294,2212.596,2211.338,2208.419,2209.069,356.586151123047,45.0004272460938,1.37538707256317,-0.738049149513245,-0.318466752767563,0.447758197784424,-0.741727567798258,-0.319144650954242,0.453109796737511,6
1.45999145507813,-0.510861337184906,2.74613308906555,1.45738708972931,-0.508809800712713,2.74688973769103,1.45417085208374,2204.271,2207.11,2215.541,2212.525,356.621032714844,45.0006561279297,1.36026799678802,-0.750069856643677,-0.32357919216156,0.454648315906525,-0.753924423002454,-0.324392617007921,0.460560665253582,6
1.48001098632813,-0.526100873947144,2.7395601272583,1.46662223339081,-0.524024159888143,2.74034342397783,1.46346506668862,2207.511,2208.544,2212.92,2209.826,356.659423828125,45.0006446838379,1.34461534023285,-0.761977553367615,-0.328647434711456,0.461756259202957,-0.766004036374583,-0.329590137176618,0.467939912563966,6
1.5,-0.541575968265533,2.73288702964783,1.47600114345551,-0.539455198877605,2.73370387899399,1.47289164761066,2212.719,2211.008,2205.31,2207.851,356.697937011719,45.0001678466797,1.33033788204193,-0.773753702640533,-0.333660513162613,0.468944251537323,-0.777924000354858,-0.334718964672088,0.475221632552146,6
1.51998901367188,-0.557283461093903,2.72611498832703,1.48551571369171,-0.555123050061237,2.72696244033876,1.48246289340675,2203.783,2205.907,2212.421,2211.665,356.737091064453,45.0002593994141,1.31356883049011,-0.78537380695343,-0.338602989912033,0.47573122382164,-0.789697369743256,-0.339784716610053,0.482413800191712,6
1.54000854492188,-0.573220789432526,2.71924519538879,1.49516975879669,-0.571049184024557,2.72010986981902,1.49219192012252,2206.2,2207.087,2210.385,2208.484,356.778991699219,45.0002098083496,1.29621160030365,-0.796863555908203,-0.343493640422821,0.482700645923615,-0.801336412291853,-0.344792671461508,0.489523909660973,6
1.55999755859375,-0.589384853839874,2.71227860450745,1.50496447086334,-0.587181951496087,2.71316839067337,1.50204717602401,2210.799,2209.288,2203.254,2206.029,356.820709228516,44.9997367858887,1.28027021884918,-0.80820769071579,-0.348324209451675,0.489733010530472,-0.812800388649436,-0.349725300221754,0.496527073925997,6
1.57998657226563,-0.605772495269775,2.70521688461304,1.5148913860321,-0.603542258451077,2.7061290076447,1.51204143224525,2201.139,2203.844,2210.833,2209.576,356.863372802734,44.9998779296875,1.26184582710266,-0.819383442401886,-0.353080183267593,0.496345043182373,-0.82410201904291,-0.354588076049064,0.503431063574906,6
1.60000610351563,-0.622380793094635,2.69806122779846,1.52495419979095,-0.620152298932711,2.69898217125626,1.52218824678091,2203.567,2204.737,2208.477,2206.151,356.909210205078,44.9998359680176,1.24282765388489,-0.830415666103363,-0.357779562473297,0.503138780593872,-0.835253140422976,-0.35938609205264,0.510243109616171,5
1.6199951171875,-0.639206528663635,2.6908130645752,1.53515386581421,-0.636958033083316,2.69175113334911,1.53245460752521,2208.35,2206.841,2200.63,2203.428,356.955108642578,44.9993515014648,1.22529196739197,-0.841287553310394,-0.362412869930267,0.50998443365097,-0.846214826007804,-0.364102599125749,0.516939432286212,5
1.6400146484375,-0.656246066093445,2.68347382545471,1.54548144340515,-0.654007271984653,2.68441532215046,1.54286972152191,2198.441,2201.078,2207.833,2207.004,357.001983642578,44.9994697570801,1.20519375801086,-0.851976275444031,-0.366964936256409,0.5163813829422,-0.857015715678588,-0.368749920209162,0.523537527241534,5
1.66000366210938,-0.673496305942535,2.67604470252991,1.55594289302826,-0.671244443874359,2.67699864863716,1.55339964084857,2205.754,2204.379,2199.691,2201.523,357.049774169922,44.9990844726563,1.18634223937988,-0.862512290477753,-0.371456503868103,0.523072421550751,-0.867618167158098,-0.373311858882592,0.530014399402375,5
1.67999267578125,-0.690953433513641,2.66852736473083,1.56652891635895,-0.688691692550512,2.66949158495151,1.56405789280588,2195.638,2198.96,2206.671,2204.634,357.099334716797,44.9992561340332,1.16503763198853,-0.87285715341568,-0.375865429639816,0.529300510883331,-0.878034183119987,-0.377793579561193,0.536377381014768,5
1.70001220703125,-0.7086141705513,2.66092324256897,1.57724285125732,-0.706372354049449,2.66188409024902,1.5748587330143,2198.517,2199.745,2203.019,2200.805,357.152496337891,44.9991874694824,1.14329409599304,-0.883032858371735,-0.380207180976868,0.535695791244507,-0.888274735793774,-0.382199803288802,0.542633174842512,5
1.72000122070313,-0.726474583148956,2.65323376655579,1.58808505535126,-0.724228658537036,2.6542010212754,1.58576687078363,2203.507,2201.623,2194.052,2197.849,357.205444335938,44.9986114501953,1.12318742275238,-0.893021583557129,-0.384470671415329,0.542108058929443,-0.898304216251578,-0.386515208538549,0.548760027947228,5
1.739990234375,-0.744530618190765,2.64546084403992,1.59904539585114,-0.74228345468553,2.64643254688532,1.59679626401121,2192.857,2195.452,2201.166,2201.368,357.258911132813,44.9986953735352,1.10052227973938,-0.902802765369415,-0.388641625642776,0.548018574714661,-0.908134108040217,-0.390744736359816,0.554764955448471,5
1.760009765625,-0.762778639793396,2.63760614395142,1.61012673377991,-0.760560719141003,2.63856835059778,1.60796155965597,2194.94,2195.98,2198.301,2197.213,357.315124511719,44.9986228942871,1.0773389339447,-0.91240006685257,-0.392738431692123,0.554067969322205,-0.91777478390713,-0.394892849856044,0.560654293895788,4
1.77999877929688,-0.781214594841003,2.62967109680176,1.62132930755615,-0.779000609654483,2.63063418086074,1.61922620102184,2199.388,2197.686,2189.976,2193.85,357.370880126953,44.9981002807617,1.05581569671631,-0.921799123287201,-0.396752923727036,0.560126543045044,-0.927192788821983,-0.398945154262308,0.566407606133204,4
1.79998779296875,-0.799834191799164,2.62165760993958,1.63264286518097,-0.797626646773287,2.62261991743975,1.63060455644414,2188.16,2191.251,2197.578,2197.245,357.427398681641,44.9982566833496,1.03170108795166,-0.930981576442719,-0.400672078132629,0.565675795078278,-0.936399026186941,-0.402906341007953,0.572031552878955,4
1.82000732421875,-0.818633615970612,2.61356735229492,1.64407026767731,-0.816463410111527,2.61451498441355,1.64211164122557,2190.344,2191.686,2194.485,2192.836,357.487121582031,44.9982223510742,1.00710487365723,-0.93996924161911,-0.40451318025589,0.571369409561157,-0.94540321420156,-0.406780591562751,0.577532070829503,3
1.83999633789063,-0.837608456611633,2.60540199279785,1.65561163425446,-0.835449117627072,2.60634596486888,1.6537097136807,2195.033,2193.34,2185.584,2189.329,357.546600341797,44.9977035522461,0.984243154525757,-0.948746502399445,-0.408266812562943,0.577068030834198,-0.954174163352093,-0.410554485950274,0.582890106797601,3
1.8599853515625,-0.85675436258316,2.59716367721558,1.66725647449493,-0.854607925216182,2.59810246519841,1.66541353026959,2183.715,2186.773,2192.811,2192.777,357.606903076172,44.9978561401367,0.958789110183716,-0.957295775413513,-0.411919564008713,0.582239985466003,-0.962722140342816,-0.41423244164655,0.588111932552683,0
1.8800048828125,-0.876067101955414,2.58885383605957,1.67900729179382,-0.873964974649439,2.58977366760063,1.67723844970756,2185.947,2187.099,2189.396,2188.264,357.670227050781,44.997802734375,0.932846426963806,-0.965636968612671,-0.415487974882126,0.587543725967407,-0.971056158224177,-0.417818336715394,0.593203054026622,0
1.89999389648438,-0.895542144775391,2.58047461509705,1.69086408615112,-0.893456683142228,2.58138692997148,1.6891456302637,2190.572,2188.757,2180.347,2184.517,357.733032226563,44.9972648620605,0.90873521566391,-0.973755300045013,-0.418963104486465,0.592837929725647,-0.979147395688901,-0.421299770153459,0.598145864732551,0
1.92001342773438,-0.915174901485443,2.57202792167664,1.70281589031219,-0.913137923350175,2.5729186421402,1.70116859278703,2178.876,2181.955,2187.71,2188.038,357.796508789063,44.9974403381348,0.8819979429245,-0.981635749340057,-0.422332912683487,0.597589254379272,-0.987017247723777,-0.424685947625853,0.602953434534038,0
1.94000244140625,-0.934960901737213,2.56351566314697,1.71486806869507,-0.932943991899774,2.5643966441608,1.71326781099638,2186.448,2184.84,2178.56,2181.321,357.860504150391,44.9970512390137,0.856785416603088,-0.989302277565002,-0.425615817308426,0.602606356143951,-0.994638524886308,-0.427965170275055,0.607609153824943,0
1.95999145507813,-0.954895436763763,2.55493974685669,1.7270096540451,-0.952900013794853,2.55581012544606,1.7254586333645,2174.754,2178.57,2185.579,2184.398,357.926177978516,44.9973068237305,0.829059779644012,-0.99672669172287,-0.42879381775856,0.607079982757568,-1.00202031904361,-0.431141350077486,0.612118576685011,0
1.98001098632813,-0.974973917007446,2.54630208015442,1.73924338817596,-0.973031969359004,2.54714790738853,1.73775693086567,2177.545,2178.923,2181.215,2179.64,357.995422363281,44.9972648620605,0.801038503646851,-1.00392425060272,-0.431879758834839,0.611687898635864,-1.00917036754089,-0.434217816196637,0.616486429737696,0
2,-0.99519157409668,2.53760480880737,1.75156879425049,-0.993273599084619,2.53843849960327,1.75012222660065,2182.65,2180.441,2171.168,2175.896,358.064025878906,44.9966812133789,0.774978041648865,-1.01087963581085,-0.434863060712814,0.616271555423737,-1.01606400046349,-0.437183953857422,0.620697642517089,0
2.01998901367188,-1.01554310321808,2.52885007858276,1.76397442817688,-1.01365055070775,2.52967086658596,1.76257018837116,2170.587,2173.475,2178.302,2179.563,358.132843017578,44.9968338012695,0.746293544769287,-1.01758086681366,-0.43773278594017,0.620279729366302,-1.02270954399163,-0.440043345582587,0.624757301356767,0
2.04000854492188,-1.03602397441864,2.5200400352478,1.77646243572235,-1.03418924440916,2.52083364047092,1.77511695585335,2172.635,2173.695,2174.862,2174.542,358.204193115234,44.9967880249023,0.717254102230072,-1.0240443944931,-0.440504670143127,0.624398112297058,-1.02911391720548,-0.442798968459032,0.628669633014835,0
2.05999755859375,-1.0566291809082,2.51117658615112,1.78903222084045,-1.05482201812353,2.5119559343546,1.78772119534738,2177.118,2175.042,2165.77,2170.533,358.274566650391,44.9962730407715,0.690155923366547,-1.03025853633881,-0.44317153096199,0.628488481044769,-1.03525504859546,-0.445441325732794,0.632421154350513,0
2.07998657226563,-1.07735347747803,2.50226211547852,1.80167233943939,-1.07557499515204,2.50302650811029,1.80039886517028,2164.579,2168.023,2173.491,2174.054,358.345428466797,44.9965133666992,0.660460233688354,-1.03621447086334,-0.445724219083786,0.632008910179138,-1.04114045847258,-0.4479736531836,0.636016459404434,0
2.10000610351563,-1.09819197654724,2.49329853057861,1.81438541412354,-1.09647498538954,2.49403382618922,1.81316634306845,2166.798,2168.14,2169.939,2168.959,358.419250488281,44.9965286254883,0.630421221256256,-1.04192590713501,-0.448176741600037,0.6356520652771,-1.04677621342161,-0.450398561093403,0.639459254158576,0
2.1199951171875,-1.11913967132568,2.48428821563721,1.82717084884644,-1.11745308225396,2.48500753716864,1.82598153508617,2171.598,2169.545,2160.39,2164.843,358.492340087891,44.9960250854492,0.602405369281769,-1.04738020896912,-0.45052096247673,0.639270007610321,-1.0521429102862,-0.45270770082608,0.642737685527497,0
2.1400146484375,-1.14019107818604,2.47523331642151,1.84001708030701,-1.13856809990831,2.47592233495728,1.83888036987787,2159.152,2162.474,2167.685,2168.537,358.565979003906,44.9962501525879,0.571780443191528,-1.05256986618042,-0.452747493982315,0.642311453819275,-1.05725481901126,-0.454907212340279,0.645860470797878,0
2.16000366210938,-1.16134130954742,2.46613597869873,1.8529292345047,-1.15975039167652,2.46680818657414,1.85182030137592,2167.214,2165.23,2157.986,2161.217,358.639831542969,44.9958801269531,0.542885184288025,-1.05750930309296,-0.454870969057083,0.645609200000763,-1.0620943502576,-0.456989527434725,0.648816864916866,0
2.17999267578125,-1.18258500099182,2.45699834823608,1.86589586734772,-1.18102676265167,2.45765355853653,1.86481770439342,2154.761,2158.774,2164.981,2164.489,358.715087890625,44.9961776733398,0.51153290271759,-1.06218218803406,-0.45687797665596,0.648330628871918,-1.06666760390386,-0.458957270716794,0.65161059420515,0
2.20001220703125,-1.2039167881012,2.44782280921936,1.87891936302185,-1.20242455577657,2.44844668594002,1.87788928230744,2157.673,2158.952,2160.394,2159.362,358.793579101563,44.9961776733398,0.48001304268837,-1.06659579277039,-0.458778202533722,0.651173233985901,-1.07097916161324,-0.460812413548163,0.654244457529281,0
2.22000122070313,-1.2253315448761,2.43861150741577,1.89199888706207,-1.22387315175433,2.43921795429519,1.89099189489151,2162.919,2160.306,2150.072,2155.303,358.870941162109,44.9956169128418,0.45064190030098,-1.07073819637299,-0.460562705993652,0.653975605964661,-1.07501419914593,-0.462548577472581,0.656709398992482,0
2.239990234375,-1.24682378768921,2.42936706542969,1.90512239933014,-1.24539969505118,2.42995568409656,1.90414212427648,2150.133,2153.23,2157.317,2159.14,358.948303222656,44.9958152770996,0.41873162984848,-1.0746066570282,-0.462224215269089,0.656177341938019,-1.07877792518082,-0.464168003639063,0.659008600495412,0
2.260009765625,-1.26838779449463,2.42009162902832,1.91829204559326,-1.26703177594152,2.42064800401982,1.91735682493042,2152.292,2153.215,2153.782,2153.895,359.027862548828,44.9958267211914,0.386534780263901,-1.07820928096771,-0.463775277137756,0.658480525016785,-1.08227399942825,-0.465672266718726,0.661144297698006,0
2.27999877929688,-1.2900185585022,2.41078734397888,1.93150687217712,-1.28869796983554,2.41132564607061,1.93059236468599,2156.929,2154.564,2144.502,2149.495,359.106018066406,44.9953308105469,0.356511116027832,-1.08153736591339,-0.4652099609375,0.660744428634644,-1.08549040888332,-0.467056197851165,0.663109152043028,0
2.29998779296875,-1.31171035766602,2.40145683288574,1.94475531578064,-1.31042570636616,2.40197680804417,1.9438654998779,2143.844,2147.447,2152.215,2153.299,359.184478759766,44.9956245422363,0.323976695537567,-1.08459138870239,-0.466522812843323,0.662421762943268,-1.08843144721369,-0.468321644481621,0.664905786465049,0
2.32000732421875,-1.33345794677734,2.39210224151611,1.95803964138031,-1.33224276726637,2.39258953623693,1.95719320193332,2146.239,2147.437,2148.546,2147.972,359.265563964844,44.9956855773926,0.29121807217598,-1.08737587928772,-0.467724144458771,0.66421377658844,-1.09109983431736,-0.469469776906228,0.666535862507326,0
2.33999633789063,-1.35525560379028,2.38272619247437,1.97135901451111,-1.35407709248145,2.38319483607731,1.97053145048929,2151.14,2148.717,2138.942,2143.663,359.345520019531,44.9952049255371,0.260624706745148,-1.08988165855408,-0.46880716085434,0.665968835353851,-1.09348640563071,-0.470496651869278,0.667993781680938,0
2.3599853515625,-1.37709784507751,2.37333083152771,1.98470175266266,-1.37595634130987,2.37378080654189,1.98389714217962,2138.345,2141.736,2146.121,2147.527,359.425750732422,44.9954795837402,0.22754929959774,-1.09211075305939,-0.469766706228256,0.667139828205109,-1.09559452046326,-0.471403714787811,0.669281596135657,0
2.3800048828125,-1.39897918701172,2.36391854286194,1.99807000160217,-1.39790843013262,2.36433543599182,1.99730733068585,2140.771,2141.777,2142.34,2142.173,359.508331298828,44.9955253601074,0.194305643439293,-1.0940648317337,-0.470611840486526,0.668413162231445,-1.09742594550583,-0.472191725819537,0.67040038511534,0
2.39999389648438,-1.420893907547,2.35449171066284,2.01146292686462,-1.41986083522252,2.35488992936084,2.01071771239474,2145.639,2143.01,2132.833,2137.849,359.589447021484,44.995044708252,0.163270592689514,-1.0957362651825,-0.471336543560028,0.669643402099609,-1.09897439291323,-0.472857979480329,0.671346307473475,0
2.42001342773438,-1.44283640384674,2.34505295753479,2.02486872673035,-1.44187496577138,2.34541786398928,2.02416580122331,2132.655,2136.095,2140.163,2141.728,359.670623779297,44.9953384399414,0.129823878407478,-1.0971302986145,-0.471937447786331,0.670288026332855,-1.1002439936861,-0.473404253224357,0.672121886773894,0
2.44000244140625,-1.46480131149292,2.335604429245,2.03829216957092,-1.46387808506052,2.33595053645515,2.03760716344514,2140.95,2138.515,2130.705,2134.139,359.751495361328,44.9950141906738,0.0982497036457062,-1.0982471704483,-0.472422927618027,0.671175718307495,-1.10123038958312,-0.473828671822132,0.672724460634977,0
2.45999145507813,-1.4867832660675,2.32614874839783,2.05172204971313,-1.48589810917879,2.32647593524532,2.05105885256329,2128.132,2132.291,2137.597,2137.614,359.833465576172,44.9953918457031,0.064398929476738,-1.09908807277679,-0.472787439823151,0.671488404273987,-1.10193535162022,-0.474131997292339,0.673155110942729,0
2.48001098632813,-1.50877594947815,2.3166880607605,2.06516027450562,-1.5079630509786,2.31698200721197,2.06453798119217,2131.288,2132.289,2133.002,2132.406,359.918243408203,44.9954299926758,0.0304980725049973,-1.09964847564697,-0.473035335540771,0.671913743019104,-1.10235904000526,-0.474314298567936,0.673413935565619,0
2.5,-1.53077459335327,2.3072247505188,2.07860612869263,-1.52999999932945,2.30750012397766,2.0780000090599,2136.635,2133.616,2122.854,2128.119,0.0014092392520979,44.9949035644531,-0.00105486996471882,-1.0999208688736,-0.473159730434418,0.67228889465332,-1.10250000050292,-0.474374949932098,0.673500046133994,0
2.51998901367188,-1.55277276039124,2.29776167869568,2.09204745292664,-1.5520369476803,2.29801824074336,2.09146203692764,2123.643,2126.741,2129.893,2132.272,0.0842308551073074,44.9951553344727,359.965026855469,-1.09991490840912,-0.473158866167068,0.672068357467651,-1.10235904000526,-0.474314298567936,0.67341393556562,0
2.54000854492188,-1.5747652053833,2.28830099105835,2.10548639297485,-1.57410188948011,2.28852431271001,2.10494116555652,2126.124,2126.722,2126.308,2126.866,0.1687121540308,44.9952011108398,359.931060791016,-1.09962642192841,-0.473039656877518,0.671941995620728,-1.10193535162022,-0.474131997292339,0.673155110942729,0
2.55999755859375,-1.59674620628357,2.2788450717926,2.11892175674438,-1.59612191359838,2.27904971150017,2.11839285467467,2130.675,2127.825,2117.445,2122.529,0.251270830631256,44.9947624206543,359.899322509766,-1.0990514755249,-0.472798317670822,0.671762585639954,-1.10123038958312,-0.473828671822132,0.672724460634977,0
2.57998657226563,-1.61871039867401,2.26939630508423,2.13234210014343,-1.61812503288753,2.26958238396605,2.1318342168965,2117.61,2121.149,2124.839,2126.46,0.333759248256683,44.9950981140137,359.865356445313,-1.09820258617401,-0.472434967756271,0.671013474464417,-1.1002439936861,-0.473404253224357,0.672121886773894,0
2.60000610351563,-1.64065182209015,2.2599573135376,2.14574933052063,-1.64013916343638,2.26011031859448,2.14528230572506,2120.103,2121.044,2121.375,2121.15,0.418332636356354,44.9951972961426,359.831329345703,-1.0970721244812,-0.471954345703125,0.670365750789642,-1.09897439291323,-0.472857979480329,0.671346307473476,0
2.6199951171875,-1.66256475448608,2.25053024291992,2.15914297103882,-1.66209156852628,2.2506648119635,2.15869268743396,2125.088,2122.178,2112.14,2116.837,0.501270711421967,44.9947624206543,359.799560546875,-1.09565579891205,-0.471351861953735,0.66967761516571,-1.09742594550583,-0.472191725819537,0.67040038511534,0
2.6400146484375,-1.68444418907166,2.24111771583557,2.17251133918762,-1.68404365734903,2.24121944141343,2.17210287594018,2112.356,2115.728,2119.003,2120.812,0.584116280078888,44.9950790405273,359.765655517578,-1.09396755695343,-0.470627963542938,0.668423712253571,-1.09559452046326,-0.471403714787811,0.669281596135657,0
2.66000366210938,-1.7062840461731,2.23172187805176,2.18585920333862,-1.70592290617745,2.23180541187802,2.18546856763052,2120.684,2117.848,2109.93,2113.372,0.666220247745514,44.9947891235352,359.733642578125,-1.09199607372284,-0.469785332679749,0.667394161224365,-1.09348640563071,-0.470496651869278,0.667993781680938,0
2.67999267578125,-1.72807908058167,2.22234559059143,2.1991753578186,-1.72775723139253,2.2224107117184,2.19880681618649,2108.198,2112.155,2116.362,2116.868,0.749090135097504,44.9951782226563,359.699615478516,-1.08975601196289,-0.468824744224548,0.665813744068146,-1.09109983431736,-0.469469776906228,0.666535862507326,0
2.70001220703125,-1.74982404708862,2.21299076080322,2.21246194839478,-1.74957429229274,2.21302343991116,2.21213451824191,2111.454,2112.06,2111.955,2111.815,0.834120512008667,44.9952392578125,359.665679931641,-1.08723390102386,-0.467746168375015,0.664333820343018,-1.08843144721369,-0.468321644481621,0.664905786465049,0
2.72000122070313,-1.77151250839233,2.20365977287292,2.22571778297424,-1.77130202882336,2.20367460188472,2.22540765343382,2116.487,2113.133,2102.589,2107.743,0.91715282201767,44.9947509765625,359.634063720703,-1.08442676067352,-0.466545134782791,0.662794589996338,-1.08549040888332,-0.467056197851165,0.663109152043028,0
2.739990234375,-1.79313969612122,2.19435524940491,2.23893165588379,-1.79296822271738,2.1943522439355,2.23864319318939,2104.027,2106.999,2109.132,2111.675,0.999558508396149,44.9950294494629,359.600463867188,-1.08135294914246,-0.465224385261536,0.660696864128113,-1.08227399942825,-0.465672266718727,0.661144297698006,0
2.760009765625,-1.81469964981079,2.18507957458496,2.25210523605347,-1.81460030360772,2.18504456385877,2.25185789384333,2106.406,2106.757,2105.925,2106.637,1.08316338062286,44.9951095581055,359.56689453125,-1.07799983024597,-0.463786095380783,0.658677577972412,-1.07877792518082,-0.464168003639063,0.659008600495412,0
2.77999877929688,-1.83618664741516,2.17583465576172,2.26523733139038,-1.83612684690458,2.17578229366013,2.2650081232283,2110.964,2107.77,2097.579,2102.396,1.16454839706421,44.9947052001953,359.535614013672,-1.07436668872833,-0.462228298187256,0.656609177589417,-1.07501419914593,-0.462548577472581,0.656709398992482,0
2.79998779296875,-1.85759627819061,2.16662406921387,2.27831745147705,-1.85757544288233,2.1665535620153,2.27811073581237,2098.403,2101.773,2104.456,2106.26,1.24557757377625,44.9950637817383,359.502410888672,-1.07047426700592,-0.460555016994476,0.654003739356995,-1.07097916161324,-0.460812413548163,0.654244457529281,0
2.82000732421875,-1.87892258167267,2.15744829177856,2.29134726524353,-1.87897323600723,2.1573466894188,2.29118231372639,2101.049,2101.351,2101.15,2101.453,1.32810652256012,44.9951705932617,359.469177246094,-1.06630682945251,-0.458766549825668,0.65149050951004,-1.06666760390385,-0.458957270716794,0.65161059420515,0
2.83999633789063,-1.90015983581543,2.14831137657166,2.3043258190155,-1.90024960698239,2.14819206138118,2.30417971674389,2105.591,2102.674,2092.845,2097.041,1.40867757797241,44.9947929382324,359.438354492188,-1.06186366081238,-0.456860691308975,0.648927271366119,-1.06209435025759,-0.456989527434725,0.648816864916866,0
2.8599853515625,-1.92130315303802,2.13921451568604,2.31724286079407,-1.92143189875059,2.13907791299805,2.31711964824194,2093.746,2096.59,2099.006,2101.188,1.4888608455658,44.9951171875,359.405548095703,-1.05716669559479,-0.45484134554863,0.645847856998444,-1.05725481901126,-0.454907212340279,0.645860470797877,0
2.8800048828125,-1.94234704971313,2.13016033172607,2.3300998210907,-1.94254691640495,2.12999271078668,2.33001848303364,2096.246,2096.606,2095.765,2096.133,1.57025754451752,44.9952163696289,359.372955322266,-1.05219829082489,-0.452708125114441,0.642843842506409,-1.0521429102862,-0.45270770082608,0.642737685527497,0
2.89999389648438,-1.96328628063202,2.12115120887756,2.34289574623108,-1.96352501326936,2.1209664217661,2.34283367505136,2100.879,2097.506,2087.574,2092.146,1.64939761161804,44.9948196411133,359.342651367188,-1.04695916175842,-0.450459003448486,0.639792323112488,-1.04677621342161,-0.450398561093403,0.639459254158576,0
2.92001342773438,-1.98411571979523,2.11218929290771,2.35562038421631,-1.98442500350686,2.11197373984504,2.35560115294953,2088.918,2091.791,2093.896,2096.109,1.72795653343201,44.9951553344727,359.310485839844,-1.04147350788116,-0.448099702596664,0.636227667331696,-1.04114045847258,-0.4479736531836,0.636016459404434,0
2.94000244140625,-2.0048303604126,2.10327672958374,2.36827754974365,-2.00517798053537,2.10304431360073,2.36827882277243,2096.792,2093.647,2085.938,2089.018,1.80523502826691,44.9949264526367,359.280303955078,-1.03571856021881,-0.44562754034996,0.632860362529755,-1.03525504859546,-0.445441325732794,0.632421154350513,0
2.95999145507813,-2.02542471885681,2.09441566467285,2.38085746765137,-2.02581075424974,2.0941666074844,2.38088306226645,2085.17,2088.658,2091.772,2092.564,1.8828626871109,44.9953269958496,359.248474121094,-1.02972292900085,-0.443049758672714,0.628999650478363,-1.02911391720548,-0.442798968459032,0.628669633014836,0
2.98001098632813,-2.04589366912842,2.08560848236084,2.39336204528809,-2.04634944795115,2.08532938136936,2.39342982974865,2088.445,2088.677,2087.821,2087.761,1.96195089817047,44.9954071044922,359.217010498047,-1.02346420288086,-0.44036203622818,0.625228822231293,-1.02270954399162,-0.440043345582586,0.624757301356766,0
3,-2.06623268127441,2.07685732841492,2.40579009056091,-2.06672639957428,2.07656174835205,2.40587779151916,2093.255,2089.52,2079.446,2084.107,2.0386426448822,44.994987487793,359.187866210938,-1.01694452762604,-0.437561869621277,0.621402740478516,-1.01606400046349,-0.437183953857422,0.620697642517089,0
3.01998901367188,-2.08643627166748,2.06816387176514,2.41813158988953,-2.0869680292999,2.06785234056679,2.41824308725414,2081.772,2084.113,2085.307,2088.11,2.11432266235352,44.9952735900879,359.157012939453,-1.01019072532654,-0.434656292200089,0.617076694965363,-1.00917036754089,-0.434217816196637,0.616486429737696,0
3.04000854492188,-2.10650014877319,2.05953121185303,2.4303879737854,-2.10709998486405,2.05919012250926,2.43054138475531,2084.199,2084.142,2082.51,2083.257,2.1904878616333,44.9953651428223,359.126525878906,-1.0031818151474,-0.431643456220627,0.612819731235504,-1.00202031904361,-0.431141350077486,0.612118576685011,0
3.05999755859375,-2.12641859054565,2.05096077919006,2.44255828857422,-2.12705600675913,2.05060360379452,2.44273220712343,2088.331,2084.71,2075.347,2079.74,2.26408553123474,44.9950294494629,359.09814453125,-0.995921671390533,-0.428523033857346,0.608514487743378,-0.994638524886308,-0.427965170275055,0.607609153824944,0
3.07998657226563,-2.14618730545044,2.04245471954346,2.4546332359314,-2.14686207530873,2.04208160581513,2.45483142533277,2077.131,2079.8,2081.298,2083.281,2.33691000938416,44.9953765869141,359.068328857422,-0.98843777179718,-0.425303190946579,0.603743970394135,-0.987017247723776,-0.424685947625853,0.602953434534038,0
3.10000610351563,-2.16580152511597,2.03401517868042,2.46661424636841,-2.16654331551667,2.03361331798384,2.46685438785611,2079.635,2079.628,2078.527,2078.797,2.41046571731567,44.9955215454102,359.038818359375,-0.980707824230194,-0.421980410814285,0.599049508571625,-0.979147395688901,-0.421299770153459,0.598145864732551,0
3.1199951171875,-2.1852560043335,2.02564406394958,2.47850060462952,-2.18603502400946,2.02522658035469,2.47876156841225,2083.882,2080.387,2071.356,2075.243,2.48165845870972,44.9952011108398,359.011505126953,-0.972735643386841,-0.418554127216339,0.594312906265259,-0.971056158224178,-0.417818336715394,0.593203054026623,0
3.1400146484375,-2.20454716682434,2.01734328269958,2.49028325080872,-2.20539207344272,2.01689778275692,2.49058648785022,2073.267,2075.623,2076.77,2078.863,2.55202317237854,44.9955215454102,358.982849121094,-0.964549362659454,-0.415032207965851,0.589128851890564,-0.962722140342815,-0.41423244164655,0.588111932552684,0
3.16000366210938,-2.2236692905426,2.00911569595337,2.50196552276611,-2.22455088103183,2.00865428308644,2.50229030443911,2080.442,2077.058,2069.86,2072.64,2.620765209198,44.9953308105469,358.956024169922,-0.956121683120728,-0.411408811807632,0.584112405776978,-0.954174163352092,-0.410554485950274,0.582890106797601,0
3.17999267578125,-2.24261903762817,2.00096154212952,2.51353907585144,-2.24353658854737,2.00048526354177,2.51388837689424,2070.398,2072.899,2074.666,2075.903,2.68927955627441,44.9956855773926,358.927978515625,-0.94748717546463,-0.407694429159164,0.57867306470871,-0.945403214201559,-0.406780591562751,0.577532070829503,0
3.20001220703125,-2.26139140129089,1.99288392066956,2.52500510215759,-2.26237335188561,1.99238033051557,2.52539546167567,2073.053,2072.977,2071.577,2071.66,2.75849914550781,44.9957885742188,358.900451660156,-0.938621759414673,-0.403883516788483,0.573297321796417,-0.93639902618694,-0.402906341007952,0.572031552878955,0
3.22000122070313,-2.27998232841492,1.98488426208496,2.53636264801025,-2.28099938900442,1.98436606709459,2.53677381709797,2077.494,2073.587,2064.406,2068.487,2.82510733604431,44.9954376220703,358.875091552734,-0.929529786109924,-0.399975150823593,0.567880988121033,-0.927192788821982,-0.398945154262308,0.566407606133204,0
3.239990234375,-2.29838705062866,1.97696471214294,2.54760336875916,-2.2994392795179,1.97643189735754,2.54803845846384,2067.383,2069.171,2069.495,2072.075,2.89041900634766,44.995719909668,358.848510742188,-0.92024165391922,-0.395978450775146,0.562035501003265,-0.917774783907129,-0.394892849856044,0.560654293895788,0
3.260009765625,-2.31660175323486,1.96912693977356,2.55872845649719,-2.31771654397337,1.96856770107001,2.5592037541086,2069.811,2069.093,2067.032,2067.946,2.95559096336365,44.9958114624023,358.822418212891,-0.910733819007874,-0.391889333724976,0.556253671646118,-0.908134108040216,-0.390744736359816,0.55476495544847,0
3.27999877929688,-2.33462190628052,1.96137285232544,2.56973695755005,-2.33577134012187,1.96079922667992,2.57023314733618,2073.378,2069.754,2061.066,2064.78,3.01796555519104,44.9955520629883,358.798400878906,-0.901013135910034,-0.387709259986877,0.550426781177521,-0.898304216251578,-0.386515208538549,0.548760027947228,0
3.29998779296875,-2.35244417190552,1.95370364189148,2.58062124252319,-2.35362764460945,1.95311615770631,2.58114128510551,2063.733,2065.575,2066.145,2068.144,3.07917928695679,44.9958801269531,358.773345947266,-0.891109228134155,-0.383447527885437,0.544209539890289,-0.888274735793772,-0.382199803288803,0.542633174842512,0
3.32000732421875,-2.37006425857544,1.94612193107605,2.59138226509094,-2.37130830610839,1.94550866300381,2.59194212531393,2065.957,2065.495,2063.955,2064.271,3.14047288894653,44.9960250854492,358.748809814453,-0.880998969078064,-0.379099458456039,0.538056790828705,-0.878034183119985,-0.377793579561194,0.536377381014769,0
3.33999633789063,-2.38747811317444,1.93862855434418,2.60201978683472,-2.38875555478454,1.93800159931817,2.60260037727124,2069.821,2066.074,2057.911,2061.32,3.19917798042297,44.9957733154297,358.726257324219,-0.870688199996948,-0.3746657371521,0.531875133514404,-0.867618167158097,-0.373311858882592,0.530014399402376,0
3.3599853515625,-2.40468215942383,1.93122553825378,2.61252617835999,-2.40599272667425,1.93058492580486,2.6131302965979,2060.693,2062.33,2062.55,2064.496,3.25667095184326,44.9960746765137,358.702819824219,-0.860206961631775,-0.370155900716782,0.525319039821625,-0.857015715678588,-0.368749920209162,0.523537527241535,0
3.3800048828125,-2.42167282104492,1.92391419410706,2.62290263175964,-2.42304196557559,1.92324911460621,2.6235454105946,2063.096,2062.205,2060.243,2060.893,3.31392407417297,44.9961814880371,358.679931640625,-0.849531948566437,-0.365564703941345,0.518826723098755,-0.846214826007803,-0.364102599125748,0.516939432286212,0
3.39999389648438,-2.43844628334045,1.91669631004333,2.63314867019653,-2.43984769972619,1.91601807669906,2.63381177133889,2066.536,2062.879,2054.742,2058.052,3.36840152740479,44.9959487915039,358.659088134766,-0.838670670986176,-0.360893845558167,0.512298047542572,-0.835253140422974,-0.35938609205264,0.510243109616171,0
3.42001342773438,-2.45499897003174,1.9095733165741,2.64325714111328,-2.45645774020782,1.90887124031063,2.64395858587455,2057.951,2059.216,2059.183,2061.22,3.42148065567017,44.9962463378906,358.637420654297,-0.82765257358551,-0.356152802705765,0.505421936511993,-0.824102019042908,-0.354588076049064,0.503431063574906,0
3.44000244140625,-2.4713282585144,1.90254664421082,2.65323090553284,-2.47281804716281,1.90183185728196,2.6539528420958,2063.977,2060.446,2053.878,2056.109,3.47244143486023,44.9961280822754,358.617584228516,-0.816450834274292,-0.351334691047668,0.498685151338577,-0.812800388649434,-0.349725300221754,0.496527073925997,0
3.45999145507813,-2.48743009567261,1.89561748504639,2.66306328773499,-2.48895081463434,1.8948903781363,2.66380809799729,2055.714,2057.282,2057.969,2059.061,3.52260708808899,44.9964561462402,358.596984863281,-0.805102586746216,-0.346452116966248,0.491619735956192,-0.80133641229185,-0.344792671461508,0.489523909660973,0
3.48001098632813,-2.50330209732056,1.88878750801086,2.6727557182312,-2.50487694859767,1.88803780761656,2.67353712471306,2058.413,2057.455,2055.409,2055.641,3.57257413864136,44.9965553283691,358.577178955078,-0.793584167957306,-0.341498583555222,0.484624058008194,-0.789697369743255,-0.339784716610052,0.482413800191712,0
3.5,-2.51893997192383,1.88205814361572,2.68230772018433,-2.5205447997813,1.88129636896134,2.68310837050915,2061.808,2057.93,2050.13,2053.378,3.61971640586853,44.9963188171387,358.559265136719,-0.78190416097641,-0.33647546172142,0.477594643831253,-0.777924000354857,-0.334718964672089,0.475221632552147,0
3.51998901367188,-2.53434181213379,1.87543034553528,2.69171285629272,-2.53597583877076,1.87465682397749,2.69253495143119,2054.283,2054.869,2053.901,2056.198,3.66504669189453,44.9965515136719,358.540832519531,-0.77009105682373,-0.331392139196396,0.470254063606262,-0.766004036374581,-0.329590137176618,0.467939912563966,0
3.54000854492188,-2.54950451850891,1.86890518665314,2.70097208023071,-2.55119019794619,1.86811051026429,2.70182916603607,2056.125,2054.802,2052.326,2053.244,3.70939421653748,44.9966659545898,358.523040771484,-0.75812554359436,-0.326244711875916,0.462962031364441,-0.753924423002452,-0.324392617007921,0.460560665253582,0
3.55999755859375,-2.56442451477051,1.86248469352722,2.71008491516113,-2.56613872308604,1.86167857751006,2.71096098677687,2058.981,2055.427,2048.072,2050.852,3.75080704689026,44.9965133666992,358.507202148438,-0.746015846729279,-0.321035861968994,0.455647885799408,-0.741727567798258,-0.319144650954242,0.45310979673751,0
3.57998657226563,-2.57910060882568,1.85616898536682,2.71904611587524,-2.58084213759183,1.85535210901407,2.7199430732562,2051.961,2052.481,2051.814,2053.605,3.79052066802979,44.9967842102051,358.490905761719,-0.73378974199295,-0.315774917602539,0.448059946298599,-0.72940084364523,-0.31384080592,0.445579593307163,0
3.60000610351563,-2.59352898597717,1.84996008872986,2.72785663604736,-2.59531978247425,1.84912278287974,2.72878724059568,2053.67,2052.515,2050.45,2050.867,3.82941389083862,44.9969367980957,358.475280761719,-0.721429109573364,-0.310457855463028,0.440525144338608,-0.716930938559024,-0.308475354130224,0.437961922879033,0
3.6199951171875,-2.60770797729492,1.84385824203491,2.73651623725891,-2.60952509409627,1.84301063413925,2.73746504379605,2056.849,2053.119,2046.107,2048.679,3.86548590660095,44.9967765808105,358.461547851563,-0.708941161632538,-0.305086612701416,0.432985693216324,-0.704361775018033,-0.303067194200314,0.43028361700977,0
3.6400146484375,-2.62163496017456,1.83786487579346,2.74501991271973,-2.62349913748426,1.83699799365897,2.74600156884113,2050.115,2050.544,2049.679,2051.341,3.89980244636536,44.9970474243164,358.447509765625,-0.696354150772095,-0.299670666456223,0.425184488296509,-0.691660998977508,-0.297602405088683,0.422524911118315,0
3.66000366210938,-2.63530778884888,1.83198094367981,2.7533700466156,-2.63719712493647,1.83110413233575,2.75436945562281,2055.084,2051.509,2045.697,2047.528,3.93173360824585,44.9969825744629,358.435150146484,-0.683645904064178,-0.294203966856003,0.417505234479904,-0.678873453515702,-0.29210028151913,0.414713199141411,0
3.67999267578125,-2.64872455596924,1.82620692253113,2.76156187057495,-2.65063849381582,1.82532068681534,2.76258057812278,2048.99,2049.382,2048.795,2049.891,3.96222639083862,44.9972686767578,358.422576904297,-0.670849919319153,-0.288698494434357,0.409591555595398,-0.665986083416798,-0.286555206197011,0.406840505851433,0
3.70001220703125,-2.66188383102417,1.82054376602173,2.76959657669067,-2.66384123964357,1.81963991412768,2.77064592952416,2051.126,2049.597,2047.1,2047.49,3.99169182777405,44.9973831176758,358.410919189453,-0.657949030399323,-0.283149480819702,0.401739835739136,-0.65298533214413,-0.280961346123326,0.398898549771683,0
