t,x_s1,x_s2,x_s3,x_s_d1,x_s_d2,x_s_d3,propellers_rpms1,propellers_rpms2,propellers_rpms3,propellers_rpms4,rollRad,pitchRad,yawRad,v_s1,v_s2,v_s3,v_s_d1,v_s_d2,v_s_d3,insideCount
0,-0.0599999986588955,2.94000005722046,1.17999994754791,-0.0599999986588955,2.94000005722046,1.17999994754791,0,0,0,0,0,45.0048027038574,0,0,0,0,-1.06581410364015E-15,4.44089209850063E-16,-7.105427357601E-16,0
0.02001953125,-0.0599999986588955,2.94000005722046,1.17705690860748,-0.0600018744611685,2.93999925011514,1.18000109344625,0,0,0,0,0.937003672122955,44.8630027770996,-0.00115976633969694,3.71994488546079E-08,3.50004931704007E-08,-0.147149950265884,-0.000280531511337879,-0.000120704872184653,0.000171372322667033,5
0.040008544921875,-0.0599999986588955,2.94000005722046,1.17018985748291,-0.060014880898484,2.93999365380853,1.18000903887584,0,0,0,0,1.87400352954865,44.7211418151855,-0.00311126722954214,3.70364325874561E-08,3.5142885934647E-08,-0.343349903821945,-0.00111143977225461,-0.000478221483967637,0.000678961213193342,6
0.05999755859375,-0.0599062293767929,2.94009447097778,1.16346490383148,-0.0600498857373401,2.93997859220429,1.18003042278566,3197.055,2848.577,1517.557,2782.436,1.40377748012543,44.7413711547852,0.0287760011851788,0.00468848180025816,0.00471865246072412,-0.336246997117996,-0.00247936261166862,-0.00106680046642749,0.00151460392977639,6
0.08001708984375,-0.0597377717494965,2.94026732444763,1.15723729133606,-0.0601176241590912,2.9399494462538,1.18007180313047,2865.695,2651.763,2344.598,2562.151,0.340079486370087,44.8158378601074,0.0996070802211761,0.00842283293604851,0.00864462181925774,-0.311380505561829,-0.00437432711648753,-0.0018821507536715,0.0026722081754323,6
0.100006103515625,-0.0595562346279621,2.94046425819397,1.15151965618134,-0.0602282404704493,2.93990185114529,1.18013937690895,2240.613,2528.421,3137.222,2508.336,359.322052001953,44.919059753418,0.178504914045334,0.00907692406326532,0.00984971318393946,-0.285880416631699,-0.00677739276378709,-0.00291612276782231,0.00414020348026766,5
0.1199951171875,-0.059424240142107,2.94063234329224,1.14656901359558,-0.0603918861403606,2.93983143898525,1.18023934549506,2123.469,2454.617,3351.948,2464.742,358.750274658203,44.9998588562012,0.253258764743805,0.00659974943846464,0.00840045046061277,-0.247534602880478,-0.00967801353495435,-0.00416417885169243,0.00591214744607921,5
0.1400146484375,-0.0593827106058598,2.94074034690857,1.14257049560547,-0.0606187761383957,2.93973381455767,1.18037794905431,2312.11,2456.558,3069.346,2463.374,358.636383056641,45.032657623291,0.326257407665253,0.00207654712721705,0.00540162343531847,-0.199924275279045,-0.0130687916036232,-0.00562313592726786,0.00798352085618068,5
0.160003662109375,-0.059442937374115,2.94078588485718,1.13952445983887,-0.0609177895434042,2.93960515744296,1.18056061167741,2537.177,2487.052,2634.917,2491.605,358.757019042969,45.0249633789063,0.398278146982193,-0.00301136495545506,0.00228246464394033,-0.152299135923386,-0.0169265510445065,-0.00728302204135792,0.0103401658994673,5
0.17999267578125,-0.0595995113253593,2.94078207015991,1.13730907440186,-0.0612985250199726,2.93944133760391,1.18079319703879,2665.876,2505.781,2303.06,2513.553,358.864135742188,44.9985656738281,0.467363446950912,-0.00782861188054085,-0.000194068066775799,-0.110769867897034,-0.0212433804254414,-0.00914043312572283,0.0129772496054864,5
0.20001220703125,-0.0598469376564026,2.94074034690857,1.13576078414917,-0.0617708265342762,2.93923811945689,1.18108171866376,2653.398,2500.033,2183.604,2508.563,358.817047119141,44.974422454834,0.532779395580292,-0.012371295131743,-0.00208823569118977,-0.0774130672216415,-0.0260142813927851,-0.0111932185284278,0.0158917185579952,5
0.220001220703125,-0.0601887404918671,2.94066286087036,1.13474559783936,-0.0623420644491781,2.93899233174064,1.18143067899198,2541.169,2470.922,2244.888,2478.566,358.612457275391,44.9636497497559,0.594670712947845,-0.0170900784432888,-0.00387869682163,-0.050760991871357,-0.03121219533433,-0.0134297356845702,0.0190670430730375,5
0.239990234375,-0.0606378614902496,2.94054222106934,1.13419342041016,-0.0630214373585105,2.93870001655724,1.18184569730089,2411.124,2429.375,2374.619,2437.757,358.334533691406,44.9659233093262,0.652658641338348,-0.022456044331193,-0.00602870061993599,-0.0276098698377609,-0.0368316683029241,-0.015847637913056,0.0224998914194052,5
0.260009765625,-0.0612121038138866,2.9403669834137,1.13409042358398,-0.0638185570309634,2.93835703823113,1.18233264526998,2329.477,2391.932,2462.874,2398.51,358.076416015625,44.9739151000977,0.707664728164673,-0.0287121534347534,-0.00876603368669748,-0.00514833815395832,-0.0428699302682246,-0.0184457333472145,0.0261885714287875,4
0.279998779296875,-0.0619285330176353,2.94012594223022,1.13444101810455,-0.0647390625194898,2.93796097043536,1.18289496770872,2306.74,2365.541,2469.068,2370.289,357.887054443359,44.9802780151367,0.760700762271881,-0.0358214862644672,-0.0120546044781804,0.0175309609621763,-0.0492963837173861,-0.0212108567320638,0.0301143915580518,4
0.300018310546875,-0.0627999529242516,2.93981194496155,1.13523638248444,-0.0657936070281142,2.93750722939386,1.18353917249319,2316.615,2347.857,2416.36,2353.946,357.764862060547,44.9818077087402,0.811321794986725,-0.0435711517930031,-0.0157038029283285,0.0397687181830406,-0.0561185469977389,-0.0241462430024218,0.0342819446482607,4
0.32000732421875,-0.0638346970081329,2.93942141532898,1.13644969463348,-0.0669865614821475,2.93699393441958,1.18426792975347,2335.718,2336.91,2341.912,2341.22,357.67822265625,44.9788093566895,0.860283434391022,-0.0517371147871017,-0.0195224732160568,0.0606675520539284,-0.0633036493784043,-0.0272377918282996,0.0386712115712976,4
0.339996337890625,-0.0650382712483406,2.9389533996582,1.13803625106812,-0.068326768706371,2.93641728069206,1.18508664143323,2336.813,2324.289,2287.685,2330.514,357.593872070313,44.9741821289063,0.906656205654144,-0.060178741812706,-0.0234022997319698,0.0793250426650047,-0.0708499516420146,-0.0304847548730522,0.0432811298664125,4
0.360015869140625,-0.0664157718420029,2.93840646743774,1.1399507522583,-0.0698237345322385,2.93577317811757,1.18600111449656,2322,2310.478,2262.239,2315.855,357.494384765625,44.9703521728516,0.950702369213104,-0.0688749104738235,-0.0273419544100761,0.0957222729921341,-0.0787580297418618,-0.0338873799532906,0.048112051374484,4
0.3800048828125,-0.0679730847477913,2.93777871131897,1.14215457439423,-0.0714797725314022,2.93506063123087,1.18701276226829,2296.797,2295.029,2259.599,2298.989,357.379638671875,44.9685134887695,0.992972791194916,-0.0778658241033554,-0.0313909165561199,0.110191568732262,-0.0869921272359981,-0.0374302820709642,0.0531421330430943,4
0.399993896484375,-0.0697170421481133,2.93706679344177,1.14461743831635,-0.0733036822025899,2.9342758538535,1.18812696022487,2267.632,2277.261,2269.207,2283.511,357.261352539063,44.9687690734863,1.03247916698456,-0.087197870016098,-0.0355984047055244,0.123142205178738,-0.0955525119207663,-0.0411135764513579,0.0583715384648505,4
0.420013427734375,-0.0716549381613731,2.93626689910889,1.1473206281662,-0.0753050585276311,2.93341471753282,1.18934956979097,2248.766,2262.798,2271.446,2267.645,357.152038574219,44.9699401855469,1.06987321376801,-0.0968947559595108,-0.0399900376796722,0.135159149765968,-0.104441553474511,-0.0449382827008623,0.0638017152392751,4
0.44000244140625,-0.0737935975193977,2.93537592887878,1.15024900436401,-0.077483988232608,2.93247718495301,1.19068064394622,2239.316,2251.303,2261.999,2254.426,357.056854248047,44.9709739685059,1.10594272613525,-0.106933072209358,-0.0445502102375031,0.146419614553452,-0.113620829717891,-0.048887868829098,0.0694091918565748,4
0.459991455078125,-0.0761388689279556,2.93439102172852,1.15338456630707,-0.0798493430620752,2.93145943885026,1.1921256023009,2230.972,2239.753,2249.69,2245.554,356.975341796875,44.9717025756836,1.13955128192902,-0.117263473570347,-0.0492414832115173,0.156780987977982,-0.123092454730403,-0.0529632444654124,0.0751952597749251,4
0.480010986328125,-0.0786958262324333,2.93331027030945,1.15671181678772,-0.0824109101018722,2.93035726811493,1.19369042363305,2227.629,2231.732,2233.083,2236.046,356.903564453125,44.9719467163086,1.17134463787079,-0.12784805893898,-0.054036907851696,0.166361406445503,-0.132860437136906,-0.0571661344090936,0.0811623678006979,4
0.5,-0.0814688801765442,2.93213200569153,1.16021406650543,-0.085166398670376,2.92917165836334,1.195373708601,2224.071,2225.006,2217.741,2227.56,356.835754394531,44.9719314575195,1.20206260681152,-0.138652831315994,-0.0589143261313438,0.175111964344978,-0.142884000065179,-0.0614789935111996,0.0872856059789651,5
0.52001953125,-0.084462009370327,2.93085479736328,1.16387236118317,-0.0881295333471192,2.92789670429234,1.19718384133622,2213.708,2216.045,2212.523,2221.656,356.769714355469,44.972339630127,1.23036205768585,-0.149656429886818,-0.0638628453016281,0.182913810014725,-0.153182839569029,-0.0659102964334391,0.0935770063216458,5
0.540008544921875,-0.0876793414354324,2.92947697639465,1.16767513751984,-0.0912963635428427,2.92653410573011,1.19911840848537,2208.516,2210.654,2205.969,2213.078,356.705413818359,44.9729118347168,1.25761640071869,-0.160866692662239,-0.0688923746347427,0.190139621496201,-0.163714777034477,-0.0704418948965508,0.100010802571645,5
0.55999755859375,-0.0911247059702873,2.92799711227417,1.17160844802856,-0.094676112580471,2.92507989413848,1.20118304443252,2197.992,2202.817,2206.396,2208.175,356.644622802734,44.9740180969238,1.28255295753479,-0.172268211841583,-0.073997475206852,0.196664661169052,-0.17448465888317,-0.0750758741803766,0.106589955332319,5
0.58001708984375,-0.0948019921779633,2.92641353607178,1.17566502094269,-0.0982790918331175,2.92352963282165,1.20338404823457,2193.603,2198.078,2202.965,2201.688,356.589477539063,44.9752044677734,1.30594348907471,-0.183864265680313,-0.0791829526424408,0.202825888991356,-0.185498893714783,-0.0798149917263209,0.113318379517207,5
0.600006103515625,-0.0987147688865662,2.924724817276,1.17983829975128,-0.102098762959148,2.92188613504538,1.20571742572067,2192.03,2194.858,2196.401,2196.379,356.539154052734,44.9762268066406,1.32869446277618,-0.195638447999954,-0.0844393596053123,0.208662554621696,-0.196713446836865,-0.0846403006364086,0.120169175019836,5
0.6199951171875,-0.102866098284721,2.92292976379395,1.18411862850189,-0.106144683970236,2.92014528826426,1.208189015731,2185.604,2189.249,2195.733,2194.474,356.493560791016,44.9774627685547,1.34920108318329,-0.207567036151886,-0.0897518172860146,0.214015319943428,-0.208134604141382,-0.0895545055543457,0.127146181793521,5
0.6400146484375,-0.107259079813957,2.92102742195129,1.18850207328796,-0.110427588881679,2.91830247393137,1.21080537550798,2184.684,2187.039,2191.507,2190.317,356.452819824219,44.9785842895508,1.36831426620483,-0.219649165868759,-0.0951214358210564,0.219173699617386,-0.21977002223474,-0.0945609009039674,0.134254077139634,5
0.660003662109375,-0.111896455287933,2.91901659965515,1.19298481941223,-0.114938248900541,2.91636166293851,1.21356086732604,2185.271,2185.987,2185.636,2187.02,356.414855957031,44.9795150756836,1.38699889183044,-0.231868922710419,-0.100539416074753,0.224138036370277,-0.231574097577923,-0.0996398647564507,0.141465002567821,5
0.67999267578125,-0.11678059399128,2.91689658164978,1.19755935668945,-0.119686638739014,2.91431856344567,1.2164615845812,2179.428,2181.878,2187.713,2186.943,356.379608154297,44.9807472229004,1.40350162982941,-0.244206994771957,-0.105995051562786,0.228726908564568,-0.243554411173546,-0.104794659005432,0.14878358919428,5
0.70001220703125,-0.121914014220238,2.91466665267944,1.20222473144531,-0.124683985757554,2.91216834463331,1.21951438589277,2179.328,2181.16,2186.196,2184.127,356.348052978516,44.9819412231445,1.41873896121979,-0.256671190261841,-0.111495845019817,0.233270898461342,-0.255719729227087,-0.11002905550423,0.156215192157144,5
0.720001220703125,-0.12729899585247,2.91232585906982,1.20698022842407,-0.129918284978346,2.90991617190799,1.22271193760712,2181.04,2181.554,2182.342,2182.074,356.318786621094,44.9829483032227,1.43376696109772,-0.269249320030212,-0.117035761475563,0.237772822380066,-0.268023157655716,-0.11532287703907,0.163731164592979,5
0.739990234375,-0.132937431335449,2.90987372398376,1.21182072162628,-0.135400001298574,2.90755754251682,1.22606063256665,2176.091,2178.488,2186.245,2183.452,356.292236328125,44.984245300293,1.44665539264679,-0.281922101974487,-0.122603937983513,0.242025703191757,-0.280473432677602,-0.12067988256057,0.171336843321139,5
0.760009765625,-0.138831406831741,2.90730953216553,1.21674811840057,-0.141140917956636,2.9050873864615,1.22956766896782,2177.553,2179.063,2185.439,2181.774,356.26953125,44.9854469299316,1.45839285850525,-0.294698745012283,-0.128208205103874,0.246369406580925,-0.293080296154222,-0.126104263719567,0.179038179492781,5
0.779998779296875,-0.14498271048069,2.90463280677795,1.22176373004913,-0.147126184485884,2.90251209348295,1.2332239748923,2180.807,2180.742,2181.813,2180.778,356.248870849609,44.9863739013672,1.47013247013092,-0.307565331459045,-0.133841320872307,0.250778913497925,-0.305795832832518,-0.131575403921268,0.186805902427515,5
0.800018310546875,-0.151392728090286,2.90184307098389,1.22686398029327,-0.153376545303595,2.89982273783796,1.23704222278088,2176.622,2178.452,2186.553,2183.38,356.230499267578,44.9875793457031,1.4797488451004,-0.320501178503036,-0.139491349458694,0.255010277032852,-0.318649478366155,-0.137105968505107,0.194657993906831,5
0.82000732421875,-0.158063188195229,2.89893960952759,1.23205375671387,-0.159875221826383,2.89702653888221,1.24101216285881,2181.686,2181.409,2183.338,2181.546,356.214263916016,44.9884872436523,1.48932635784149,-0.33352267742157,-0.145169749855995,0.259487688541412,-0.331592781842754,-0.14267511039705,0.202564856024417,5
0.839996337890625,-0.164995148777962,2.89592242240906,1.23733019828796,-0.166633637018892,2.89411858163313,1.24514077323692,2177.713,2179.733,2188.693,2184.454,356.200500488281,44.9896659851074,1.49686980247498,-0.346599251031876,-0.150860533118248,0.263823598623276,-0.344636106234817,-0.148287288494656,0.210532819358465,5
0.860015869140625,-0.172190025448799,2.89279103279114,1.24269783496857,-0.173664618315387,2.89109334680413,1.24943588999465,2180.834,2181.729,2188.432,2183.938,356.190216064453,44.9906730651855,1.50348043441772,-0.359743654727936,-0.156572878360748,0.268384397029877,-0.357790534090669,-0.153947271308859,0.218568654064807,5
0.8800048828125,-0.179648846387863,2.88954496383667,1.24816012382507,-0.180948461186242,2.88795931270381,1.25388547594233,2185.523,2184.675,2185.107,2184.01,356.181182861328,44.9913597106934,1.51039719581604,-0.37294128537178,-0.162298947572708,0.273113399744034,-0.371007022483504,-0.159633957038354,0.226642400584755,5
0.899993896484375,-0.187372267246246,2.88618445396423,1.2537145614624,-0.18849723509595,2.8847112861788,1.25849690412748,2181.534,2182.992,2191.286,2187.808,356.173736572266,44.9923820495605,1.51523470878601,-0.386170625686646,-0.168026596307755,0.277720153331757,-0.384296738353309,-0.165352150505452,0.234760880627692,5
0.920013427734375,-0.195361211895943,2.88270902633667,1.25936639308929,-0.196324452211266,2.88134345332121,1.26327842892191,2184.781,2185.365,2191.765,2187.542,356.169189453125,44.9932518005371,1.51915121078491,-0.3994480073452,-0.173767894506454,0.282589703798294,-0.397671404529394,-0.171106895716105,0.242931255487113,5
0.94000244140625,-0.203616410493851,2.87911868095398,1.26511967182159,-0.204407453948074,2.87786556348678,1.26821620855017,2189.669,2188.73,2188.916,2187.729,356.16552734375,44.9938163757324,1.52351582050323,-0.412760108709335,-0.179516479372978,0.287662833929062,-0.411081631631503,-0.176876941799768,0.251123353961324,5
0.959991455078125,-0.212138131260872,2.87541341781616,1.27097225189209,-0.212759000778906,2.87427212620069,1.27331803818581,2185.485,2187.015,2195.816,2191.927,356.163391113281,44.9947357177734,1.52575838565826,-0.426085233688354,-0.18526017665863,0.292630136013031,-0.424539267042903,-0.182667386354485,0.259344413431889,5
0.980010986328125,-0.220926940441132,2.87159323692322,1.27693009376526,-0.221393324468958,2.87055701793193,1.27859261179209,2189.041,2189.687,2196.353,2191.677,356.164245605469,44.9954872131348,1.52716171741486,-0.439440935850143,-0.19101171195507,0.29789263010025,-0.438056556301695,-0.188483498293199,0.267601914506946,5
1,-0.229983180761337,2.86765789985657,1.2829977273941,-0.230284798736574,2.86673126495361,1.28402427467346,2194.392,2193.251,2193.102,2191.989,356.165954589844,44.9959030151367,1.52912628650665,-0.452812999486923,-0.196763962507248,0.303379595279694,-0.451584000205995,-0.194303979492187,0.275865618896484,5
1.02001953125,-0.239306747913361,2.86360788345337,1.28917276859283,-0.239461107372567,2.86278295570393,1.28962993842572,2189.972,2191.482,2200.203,2196.389,356.169036865234,44.9966773986816,1.52897036075592,-0.466178059577942,-0.202503606677055,0.308750957250595,-0.465154707681581,-0.200143075797255,0.284155752326605,5
1.04000854492188,-0.248897969722748,2.85944294929504,1.29546320438385,-0.248894644448595,2.85872396824263,1.29539273901802,2197.056,2195.953,2196.76,2195,356.173522949219,44.9970550537109,1.52924835681915,-0.479561418294907,-0.208247095346451,0.314519912004471,-0.47871923339115,-0.205979512261105,0.292442109412331,5
1.05999755859375,-0.258756458759308,2.85516333580017,1.30186653137207,-0.258599401509697,2.85454828239877,1.3013212236669,2192.488,2194.369,2203.811,2199.193,356.179870605469,44.9977836608887,1.52744209766388,-0.492926120758057,-0.213975101709366,0.320165753364563,-0.492290296490434,-0.211818761581115,0.30073246008742,5
1.08001708984375,-0.268882274627686,2.85076928138733,1.30838906764984,-0.268590868588476,2.85024923324404,1.30742485499156,2196.565,2197.17,2203.534,2198.812,356.189422607422,44.9982986450195,1.52494812011719,-0.506291151046753,-0.219700485467911,0.326124668121338,-0.505880764601332,-0.21766636033551,0.309034664981295,5
1.10000610351563,-0.279275089502335,2.8462610244751,1.31503510475159,-0.278838480013141,2.84583997233313,1.31368496090006,2202.286,2200.796,2199.308,2199.022,356.199523925781,44.9984245300293,1.52323806285858,-0.519640266895294,-0.225414127111435,0.332299262285233,-0.519441457145546,-0.223501147495394,0.317318680446121,5
1.1199951171875,-0.289934098720551,2.84163904190063,1.32180142402649,-0.289357002179081,2.84131414609862,1.32011056195293,2197.156,2198.503,2206.559,2203.603,356.210601806641,44.9989471435547,1.51932275295258,-0.532949090003967,-0.231102228164673,0.338313966989517,-0.532985466132485,-0.229328756186667,0.32559250418615,5
1.1400146484375,-0.30085888504982,2.83690333366394,1.32869386672974,-0.300162704591434,2.83666475422696,1.32671159693698,2200.686,2201.13,2206.676,2202.879,356.224212646484,44.9993209838867,1.51467025279999,-0.546239793300629,-0.236780613660812,0.344623148441315,-0.54652589017629,-0.235154822377061,0.33386413794036,5
1.16000366210938,-0.312048822641373,2.83205437660217,1.33571660518646,-0.311222084148811,2.83190621216671,1.33346759933036,2205.972,2204.664,2202.703,2202.634,356.238189697266,44.9993629455566,1.51090824604034,-0.559497892856598,-0.242442041635513,0.351135730743408,-0.560014026276883,-0.240958390526247,0.342103829805999,6
1.17999267578125,-0.323502838611603,2.82709288597107,1.34286594390869,-0.322550701230474,2.8270318247214,1.34038807472597,2200.173,2201.919,2210.351,2207.094,356.253234863281,44.999828338623,1.50490713119507,-0.57269960641861,-0.248072817921638,0.357466727495193,-0.573463232144024,-0.246745208083563,0.350319739799517,6
1.20001220703125,-0.335220158100128,2.82201910018921,1.35014772415161,-0.334165615614823,2.82203425154496,1.3474834446762,2203.685,2204.333,2210.105,2206.068,356.271240234375,45.000129699707,1.49817609786987,-0.585867404937744,-0.253688961267471,0.364090204238892,-0.586886736182789,-0.252520966862155,0.358519948947149,6
1.22000122070313,-0.347199857234955,2.81683349609375,1.35756576061249,-0.346030421585499,2.81692915700008,1.35473146949704,2209.11,2207.751,2205.354,2205.535,356.289703369141,45.0000534057617,1.49241578578949,-0.598985314369202,-0.259281992912292,0.370903819799423,-0.600236516861372,-0.258265004538453,0.366675121644476,6
1.239990234375,-0.359440445899963,2.81153678894043,1.3651157617569,-0.358161486344149,2.81170949873715,1.36214214765657,2202.852,2204.623,2212.781,2209.914,356.309234619141,45.000415802002,1.48436772823334,-0.612028181552887,-0.264837116003036,0.377497941255569,-0.613526094901141,-0.263983138701136,0.374793517489195,6
1.260009765625,-0.371940821409225,2.80612945556641,1.37280309200287,-0.37057666480527,2.80636759428526,1.36972638644343,2206.23,2206.866,2212.096,2208.516,356.331665039063,45.0006103515625,1.47562551498413,-0.625019133090973,-0.270370751619339,0.384365022182465,-0.626768731761373,-0.26968107538565,0.382883237699838,6
1.27999877929688,-0.384699702262878,2.80061197280884,1.38063108921051,-0.383236695417198,2.80092033679326,1.37746020158837,2211.523,2210.072,2206.855,2207.66,356.354339599609,45.0004234313965,1.46793830394745,-0.637942135334015,-0.275874584913254,0.39139798283577,-0.639917282339435,-0.275338529371412,0.39091548206889,6
1.30001831054688,-0.397715121507645,2.79498529434204,1.38859450817108,-0.396178686849666,2.79535175943725,1.38536626219868,2204.575,2206.511,2214.38,2211.866,356.378021240234,45.0007095336914,1.45793318748474,-0.650772154331207,-0.281333714723587,0.398171424865723,-0.653005218467598,-0.280969902652754,0.398910698016369,6
1.32000732421875,-0.410985916852951,2.78924989700317,1.39670073986053,-0.409361504843077,2.78967956113998,1.39341943999703,2211.876,2210.635,2208.793,2208.68,356.40283203125,45.0005569458008,1.44879066944122,-0.663540601730347,-0.286768287420273,0.405313462018967,-0.6659860834168,-0.286555206197011,0.406840505851434,6
1.33999633789063,-0.42451000213623,2.78340673446655,1.40494430065155,-0.422802873722428,2.78389611561957,1.401630562497,2204.694,2207.198,2216.014,2212.469,356.429412841797,45.000862121582,1.43736910820007,-0.676205992698669,-0.292156189680099,0.412176430225372,-0.678873453515705,-0.29210028151913,0.41471319914141,6
1.36001586914063,-0.438285827636719,2.77745652198792,1.41333019733429,-0.4365219692899,2.77799317206405,1.41001134389691,2208.245,2209.122,2214.094,2210.488,356.459411621094,45.0009346008301,1.42537832260132,-0.688791394233704,-0.297512531280518,0.419292658567429,-0.691680442442074,-0.297610771068296,0.422536788827408,6
1.3800048828125,-0.452311396598816,2.771399974823,1.42186081409454,-0.450474904562636,2.77198961381608,1.41853497432376,2213.647,2211.971,2207.453,2209.203,356.489654541016,45.0005683898926,1.41459691524506,-0.701278507709503,-0.302826851606369,0.426532596349716,-0.704361775018035,-0.303067194200314,0.43028361700977,6
1.39999389648438,-0.466584265232086,2.7652382850647,1.43052959442139,-0.464680216184654,2.76587746507559,1.42721277752413,2205.792,2207.708,2214.674,2213.224,356.520568847656,45.0007286071777,1.40142703056335,-0.713642001152039,-0.308083653450012,0.433441191911697,-0.716930938559026,-0.308475354130225,0.437961922879032,6
1.42001342773438,-0.481102377176285,2.75897216796875,1.43934094905853,-0.479157861067077,2.75964813894125,1.43605694486361,2208.548,2209.272,2213.229,2210.805,356.554229736328,45.0007362365723,1.38761126995087,-0.725907564163208,-0.313301414251328,0.440567433834076,-0.729400843645231,-0.313840805920001,0.445579593307164,6
1.44000244140625,-0.4958635866642,2.75260281562805,1.4482969045639,-0.493861275572861,2.75332167044526,1.44503903134294,2213.334,2211.904,2206.957,2208.944,356.587829589844,45.000358581543,1.37508344650269,-0.73805969953537,-0.318471968173981,0.447796612977982,-0.741727567798258,-0.319144650954242,0.453109796737511,6
1.45999145507813,-0.510865032672882,2.74613118171692,1.45739030838013,-0.508809800712713,2.74688973769103,1.45417085208374,2204.762,2207.099,2214.545,2212.811,356.622375488281,45.0005264282227,1.36008274555206,-0.750074505805969,-0.323580682277679,0.454671114683151,-0.753924423002454,-0.324392617007921,0.460560665253582,6
1.48001098632813,-0.52610456943512,2.73955821990967,1.46662545204163,-0.524024159888143,2.74034342397783,1.46346506668862,2207.435,2208.505,2212.765,2209.937,356.660064697266,45.000545501709,1.3444801568985,-0.761976957321167,-0.328645527362823,0.461756378412247,-0.766004036374583,-0.329590137176618,0.467939912563966,6
1.5,-0.541579604148865,2.73288512229919,1.47600400447845,-0.539455198877605,2.73370387899399,1.47289164761066,2212.34,2210.926,2205.749,2207.825,356.697967529297,45.000114440918,1.33022749423981,-0.773750245571136,-0.333656877279282,0.468929678201675,-0.777924000354858,-0.334718964672088,0.475221632552146,6
1.52001953125,-0.5572869181633,2.72611308097839,1.48551833629608,-0.555147149984933,2.72695207081487,1.48247761567406,2203.419,2205.806,2212.986,2211.594,356.736877441406,45.0002555847168,1.3134697675705,-0.785369873046875,-0.338599503040314,0.475714474916458,-0.789715229532175,-0.33979240117828,0.482424710458066,6
1.54000854492188,-0.573224246501923,2.71924328804016,1.49517464637756,-0.571049184024557,2.72010986981902,1.49219192012252,2210.698,2209.404,2205.578,2206.796,356.776794433594,44.9999084472656,1.2978538274765,-0.796867370605469,-0.343494147062302,0.482814788818359,-0.801336412291853,-0.344792671461508,0.489523909660973,6
1.55999755859375,-0.589388310909271,2.71227693557739,1.50496482849121,-0.587181951496087,2.71316839067337,1.50204717602401,2201.517,2204.507,2212.581,2210.14,356.818481445313,45.0000991821289,1.27980196475983,-0.808202147483826,-0.348318040370941,0.489507138729095,-0.812800388649436,-0.349725300221754,0.496527073925997,6
1.58001708984375,-0.605776250362396,2.70521521568298,1.514892578125,-0.603567408310176,2.70611818636293,1.51205679590172,2204.524,2205.655,2209.469,2206.836,356.863739013672,45.0000457763672,1.26125907897949,-0.819397270679474,-0.353087097406387,0.496389836072922,-0.824119146742882,-0.35459544561987,0.503441526619546,6
1.60000610351563,-0.622384965419769,2.69805932044983,1.52495896816254,-0.620152298932711,2.69898217125626,1.52218824678091,2209.594,2207.838,2201.194,2204.348,356.908935546875,44.9995079040527,1.24423384666443,-0.830434560775757,-0.357790112495422,0.503320813179016,-0.835253140422976,-0.35938609205264,0.510243109616171,5
1.6199951171875,-0.63921070098877,2.69081115722656,1.53515493869781,-0.636958033083316,2.69175113334911,1.53245460752521,2199.789,2202.166,2208.33,2208.006,356.954772949219,44.9995803833008,1.22468078136444,-0.841291069984436,-0.362412214279175,0.509799659252167,-0.846214826007804,-0.364102599125749,0.516939432286212,5
1.6400146484375,-0.656250536441803,2.6834716796875,1.54548370838165,-0.654007271984653,2.68441532215046,1.54286972152191,2202.062,2202.99,2205.825,2204.357,357.003326416016,44.9995079040527,1.20455276966095,-0.851992011070251,-0.366972118616104,0.516440093517303,-0.857015715678588,-0.368749920209162,0.523537527241534,5
1.66000366210938,-0.673500955104828,2.6760425567627,1.55594599246979,-0.671244443874359,2.67699864863716,1.55339964084857,2206.505,2204.976,2198.137,2201.404,357.051605224609,44.9990081787109,1.18597257137299,-0.862522065639496,-0.371461451053619,0.523113489151001,-0.867618167158098,-0.373311858882592,0.530014399402375,5
1.67999267578125,-0.690958201885223,2.66852521896362,1.56653249263763,-0.688691692550512,2.66949158495151,1.56405789280588,2196.125,2198.951,2205.667,2204.909,357.100769042969,44.999137878418,1.16481423377991,-0.872860491275787,-0.37586635351181,0.529323518276215,-0.878034183119987,-0.377793579561193,0.536377381014768,5
1.70001220703125,-0.708618819713593,2.66092109680176,1.57724630832672,-0.706372354049449,2.66188409024902,1.5748587330143,2198.367,2199.663,2202.953,2200.935,357.153137207031,44.9990997314453,1.14312183856964,-0.883030831813812,-0.380204647779465,0.53569370508194,-0.888274735793774,-0.382199803288802,0.542633174842512,5
1.72000122070313,-0.726479172706604,2.65323185920715,1.58808815479279,-0.724228658537036,2.6542010212754,1.58576687078363,2203.094,2201.543,2194.557,2197.798,357.205474853516,44.9985961914063,1.12305247783661,-0.893016815185547,-0.384466648101807,0.542092084884644,-0.898304216251578,-0.386515208538549,0.548760027947228,5
1.739990234375,-0.744535028934479,2.64545917510986,1.59904813766479,-0.74228345468553,2.64643254688532,1.59679626401121,2192.491,2195.304,2201.749,2201.332,357.258697509766,44.998722076416,1.10037851333618,-0.90279757976532,-0.388637900352478,0.548001646995544,-0.908134108040217,-0.390744736359816,0.554764955448471,5
1.760009765625,-0.762782990932465,2.63760447502136,1.61012923717499,-0.760560719141003,2.63856835059778,1.60796155965597,2194.778,2195.931,2198.638,2197.13,357.314971923828,44.9986572265625,1.0772020816803,-0.912395477294922,-0.392735809087753,0.554057657718658,-0.91777478390713,-0.394892849856044,0.560654293895788,4
1.77999877929688,-0.781218886375427,2.6296694278717,1.62133169174194,-0.779000609654483,2.63063418086074,1.61922620102184,2199.379,2197.68,2190.046,2193.808,357.370971679688,44.9981231689453,1.05570113658905,-0.921794950962067,-0.396751075983047,0.560122728347778,-0.927192788821983,-0.398945154262308,0.566407606133204,4
1.80001831054688,-0.799838364124298,2.62165594100952,1.63264524936676,-0.797655223615693,2.62260762162281,1.63062201359123,2188.301,2191.251,2197.402,2197.262,357.427673339844,44.9982643127441,1.03160226345062,-0.930977165699005,-0.400670439004898,0.565677225589752,-0.936412917636689,-0.402912318110697,0.572040038948834,4
1.82000732421875,-0.818637788295746,2.61356568336487,1.64407539367676,-0.816463410111527,2.61451498441355,1.64211164122557,2195.744,2194.281,2188.594,2190.989,357.485168457031,44.9978637695313,1.00893425941467,-0.939970016479492,-0.404513657093048,0.571508288383484,-0.94540321420156,-0.406780591562751,0.577532070829503,3
1.83999633789063,-0.837612569332123,2.60540056228638,1.65561187267303,-0.835449117627072,2.60634596486888,1.6537097136807,2184.599,2188.222,2195.624,2194.093,357.544372558594,44.9980812072754,0.983732223510742,-0.948740005493164,-0.408260464668274,0.576822578907013,-0.954174163352093,-0.410554485950274,0.582890106797601,3
1.86001586914063,-0.856758654117584,2.59716200828552,1.66725754737854,-0.854637305360818,2.59808982374295,1.66543147814148,2187.428,2188.743,2191.451,2189.641,357.607208251953,44.9980163574219,0.958158671855927,-0.957305908203125,-0.411925256252289,0.582283914089203,-0.962735018414262,-0.414237982720922,0.588119799565572,0
1.8800048828125,-0.876071631908417,2.58885216712952,1.67901217937469,-0.873964974649439,2.58977366760063,1.67723844970756,2192.431,2190.424,2181.784,2186.135,357.669616699219,44.9974327087402,0.934439361095428,-0.965650796890259,-0.415496975183487,0.587733209133148,-0.971056158224177,-0.417818336715394,0.593203054026622,0
1.89999389648438,-0.895546853542328,2.58047294616699,1.69086480140686,-0.893456683142228,2.58138692997148,1.6891456302637,2180.917,2183.665,2188.871,2189.746,357.732391357422,44.9975547790527,0.908094763755798,-0.97375875711441,-0.418962925672531,0.59263288974762,-0.979147395688901,-0.421299770153459,0.598145864732551,0
1.92001342773438,-0.915179789066315,2.57202625274658,1.70281779766083,-0.913137923350175,2.5729186421402,1.70116859278703,2182.903,2183.972,2185.647,2185.041,357.797790527344,44.9974899291992,0.881300866603851,-0.981649696826935,-0.422340303659439,0.597650527954102,-0.987017247723777,-0.424685947625853,0.602953434534038,0
1.94000244140625,-0.934965908527374,2.56351375579834,1.71487092971802,-0.932943991899774,2.5643966441608,1.71326781099638,2187.376,2185.504,2176.769,2181.189,357.862457275391,44.9969635009766,0.856368601322174,-0.989310741424561,-0.42562147974968,0.602653861045837,-0.994638524886308,-0.427965170275055,0.607609153824943,0
1.95999145507813,-0.954900503158569,2.55493783950806,1.72701299190521,-0.952900013794853,2.55581012544606,1.7254586333645,2175.288,2178.632,2184.462,2184.644,357.927734375,44.9971771240234,0.828841328620911,-0.996728539466858,-0.428795337677002,0.607105851173401,-1.00202031904361,-0.431141350077486,0.612118576685011,0
1.98001098632813,-0.974978983402252,2.54630041122437,1.73924672603607,-0.973031969359004,2.54714790738853,1.73775693086567,2177.454,2178.799,2181.06,2179.836,357.996124267578,44.9971694946289,0.800878882408142,-1.00392079353333,-0.431877553462982,0.611687779426575,-1.00917036754089,-0.434217816196637,0.616486429737696,0
2,-0.995196342468262,2.53760313987732,1.75157177448273,-0.993273599084619,2.53843849960327,1.75012222660065,2182.223,2180.302,2171.671,2175.912,358.063995361328,44.9966583251953,0.77480947971344,-1.0108734369278,-0.434859365224838,0.616255402565002,-1.01606400046349,-0.437183953857422,0.620697642517089,0
2.02001953125,-1.01554787158966,2.52884864807129,1.76397693157196,-1.01368176147806,2.52965743746343,1.7625892545437,2170.145,2173.453,2178.968,2179.398,358.132537841797,44.9968490600586,0.746177136898041,-1.01757407188416,-0.437729477882385,0.620260655879974,-1.0227194988233,-0.440047628868552,0.624763382608097,0
2.04000854492188,-1.03602874279022,2.52003860473633,1.77646744251251,-1.03418924440916,2.52083364047092,1.77511695585335,2178.02,2176.155,2169.414,2172.504,358.201507568359,44.996467590332,0.719123005867004,-1.02404284477234,-0.440504521131516,0.624528050422668,-1.02911391720548,-0.442798968459032,0.628669633014835,0
2.05999755859375,-1.05663371086121,2.51117515563965,1.78903210163116,-1.05482201812353,2.5119559343546,1.78772119534738,2165.91,2169.824,2176.421,2175.605,358.272003173828,44.9967384338379,0.689579963684082,-1.0302562713623,-0.443168312311172,0.628231108188629,-1.03525504859546,-0.445441325732794,0.632421154350513,0
2.08001708984375,-1.07735848426819,2.50226044654846,1.80167329311371,-1.07560676837143,2.50301283698163,1.80041827493419,2168.775,2170.098,2171.893,2170.633,358.345886230469,44.9967079162598,0.659817934036255,-1.0362263917923,-0.445732563734055,0.632062196731567,-1.0411492471255,-0.447977434695423,0.636021828255355,0
2.10000610351563,-1.09819722175598,2.49329662322998,1.8143904209137,-1.09647498538954,2.49403382618922,1.81316634306845,2173.843,2171.441,2161.773,2166.803,358.418914794922,44.9961357116699,0.632052719593048,-1.04193937778473,-0.448187410831451,0.635857224464417,-1.04677621342161,-0.450398561093403,0.639459254158576,0
2.1199951171875,-1.11914479732513,2.48428606987,1.82717168331146,-1.11745308225396,2.48500753716864,1.82598153508617,2161.478,2164.501,2168.915,2170.412,358.492034912109,44.9963111877441,0.601742744445801,-1.04738736152649,-0.450523674488068,0.639065980911255,-1.0521429102862,-0.45270770082608,0.642737685527497,0
2.1400146484375,-1.14019656181335,2.47523093223572,1.84001922607422,-1.13856809990831,2.47592233495728,1.83888036987787,2163.543,2164.56,2165.415,2165.307,358.567535400391,44.9962844848633,0.571118772029877,-1.05258321762085,-0.452755689620972,0.642378628253937,-1.05725481901126,-0.454907212340279,0.645860470797878,0
2.16000366210938,-1.16134679317474,2.46613335609436,1.85293233394623,-1.15975039167652,2.46680818657414,1.85182030137592,2168.034,2165.837,2156.262,2161.153,358.641906738281,44.9957885742188,0.542506992816925,-1.05751669406891,-0.454876720905304,0.645655632019043,-1.0620943502576,-0.456989527434725,0.648816864916866,0
2.17999267578125,-1.18259060382843,2.45699572563171,1.8658994436264,-1.18102676265167,2.45765355853653,1.86481770439342,2155.287,2158.805,2163.916,2164.725,358.716705322266,44.9960479736328,0.5113485455513,-1.06218290328979,-0.456879317760468,0.648355722427368,-1.06666760390386,-0.458957270716794,0.65161059420515,0
2.20001220703125,-1.20392227172852,2.44782018661499,1.87892282009125,-1.20242455577657,2.44844668594002,1.87788928230744,2157.515,2158.805,2160.332,2159.554,358.794281005859,44.9960899353027,0.479876011610031,-1.06659150123596,-0.45877593755722,0.651171445846558,-1.07097916161324,-0.460812413548163,0.654244457529281,0
2.22000122070313,-1.22533702850342,2.43860912322998,1.8920019865036,-1.22387315175433,2.43921795429519,1.89099189489151,2162.445,2160.22,2150.643,2155.253,358.870971679688,44.9955978393555,0.450536102056503,-1.07073152065277,-0.460558861494064,0.653958439826965,-1.07501419914593,-0.462548577472581,0.656709398992482,0
2.239990234375,-1.24682891368866,2.4293646812439,1.9051251411438,-1.24539969505118,2.42995568409656,1.90414212427648,2149.71,2153.072,2157.968,2159.111,358.948059082031,44.995849609375,0.418601840734482,-1.07459962368011,-0.46222060918808,0.656159281730652,-1.07877792518082,-0.464168003639063,0.659008600495412,0
2.260009765625,-1.26839292049408,2.42008924484253,1.91829454898834,-1.26703177594152,2.42064800401982,1.91735682493042,2152.115,2153.237,2154.14,2153.741,359.027709960938,44.9958610534668,0.386456310749054,-1.0782026052475,-0.463772714138031,0.658470332622528,-1.08227399942825,-0.465672266718726,0.661144297698006,0
2.27999877929688,-1.29002368450165,2.41078519821167,1.9315093755722,-1.28869796983554,2.41132564607061,1.93059236468599,2156.933,2154.495,2144.556,2149.521,359.106140136719,44.995361328125,0.356444209814072,-1.08153092861176,-0.465208023786545,0.660741567611694,-1.08549040888332,-0.467056197851165,0.663109152043028,0
2.30001831054688,-1.31171524524689,2.40145468711853,1.94475781917572,-1.31045892272318,2.4019625159737,1.94388579123207,2144.03,2147.418,2151.986,2153.349,359.184814453125,44.9956359863281,0.323886305093765,-1.0845844745636,-0.4665207862854,0.66242504119873,-1.08843572622736,-0.468323485621664,0.66490840044773,0
2.32000732421875,-1.33346271514893,2.39210033416748,1.95804500579834,-1.33224276726637,2.39258953623693,1.95719320193332,2152.228,2150.076,2142.414,2145.716,359.263366699219,44.9952964782715,0.293199390172958,-1.08736991882324,-0.46772238612175,0.664358615875244,-1.09109983431736,-0.469469776906228,0.666535862507326,0
2.33999633789063,-1.35526037216187,2.38272428512573,1.97135925292969,-1.35407709248145,2.38319483607731,1.97053145048929,2139.491,2143.581,2149.394,2149.216,359.343231201172,44.9956512451172,0.260097473859787,-1.08988082408905,-0.46880379319191,0.665713489055634,-1.09348640563071,-0.470496651869278,0.667993781680938,0
2.36001586914063,-1.3771026134491,2.37332892417908,1.98470294475555,-1.3759897762471,2.37376642042246,1.98391756706104,2142.56,2143.74,2144.749,2143.917,359.426086425781,44.9956741333008,0.226924523711205,-1.09211766719818,-0.469771653413773,0.667185366153717,-1.09559752564474,-0.471405007833448,0.669283431954129,0
2.3800048828125,-1.39898407459259,2.36391639709473,1.99807512760162,-1.39790843013262,2.36433543599182,1.99730733068585,2147.876,2145.013,2134.457,2139.763,359.507568359375,44.9951248168945,0.195999071002007,-1.09407091140747,-0.470618098974228,0.668609917163849,-1.09742594550583,-0.472191725819537,0.67040038511534,0
2.39999389648438,-1.42089891433716,2.35448980331421,2.01146388053894,-1.41986083522252,2.35488992936084,2.01071771239474,2134.921,2138.078,2141.584,2143.72,359.588836669922,44.995361328125,0.162657201290131,-1.09574484825134,-0.471339017152786,0.669433176517487,-1.09897439291323,-0.472857979480329,0.671346307473475,0
2.42001342773438,-1.44284176826477,2.34505105018616,2.02487087249756,-1.44187496577138,2.34541786398928,2.02416580122331,2137.28,2137.978,2137.968,2138.422,359.672027587891,44.9953880310059,0.129126369953156,-1.09714078903198,-0.47194367647171,0.670353174209595,-1.1002439936861,-0.473404253224357,0.672121886773894,0
2.44000244140625,-1.46480691432953,2.33560228347778,2.03829526901245,-1.46387808506052,2.33595053645515,2.03760716344514,2141.834,2139.2,2128.917,2134.011,359.753479003906,44.994930267334,0.097813680768013,-1.09825253486633,-0.47242745757103,0.671223521232605,-1.10123038958312,-0.473828671822132,0.672724460634977,0
2.45999145507813,-1.48678863048553,2.32614684104919,2.05172562599182,-1.48589810917879,2.32647593524532,2.05105885256329,2128.675,2132.348,2136.501,2137.834,359.835083007813,44.9952659606934,0.0641543343663216,-1.09908747673035,-0.472788125276566,0.671513915061951,-1.10193535162022,-0.474131997292339,0.673155110942729,0
2.48001098632813,-1.50878143310547,2.31668615341187,2.0651638507843,-1.5079630509786,2.31698200721197,2.06453798119217,2131.269,2132.183,2132.79,2132.569,359.9189453125,44.9953384399414,0.0303299054503441,-1.09964334964752,-0.473032712936401,0.671914875507355,-1.10235904000526,-0.474314298567936,0.673413935565619,0
2.5,-1.53077971935272,2.30722308158875,2.07860922813416,-1.52999999932945,2.30750012397766,2.0780000090599,2136.085,2133.49,2123.454,2128.139,0.00139014550950378,44.9948921203613,-0.00120941619388759,-1.09991347789764,-0.473155736923218,0.672269999980927,-1.10250000050292,-0.474374949932098,0.673500046133994,0
2.52001953125,-1.5527777671814,2.29776000976563,2.09205031394958,-1.55207058900185,2.29800376582252,2.09148258788601,2123.269,2126.669,2130.505,2132.157,0.0839079916477203,44.9951972961426,359.964904785156,-1.0999071598053,-0.473155319690704,0.672050356864929,-1.10235860927677,-0.474314113237503,0.673413672440311,0
2.54000854492188,-1.57477021217346,2.2882993221283,2.10549163818359,-1.57410188948011,2.28852431271001,2.10494116555652,2131.667,2129.047,2121.09,2124.536,0.165915206074715,44.9948844909668,359.932952880859,-1.09961903095245,-0.473037153482437,0.672065675258636,-1.10193535162022,-0.474131997292339,0.673155110942729,0
2.55999755859375,-1.59675133228302,2.27884340286255,2.11892199516296,-1.59612191359838,2.27904971150017,2.11839285467467,2118.941,2122.967,2127.774,2128.118,0.248869717121124,44.9952659606934,359.898773193359,-1.09905648231506,-0.472798466682434,0.671512544155121,-1.10123038958312,-0.473828671822132,0.672724460634977,0
2.58001708984375,-1.61871564388275,2.2693943977356,2.13234329223633,-1.6181586096433,2.26956793682606,2.13185472841265,2122.147,2123.023,2123.245,2122.855,0.33430090546608,44.9953079223633,359.864685058594,-1.0982106924057,-0.472441643476486,0.671066105365753,-1.10024227275454,-0.473403512755585,0.67212083548366,0
2.60000610351563,-1.6406569480896,2.25995540618896,2.14575457572937,-1.64013916343638,2.26011031859448,2.14528230572506,2127.323,2124.161,2113.47,2118.71,0.417936205863953,44.9947929382324,359.832946777344,-1.09707653522491,-0.471960932016373,0.670563578605652,-1.09897439291323,-0.472857979480329,0.671346307473476,0
2.6199951171875,-1.6625702381134,2.25052833557129,2.15914416313171,-1.66209156852628,2.2506648119635,2.15869268743396,2114.657,2117.576,2120.184,2122.792,0.501053690910339,44.9950637817383,359.798950195313,-1.09566783905029,-0.471356749534607,0.669484198093414,-1.09742594550583,-0.472191725819537,0.67040038511534,0
2.6400146484375,-1.68444991111755,2.24111557006836,2.17251396179199,-1.68404365734903,2.24121944141343,2.17210287594018,2116.903,2117.491,2116.92,2117.509,0.585615158081055,44.9951210021973,359.764953613281,-1.09397649765015,-0.470633924007416,0.6684849858284,-1.09559452046326,-0.471403714787811,0.669281596135657,0
2.66000366210938,-1.70628976821899,2.23171973228455,2.18586277961731,-1.70592290617745,2.23180541187802,2.18546856763052,2121.461,2118.527,2108.314,2113.199,0.668176352977753,44.9946975708008,359.733215332031,-1.0919998884201,-0.46978947520256,0.667436957359314,-1.09348640563071,-0.470496651869278,0.667993781680938,0
2.67999267578125,-1.72808492183685,2.22234296798706,2.19917941093445,-1.72775723139253,2.2224107117184,2.19880681618649,2108.711,2112.138,2115.372,2117.104,0.750567734241486,44.9950485229492,359.699371337891,-1.08975446224213,-0.468825310468674,0.665836095809937,-1.09109983431736,-0.469469776906228,0.666535862507326,0
2.70001220703125,-1.74982953071594,2.21298837661743,2.21246600151062,-1.74957429229274,2.21302343991116,2.21213451824191,2111.193,2111.991,2112.01,2111.925,0.83479779958725,44.9951591491699,359.665557861328,-1.08722865581512,-0.467743963003159,0.664328277111053,-1.08843144721369,-0.468321644481621,0.664905786465049,0
2.72000122070313,-1.77151787281036,2.20365762710571,2.22572159767151,-1.77130202882336,2.20367460188472,2.22540765343382,2116.169,2112.974,2103.018,2107.762,0.917196214199066,44.9947357177734,359.633972167969,-1.08441972732544,-0.466541737318039,0.662779748439789,-1.08549040888332,-0.467056197851165,0.663109152043028,0
2.739990234375,-1.79314494132996,2.1943531036377,2.23893523216248,-1.79296822271738,2.1943522439355,2.23864319318939,2103.602,2106.883,2109.717,2111.652,0.999344646930695,44.9950637817383,359.600341796875,-1.08134567737579,-0.465221107006073,0.660678863525391,-1.08227399942825,-0.465672266718727,0.661144297698006,0
2.760009765625,-1.81470465660095,2.18507742881775,2.25210857391357,-1.81460030360772,2.18504456385877,2.25185789384333,2106.19,2106.733,2106.292,2106.55,1.08304560184479,44.9951591491699,359.566802978516,-1.0779926776886,-0.46378356218338,0.658665597438812,-1.07877792518082,-0.464168003639063,0.659008600495412,0
2.77999877929688,-1.8361918926239,2.17583274841309,2.26524066925049,-1.83612684690458,2.17578229366013,2.2650081232283,2111.012,2107.774,2097.585,2102.351,1.16466665267944,44.9947357177734,359.535552978516,-1.07435941696167,-0.462226212024689,0.65660572052002,-1.07501419914593,-0.462548577472581,0.656709398992482,0
2.80001831054688,-1.85760128498077,2.16662168502808,2.27832078933716,-1.85760812647542,2.16653949917827,2.27813070170937,2098.521,2101.683,2104.289,2106.372,1.24588406085968,44.9950714111328,359.502319335938,-1.0704665184021,-0.46055281162262,0.654003620147705,-1.07097279461286,-0.460809674005774,0.654240568028104,0
2.82000732421875,-1.87892711162567,2.15744662284851,2.29135298728943,-1.87897323600723,2.1573466894188,2.29118231372639,2106.675,2103.636,2095.813,2099.072,1.32604694366455,44.9948081970215,359.471008300781,-1.06629550457001,-0.458762735128403,0.651613831520081,-1.06666760390385,-0.458957270716794,0.65161059420515,0
2.83999633789063,-1.90016436576843,2.14830946922302,2.3043270111084,-1.90024960698239,2.14819206138118,2.30417971674389,2094.647,2098.312,2101.885,2102.627,1.40672993659973,44.9952049255371,359.437866210938,-1.06186962127686,-0.456860840320587,0.648704051971436,-1.06209435025759,-0.456989527434725,0.648816864916866,0
2.86001586914063,-1.92130780220032,2.1392126083374,2.3172447681427,-1.9214641634913,2.13906403038149,2.31713935826856,2097.81,2098.314,2097.816,2097.659,1.48920500278473,44.995288848877,359.405029296875,-1.05716991424561,-0.454844504594803,0.645885050296783,-1.05724722779031,-0.454903946049977,0.645855833439456,0
2.8800048828125,-1.94235181808472,2.13015842437744,2.33010506629944,-1.94254691640495,2.12999271078668,2.33001848303364,2102.772,2099.219,2088.971,2093.813,1.56949329376221,44.9948387145996,359.374450683594,-1.05219614505768,-0.452710300683975,0.643010675907135,-1.0521429102862,-0.45270770082608,0.642737685527497,0
2.89999389648438,-1.96329140663147,2.12114906311035,2.34289717674255,-1.96352501326936,2.1209664217661,2.34283367505136,2090.847,2093.486,2095.093,2097.799,1.64896535873413,44.9951248168945,359.342071533203,-1.0469719171524,-0.450463533401489,0.639609396457672,-1.04677621342161,-0.450398561093403,0.639459254158576,0
2.92001342773438,-1.98412084579468,2.11218690872192,2.3556227684021,-1.98442500350686,2.11197373984504,2.35560115294953,2093.269,2093.365,2092.08,2092.874,1.72923791408539,44.9952087402344,359.309875488281,-1.04147922992706,-0.448103845119476,0.636279881000519,-1.04114045847258,-0.4479736531836,0.636016459404434,0
2.94000244140625,-2.00483512878418,2.10327434539795,2.36828088760376,-2.00517798053537,2.10304431360073,2.36827882277243,2097.647,2094.272,2084.329,2088.864,1.80705630779266,44.9948387145996,359.279998779297,-1.03572010993958,-0.445630222558975,0.632901191711426,-1.03525504859546,-0.445441325732794,0.632421154350513,0
2.95999145507813,-2.02542948722839,2.09441328048706,2.38086128234863,-2.02581075424974,2.0941666074844,2.38088306226645,2085.755,2088.641,2090.723,2092.803,1.88425695896149,44.9951972961426,359.248352050781,-1.02971994876862,-0.443049162626266,0.629021883010864,-1.02911391720548,-0.442798968459032,0.628669633014836,0
2.98001098632813,-2.04589891433716,2.08560609817505,2.39336585998535,-2.04634944795115,2.08532938136936,2.39342982974865,2088.265,2088.537,2087.779,2087.964,1.96253967285156,44.9953193664551,359.216918945313,-1.02345848083496,-0.44035878777504,0.625223994255066,-1.02270954399162,-0.440043345582586,0.624757301356766,0
3,-2.066237449646,2.07685494422913,2.40579342842102,-2.06672639957428,2.07656174835205,2.40587779151916,2092.736,2089.361,2080.034,2084.169,2.03863310813904,44.9949798583984,359.187713623047,-1.01693773269653,-0.437557607889175,0.621382594108582,-1.01606400046349,-0.437183953857422,0.620697642517089,0
3.02001953125,-2.08644104003906,2.0681619644165,2.41813468933105,-2.08699882657197,2.06783908936099,2.41826190082706,2081.489,2084.169,2085.801,2087.895,2.11409616470337,44.9953079223633,359.156951904297,-1.01018357276917,-0.434652268886566,0.617059886455536,-1.0091596546337,-0.434213206731958,0.616479885389866,0
3.04000854492188,-2.10650444030762,2.05952930450439,2.43039298057556,-2.10709998486405,2.05919012250926,2.43054138475531,2089.099,2085.776,2078.226,2081.25,2.18810033798218,44.9950866699219,359.128082275391,-1.00317084789276,-0.431638240814209,0.612918496131897,-1.00202031904361,-0.431141350077486,0.612118576685011,0
3.05999755859375,-2.12642335891724,2.05095863342285,2.44255924224854,-2.12705600675913,2.05060360379452,2.44273220712343,2078.079,2081.178,2083.648,2084.674,2.26218199729919,44.9954681396484,359.097747802734,-0.995931506156921,-0.428524672985077,0.608311235904694,-0.994638524886308,-0.427965170275055,0.607609153824944,0
3.08001708984375,-2.14619183540344,2.04245281219482,2.45463490486145,-2.14689219650438,2.04206864550612,2.45484982590117,2081.081,2081.134,2080.103,2080.171,2.33738994598389,44.9955558776855,359.067810058594,-0.988441705703735,-0.42530632019043,0.603782057762146,-0.987005430654711,-0.424680863071165,0.602946215670947,0
3.10000610351563,-2.16580581665039,2.03401327133179,2.46661901473999,-2.16654331551667,2.03361331798384,2.46685438785611,2085.874,2081.968,2072.132,2076.604,2.4100513458252,44.9951515197754,359.040130615234,-0.980704605579376,-0.421981573104858,0.599206984043121,-0.979147395688901,-0.421299770153459,0.598145864732551,0
3.1199951171875,-2.18526077270508,2.02564215660095,2.47850227355957,-2.18603502400946,2.02522658035469,2.47876156841225,2074.858,2077.02,2077.721,2080.44,2.48152446746826,44.995433807373,359.011016845703,-0.972749471664429,-0.418558746576309,0.594157695770264,-0.971056158224178,-0.417818336715394,0.593203054026623,0
3.1400146484375,-2.2045521736145,2.01734113693237,2.49028563499451,-2.20539207344272,2.01689778275692,2.49058648785022,2077.214,2076.858,2075.167,2076.021,2.55321955680847,44.9955406188965,358.982269287109,-0.964553713798523,-0.415034651756287,0.589173972606659,-0.962722140342815,-0.41423244164655,0.588111932552684,0
3.16000366210938,-2.22367453575134,2.00911283493042,2.50196862220764,-2.22455088103183,2.00865428308644,2.50229030443911,2081.058,2077.629,2068.598,2072.469,2.62231612205505,44.9952583312988,358.955688476563,-0.95612245798111,-0.41141003370285,0.584143757820129,-0.954174163352092,-0.410554485950274,0.582890106797601,0
3.17999267578125,-2.24262428283691,2.00095891952515,2.51354241371155,-2.24353658854737,2.00048526354177,2.51388837689424,2070.691,2072.931,2074.017,2076.035,2.69050645828247,44.9955978393555,358.927825927734,-0.947484314441681,-0.407693266868591,0.578685700893402,-0.945403214201559,-0.406780591562751,0.577532070829503,0
3.20001220703125,-2.26139640808105,1.99288153648376,2.52500820159912,-2.26237335188561,1.99238033051557,2.52539546167567,2073.079,2072.769,2071.451,2071.864,2.75910496711731,44.9957160949707,358.900329589844,-0.938616335391998,-0.403880149126053,0.57329535484314,-0.93639902618694,-0.402906341007952,0.572031552878955,0
3.22000122070313,-2.27998685836792,1.98488223552704,2.5363655090332,-2.28099938900442,1.98436606709459,2.53677381709797,2077.187,2073.545,2064.742,2068.468,2.82517051696777,44.9954261779785,358.874969482422,-0.929523169994354,-0.399970889091492,0.567867577075958,-0.927192788821982,-0.398945154262308,0.566407606133204,0
3.239990234375,-2.29839158058167,1.97696280479431,2.54760599136353,-2.2994392795179,1.97643189735754,2.54803845846384,2067.1,2069.133,2069.908,2072.01,2.89021301269531,44.9957389831543,358.848419189453,-0.920234680175781,-0.395974367856979,0.56202095746994,-0.917774783907129,-0.394892849856044,0.560654293895788,0
3.260009765625,-2.31660604476929,1.96912479400635,2.55873084068298,-2.31771654397337,1.96856770107001,2.5592037541086,2069.535,2069.031,2067.403,2067.95,2.95541572570801,44.9958572387695,358.822326660156,-0.910727024078369,-0.391885906457901,0.556240916252136,-0.908134108040216,-0.390744736359816,0.55476495544847,0
3.27999877929688,-2.33462619781494,1.96137094497681,2.56973934173584,-2.33577134012187,1.96079922667992,2.57023314733618,2073.359,2069.814,2061.154,2064.682,3.01799035072327,44.9955863952637,358.798370361328,-0.90100622177124,-0.387706309556961,0.550421237945557,-0.898304216251578,-0.386515208538549,0.548760027947228,0
3.30001831054688,-2.35244846343994,1.95370197296143,2.58062362670898,-2.35365475236716,1.95310449399547,2.58115784481168,2063.876,2065.469,2065.992,2068.255,3.07938027381897,44.9958877563477,358.773284912109,-0.891101956367493,-0.383444488048553,0.544209420681,-0.88825927318574,-0.382193150160541,0.542623728976554,0
3.32000732421875,-2.37006783485413,1.946120262146,2.59138655662537,-2.37130830610839,1.94550866300381,2.59194212531393,2070.295,2066.919,2060.092,2062.499,3.13886904716492,44.9957466125488,358.750061035156,-0.880986392498016,-0.379094064235687,0.538144886493683,-0.878034183119985,-0.377793579561194,0.536377381014769,0
3.33999633789063,-2.38748168945313,1.93862676620483,2.60202074050903,-2.38875555478454,1.93800159931817,2.60260037727124,2061.372,2063.395,2064.39,2065.482,3.1978063583374,44.9960899353027,358.725982666016,-0.870695888996124,-0.374666929244995,0.531714498996735,-0.867618167158097,-0.373311858882592,0.530014399402376,0
3.36001586914063,-2.40468573570251,1.93122363090515,2.61252760887146,-2.40601888046917,1.93057367255756,2.6131462735431,2063.94,2063.339,2061.664,2061.897,3.25693869590759,44.996208190918,358.702484130859,-0.860206782817841,-0.370156615972519,0.525345742702484,-0.856999388527103,-0.368742895092007,0.523527553239473,0
3.3800048828125,-2.42167615890503,1.923912525177,2.62290644645691,-2.42304196557559,1.92324911460621,2.6235454105946,2067.877,2063.961,2055.507,2059.094,3.31332683563232,44.9959182739258,358.681030273438,-0.849525332450867,-0.365563571453094,0.518941938877106,-0.846214826007803,-0.364102599125748,0.516939432286212,0
3.39999389648438,-2.43845009803772,1.9166944026947,2.63314986228943,-2.43984769972619,1.91601807669906,2.63381177133889,2059.152,2060.239,2059.859,2062.348,3.36812615394592,44.9961700439453,358.658721923828,-0.838681817054749,-0.360897392034531,0.512172758579254,-0.835253140422974,-0.35938609205264,0.510243109616171,0
3.42001342773438,-2.45500326156616,1.90957140922546,2.64325904846191,-2.45645774020782,1.90887124031063,2.64395858587455,2061.144,2060.197,2057.997,2058.832,3.42235565185547,44.9962768554688,358.636993408203,-0.827654242515564,-0.356153875589371,0.505455315113068,-0.824102019042908,-0.354588076049064,0.503431063574906,0
3.44000244140625,-2.47133231163025,1.90254461765289,2.65323328971863,-2.47281804716281,1.90183185728196,2.6539528420958,2064.546,2060.819,2052.812,2056.049,3.47369766235352,44.9960670471191,358.617279052734,-0.816449880599976,-0.351334899663925,0.498711317777634,-0.812800388649434,-0.349725300221754,0.496527073925997,0
3.45999145507813,-2.48743438720703,1.89561545848846,2.66306591033936,-2.48895081463434,1.8948903781363,2.66380809799729,2056.14,2057.385,2057.253,2059.09,3.52358889579773,44.9963607788086,358.596862792969,-0.805098652839661,-0.346450418233871,0.491634041070938,-0.80133641229185,-0.344792671461508,0.489523909660973,0
3.48001098632813,-2.50330591201782,1.88878560066223,2.67275834083557,-2.50487694859767,1.88803780761656,2.67353712471306,2058.284,2057.314,2055.385,2055.832,3.57302355766296,44.996509552002,358.577056884766,-0.793578803539276,-0.341495335102081,0.484619855880737,-0.789697369743255,-0.339784716610052,0.482413800191712,0
3.5,-2.51894378662109,1.88205599784851,2.68231010437012,-2.5205447997813,1.88129636896134,2.68310837050915,2061.614,2057.923,2050.387,2053.309,3.619708776474,44.9963111877441,358.559204101563,-0.781897842884064,-0.336471557617188,0.477583557367325,-0.777924000354857,-0.334718964672089,0.475221632552147,0
3.52001953125,-2.5343451499939,1.87542831897736,2.69171476364136,-2.53599921507943,1.87464676580493,2.69254923165338,2053.893,2054.817,2054.371,2056.192,3.66486573219299,44.9965896606445,358.540802001953,-0.770084917545319,-0.331388533115387,0.470238566398621,-0.765985728654519,-0.329582259876133,0.467928728663466,0
3.54000854492188,-2.54950761795044,1.86890363693237,2.70097517967224,-2.55119019794619,1.86811051026429,2.70182916603607,2059.466,2055.836,2049.625,2051.741,3.70776867866516,44.9964942932129,358.524139404297,-0.758114874362946,-0.326239556074142,0.463023394346237,-0.753924423002452,-0.324392617007921,0.460560665253582,0
3.55999755859375,-2.56442785263062,1.86248290538788,2.71008563041687,-2.56613872308604,1.86167857751006,2.71096098677687,2052.131,2053.171,2053.281,2054.41,3.7495813369751,44.9968032836914,358.506958007813,-0.746023595333099,-0.321037143468857,0.455520004034042,-0.741727567798258,-0.319144650954242,0.45310979673751,0
3.58001708984375,-2.57910370826721,1.85616743564606,2.71904730796814,-2.58086439685043,1.85534253147694,2.71995667108993,2054.618,2053.372,2051.081,2051.407,3.79080104827881,44.9969024658203,358.490570068359,-0.733789920806885,-0.315775483846664,0.448083013296127,-0.729381927869994,-0.313832666990361,0.445568037955247,0
3.60000610351563,-2.5935320854187,1.84995818138123,2.72785973548889,-2.59531978247425,1.84912278287974,2.72878724059568,2057.682,2053.875,2046.512,2049.419,3.82911086082458,44.9967079162598,358.476104736328,-0.721423029899597,-0.310456454753876,0.440621435642242,-0.716930938559024,-0.308475354130224,0.437961922879033,0
3.6199951171875,-2.60771131515503,1.84385633468628,2.73651742935181,-2.60952509409627,1.84301063413925,2.73746504379605,2050.97,2051.224,2049.997,2052.054,3.86546969413757,44.9969444274902,358.461303710938,-0.708950400352478,-0.30508941411972,0.43289053440094,-0.704361775018033,-0.303067194200314,0.43028361700977,0
3.6400146484375,-2.62163829803467,1.83786308765411,2.74502158164978,-2.62349913748426,1.83699799365897,2.74600156884113,2052.782,2051.186,2048.645,2049.519,3.90059995651245,44.9970664978027,358.447204589844,-0.696354568004608,-0.299670666456223,0.425212919712067,-0.691660998977508,-0.297602405088683,0.422524911118315,0
3.66000366210938,-2.63531112670898,1.83197903633118,2.75337219238281,-2.63719712493647,1.83110413233575,2.75436945562281,2055.517,2051.839,2044.858,2047.447,3.93269920349121,44.9969291687012,358.434936523438,-0.68364417552948,-0.294203132390976,0.417525291442871,-0.678873453515702,-0.29210028151913,0.414713199141411,0
3.67999267578125,-2.64872789382935,1.82620525360107,2.76156425476074,-2.65063849381582,1.82532068681534,2.76258057812278,2049.167,2049.41,2048.386,2049.971,3.96291327476501,44.9971923828125,358.422485351563,-0.670846343040466,-0.28869616985321,0.409598618745804,-0.665986083416798,-0.286555206197011,0.406840505851433,0
3.70001220703125,-2.6618869304657,1.82054209709167,2.76959896087646,-2.66384123964357,1.81963991412768,2.77064592952416,2051.06,2049.474,2047.101,2047.613,3.99194931983948,44.9973258972168,358.410827636719,-0.65794438123703,-0.28314608335495,0.401735872030258,-0.65298533214413,-0.280961346123326,0.398898549771683,0
