t,x_s1,x_s2,x_s3,x_s_d1,x_s_d2,x_s_d3,propellers_rpms1,propellers_rpms2,propellers_rpms3,propellers_rpms4,rollRad,pitchRad,yawRad,v_s1,v_s2,v_s3,v_s_d1,v_s_d2,v_s_d3,insideCount
0,-0.0599999986588955,2.94000005722046,1.17999994754791,-0.0599999986588955,2.94000005722046,1.17999994754791,0,0,0,0,0,45.0048027038574,0,0,0,0,-1.06581410364015E-15,4.44089209850063E-16,-7.105427357601E-16,0
0.019989013671875,-0.0599999986588955,2.94000005722046,1.17705690860748,-0.0600018659130177,2.93999925379318,1.18000108822432,0,0,0,0,0.937003672122955,44.8630027770996,-0.00115976633969694,3.71994488546079E-08,3.50004931704007E-08,-0.147149950265884,-0.000279680311988734,-0.000120338624884473,0.000170852338267345,5
0.0399932861328125,-0.0599999986588955,2.94000005722046,1.17018985748291,-0.060014863945674,2.93999366110285,1.18000902851964,0,0,0,0,1.87400352954865,44.7211418151855,-0.00311126722954214,3.70364325874561E-08,3.5142885934647E-08,-0.343349903821945,-0.00111059898697896,-0.000477859717552347,0.000678447590588643,6
0.05999755859375,-0.0599062219262123,2.94009447097778,1.16346514225006,-0.0600498857373401,2.93997859220429,1.18003042278566,3197.548,2848.816,1517.007,2782.242,1.40356075763702,44.741340637207,0.028959833085537,0.0046887663193047,0.00471893884241581,-0.336234629154205,-0.00247936261166862,-0.00106680046642749,0.00151460392977639,6
0.0800018310546875,-0.0597377866506577,2.94026732444763,1.15723752975464,-0.0601175574246769,2.93994947496775,1.18007176236346,2865.569,2651.698,2344.584,2562.293,0.339458614587784,44.8158149719238,0.0998864769935608,0.00842183083295822,0.00864457525312901,-0.311381936073303,-0.00437268608126799,-0.00188144466206175,0.00267120569262453,6
0.0999908447265625,-0.059556320309639,2.94046425819397,1.15151953697205,-0.0602281370710988,2.93990189563514,1.1801393137439,2239.838,2528.093,3138.061,2508.591,359.321350097656,44.9191131591797,0.178631111979485,0.00907337944954634,0.00984862074255943,-0.285901695489883,-0.00677536694902951,-0.00291525111632684,0.00413896594164447,5
0.1199951171875,-0.0594244487583637,2.94063210487366,1.146568775177,-0.0603918861403606,2.93983143898525,1.18023934549506,2123.527,2454.647,3352.138,2464.553,358.749847412109,44.9999008178711,0.253327608108521,0.00659362785518169,0.00839763507246971,-0.247538939118385,-0.00967801353495435,-0.00416417885169243,0.00591214744607921,5
0.139999389648438,-0.059383075684309,2.94074010848999,1.14257049560547,-0.0606185767455666,2.93973390035084,1.18037782724834,2312.496,2456.743,3068.972,2463.2,358.636169433594,45.0326614379883,0.326423346996307,0.00206869840621948,0.00539760151877999,-0.199915066361427,-0.0130660253322238,-0.00562194567796536,0.00798183098414958,5
0.159988403320313,-0.059443473815918,2.9407856464386,1.13952434062958,-0.0609175312885481,2.93960526856281,1.18056045391355,2536.712,2486.771,2635.259,2491.944,358.757019042969,45.0249786376953,0.398274898529053,-0.00301992753520608,0.00227848067879677,-0.15230792760849,-0.0169234294955564,-0.00728167892605071,0.0103382589939246,5
0.17999267578125,-0.0596002228558064,2.94078159332275,1.13730907440186,-0.0612985250199726,2.93944133760391,1.18079319703879,2666.212,2505.905,2302.79,2513.386,358.864379882813,44.9985618591309,0.467316418886185,-0.00783748552203178,-0.000198200810700655,-0.110764063894749,-0.0212433804254414,-0.00914043312572283,0.0129772496054864,5
0.199996948242188,-0.0598478130996227,2.94073987007141,1.13576102256775,-0.0617704296168641,2.93923829023936,1.1810814761931,2653.868,2500.302,2183.008,2508.391,358.817199707031,44.9743804931641,0.532876789569855,-0.0123795233666897,-0.00209190440364182,-0.0774004384875298,-0.0260104776919234,-0.0111915819022102,0.0158893949364944,5
0.220001220703125,-0.0601897649466991,2.94066214561462,1.13474547863007,-0.0623420644491781,2.93899233174064,1.18143067899198,2540.459,2470.543,2245.494,2478.958,358.612548828125,44.9636535644531,0.594581425189972,-0.017097570002079,-0.00388146191835403,-0.0507781282067299,-0.03121219533433,-0.0134297356845702,0.0190670430730375,5
0.239990234375,-0.0606390386819839,2.9405415058136,1.13419353961945,-0.0630214373585105,2.93870001655724,1.18184569730089,2411.755,2429.734,2374.131,2437.338,358.334564208984,44.9658966064453,0.652717709541321,-0.0224637035280466,-0.00603177398443222,-0.0275998916476965,-0.0368316683029241,-0.015847637913056,0.0224998914194052,5
0.259994506835938,-0.0612134262919426,2.94036602973938,1.13409042358398,-0.0638179029240226,2.93835731967507,1.18233224568626,2329.161,2391.759,2463.084,2398.737,358.076324462891,44.9739074707031,0.707698404788971,-0.0287193898111582,-0.00876869447529316,-0.00515558011829853,-0.0428651747123285,-0.0184436871643672,0.0261856663338995,4
0.279998779296875,-0.0619300007820129,2.94012498855591,1.13444066047668,-0.0647390625194898,2.93796097043536,1.18289496770872,2306.112,2365.279,2469.813,2370.437,357.887176513672,44.9803276062012,0.760534107685089,-0.0358286909759045,-0.0120572578161955,0.0175115037709475,-0.0492963837173861,-0.0212108567320638,0.0301143915580518,4
0.300003051757813,-0.0628015771508217,2.93981075286865,1.13523638248444,-0.0657927507678135,2.93750759781875,1.18353864941714,2317.608,2348.292,2415.48,2353.495,357.765106201172,44.9817733764648,0.811337769031525,-0.0435789413750172,-0.0157071426510811,0.0397889018058777,-0.0561132031658829,-0.0241439437008635,0.0342786801847687,4
0.319992065429688,-0.063836432993412,2.93942022323608,1.13644933700562,-0.0669855955880233,2.93699435001684,1.18426733970383,2334.861,2336.514,2342.57,2341.681,357.678619384766,44.9788360595703,0.860111176967621,-0.0517429076135159,-0.0195243768393993,0.0606492571532726,-0.0632980253096114,-0.0272353719486164,0.0386677759154339,4
0.339996337890625,-0.065040111541748,2.93895220756531,1.13803589344025,-0.068326768706371,2.93641728069206,1.18508664143323,2337.271,2324.451,2287.36,2330.276,357.594451904297,44.9741706848145,0.90647029876709,-0.0601840130984783,-0.0234040934592485,0.0793307572603226,-0.0708499516420146,-0.0304847548730522,0.0432811298664125,4
0.360000610351563,-0.0664176866412163,2.93840527534485,1.1399507522583,-0.0698225328270578,2.93577369517774,1.18600038039362,2322.738,2310.858,2261.322,2315.628,357.494720458984,44.970287322998,0.950762867927551,-0.0688786283135414,-0.0273428484797478,0.0957410782575607,-0.0787518717320621,-0.0338847303337087,0.0481082895423912,4
0.379989624023438,-0.0679750218987465,2.93777751922607,1.14215397834778,-0.0714784451857985,2.93506120235061,1.18701195141357,2295.609,2294.433,2260.676,2299.565,357.379852294922,44.9685325622559,0.992772459983826,-0.0778667256236076,-0.0313898883759975,0.110161438584328,-0.0869857157641562,-0.0374275233937465,0.0531382163749952,4
0.399993896484375,-0.0697190016508102,2.93706560134888,1.1446168422699,-0.0733036822025899,2.9342758538535,1.18812696022487,2267.972,2277.473,2269.14,2283.139,357.26171875,44.9687728881836,1.03227269649506,-0.0871990621089935,-0.0355980098247528,0.123141013085842,-0.0955525119207663,-0.0411135764513579,0.0583715384648505,4
0.419998168945313,-0.0716569125652313,2.93626570701599,1.14732038974762,-0.0753034649285836,2.93341540321397,1.18934859628618,2249.566,2263.217,2270.521,2267.363,357.152191162109,44.9698753356934,1.06996273994446,-0.0968953967094421,-0.039989672601223,0.135177984833717,-0.104434660908044,-0.0449353170220673,0.0637975046779765,4
0.44000244140625,-0.0737955272197723,2.93537473678589,1.1502480506897,-0.077483988232608,2.93247718495301,1.19068064394622,2237.99,2250.603,2263.228,2255.088,357.057006835938,44.971004486084,1.10573816299438,-0.106930956244469,-0.0445480048656464,0.146385848522186,-0.113620829717891,-0.048887868829098,0.0694091918565748,4
0.459991455078125,-0.0761407911777496,2.93438982963562,1.15338408946991,-0.0798493430620752,2.93145943885026,1.1921256023009,2232.23,2240.396,2248.638,2244.881,356.975463867188,44.9716567993164,1.13962376117706,-0.117263302206993,-0.04924076795578,0.156803891062737,-0.123092454730403,-0.0529632444654124,0.0751952597749251,4
0.479995727539063,-0.0786977112293243,2.93330907821655,1.15671110153198,-0.0824088828700873,2.93035814037613,1.19368918522879,2227.073,2231.463,2233.42,2236.428,356.903411865234,44.9719390869141,1.17140984535217,-0.127846047282219,-0.0540349185466766,0.166349932551384,-0.132852887402757,-0.0571628859694044,0.0811577557859174,4
0.5,-0.081470713019371,2.93213081359863,1.16021275520325,-0.085166398670376,2.92917165836334,1.195373708601,2223.096,2224.496,2218.942,2227.858,356.8359375,44.971996307373,1.20177328586578,-0.138650327920914,-0.0589121244847775,0.175080925226212,-0.142884000065179,-0.0614789935111996,0.0872856059789651,5
0.519989013671875,-0.0844638347625732,2.93085360527039,1.16387176513672,-0.0881248588203387,2.92789871561062,1.19718098574075,2215.315,2216.899,2211.018,2220.868,356.77001953125,44.972282409668,1.23042929172516,-0.149656310677528,-0.0638625994324684,0.182948932051659,-0.153166947611899,-0.0659034585682559,0.0935672981730243,5
0.539993286132813,-0.0876810550689697,2.92947578430176,1.16767346858978,-0.091293865515634,2.92653518056143,1.19911688247953,2206.221,2209.44,2208.104,2214.182,356.706237792969,44.9730072021484,1.25703608989716,-0.160860985517502,-0.0688890367746353,0.19008494913578,-0.163706645289342,-0.0704383960337938,0.100005835015435,5
0.55999755859375,-0.0911263525485992,2.92799592018127,1.17160785198212,-0.094676112580471,2.92507989413848,1.20118304443252,2200.467,2204.077,2204.127,2206.941,356.645782470703,44.9739456176758,1.28240728378296,-0.17226505279541,-0.0739961862564087,0.196716696023941,-0.17448465888317,-0.0750758741803766,0.106589955332319,5
0.580001831054688,-0.0948034822940826,2.92641234397888,1.17566478252411,-0.0982762614093182,2.92353085067394,1.20338231917284,2194.151,2198.318,2201.713,2201.906,356.589721679688,44.9750709533691,1.30623543262482,-0.183856189250946,-0.0791784077882767,0.202849149703979,-0.185490414529404,-0.0798113433697334,0.113313199715174,5
0.599990844726563,-0.0987159907817841,2.92472362518311,1.17983686923981,-0.102095761416081,2.92188742652551,1.20571559212485,2189.912,2193.744,2198.544,2197.299,356.538879394531,44.9762687683105,1.32854163646698,-0.19562566280365,-0.0844313204288483,0.208603903651237,-0.19670480600515,-0.0846365827279185,0.120163896470579,5
0.6199951171875,-0.102867141366005,2.92292881011963,1.18411695957184,-0.106144683970236,2.92014528826426,1.208189015731,2185.98,2189.574,2195.918,2193.834,356.493530273438,44.9775047302246,1.3490264415741,-0.207557544112206,-0.0897462218999863,0.214007318019867,-0.208134604141382,-0.0895545055543457,0.127146181793521,5
0.639999389648438,-0.107259958982468,2.92102646827698,1.18850100040436,-0.110424235525481,2.91830391678686,1.21080332699501,2185.857,2187.65,2190.205,2189.898,356.45263671875,44.9785385131836,1.36856341362,-0.219641417264938,-0.0951171517372131,0.219201385974884,-0.219761081350814,-0.0945570538913933,0.134248615293163,5
0.659988403320313,-0.111897110939026,2.91901588439941,1.19298279285431,-0.114934715429503,2.91636318329238,1.21355870878373,2183.342,2184.934,2187.489,2187.966,356.414764404297,44.9795913696289,1.38680386543274,-0.231857612729073,-0.100532993674278,0.224088951945305,-0.231565018351745,-0.0996359582190702,0.141459456210227,5
0.67999267578125,-0.116781085729599,2.91689610481262,1.19755756855011,-0.119686638739014,2.91431856344567,1.2164615845812,2180.277,2182.286,2187.222,2186.378,356.380065917969,44.980770111084,1.40328943729401,-0.244199022650719,-0.105990871787071,0.228736355900764,-0.243554411173546,-0.104794659005432,0.14878358919428,5
0.699996948242188,-0.121914342045784,2.91466617584229,1.202223777771,-0.124680083855354,2.91217002351282,1.2195120022816,2180.789,2181.914,2184.359,2183.729,356.348205566406,44.9818458557129,1.41900622844696,-0.25666344165802,-0.111491799354553,0.233310893177986,-0.255710395848158,-0.11002503961202,0.1562094905416,5
0.720001220703125,-0.127299070358276,2.91232562065125,1.20697820186615,-0.129918284978346,2.90991617190799,1.22271193760712,2178.892,2180.412,2184.328,2183.127,356.318756103516,44.9830017089844,1.43355822563171,-0.269235998392105,-0.117028139531612,0.237719222903252,-0.268023157655716,-0.11532287703907,0.163731164592979,5
0.739990234375,-0.132937356829643,2.90987372398376,1.21181952953339,-0.135400001298574,2.90755754251682,1.22606063256665,2178.077,2179.545,2184.537,2182.41,356.292022705078,44.984188079834,1.44688487052917,-0.281914114952087,-0.122599482536316,0.242063790559769,-0.280473432677602,-0.12067988256057,0.171336843321139,5
0.759994506835938,-0.138831123709679,2.90730977058411,1.21674644947052,-0.14113644597991,2.90508931062815,1.22956493710703,2176.565,2178.58,2186.145,2182.374,356.268829345703,44.9854469299316,1.45858681201935,-0.294688045978546,-0.128202065825462,0.246348187327385,-0.293070637251543,-0.126100107763583,0.179032279019858,5
0.779998779296875,-0.144982203841209,2.90463304519653,1.22176098823547,-0.147126184485884,2.90251209348295,1.2332239748923,2179.26,2179.934,2183.803,2181.196,356.248657226563,44.9864845275879,1.4697630405426,-0.307555079460144,-0.13383561372757,0.250729203224182,-0.305795832832518,-0.131575403921268,0.186805902427515,5
0.800003051757813,-0.151392146945,2.90184330940247,1.22686231136322,-0.153371683173492,2.89982482987671,1.23703925258147,2179.054,2179.821,2184.259,2182.157,356.230590820313,44.9875259399414,1.47994220256805,-0.320497274398804,-0.139490053057671,0.255065530538559,-0.318639638509124,-0.13710173468952,0.194651982891718,5
0.819992065429688,-0.158062398433685,2.89894008636475,1.2320511341095,-0.159870162197751,2.89702871589906,1.24100907201063,2179.58,2180.217,2185.109,2182.748,356.214569091797,44.9885559082031,1.4890410900116,-0.333512425422668,-0.145164981484413,0.259442061185837,-0.33158286215529,-0.142670842232658,0.202558796242139,5
0.839996337890625,-0.164994224905968,2.89592289924622,1.23732805252075,-0.166633637018892,2.89411858163313,1.24514077323692,2178.871,2180.26,2187.802,2183.84,356.201293945313,44.9896545410156,1.49660563468933,-0.346591800451279,-0.150857463479042,0.263843357563019,-0.344636106234817,-0.148287288494656,0.210532819358465,5
0.860000610351563,-0.172188922762871,2.8927915096283,1.24269664287567,-0.173659158941841,2.89109569582005,1.24943255494854,2182.49,2182.645,2186.27,2183.464,356.190368652344,44.9905395507813,1.50383508205414,-0.35973533987999,-0.156569272279739,0.268432170152664,-0.357780475378537,-0.153942943326036,0.218562509354528,5
0.879989624023438,-0.17964743077755,2.88954567909241,1.2481575012207,-0.18094280014554,2.88796174849148,1.2538820177009,2182.79,2183.205,2187.725,2185.297,356.180969238281,44.9914283752441,1.5101705789566,-0.372925758361816,-0.16229073703289,0.273044466972351,-0.370996904517929,-0.159629603560431,0.226636219677473,5
0.899993896484375,-0.187370643019676,2.88618516921997,1.25371193885803,-0.18849723509595,2.8847112861788,1.25849690412748,2182.365,2183.486,2191.036,2187.021,356.173950195313,44.9924049377441,1.51499056816101,-0.386159867048264,-0.168021485209465,0.277723699808121,-0.384296738353309,-0.165352150505452,0.234760880627692,5
0.919998168945313,-0.195359408855438,2.88270998001099,1.25936460494995,-0.196318384305134,2.8813460641717,1.26327472213274,2186.416,2186.317,2189.798,2186.948,356.1689453125,44.9931526184082,1.51955533027649,-0.399438828229904,-0.173764050006866,0.282633394002914,-0.397661187980262,-0.171102499820431,0.242925014356675,5
0.94000244140625,-0.203614324331284,2.87911987304688,1.26511645317078,-0.204407453948074,2.87786556348678,1.26821620855017,2186.896,2187.132,2191.613,2189.128,356.165222167969,44.9939041137695,1.52326762676239,-0.412744969129562,-0.179508939385414,0.28759291768074,-0.411081631631503,-0.176876941799768,0.251123353961324,5
0.959991455078125,-0.212135896086693,2.87541460990906,1.27097010612488,-0.212759000778906,2.87427212620069,1.27331803818581,2188.104,2188.437,2193.533,2190.561,356.163055419922,44.9946441650391,1.52607381343842,-0.426078408956528,-0.185257479548454,0.292683660984039,-0.424539267042903,-0.182667386354485,0.259344413431889,5
0.979995727539063,-0.220924496650696,2.87159442901611,1.27692747116089,-0.22138664033507,2.87055989392801,1.27858852855901,2187.834,2189.107,2197.163,2192.43,356.163391113281,44.995475769043,1.52745401859283,-0.439430683851242,-0.191006988286972,0.297869861125946,-0.438046240701377,-0.188479059778567,0.267595612867683,5
1,-0.229980558156967,2.86765933036804,1.28299391269684,-0.230284798736574,2.86673126495361,1.28402427467346,2192.516,2192.242,2195.5,2192.53,356.165771484375,44.9960250854492,1.52873027324677,-0.45280322432518,-0.196759626269341,0.30332139134407,-0.451584000205995,-0.194303979492187,0.275865618896484,5
1.01998901367188,-0.239304095506668,2.86360931396484,1.28917038440704,-0.239446912293295,2.86278906344998,1.2896212668733,2193.119,2193.153,2197.169,2194.947,356.169219970703,44.9965744018555,1.52924036979675,-0.4661765396595,-0.202504485845566,0.308825492858887,-0.46513400752272,-0.200134169097193,0.284143106922576,5
1.03999328613281,-0.248895049095154,2.85944437980652,1.29545867443085,-0.248887339851819,2.85872711120656,1.29538827675384,2192.697,2193.612,2200.896,2197.032,356.174621582031,44.9972305297852,1.52828168869019,-0.479548394680023,-0.208241909742355,0.314417541027069,-0.478708875293167,-0.205975055460915,0.292435781811908,5
1.05999755859375,-0.258753478527069,2.85516476631165,1.30186414718628,-0.258599401509697,2.85454828239877,1.3013212236669,2197.197,2196.83,2199.384,2196.914,356.181671142578,44.9976348876953,1.52730453014374,-0.492921680212021,-0.213975444436073,0.320271164178848,-0.492290296490434,-0.211818761581115,0.30073246008742,5
1.08000183105469,-0.268879055976868,2.85077095031738,1.30838751792908,-0.268583149539609,2.85025255453512,1.30742013954506,2197.451,2197.568,2201.326,2199.262,356.189544677734,44.9980659484863,1.5256028175354,-0.506277799606323,-0.219694972038269,0.326168596744537,-0.50587040849135,-0.217661904390701,0.309028338595312,5
1.09999084472656,-0.279271394014359,2.84626293182373,1.31503140926361,-0.278830554044452,2.84584338265603,1.31368011904947,2198.528,2198.714,2203.188,2200.691,356.198669433594,44.9985008239746,1.5230553150177,-0.519618511199951,-0.225402534008026,0.332196563482285,-0.519431110871131,-0.223496695782555,0.317312360068532,5
1.1199951171875,-0.289930135011673,2.84164094924927,1.32179749011993,-0.289357002179081,2.84131414609862,1.32011056195293,2197.823,2199.124,2206.877,2202.448,356.210144042969,44.9990272521973,1.51908147335052,-0.532935202121735,-0.231095835566521,0.338303327560425,-0.532985466132485,-0.229328756186667,0.32559250418615,5
1.13999938964844,-0.300854712724686,2.83690547943115,1.3286908864975,-0.300154365346813,2.83666834237095,1.32670650262257,2202.57,2202.255,2204.581,2202.082,356.223541259766,44.999267578125,1.51520144939423,-0.54623019695282,-0.236777514219284,0.344670593738556,-0.546515580872639,-0.235150386571708,0.333857840147634,5
1.15998840332031,-0.312044382095337,2.83205676078796,1.33571195602417,-0.31121353909136,2.83190988886621,1.33346237928811,2202.731,2202.746,2205.887,2204.314,356.237731933594,44.99951171875,1.51065135002136,-0.559482991695404,-0.242435827851295,0.351054906845093,-0.560003743914979,-0.240953966313175,0.342097548471566,6
1.17999267578125,-0.323498219251633,2.82709527015686,1.34286165237427,-0.322550701230474,2.8270318247214,1.34038807472597,2201.656,2202.682,2209.444,2206.107,356.253784179688,44.999885559082,1.50462925434113,-0.572691857814789,-0.248071193695068,0.357487946748734,-0.573463232144024,-0.246745208083563,0.350319739799517,6
1.19999694824219,-0.335215449333191,2.822021484375,1.35014486312866,-0.334156660511822,2.8220381046756,1.34747797414352,2206.078,2205.621,2207.066,2205.389,356.271331787109,44.9999961853027,1.4987245798111,-0.585860729217529,-0.253687918186188,0.3641597032547,-0.58687652428584,-0.252516572968185,0.358513710658656,6
1.22000122070313,-0.347194850444794,2.81683588027954,1.35756123065948,-0.346030421585499,2.81692915700008,1.35473146949704,2205.642,2205.797,2208.568,2207.335,356.289520263672,45.0001487731934,1.4921600818634,-0.59896981716156,-0.259275168180466,0.370820224285126,-0.600236516861372,-0.258265004538453,0.366675121644476,6
1.239990234375,-0.359435260295868,2.81153917312622,1.36511254310608,-0.358161486344149,2.81170949873715,1.36214214765657,2206.078,2206.417,2209.979,2208.176,356.308776855469,45.0003242492676,1.48484289646149,-0.61202210187912,-0.264835506677628,0.377563655376434,-0.613526094901141,-0.263983138701136,0.374793517489195,6
1.25999450683594,-0.371935427188873,2.8061318397522,1.37279915809631,-0.3705671011502,2.80637170925886,1.36972054415578,2204.578,2206.069,2213.308,2209.487,356.330444335938,45.0006217956543,1.47605788707733,-0.625009059906006,-0.270366489887238,0.384332269430161,-0.626758665639206,-0.269676744214496,0.382877088462885,6
1.27999877929688,-0.38469409942627,2.80061435699463,1.38062560558319,-0.383236695417198,2.80092033679326,1.37746020158837,2209.101,2208.796,2209.993,2208.319,356.353942871094,45.0006141662598,1.46749722957611,-0.637933552265167,-0.275871157646179,0.391322910785675,-0.639917282339435,-0.275338529371412,0.39091548206889,6
1.29998779296875,-0.397709608078003,2.79498767852783,1.38859081268311,-0.396158759015336,2.79536033382764,1.38535408859565,2208.434,2208.602,2210.742,2210.003,356.378112792969,45.0006370544434,1.45833551883698,-0.650774002075195,-0.281336843967438,0.39826238155365,-0.652985332144132,-0.280961346123326,0.398898549771684,6
1.31999206542969,-0.41098016500473,2.78925228118896,1.39669466018677,-0.409351342777246,2.78968393359302,1.39341323214959,2206.536,2207.723,2213.83,2211.26,356.404174804688,45.0008010864258,1.44765317440033,-0.663529694080353,-0.28676450252533,0.405190408229828,-0.665976209205206,-0.286550957599616,0.406834473849655,6
1.33999633789063,-0.424504280090332,2.78340911865234,1.40494084358215,-0.422802873722428,2.78389611561957,1.401630562497,2210.595,2210.224,2210.479,2209.641,356.431640625,45.0007019042969,1.43723714351654,-0.676204860210419,-0.292158544063568,0.412309736013412,-0.678873453515705,-0.29210028151913,0.41471319914141,6
1.36000061035156,-0.438279867172241,2.77745890617371,1.4133278131485,-0.436511415158101,2.77799771321212,1.41000489654248,2209.327,2209.595,2211.373,2211.06,356.459625244141,45.0006675720215,1.42619097232819,-0.688779532909393,-0.297507643699646,0.419348180294037,-0.691670720740693,-0.297606588091785,0.422530849991739,6
1.37998962402344,-0.452305018901825,2.77140259742737,1.42185604572296,-0.450464156928423,2.77199423822282,1.41852840876173,2209.03,2209.518,2212.169,2211.2,356.488616943359,45.0006790161133,1.41442346572876,-0.701257228851318,-0.302814781665802,0.426408916711807,-0.704352136620515,-0.303063047067127,0.430277729063129,6
1.39999389648438,-0.466577619314194,2.76524114608765,1.43052458763123,-0.464680216184654,2.76587746507559,1.42721277752413,2206.618,2208.406,2215.062,2211.863,356.520050048828,45.0008354187012,1.40117061138153,-0.713629722595215,-0.3080775141716,0.433429509401321,-0.716930938559026,-0.308475354130225,0.437961922879032,6
1.41999816894531,-0.481095612049103,2.75897526741028,1.43933713436127,-0.47914673136562,2.75965292774086,1.43605014590267,2210.843,2210.591,2210.703,2209.855,356.553375244141,45.0006713867188,1.38825178146362,-0.725900232791901,-0.313298940658569,0.440625756978989,-0.729391385793766,-0.313836736470737,0.445573815653291,6
1.44000244140625,-0.495856553316116,2.75260591506958,1.44829118251801,-0.493861275572861,2.75332167044526,1.44503903134294,2209.37,2209.656,2210.798,2210.96,356.587280273438,45.0005531311035,1.3747730255127,-0.738046884536743,-0.318466037511826,0.44770011305809,-0.741727567798258,-0.319144650954242,0.453109796737511,6
1.45999145507813,-0.510857999324799,2.74613428115845,1.45738637447357,-0.508809800712713,2.74688973769103,1.45417085208374,2208.786,2209.189,2211,2210.799,356.6220703125,45.0004615783691,1.36060452461243,-0.750073134899139,-0.323581457138062,0.454757153987885,-0.753924423002454,-0.324392617007921,0.460560665253582,6
1.47999572753906,-0.526097416877747,2.7395613193512,1.46662104129791,-0.524012471663969,2.74034845309416,1.46345792653486,2205.848,2207.664,2213.635,2211.138,356.659118652344,45.0005531311035,1.34494245052338,-0.761971294879913,-0.328642964363098,0.461732536554337,-0.765994882555672,-0.329586198544069,0.467934320638836,6
1.5,-0.541572332382202,2.73288822174072,1.47599816322327,-0.539455198877605,2.73370387899399,1.47289164761066,2209.775,2209.561,2208.917,2208.636,356.697875976563,45.0003242492676,1.32969343662262,-0.773745179176331,-0.333654403686523,0.468853920698166,-0.777924000354858,-0.334718964672088,0.475221632552146,6
1.51998901367188,-0.557279825210571,2.72611618041992,1.48551452159882,-0.555123050061237,2.72696244033876,1.48246289340675,2207.8,2208.18,2208.828,2209.455,356.737121582031,45.0001449584961,1.31389629840851,-0.785373985767365,-0.338602900505066,0.475817680358887,-0.789697369743256,-0.339784716610053,0.482413800191712,6
1.53999328613281,-0.573217034339905,2.71924638748169,1.49516797065735,-0.571036956668503,2.72011513090874,1.49218445062151,2204.505,2206.146,2211.352,2209.752,356.778259277344,45.000186920166,1.29654717445374,-0.796858072280884,-0.343490034341812,0.482672959566116,-0.801327600455846,-0.344788879974649,0.489518526647862,6
1.55999755859375,-0.589381039142609,2.71228003501892,1.50496101379395,-0.587181951496087,2.71316839067337,1.50204717602401,2208.094,2207.83,2206.583,2206.888,356.820831298828,44.9999160766602,1.27961754798889,-0.808201909065247,-0.348320245742798,0.489651381969452,-0.812800388649436,-0.349725300221754,0.496527073925997,6
1.58000183105469,-0.605768740177155,2.70521831512451,1.51488995552063,-0.60355483331529,2.70612359703193,1.51204911403357,2205.674,2206.187,2206.554,2207.428,356.863830566406,44.9997406005859,1.26215302944183,-0.819385945796967,-0.353081911802292,0.496448874473572,-0.824110582941666,-0.354591760855452,0.503436295127019,6
1.59999084472656,-0.622376978397369,2.69806265830994,1.52495360374451,-0.620139554045575,2.69898765502515,1.52218046112824,2204.39,2205.103,2206.464,2206.636,356.907745361328,44.9996299743652,1.24403166770935,-0.830414533615112,-0.357778072357178,0.503182828426361,-0.835244706287931,-0.359382463079953,0.510237957334684,5
1.6199951171875,-0.63920259475708,2.69081449508667,1.53514933586121,-0.636958033083316,2.69175113334911,1.53245460752521,2200.774,2202.953,2208.715,2206.462,356.954193115234,44.999698638916,1.22440218925476,-0.841280221939087,-0.362406581640244,0.509787917137146,-0.846214826007804,-0.364102599125749,0.516939432286212,5
1.63999938964844,-0.656242311000824,2.68347501754761,1.54547941684723,-0.653994195024907,2.68442094880091,1.54286173301126,2204.622,2204.437,2203.03,2203.291,357.00244140625,44.9994125366211,1.20528101921082,-0.851985931396484,-0.366970360279083,0.51650482416153,-0.857007552155828,-0.368746407673381,0.523532540272869,5
1.65998840332031,-0.673492550849915,2.6760458946228,1.55593955516815,-0.67123120513297,2.67700434489773,1.55339155350804,2202.095,2202.547,2202.318,2203.672,357.051116943359,44.9992027282715,1.18567562103271,-0.862511277198792,-0.371456384658813,0.523008525371552,-0.867610144209785,-0.373308406832068,0.530009498308446,5
1.67999267578125,-0.690949678421021,2.66852855682373,1.56652665138245,-0.688691692550512,2.66949158495151,1.56405789280588,2198.17,2199.932,2204.445,2203.569,357.101593017578,44.9992027282715,1.16450572013855,-0.872857213020325,-0.375866174697876,0.529353439807892,-0.878034183119987,-0.377793579561193,0.536377381014768,5
1.69999694824219,-0.70861029624939,2.66092443466187,1.57724237442017,-0.706358800111611,2.66188992212981,1.57485045312518,2201.568,2201.257,2198.984,2200.054,357.1533203125,44.9989013671875,1.14386582374573,-0.883027851581573,-0.380204439163208,0.535785675048828,-0.888267004546665,-0.382196476749158,0.542628451944297,5
1.72000122070313,-0.726470410823822,2.65323519706726,1.58808207511902,-0.724228658537036,2.6542010212754,1.58576687078363,2198.482,2199.094,2198.66,2200.223,357.205291748047,44.9987030029297,1.12273859977722,-0.89300549030304,-0.384460002183914,0.541986048221588,-0.898304216251578,-0.386515208538549,0.548760027947228,5
1.739990234375,-0.744526326656342,2.64546251296997,1.59904372692108,-0.74228345468553,2.64643254688532,1.59679626401121,2196.749,2197.541,2198.209,2198.987,357.258117675781,44.9985847473145,1.10099041461945,-0.902795076370239,-0.388636380434036,0.548085451126099,-0.908134108040217,-0.390744736359816,0.554764955448471,5
1.75999450683594,-0.762774050235748,2.63760781288147,1.61012399196625,-0.760546715064628,2.63857437616062,1.60795300478424,2192.535,2194.923,2200.239,2198.442,357.313415527344,44.998664855957,1.07772994041443,-0.912389934062958,-0.392731726169586,0.554015278816223,-0.917767514700581,-0.394889722119545,0.560649853250941,4
1.77999877929688,-0.781209945678711,2.62967276573181,1.62132453918457,-0.779000609654483,2.63063418086074,1.61922620102184,2196.288,2196.161,2193.949,2194.653,357.370483398438,44.9983749389648,1.05513095855713,-0.921792268753052,-0.396748632192612,0.560030221939087,-0.927192788821983,-0.398945154262308,0.566407606133204,4
1.79998779296875,-0.799829602241516,2.62165927886963,1.63264036178589,-0.797626646773287,2.62261991743975,1.63060455644414,2193.286,2193.781,2192.886,2194.819,357.427825927734,44.9981460571289,1.0320862531662,-0.93098372220993,-0.400674611330032,0.565791249275208,-0.936399026186941,-0.402906341007953,0.572031552878955,4
1.81999206542969,-0.818628907203674,2.61356902122498,1.64406752586365,-0.816448984455027,2.61452119137054,1.64210282881713,2188.883,2190.791,2194.766,2194.387,357.486907958984,44.9981727600098,1.00749552249908,-0.939965665340424,-0.404511272907257,0.571358382701874,-0.945396434568188,-0.406777674475912,0.57752792925727,3
1.83999633789063,-0.837603688240051,2.60540366172791,1.65560734272003,-0.835449117627072,2.60634596486888,1.6537097136807,2192.209,2191.843,2188.789,2190.391,357.547149658203,44.997859954834,0.983539462089539,-0.948741495609283,-0.408263117074966,0.576988339424133,-0.954174163352093,-0.410554485950274,0.582890106797601,3
1.86000061035156,-0.856749653816223,2.59716534614563,1.66725432872772,-0.854622615239374,2.59809614449182,1.66542250417552,2188.692,2189.348,2188.192,2190.296,357.607421875,44.9976806640625,0.959173738956451,-0.957295775413513,-0.411919713020325,0.582350850105286,-0.962728579444532,-0.414235212212131,0.588115866099442,0
1.87998962402344,-0.876062333583832,2.5888557434082,1.67900598049164,-0.873950157556149,2.58978004298193,1.67722939817649,2186.633,2187.41,2187.491,2188.817,357.668365478516,44.9975700378418,0.934204816818237,-0.965633690357208,-0.415484607219696,0.587583959102631,-0.971049893464309,-0.417815641164241,0.593199226982579,0
1.89999389648438,-0.895537316799164,2.58047652244568,1.69085836410522,-0.893456683142228,2.58138692997148,1.6891456302637,2181.983,2184.537,2189.374,2187.976,357.731750488281,44.9976806640625,0.907758951187134,-0.973749577999115,-0.41895654797554,0.592618703842163,-0.979147395688901,-0.421299770153459,0.598145864732551,0
1.91999816894531,-0.915170133113861,2.57202982902527,1.70281279087067,-0.913122862707269,2.57292512231409,1.7011593924753,2185.717,2185.554,2182.678,2183.78,357.796752929688,44.9973983764648,0.882087051868439,-0.981644570827484,-0.422337681055069,0.597719967365265,-0.987011339258123,-0.424683405378145,0.60294982514457,0
1.94000244140625,-0.934956192970276,2.56351757049561,1.71486353874207,-0.932943991899774,2.5643966441608,1.71326781099638,2182.43,2182.901,2181.325,2183.771,357.861846923828,44.9971961975098,0.856040358543396,-0.989303231239319,-0.425616532564163,0.602540493011475,-0.994638524886308,-0.427965170275055,0.607609153824943,0
1.95999145507813,-0.954890787601471,2.55494165420532,1.72700774669647,-0.952900013794853,2.55581012544606,1.7254586333645,2180.349,2180.924,2180.227,2182.188,357.927398681641,44.9970664978027,0.82945191860199,-0.996729791164398,-0.428796052932739,0.607210040092468,-1.00202031904361,-0.431141350077486,0.612118576685011,0
1.97999572753906,-0.974969208240509,2.54630422592163,1.73924100399017,-0.973016570682103,2.54715453300902,1.73774752405424,2175.461,2177.912,2182.056,2181.291,357.995025634766,44.9971618652344,0.801412045955658,-1.00391983985901,-0.431875675916672,0.611661612987518,-1.00916501115878,-0.434215511495054,0.616483157607448,0
2,-0.995186686515808,2.53760695457458,1.75156438350677,-0.993273599084619,2.53843849960327,1.75012222660065,2179.109,2178.778,2175.344,2176.939,358.063934326172,44.996883392334,0.77417117357254,-1.0108745098114,-0.434857964515686,0.616168856620789,-1.01606400046349,-0.437183953857422,0.620697642517089,0
2.01998901367188,-1.01553821563721,2.52885222434998,1.76397204399109,-1.01365055070775,2.52967086658596,1.76257018837116,2175.479,2176.081,2174.178,2176.753,358.1328125,44.9967041015625,0.746640086174011,-1.01758074760437,-0.43773278594017,0.62038117647171,-1.02270954399163,-0.440043345582587,0.624757301356767,0
2.03999328613281,-1.03601896762848,2.52004218101501,1.77645933628082,-1.03417354141348,2.52084039703127,1.77510736313833,2170.507,2172.649,2176.01,2176.111,358.203277587891,44.9967803955078,0.717622518539429,-1.02404093742371,-0.440502136945724,0.624367594718933,-1.02910913225408,-0.442796909628122,0.628666709962695,0
2.05999755859375,-1.05662405490875,2.51117873191833,1.78902733325958,-1.05482201812353,2.5119559343546,1.78772119534738,2173.915,2173.42,2169.552,2171.62,358.274688720703,44.9965057373047,0.689385056495667,-1.03025639057159,-0.443169564008713,0.628398180007935,-1.03525504859546,-0.445441325732794,0.632421154350513,0
2.08000183105469,-1.07734847068787,2.50226426124573,1.8016699552536,-1.07559088172821,2.50301967256038,1.80040857003175,2170.001,2170.641,2168.665,2171.35,358.345916748047,44.9963607788086,0.660840332508087,-1.03621637821198,-0.44572639465332,0.632128596305847,-1.04114485287423,-0.447975543971863,0.636019143875825,0
2.09999084472656,-1.09818696975708,2.49330067634583,1.81438398361206,-1.09645901288412,2.49404069871208,1.81315658571413,2167.704,2168.449,2167.69,2169.597,358.417541503906,44.9962882995605,0.631803452968597,-1.04192554950714,-0.448176056146622,0.635703384876251,-1.04677201701582,-0.450396755497224,0.639456690639761,0
2.1199951171875,-1.11913442611694,2.48429036140442,1.82716500759125,-1.11745308225396,2.48500753716864,1.82598153508617,2162.67,2165.358,2169.404,2168.568,358.491394042969,44.996452331543,0.601389288902283,-1.04738008975983,-0.450517982244492,0.639052987098694,-1.0521429102862,-0.45270770082608,0.642737685527497,0
2.13999938964844,-1.14018607139587,2.47523522377014,1.84001410007477,-1.138551967509,2.47592927627801,1.83887051484687,2166.572,2166.127,2162.279,2164.009,358.566467285156,44.9961891174316,0.571891665458679,-1.05257904529572,-0.452753454446793,0.642452776432037,-1.05725102347782,-0.454905579228273,0.645858152165725,0
2.15998840332031,-1.16133630275726,2.46613764762878,1.85292494297028,-1.15973418543027,2.46681515966915,1.85181040123298,2162.818,2163.279,2160.881,2163.875,358.641326904297,44.9960174560547,0.542137801647186,-1.05751240253448,-0.454873204231262,0.645541071891785,-1.06209075728,-0.456987981476842,0.64881467002292,0
2.17999267578125,-1.18257999420166,2.45700001716614,1.86589276790619,-1.18102676265167,2.45765355853653,1.86481770439342,2157.725,2159.823,2162.566,2163.132,358.717559814453,44.9961090087891,0.510965287685394,-1.06218266487122,-0.456879645586014,0.648390531539917,-1.06666760390386,-0.458957270716794,0.65161059420515,0
2.19999694824219,-1.20391178131104,2.44782447814941,1.87891817092896,-1.20240821395574,2.44845371736898,1.8778792993441,2161.176,2160.502,2156.004,2158.452,358.79443359375,44.9958572387695,0.480675846338272,-1.06658971309662,-0.458775639533997,0.651273250579834,-1.07097597819164,-0.460811043810786,0.654242512826705,0
2.22000122070313,-1.22532629966736,2.4386134147644,1.89199507236481,-1.22387315175433,2.43921795429519,1.89099189489151,2157.085,2157.635,2155.106,2158.16,358.870819091797,44.995735168457,0.450159639120102,-1.07072687149048,-0.460554391145706,0.653844475746155,-1.07501419914593,-0.462548577472581,0.656709398992482,0
2.239990234375,-1.24681830406189,2.42936897277832,1.90512013435364,-1.24539969505118,2.42995568409656,1.90414212427648,2154.672,2155.392,2154.148,2156.303,358.947387695313,44.9956970214844,0.419252932071686,-1.07459843158722,-0.462219208478928,0.65625125169754,-1.07877792518082,-0.464168003639063,0.659008600495412,0
2.25999450683594,-1.26838231086731,2.42009353637695,1.91828858852386,-1.26701526177039,2.4206551096063,1.91734673668097,2149.49,2152.198,2155.867,2155.304,359.026000976563,44.9958915710449,0.387015402317047,-1.07820224761963,-0.463770240545273,0.658425867557526,-1.08227143928024,-0.465671165158559,0.661142733743536,0
2.27999877929688,-1.2900128364563,2.41078948974609,1.93150150775909,-1.28869796983554,2.41132564607061,1.93059236468599,2153.467,2152.913,2148.706,2150.573,359.105682373047,44.9956588745117,0.355784624814987,-1.08153533935547,-0.465207993984222,0.660644710063934,-1.08549040888332,-0.467056197851165,0.663109152043028,0
2.29998779296875,-1.31170463562012,2.40145897865295,1.94475245475769,-1.31042570636616,2.40197680804417,1.9438654998779,2149.731,2150.056,2147.154,2150.425,359.184906005859,44.9955177307129,0.324395149946213,-1.08459186553955,-0.466524988412857,0.66254848241806,-1.08843144721369,-0.468321644481621,0.664905786465049,0
2.31999206542969,-1.33345222473145,2.3921046257019,1.95803654193878,-1.33222611841886,2.3925966997709,1.95718303141218,2144.468,2146.562,2148.864,2149.725,359.265319824219,44.9956398010254,0.291650772094727,-1.08737444877625,-0.467723459005356,0.664203345775604,-1.09109790637238,-0.469468947365361,0.666534684755819,0
2.33999633789063,-1.35524988174438,2.38272857666016,1.97135424613953,-1.35407709248145,2.38319483607731,1.97053145048929,2148.019,2147.154,2142.298,2144.942,359.346099853516,44.9953956604004,0.259855657815933,-1.08988106250763,-0.46880567073822,0.665887176990509,-1.09348640563071,-0.470496651869278,0.667993781680938,0
2.36000061035156,-1.37709200382233,2.3733332157135,1.98469936847687,-1.37597305876702,2.37377361348711,1.98390735461333,2143.856,2144.336,2141.38,2144.621,359.426177978516,44.9952926635742,0.227937534451485,-1.09210908412933,-0.469766736030579,0.667255520820618,-1.09559602313537,-0.471404361345641,0.669282514094601,0
2.37998962402344,-1.39897322654724,2.36392068862915,1.99806845188141,-1.39789168475144,2.36434264106153,1.9972971011938,2141.43,2142.097,2140.417,2142.732,359.506256103516,44.9952774047852,0.195746913552284,-1.09406232833862,-0.470609545707703,0.668455064296722,-1.09742465646102,-0.47219117117957,0.670399597657984,0
2.39999389648438,-1.42088794708252,2.35449409484863,2.01145672798157,-1.41986083522252,2.35488992936084,2.01071771239474,2136.205,2138.916,2142.111,2141.776,359.588195800781,44.9954948425293,0.162332624197006,-1.09573996067047,-0.471334844827652,0.669419705867767,-1.09897439291323,-0.472857979480329,0.671346307473475,0
2.41999816894531,-1.44283080101013,2.34505558013916,2.02486515045166,-1.44185817738692,2.34542508756209,2.02415554546122,2140.334,2139.48,2134.934,2137.066,359.6708984375,44.9952850341797,0.129951998591423,-1.09713733196259,-0.471942156553268,0.670425593852997,-1.10024313330221,-0.473403883025206,0.672121361178802,0
2.44000244140625,-1.4647958278656,2.33560705184937,2.03828740119934,-1.46387808506052,2.33595053645515,2.03760716344514,2136.484,2136.665,2133.451,2136.95,359.7529296875,44.9951667785645,0.0974491834640503,-1.09825277328491,-0.472426176071167,0.67111200094223,-1.10123038958312,-0.473828671822132,0.672724460634977,0
2.45999145507813,-1.48677754402161,2.3261513710022,2.05171990394592,-1.48589810917879,2.32647593524532,2.05105885256329,2134.181,2134.59,2132.233,2135.008,359.834655761719,44.9951248168945,0.0647672191262245,-1.0990891456604,-0.472789525985718,0.67162024974823,-1.10193535162022,-0.474131997292339,0.673155110942729,0
2.47999572753906,-1.50877022743225,2.31669068336487,2.06515765190125,-1.50794623031618,2.31698924467309,2.06452770571198,2128.99,2131.38,2133.847,2134.157,359.917785644531,44.9953308105469,0.030898429453373,-1.09964716434479,-0.473033517599106,0.671888411045074,-1.10235882472314,-0.474314205938057,0.673413804053135,0
2.5,-1.53076875209808,2.30722761154175,2.07860136032104,-1.52999999932945,2.30750012397766,2.0780000090599,2132.868,2132.01,2127.052,2129.314,0.00135025556664914,44.9951133728027,-0.00181919534225017,-1.09992146492004,-0.473158061504364,0.67218679189682,-1.10250000050292,-0.474374949932098,0.673500046133994,0
2.51998901367188,-1.55276727676392,2.29776430130005,2.09204483032227,-1.5520369476803,2.29801824074336,2.09146203692764,2128.909,2129.11,2125.813,2129.281,0.0841043367981911,44.9950180053711,359.965393066406,-1.09991371631622,-0.473159223794937,0.672169983386993,-1.10235904000526,-0.474314298567936,0.67341393556562,0
2.53999328613281,-1.57475960254669,2.2883038520813,2.10548305511475,-1.57408507527774,2.28853154739156,2.10493089402267,2123.7,2125.783,2127.533,2128.547,0.167789161205292,44.9951972961426,359.931427001953,-1.09962666034698,-0.473039567470551,0.671910762786865,-1.10193578218388,-0.474132182551855,0.673155373967352,0
2.55999755859375,-1.59674084186554,2.27884793281555,2.11891651153564,-1.59612191359838,2.27904971150017,2.11839285467467,2127.492,2126.309,2121.01,2123.725,0.251491904258728,44.9949913024902,359.898559570313,-1.09905505180359,-0.47279965877533,0.671678900718689,-1.10123038958312,-0.473828671822132,0.672724460634977,0
2.58000183105469,-1.61870491504669,2.26939916610718,2.1323390007019,-1.61814182127198,2.26957516039323,2.13184447265859,2123.222,2123.551,2120.2,2123.565,0.334222048521042,44.9949340820313,359.865661621094,-1.09820282459259,-0.472437262535095,0.671129882335663,-1.10024313330221,-0.473403883025206,0.672121361178803,0
2.59999084472656,-1.64064633846283,2.25996017456055,2.145747423172,-1.64012239440973,2.26011753383818,2.14527206178836,2120.979,2121.399,2119.199,2121.704,0.416609913110733,44.9949493408203,359.832672119141,-1.09707248210907,-0.47195491194725,0.670416355133057,-1.09897546783438,-0.47285844198887,0.671346964126033,0
2.6199951171875,-1.66255950927734,2.25053310394287,2.15913677215576,-1.66209156852628,2.2506648119635,2.15869268743396,2115.949,2118.352,2120.709,2120.882,0.500430107116699,44.9951858520508,359.798583984375,-1.09566533565521,-0.471354097127914,0.669472575187683,-1.09742594550583,-0.472191725819537,0.67040038511534,0
2.63999938964844,-1.68443894386292,2.24112033843994,2.17250800132751,-1.68402693989188,2.24122663446822,2.17209266350648,2119.988,2118.948,2113.936,2116.109,0.584567666053772,44.9949989318848,359.765716552734,-1.09397387504578,-0.470633298158646,0.66855776309967,-1.09559602313537,-0.471404361345641,0.669282514094601,0
2.65998840332031,-1.70627903938293,2.23172450065613,2.18585467338562,-1.70590622088595,2.23181259109281,2.18545837484632,2116.21,2116.245,2112.561,2116.085,0.667707026004791,44.9949073791504,359.732879638672,-1.09200346469879,-0.469790309667587,0.667333900928497,-1.09348812118877,-0.470497390025984,0.667994829688588,0
2.67999267578125,-1.72807431221008,2.22234797477722,2.1991720199585,-1.72775723139253,2.2224107117184,2.19880681618649,2111.211,2112.983,2114.102,2115.513,0.751443028450012,44.9950790405273,359.699005126953,-1.08975672721863,-0.468827337026596,0.665871262550354,-1.09109983431736,-0.469469776906228,0.666535862507326,0
2.69999694824219,-1.74981880187988,2.21299314498901,2.2124605178833,-1.74955768413056,2.21303058593937,2.21212437257479,2114.809,2113.463,2107.996,2110.781,0.834866940975189,44.9949035644531,359.666259765625,-1.08722710609436,-0.467744469642639,0.664424955844879,-1.08843358680109,-0.468322565086308,0.664907093505606,0
2.72000122070313,-1.77150726318359,2.20366215705872,2.22571396827698,-1.77130202882336,2.20367460188472,2.22540765343382,2110.794,2110.869,2107.137,2110.601,0.917060256004333,44.9948501586914,359.633636474609,-1.08442258834839,-0.466541588306427,0.662676990032196,-1.08549040888332,-0.467056197851165,0.663109152043028,0
2.739990234375,-1.7931342124939,2.19435787200928,2.238929271698,-1.79296822271738,2.1943522439355,2.23864319318939,2108.482,2108.775,2106.332,2108.868,0.998663306236267,44.9948959350586,359.600952148438,-1.08134508132935,-0.465220838785172,0.660762906074524,-1.08227399942825,-0.465672266718727,0.661144297698006,0
2.75999450683594,-1.81469416618347,2.18508219718933,2.25210189819336,-1.81458384274179,2.18505164650952,2.2518478381572,2103.669,2105.851,2107.782,2108.134,1.08144152164459,44.9951477050781,359.567291259766,-1.0779972076416,-0.463784426450729,0.658629834651947,-1.07878069424208,-0.464169195088763,0.659010292071722,0
2.77999877929688,-1.83618152141571,2.17583751678467,2.26523232460022,-1.83612684690458,2.17578229366013,2.2650081232283,2107.64,2106.429,2101.34,2103.455,1.16428029537201,44.9949836730957,359.534912109375,-1.07436990737915,-0.462230026721954,0.656521201133728,-1.07501419914593,-0.462548577472581,0.656709398992482,0
2.79998779296875,-1.85759103298187,2.16662621498108,2.2783145904541,-1.85757544288233,2.1665535620153,2.27811073581237,2104.045,2103.898,2099.982,2103.464,1.24593162536621,44.9949150085449,359.502716064453,-1.07047247886658,-0.460557341575623,0.654116928577423,-1.07097916161324,-0.460812413548163,0.654244457529281,0
2.81999206542969,-1.87891697883606,2.15745115280151,2.291344165802,-1.87895695992541,2.1573536925621,2.29117237092199,2099.217,2100.816,2101.473,2102.984,1.32792270183563,44.9950981140137,359.469604492188,-1.06630766391754,-0.458768397569656,0.65148138999939,-1.06667099276523,-0.458958728849171,0.651612664407684,0
2.83999633789063,-1.90015459060669,2.14831399917603,2.3043212890625,-1.90024960698239,2.14819206138118,2.30417971674389,2102.888,2101.206,2095.585,2098.439,1.40928971767426,44.9949226379395,359.437652587891,-1.06186723709106,-0.456862509250641,0.648861765861511,-1.06209435025759,-0.456989527434725,0.648816864916866,0
2.86000061035156,-1.92129755020142,2.13921713829041,2.3172402381897,-1.9214480311499,2.13907097167731,2.31712950327294,2098.823,2098.76,2094.959,2098.367,1.48923408985138,44.9949035644531,359.405883789063,-1.05716323852539,-0.454841554164886,0.645947277545929,-1.05725102347782,-0.454905579228273,0.645858152165725,0
2.87998962402344,-1.94234156608582,2.13016319274902,2.33009791374207,-1.94253086194772,2.12999961857111,2.33000867561624,2096.818,2096.896,2094.112,2096.59,1.56836318969727,44.9949607849121,359.374237060547,-1.05219638347626,-0.452707320451736,0.642880499362946,-1.05214690704168,-0.452709420518306,0.642740127083052,0
2.89999389648438,-1.96328091621399,2.12115359306335,2.34289002418518,-1.96352501326936,2.1209664217661,2.34283367505136,2092.135,2094.074,2095.56,2096.07,1.64836716651917,44.9952239990234,359.341766357422,-1.04697108268738,-0.450462341308594,0.639601111412048,-1.04677621342161,-0.450398561093403,0.639459254158576,0
2.91999816894531,-1.98411047458649,2.11219167709351,2.35561680793762,-1.98440911693069,2.11198057539494,2.35559144808806,2096.003,2094.689,2089.539,2091.49,1.72817254066467,44.9950790405273,359.310607910156,-1.04147708415985,-0.448103874921799,0.636344015598297,-1.04114485287423,-0.447975543971863,0.636019143875825,0
2.93998718261719,-2.00482535362244,2.10327863693237,2.36827301979065,-2.00516218376194,2.10305111051103,2.36826917277004,2092.703,2092.166,2088.179,2091.719,1.80658805370331,44.9950294494629,359.279663085938,-1.03572690486908,-0.44563302397728,0.632810354232788,-1.03525963910674,-0.445443300901551,0.632423958622216,0
2.95999145507813,-2.02541947364807,2.09441781044006,2.38085412979126,-2.02581075424974,2.0941666074844,2.38088306226645,2088.023,2089.472,2089.679,2091.187,1.88507544994354,44.9952201843262,359.248016357422,-1.02972328662872,-0.443052172660828,0.629053890705109,-1.02911391720548,-0.442798968459032,0.628669633014836,0
2.97999572753906,-2.04588890075684,2.08561062812805,2.39336037635803,-2.04633384260397,2.08533609591429,2.39342029668558,2091.747,2089.816,2084.082,2086.84,1.96265077590942,44.9950752258301,359.217590332031,-1.02345716953278,-0.440359801054001,0.625315606594086,-1.02271452148052,-0.440045487257004,0.624760342027062,0
3,-2.06622767448425,2.07685947418213,2.40578627586365,-2.06672639957428,2.07656174835205,2.40587779151916,2087.805,2087.492,2083.587,2086.937,2.0385901927948,44.9950714111328,359.187408447266,-1.01694369316101,-0.437559366226196,0.621296286582947,-1.01606400046349,-0.437183953857422,0.620697642517089,0
3.01998901367188,-2.08643102645874,2.06816649436951,2.41812896728516,-2.0869680292999,2.06785234056679,2.41824308725414,2085.98,2085.766,2082.834,2085.289,2.11347913742065,44.9951438903809,359.157440185547,-1.0101832151413,-0.434652417898178,0.617135524749756,-1.00917036754089,-0.434217816196637,0.616486429737696,0
3.03999328613281,-2.10649490356445,2.05953359603882,2.43038463592529,-2.10708469520508,2.05919670122237,2.43053204454123,2081.655,2083.327,2084.153,2084.718,2.18889093399048,44.9954032897949,359.126892089844,-1.00318098068237,-0.431642085313797,0.612778067588806,-1.00202586176059,-0.431143734953757,0.612121962644322,0
3.05999755859375,-2.12641334533691,2.05096316337585,2.44255328178406,-2.12705600675913,2.05060360379452,2.44273220712343,2085.274,2083.638,2078.685,2080.676,2.26380515098572,44.9952926635742,359.097564697266,-0.995926856994629,-0.428525149822235,0.608437299728394,-0.994638524886308,-0.427965170275055,0.607609153824944,0
3.08000183105469,-2.14618158340454,2.04245710372925,2.45463013648987,-2.14687713595163,2.04207512564123,2.45484062564451,2082.249,2081.593,2077.429,2080.68,2.33715462684631,44.9952583312988,359.068664550781,-0.988435447216034,-0.425304353237152,0.603842794895172,-0.987011339258122,-0.424683405378145,0.60294982514457,0
3.09999084472656,-2.16579604148865,2.03401756286621,2.4666121006012,-2.16652837486666,2.03361974652815,2.46684526084616,2080.539,2079.934,2076.479,2079.291,2.40913915634155,44.995288848877,359.040008544922,-0.980707764625549,-0.421981006860733,0.59909850358963,-0.979153483542501,-0.421302389586788,0.598149583707317,0
3.1199951171875,-2.18525123596191,2.0256462097168,2.47849535942078,-2.18603502400946,2.02522658035469,2.47876156841225,2076.244,2077.502,2077.884,2078.931,2.48123359680176,44.9955291748047,359.010772705078,-0.972750067710876,-0.41855862736702,0.594157636165619,-0.971056158224178,-0.417818336715394,0.593203054026623,0
3.13999938964844,-2.20454216003418,2.0173454284668,2.49028015136719,-2.20537738341953,2.01690410346351,2.49057751394429,2079.793,2078.009,2072.758,2074.788,2.55248332023621,44.9954223632813,358.982879638672,-0.96455180644989,-0.415034741163254,0.589235186576843,-0.962728579444533,-0.414235212212131,0.588115866099442,0
3.15998840332031,-2.2236647605896,2.00911736488342,2.50196146965027,-2.22453632143911,2.00866054767245,2.50228141021112,2076.74,2075.999,2071.781,2074.913,2.62198448181152,44.9954032897949,358.955474853516,-0.956129729747772,-0.411412924528122,0.584069013595581,-0.954180774018563,-0.410557330335374,0.582894145150591,0
3.17999267578125,-2.24261450767517,2.00096344947815,2.51353573799133,-2.24353658854737,2.00048526354177,2.51388837689424,2072.74,2073.491,2073.094,2074.716,2.69106936454773,44.9956016540527,358.927520751953,-0.94748717546463,-0.407695412635803,0.578713893890381,-0.945403214201559,-0.406780591562751,0.577532070829503,0
3.19999694824219,-2.26138687133789,1.9928857088089,2.52500319480896,-2.2623590635174,1.99238647840124,2.5253867331345,2075.86,2073.893,2068.553,2070.806,2.75893259048462,44.9955177307129,358.900909423828,-0.938615143299103,-0.403880745172501,0.573367714881897,-0.936405971974636,-0.402909329586355,0.572035795952272,0
3.22000122070313,-2.27997732162476,1.98488616943359,2.53635907173157,-2.28099938900442,1.98436606709459,2.53677381709797,2072.686,2071.983,2067.995,2070.901,2.82498073577881,44.995532989502,358.874725341797,-0.92953097820282,-0.399973541498184,0.567789793014526,-0.927192788821982,-0.398945154262308,0.566407606133204,0
3.239990234375,-2.29838228225708,1.97696673870087,2.54760074615479,-2.2994392795179,1.97643189735754,2.54803845846384,2071.168,2070.468,2067.338,2069.639,2.88963580131531,44.9956245422363,358.848937988281,-0.920235335826874,-0.39597499370575,0.562087774276733,-0.917774783907129,-0.394892849856044,0.560654293895788,0
3.25999450683594,-2.31659698486328,1.96912896633148,2.55872511863708,-2.31770268688992,1.96857366338589,2.55919528903255,2067.45,2068.395,2068.508,2069.308,2.95424675941467,44.9958686828613,358.822723388672,-0.91073477268219,-0.391888588666916,0.55621737241745,-0.90814153446928,-0.390747931744771,0.554769492138098,0
3.27999877929688,-2.33461713790894,1.96137499809265,2.56973242759705,-2.33577134012187,1.96079922667992,2.57023314733618,2070.888,2068.857,2063.764,2065.606,3.01780319213867,44.9957847595215,358.797912597656,-0.901019275188446,-0.387711435556412,0.550365746021271,-0.898304216251578,-0.386515208538549,0.548760027947228,0
3.29998779296875,-2.35243940353394,1.95370578765869,2.58061838150024,-2.35362764460945,1.95311615770631,2.58114128510551,2068.208,2067.089,2062.818,2065.84,3.07940793037415,44.995777130127,358.773620605469,-0.891106903553009,-0.383448034524918,0.544295310974121,-0.888274735793772,-0.382199803288803,0.542633174842512,0
3.31999206542969,-2.37005949020386,1.94612371921539,2.59137940406799,-2.37129490830989,1.94551442770222,2.59193394080789,2064.504,2065.024,2064.139,2065.629,3.14027571678162,44.9959754943848,358.749084472656,-0.881001532077789,-0.379100829362869,0.538052976131439,-0.878042061913513,-0.37779696958594,0.536382194046788,0
3.33999633789063,-2.38747334480286,1.93863046169281,2.60201597213745,-2.38875555478454,1.93800159931817,2.60260037727124,2067.571,2065.252,2060.043,2062.237,3.19962930679321,44.9959030151367,358.725830078125,-0.87069433927536,-0.374667972326279,0.531826078891754,-0.867618167158097,-0.373311858882592,0.530014399402376,0
3.36000061035156,-2.40467739105225,1.93122732639313,2.61252379417419,-2.406005803634,1.93057929915441,2.61313828510855,2064.764,2063.655,2059.568,2062.37,3.25690698623657,44.9959259033203,358.703094482422,-0.860204100608826,-0.370155215263367,0.525394141674042,-0.857007552155826,-0.36874640767338,0.523532540272868,0
3.37998962402344,-2.42166805267334,1.92391610145569,2.62290072441101,-2.42302905329872,1.92325467039821,2.62353752268616,2063.328,2062.393,2059.17,2061.283,3.31253337860107,44.9960250854492,358.680877685547,-0.849532008171082,-0.365564078092575,0.518851816654205,-0.846223126656603,-0.364106170663035,0.516944503023036,0
3.39999389648438,-2.43844151496887,1.91669821739197,2.63314414024353,-2.43984769972619,1.91601807669906,2.63381177133889,2060.155,2060.669,2060.229,2060.985,3.36773157119751,44.9962615966797,358.658508300781,-0.838685035705566,-0.360898017883301,0.512168645858765,-0.835253140422974,-0.35938609205264,0.510243109616171,0
3.41999816894531,-2.45499467849731,1.90957498550415,2.64325428009033,-2.45644516534361,1.90887665092339,2.64395090408624,2063.281,2061.035,2056.126,2057.819,3.42158126831055,44.9961967468262,358.637512207031,-0.827654778957367,-0.356154561042786,0.505504965782166,-0.824110582941664,-0.354591760855451,0.503436295127018,0
3.43998718261719,-2.47132396697998,1.90254807472229,2.65322732925415,-2.47280564474684,1.90183719369507,2.65394526565342,2060.822,2059.561,2055.48,2058.111,3.47336649894714,44.9962120056152,358.617126464844,-0.816459953784943,-0.351338982582092,0.498651027679443,-0.812809078412023,-0.349729039183832,0.496532382366361,0
3.45999145507813,-2.48742628097534,1.89561903476715,2.66306042671204,-2.48895081463434,1.8948903781363,2.66380809799729,2057.891,2057.81,2056.496,2057.976,3.52409720420837,44.996395111084,358.5966796875,-0.805103957653046,-0.34645339846611,0.491659492254257,-0.80133641229185,-0.344792671461508,0.489523909660973,0
3.47999572753906,-2.50329780578613,1.88878917694092,2.67275404930115,-2.50486489870395,1.88804299234919,2.67352976362102,2060.581,2058.081,2053.029,2055.071,3.57302474975586,44.9963455200195,358.577484130859,-0.793580293655396,-0.341496616601944,0.484680712223053,-0.789706299681989,-0.339788558913217,0.482419255351936,0
3.5,-2.51893591880798,1.8820595741272,2.6823046207428,-2.5205447997813,1.88129636896134,2.68310837050915,2058.215,2056.829,2052.682,2055.199,3.61967539787292,44.9963912963867,358.559020996094,-0.781907439231873,-0.336474806070328,0.47753044962883,-0.777924000354857,-0.334718964672089,0.475221632552147,0
3.51998901367188,-2.53433752059937,1.87543177604675,2.69171047210693,-2.53597583877076,1.87465682397749,2.69253495143119,2057.001,2055.769,2052.461,2054.371,3.66442894935608,44.996509552002,358.541137695313,-0.770087599754333,-0.331389576196671,0.470289677381516,-0.766004036374581,-0.329590137176618,0.467939912563966,0
3.53999328613281,-2.54949998855591,1.8689067363739,2.70096921920776,-2.55117869390181,1.86811546013321,2.70182213839487,2054.38,2054.368,2053.421,2054.182,3.70833849906921,44.9967269897461,358.523345947266,-0.758128106594086,-0.326244562864304,0.462936162948608,-0.753933682518821,-0.324396601119134,0.46056632174764,0
3.55999755859375,-2.56442070007324,1.8624861240387,2.71008133888245,-2.56613872308604,1.86167857751006,2.71096098677687,2057.091,2054.719,2050.07,2051.556,3.75062942504883,44.9967002868652,358.506866455078,-0.746022701263428,-0.321038067340851,0.455603867769241,-0.741727567798258,-0.319144650954242,0.45310979673751,0
3.58000183105469,-2.57909631729126,1.85617089271545,2.71904373168945,-2.58085326729328,1.85534732021446,2.71994987221714,2055.171,2053.485,2049.522,2051.944,3.79067730903625,44.9967308044434,358.491088867188,-0.733789443969727,-0.315775364637375,0.448120534420013,-0.729391385793765,-0.313836736470737,0.44557381565329,0
3.59999084472656,-2.59352517127991,1.84996163845062,2.72785496711731,-2.59530884290342,1.84912748987145,2.72878055778257,2054.391,2052.729,2049.06,2051.113,3.82858395576477,44.9967956542969,358.475982666016,-0.721430540084839,-0.310458153486252,0.440560102462769,-0.716940488958392,-0.308479463400265,0.437967757068975,0
3.6199951171875,-2.60770416259766,1.84385979175568,2.7365128993988,-2.60952509409627,1.84301063413925,2.73746504379605,2051.823,2051.537,2050.134,2051.056,3.86527967453003,44.9970016479492,358.461090087891,-0.708954691886902,-0.30509090423584,0.432891756296158,-0.704361775018033,-0.303067194200314,0.43028361700977,0
3.63999938964844,-2.62163114547729,1.83786630630493,2.74501800537109,-2.6234885835008,1.83700253474321,2.74599512157732,2054.443,2051.903,2047.175,2048.662,3.90007519721985,44.9969787597656,358.447570800781,-0.696356236934662,-0.299671947956085,0.425252258777618,-0.691670720740692,-0.297606588091786,0.422530849991739,0
3.65998840332031,-2.63530445098877,1.83198201656342,2.75336766242981,-2.63718676607487,1.8311085894645,2.7543631275559,2052.654,2050.898,2046.859,2049.05,3.93246173858643,44.9970321655273,358.434814453125,-0.683653652667999,-0.294207245111465,0.417480498552322,-0.678883253871145,-0.292104498338286,0.414719186025619,0
3.67999267578125,-2.64872145652771,1.82620811462402,2.76155996322632,-2.65063849381582,1.82532068681534,2.76258057812278,2050.428,2049.684,2047.903,2049.146,3.96328043937683,44.9972190856934,358.422332763672,-0.670851826667786,-0.288699388504028,0.409616202116013,-0.665986083416798,-0.286555206197011,0.406840505851433,0
3.69999694824219,-2.66188025474548,1.8205451965332,2.76959562301636,-2.66383127580226,1.81964420129024,2.77063984276899,2052.778,2050.071,2045.389,2046.978,3.99195075035095,44.9972076416016,358.411163330078,-0.657946765422821,-0.283148050308228,0.401780873537064,-0.65299527533123,-0.280965624398954,0.398904623909523,0
