t,x_s1,x_s2,x_s3,x_s_d1,x_s_d2,x_s_d3,propellers_rpms1,propellers_rpms2,propellers_rpms3,propellers_rpms4,rollRad,pitchRad,yawRad,v_s1,v_s2,v_s3,v_s_d1,v_s_d2,v_s_d3,insideCount
0,-0.0599999986588955,2.94000005722046,1.17999994754791,-0.0599999986588955,2.94000005722046,1.17999994754791,0,0,0,0,0,45.0048027038574,0,0,0,0,-1.06581410364015E-15,4.44089209850063E-16,-7.105427357601E-16,0
0.0200004577636719,-0.0599999986588955,2.94000005722046,1.17705690860748,-0.0600018691155303,2.93999925241522,1.18000109018068,0,0,0,0,0.937003672122955,44.8630027770996,-0.00115976633969694,3.71994488546079E-08,3.50004931704007E-08,-0.147149950265884,-0.000279999361409376,-0.000120475902936966,0.000171047240579747,5
0.0400009155273438,-0.0599999986588955,2.94000005722046,1.17018985748291,-0.0600148724204753,2.93999365745638,1.18000903369676,0,0,0,0,1.87400352954865,44.7211418151855,-0.00311126722954214,3.70364325874561E-08,3.5142885934647E-08,-0.343349903821945,-0.00111101934050116,-0.00047804058392963,0.000678704377995865,6
0.05999755859375,-0.0599062256515026,2.94009447097778,1.16346514225006,-0.0600498857373401,2.93997859220429,1.18003042278566,3197.391,2848.74,1517.183,2782.305,1.40362966060638,44.7413558959961,0.0289012249559164,0.00468867737799883,0.00471884943544865,-0.336238503456116,-0.00247936261166862,-0.00106680046642749,0.00151460392977639,6
0.0799980163574219,-0.0597377829253674,2.94026732444763,1.15723752975464,-0.0601175407449857,2.93994948214456,1.1800717521741,2865.561,2651.696,2344.641,2562.266,0.339677512645721,44.8158302307129,0.0997797772288322,0.00842217728495598,0.00864467024803162,-0.311382681131363,-0.00437227586895222,-0.00188126815916228,0.00267095510032206,6
0.0999984741210938,-0.0595562905073166,2.94046425819397,1.15151953697205,-0.0602281887669101,2.93990187339187,1.18013934532406,2239.983,2528.148,3137.909,2508.542,359.321685791016,44.9191055297852,0.178520813584328,0.00907464511692524,0.00984900910407305,-0.285897642374039,-0.00677637982016689,-0.00291568692648091,0.00413958468881675,5
0.119998931884766,-0.0594243668019772,2.94063234329224,1.14656901359558,-0.0603919230601972,2.93983142309968,1.18023936804881,2123.877,2454.804,3351.726,2464.447,358.750061035156,44.9998779296875,0.2533258497715,0.00659609818831086,0.00839865207672119,-0.247529178857803,-0.00967861374975049,-0.00416443710735115,0.005912514107932,5
0.139999389648438,-0.0593829229474068,2.94074034690857,1.14257061481476,-0.0606185767455666,2.93973390035084,1.18037782724834,2312.264,2456.607,3069.101,2463.394,358.636199951172,45.0326499938965,0.326388239860535,0.00207211682572961,0.00539950095117092,-0.199918851256371,-0.0130660253322238,-0.00562194567796536,0.00798183098414958,5
0.159999847412109,-0.0594432502985001,2.94078588485718,1.13952434062958,-0.0609177249752248,2.93960518522485,1.18056057223372,2536.577,2486.76,2635.46,2491.905,358.756958007813,45.0249900817871,0.398218750953674,-0.00301637314260006,0.00228046183474362,-0.152313038706779,-0.0169257706321904,-0.00728268625174051,0.0103396891577615,5
0.180000305175781,-0.0595999322831631,2.94078207015991,1.13730919361115,-0.0612986871007165,2.9394412678651,1.18079329605139,2666.492,2506.054,2302.562,2513.225,358.864227294922,44.9985542297363,0.46737265586853,-0.00783410109579563,-0.000196559354662895,-0.110758356750011,-0.0212451141043368,-0.00914117907931815,0.0129783086828701,5
0.200000762939453,-0.0598474629223347,2.94074034690857,1.13576102256775,-0.0617705288407759,2.93923824754608,1.18108153680744,2653.563,2500.124,2183.277,2508.589,358.816955566406,44.9743957519531,0.532884418964386,-0.0123764723539352,-0.00209042197093368,-0.0774066150188446,-0.0260114285934326,-0.0111919910485645,0.0158899758273878,5
0.219997406005859,-0.0601893663406372,2.94066262245178,1.13474535942078,-0.0623419453860714,2.93899238297017,1.18143060625819,2540.356,2470.532,2245.687,2478.916,358.612396240234,44.9636764526367,0.594553649425507,-0.0170951597392559,-0.00388062512502074,-0.0507816895842552,-0.0312111627562649,-0.0134292913950757,0.0190664122872106,5
0.239997863769531,-0.0606385990977287,2.94054198265076,1.13419330120087,-0.0630217183703222,2.93869989564571,1.18184586896662,2411.66,2429.691,2374.271,2437.349,358.334655761719,44.9659156799316,0.652631402015686,-0.0224616173654795,-0.00603137072175741,-0.0276019368320704,-0.0368338920540454,-0.0158485947310391,0.0225012498742643,5
0.259998321533203,-0.0612129457294941,2.94036650657654,1.13409054279327,-0.063818066443955,2.93835724931701,1.18233234557803,2329.79,2392.036,2462.426,2398.517,358.076416015625,44.9738731384277,0.707767903804779,-0.0287173856049776,-0.00876852311193943,-0.00513863191008568,-0.04286636357961,-0.0184441987007453,0.0261863925943699,4
0.279998779296875,-0.06192946434021,2.94012546539307,1.13444066047668,-0.0647390625194898,2.93796097043536,1.18289496770872,2305.776,2365.101,2469.988,2370.699,357.887115478516,44.9803161621094,0.760568916797638,-0.035825926810503,-0.0120563507080078,0.0175074860453606,-0.0492963837173861,-0.0212108567320638,0.0301143915580518,4
0.299999237060547,-0.0628009960055351,2.93981122970581,1.13523638248444,-0.065792536715479,2.93750768991949,1.18353851865591,2317.486,2348.242,2415.678,2353.49,357.765045166016,44.9817771911621,0.811317980289459,-0.0435764566063881,-0.0157063417136669,0.039784848690033,-0.0561118672418845,-0.0241433688900884,0.0342778640896448,4
0.319999694824219,-0.0638358071446419,2.93942070007324,1.13644933700562,-0.0669860785243584,2.93699414222283,1.1842676347221,2334.801,2336.509,2342.687,2341.64,357.678649902344,44.9788436889648,0.860052824020386,-0.0517405606806278,-0.0195238664746284,0.0606472939252853,-0.0633008373176985,-0.0272365818771378,0.0386694937272938,4
0.340000152587891,-0.0650394484400749,2.93895268440247,1.13803625106812,-0.0683270389802989,2.93641716440073,1.18508680653936,2337.863,2324.742,2286.737,2330.043,357.594390869141,44.9741439819336,0.906597912311554,-0.0601821318268776,-0.0234039891511202,0.0793464630842209,-0.0708514254995047,-0.0304853890327553,0.0432820302229541,4
0.360000610351563,-0.066416971385479,2.93840575218201,1.13995087146759,-0.0698225328270578,2.93577369517774,1.18600038039362,2322.236,2310.593,2261.712,2315.935,357.494476318359,44.9702949523926,0.950829148292542,-0.0688762664794922,-0.0273421555757523,0.095731794834137,-0.0787518717320621,-0.0338847303337087,0.0481082895423912,4
0.379997253417969,-0.0679742768406868,2.93777799606323,1.14215397834778,-0.0714791088463715,2.935060916796,1.18701235683346,2295.458,2294.362,2260.968,2299.539,357.379699707031,44.968563079834,0.992758929729462,-0.0778652429580688,-0.0313896983861923,0.110155418515205,-0.0869889214763108,-0.0374289027221294,0.0531401746945263,4
0.399997711181641,-0.06971824914217,2.93706607818604,1.14461708068848,-0.0733040467096699,2.93427569701629,1.18812718289655,2268.458,2277.731,2268.68,2282.905,357.261566162109,44.9687690734863,1.03239238262177,-0.0871987566351891,-0.0355985909700394,0.1231534704566,-0.0955541759940907,-0.0411142924556206,0.058372555021277,4
0.419998168945313,-0.0716561451554298,2.93626618385315,1.14732050895691,-0.0753034649285836,2.93341540321397,1.18934859628618,2249.158,2262.995,2270.847,2267.614,357.152008056641,44.9699020385742,1.07000982761383,-0.0968948975205421,-0.039989959448576,0.135171175003052,-0.104434660908044,-0.0449353170220673,0.0637975046779765,4
0.439998626708984,-0.0737947672605515,2.93537521362305,1.15024816989899,-0.0774835548069347,2.93247737144397,1.19068037917324,2237.909,2250.56,2263.41,2255.063,357.056976318359,44.9710273742676,1.10570561885834,-0.106931254267693,-0.0445487052202225,0.146383017301559,-0.113619049702587,-0.0488871029382406,0.0694081044730023,4
0.459999084472656,-0.0761400386691093,2.93439030647278,1.15338432788849,-0.0798502821969742,2.93145903476675,1.19212617600376,2232.248,2240.409,2248.645,2244.844,356.975646972656,44.9716796875,1.1395343542099,-0.117263786494732,-0.0492416396737099,0.156805038452148,-0.123096124252221,-0.0529648233581361,0.075197501428542,4
0.479999542236328,-0.0786969810724258,2.93330955505371,1.15671181678772,-0.0824093896672336,2.93035792231548,1.19368949482325,2227.943,2231.886,2232.435,2236.135,356.903472900391,44.9718971252441,1.17157244682312,-0.127847015857697,-0.0540359877049923,0.166374251246452,-0.13285477482153,-0.0571636980729742,0.0811589087805935,4
0.5,-0.0814699679613113,2.93213129043579,1.16021311283112,-0.085166398670376,2.92917165836334,1.195373708601,2222.401,2224.123,2219.472,2228.282,356.835693359375,44.9720001220703,1.20184099674225,-0.138649582862854,-0.0589117705821991,0.175067692995071,-0.142884000065179,-0.0614789935111996,0.0872856059789651,5
0.520000457763672,-0.0844630971550941,2.93085408210754,1.16387188434601,-0.0881266117110474,2.92789796139072,1.19718205655433,2215.08,2216.81,2211.454,2220.817,356.769836425781,44.9723205566406,1.23038744926453,-0.14965657889843,-0.0638627260923386,0.182939171791077,-0.153172907027918,-0.0659060227384819,0.0935709386872751,5
0.540000915527344,-0.0876803621649742,2.92947626113892,1.16767394542694,-0.0912951145137283,2.92653464315245,1.19911764547298,2207.048,2209.897,2207.293,2213.795,356.705932617188,44.9729804992676,1.2572500705719,-0.160863310098648,-0.0688904449343681,0.190105721354485,-0.163710711144578,-0.0704401454577151,0.100008318782952,5
0.55999755859375,-0.0911256968975067,2.92799639701843,1.17160797119141,-0.094676112580471,2.92507989413848,1.20118304443252,2199.697,2203.66,2204.795,2207.381,356.645324707031,44.9739685058594,1.28250515460968,-0.172266647219658,-0.0739969909191132,0.196701630949974,-0.17448465888317,-0.0750758741803766,0.106589955332319,5
0.579998016357422,-0.0948028862476349,2.92641282081604,1.17566466331482,-0.0982755538235842,2.92353115512831,1.20338188691976,2193.742,2198.115,2202.365,2201.938,356.589630126953,44.9751281738281,1.30611765384674,-0.183859303593636,-0.0791801437735558,0.202836021780968,-0.185488294752812,-0.0798104312890852,0.113311904776732,5
0.599998474121094,-0.0987154841423035,2.92472410202026,1.17983686923981,-0.102097262171133,2.92188678079254,1.2057165089127,2190.17,2193.887,2198.386,2197.105,356.539276123047,44.9763069152832,1.32835566997528,-0.195629939436913,-0.0844341516494751,0.208610564470291,-0.196709126405959,-0.0846384416756885,0.120166535736014,5
0.619998931884766,-0.102866724133492,2.92292904853821,1.18411779403687,-0.106145477944935,2.92014494663912,1.20818950075775,2187.222,2190.175,2194.431,2193.476,356.493835449219,44.9774360656738,1.34918618202209,-0.207562178373337,-0.0897492915391922,0.214044570922852,-0.208136802817102,-0.0895554515830839,0.127147524930208,5
0.639999389648438,-0.107259571552277,2.92102670669556,1.18850147724152,-0.110424235525481,2.91830391678686,1.21080332699501,2185.009,2187.2,2190.787,2190.438,356.452545166016,44.9785232543945,1.36863601207733,-0.219642594456673,-0.0951177999377251,0.219187065958977,-0.219761081350814,-0.0945570538913933,0.134248615293163,5
0.659999847412109,-0.111896753311157,2.91901612281799,1.19298303127289,-0.114937365519793,2.91636204303257,1.21356032768253,2183.063,2184.788,2187.994,2187.948,356.414672851563,44.9796142578125,1.38673615455627,-0.231859371066093,-0.100533723831177,0.224077805876732,-0.231571827761751,-0.0996388881179631,0.141463615972542,5
0.680000305175781,-0.116780810058117,2.9168963432312,1.19755828380585,-0.119688496929273,2.91431776391831,1.21646271972064,2181.281,2182.865,2186.225,2185.894,356.379730224609,44.9807281494141,1.40354156494141,-0.244203090667725,-0.105993054807186,0.228762090206146,-0.243559016194652,-0.104796640417365,0.148786402329814,5
0.700000762939453,-0.121914133429527,2.91466641426086,1.20222413539886,-0.124681059317553,2.91216960379868,1.21951259817624,2179.766,2181.375,2185.287,2184.263,356.34765625,44.9818725585938,1.41911053657532,-0.256666094064713,-0.111492902040482,0.233289942145348,-0.255712729184339,-0.110026043581393,0.156210915940263,5
0.719997406005859,-0.127298951148987,2.91232585906982,1.20697832107544,-0.129917262555645,2.90991661182791,1.22271131302505,2178.665,2180.296,2184.854,2183.058,356.318481445313,44.9830474853516,1.43349802494049,-0.269241034984589,-0.117030531167984,0.237709954380989,-0.26802079535749,-0.115321860608138,0.163729721501856,5
0.739997863769531,-0.132937341928482,2.90987372398376,1.21181952953339,-0.135402141159277,2.90755662179454,1.22606193977416,2177.814,2179.421,2184.934,2182.422,356.292419433594,44.9842414855957,1.44660270214081,-0.281919807195663,-0.122602738440037,0.242057964205742,-0.280478211503383,-0.120681938755799,0.171339762631236,5
0.759998321533203,-0.138831257820129,2.90730953216553,1.21674740314484,-0.141137563960274,2.90508882959244,1.22956562006379,2178.27,2179.484,2184.247,2181.726,356.269287109375,44.9853630065918,1.45875477790833,-0.29469558596611,-0.128206610679626,0.24639667570591,-0.293073051970232,-0.126101146749576,0.179033754133825,5
0.779998779296875,-0.144982412457466,2.90463280677795,1.22176170349121,-0.147126184485884,2.90251209348295,1.2332239748923,2178.34,2179.371,2184.354,2181.895,356.248748779297,44.9864692687988,1.46983003616333,-0.307557940483093,-0.133836939930916,0.250716179609299,-0.305795832832518,-0.131575403921268,0.186805902427515,5
0.799999237060547,-0.151392415165901,2.90184307098389,1.22686278820038,-0.153370467664426,2.8998253528763,1.23703851004595,2178.803,2179.66,2184.721,2182.158,356.230651855469,44.987548828125,1.4798401594162,-0.320500314235687,-0.139491066336632,0.255055785179138,-0.318637178554805,-0.1371006762399,0.194650480144012,5
0.819999694824219,-0.158062726259232,2.89893984794617,1.23205149173737,-0.159872691993147,2.89702762739878,1.24101061742316,2179.443,2180.224,2185.376,2182.63,356.214874267578,44.988582611084,1.48882400989532,-0.333515375852585,-0.145166203379631,0.259437263011932,-0.331587821991737,-0.142672976311719,0.202561826128828,5
0.840000152587891,-0.164994642138481,2.89592266082764,1.23732912540436,-0.166634951706069,2.89411801595997,1.2451415763588,2180.272,2181.006,2186.249,2183.304,356.201385498047,44.9895858764648,1.49682891368866,-0.346596211194992,-0.150859758257866,0.263881862163544,-0.344638604388044,-0.148288363380199,0.210534345441289,5
0.860000610351563,-0.172189354896545,2.89279127120972,1.24269723892212,-0.173659158941841,2.89109569582005,1.24943255494854,2181.28,2181.97,2187.276,2184.161,356.190032958984,44.9905586242676,1.50390017032623,-0.359736055135727,-0.156569048762321,0.268407613039017,-0.357780475378537,-0.153942943326036,0.218562509354528,5
0.879997253417969,-0.179647907614708,2.88954544067383,1.24815785884857,-0.180945630646592,2.88796053060595,1.25388374680983,2182.467,2183.05,2188.391,2185.22,356.180816650391,44.9914855957031,1.51004683971405,-0.372928112745285,-0.162291467189789,0.273030191659927,-0.371001963495383,-0.159631780297098,0.226639310127856,5
0.899997711181641,-0.187371224164963,2.88618493080139,1.25371289253235,-0.188498701076517,2.88471065540831,1.25849779967213,2183.415,2184.091,2189.996,2186.514,356.173797607422,44.9923820495605,1.51516044139862,-0.386165052652359,-0.168024078011513,0.277751058340073,-0.384299280991351,-0.165353244531568,0.234762433885595,5
0.919998168945313,-0.195360034704208,2.88270974159241,1.2593652009964,-0.196318384305134,2.8813460641717,1.26327472213274,2185.524,2185.798,2190.551,2187.48,356.168762207031,44.9931869506836,1.51956212520599,-0.399441808462143,-0.173765376210213,0.282616645097733,-0.397661187980262,-0.171102499820431,0.242925014356675,5
0.939998626708984,-0.203615039587021,2.8791196346283,1.26511693000793,-0.204405885800988,2.87786623821667,1.26821525059358,2186.771,2187.059,2191.952,2189.058,356.165374755859,44.993953704834,1.52311146259308,-0.412749171257019,-0.179511100053787,0.287587255239487,-0.411079067636589,-0.176875838584386,0.251121787656841,5
0.959999084472656,-0.212136656045914,2.87541437149048,1.27097070217133,-0.212762239776093,2.87427073255068,1.27332001683864,2188.156,2188.476,2193.521,2190.478,356.163665771484,44.9946823120117,1.52580940723419,-0.426082372665405,-0.185259878635406,0.292685955762863,-0.424544411524882,-0.18266959988136,0.259347556115652,5
0.979999542236328,-0.220925375819206,2.87159419059753,1.27692914009094,-0.221388311353785,2.87055917493534,1.27858954935826,2189.587,2189.996,2195.113,2191.864,356.163696289063,44.9953842163086,1.52771091461182,-0.439435631036758,-0.191009894013405,0.297919780015945,-0.438048819599778,-0.188480169406503,0.267597188276474,5
1,-0.229981452226639,2.86765909194946,1.28299498558044,-0.230284798736574,2.86673126495361,1.28402427467346,2191.116,2191.453,2196.606,2193.37,356.165496826172,44.996036529541,1.52879691123962,-0.452802896499634,-0.196758925914764,0.303293228149414,-0.451584000205995,-0.194303979492187,0.275865618896484,5
1.02000045776367,-0.23930498957634,2.86360907554626,1.28917109966278,-0.239452235373992,2.86278677307706,1.28962451866023,2192.679,2192.98,2198.01,2194.84,356.169006347656,44.996639251709,1.52909219264984,-0.466177701950073,-0.202504590153694,0.308806091547012,-0.465141770078335,-0.200137509108014,0.28414784894667,5
1.03999710083008,-0.248896062374115,2.85944414138794,1.29546022415161,-0.248889165986195,2.85872632547195,1.29538939231083,2194.235,2194.511,2199.356,2196.294,356.174163818359,44.9971771240234,1.52862918376923,-0.479553580284119,-0.208244487643242,0.31445637345314,-0.478711464817306,-0.205976169660809,0.292437363711796,5
1.05999755859375,-0.258754521608353,2.85516452789307,1.30186474323273,-0.258599401509697,2.85454828239877,1.3013212236669,2195.304,2195.777,2201.178,2197.878,356.18115234375,44.9977035522461,1.52727019786835,-0.492923468351364,-0.213975980877876,0.320228964090347,-0.492290296490434,-0.211818761581115,0.30073246008742,5
1.07999801635742,-0.268880188465118,2.85077047348022,1.30838799476624,-0.268581219802083,2.85025338484727,1.30741896069852,2197.595,2197.651,2201.626,2198.93,356.189697265625,44.9981269836426,1.52537143230438,-0.506283402442932,-0.219697922468185,0.326165050268173,-0.50586781946303,-0.217660790404144,0.309026756998312,5
1.09999847412109,-0.279272675514221,2.84626245498657,1.31503212451935,-0.278834517009062,2.84584167750307,1.31368253996271,2198.697,2198.852,2202.996,2200.556,356.199523925781,44.9985275268555,1.52274703979492,-0.519623875617981,-0.22540608048439,0.332203954458237,-0.519436284009554,-0.223498921639497,0.317315520258069,5
1.11999893188477,-0.289931505918503,2.84164047241211,1.32179939746857,-0.289359035362208,2.84131327127672,1.32011180399278,2199.934,2200.11,2204.35,2201.885,356.210693359375,44.9988975524902,1.51936542987823,-0.532941162586212,-0.231099531054497,0.338364750146866,-0.532988048794549,-0.229329867434001,0.325594081894103,5
1.13999938964844,-0.300856083631516,2.83690500259399,1.32869219779968,-0.300154365346813,2.83666834237095,1.32670650262257,2201.051,2201.39,2205.697,2203.049,356.223358154297,44.9992370605469,1.5152782201767,-0.546229600906372,-0.236776679754257,0.344641476869583,-0.546515580872639,-0.235150386571708,0.333857840147634,5
1.15999984741211,-0.312045753002167,2.83205628395081,1.3357127904892,-0.311219947869739,2.83190713134792,1.33346629431082,2202.202,2202.554,2206.842,2204.203,356.237518310547,44.9995460510254,1.51048862934113,-0.559483468532562,-0.242435440421104,0.351032197475433,-0.560011455688534,-0.240957284473894,0.34210225947369,6
1.18000030517578,-0.323499709367752,2.8270947933197,1.34286332130432,-0.322555076427271,2.82702994219644,1.34039074746542,2203.316,2203.671,2207.811,2205.274,356.253265380859,44.9998054504395,1.5050173997879,-0.572696626186371,-0.248073562979698,0.357528924942017,-0.573468357077025,-0.246747413199059,0.350322870541114,6
1.19999694824219,-0.33521693944931,2.82202100753784,1.35014581680298,-0.334156660511822,2.8220381046756,1.34747797414352,2204.374,2204.692,2208.631,2206.292,356.2705078125,45.0000343322754,1.49886536598206,-0.585862755775452,-0.253688544034958,0.364123195409775,-0.58687652428584,-0.252516572968185,0.358513710658656,6
1.21999740600586,-0.34719642996788,2.81683540344238,1.35756170749664,-0.346028131869748,2.8169301422008,1.35473007074542,2204.866,2205.39,2209.88,2207.369,356.289398193359,45.0002479553223,1.49186873435974,-0.598975002765656,-0.259277790784836,0.370793014764786,-0.600233974716476,-0.258263910724523,0.366673568687828,6
1.23999786376953,-0.359437048435211,2.81153869628906,1.36511325836182,-0.358166167196084,2.81170748469733,1.36214500711597,2206.627,2206.728,2209.603,2207.783,356.309753417969,45.0003662109375,1.48442804813385,-0.612029433250427,-0.26484015583992,0.377577275037766,-0.613531154887641,-0.263985315871967,0.374796608555988,6
1.2599983215332,-0.371937334537506,2.80613136291504,1.37280142307281,-0.370569492049568,2.80637068052165,1.3697220047189,2207.037,2207.25,2210.315,2208.82,356.331207275391,45.0004806518555,1.4763171672821,-0.625016748905182,-0.270371347665787,0.384405761957169,-0.626761182173783,-0.269677827009021,0.382878625774588,6
1.27999877929688,-0.384696036577225,2.80061388015747,1.38062727451324,-0.383236695417198,2.80092033679326,1.37746020158837,2207.523,2207.869,2211.039,2209.416,356.353912353516,45.0005683898926,1.4675464630127,-0.637933433055878,-0.275870680809021,0.391295373439789,-0.639917282339435,-0.275338529371412,0.39091548206889,6
1.29999923706055,-0.397711515426636,2.79498720169067,1.388592004776,-0.396166231882091,2.79535711846185,1.38535865365334,2207.886,2208.396,2211.705,2209.903,356.377990722656,45.0006523132324,1.45813286304474,-0.650774300098419,-0.281336426734924,0.398239254951477,-0.652992789539212,-0.280964554832093,0.398903105377968,6
1.31999969482422,-0.410982191562653,2.78925180435181,1.39669668674469,-0.409356423791328,2.7896817473746,1.39341633606181,2208.322,2208.804,2212.072,2210.338,356.403564453125,45.0007171630859,1.44806516170502,-0.663534045219421,-0.286766648292542,0.405234098434448,-0.665981146317813,-0.286553081901244,0.406837489854705,6
1.34000015258789,-0.424506306648254,2.78340864181519,1.40494203567505,-0.422805463423808,2.78389500134342,1.40163214450516,2208.656,2209.179,2212.281,2210.642,356.4306640625,45.0007476806641,1.43737399578094,-0.676206409931183,-0.292158901691437,0.41226726770401,-0.678875903610019,-0.292101335726266,0.414714695865794,6
1.36000061035156,-0.438282012939453,2.77745842933655,1.41332864761353,-0.436511415158101,2.77799771321212,1.41000489654248,2208.961,2209.416,2212.294,2210.904,356.459197998047,45.0007514953613,1.42604887485504,-0.688785433769226,-0.297510713338852,0.419330716133118,-0.691670720740693,-0.297606588091785,0.422530849991739,6
1.37999725341797,-0.452307313680649,2.77140212059021,1.42185688018799,-0.450469530727146,2.77199192602736,1.41853169153152,2209.124,2209.587,2212.238,2211.037,356.489135742188,45.0007286071777,1.41410613059998,-0.701265096664429,-0.302819758653641,0.426412522792816,-0.704356955827446,-0.303065120637236,0.430280673041441,6
1.39999771118164,-0.466580092906952,2.76524043083191,1.43052661418915,-0.464682951063699,2.76587628833354,1.42721444821907,2208.627,2209.357,2212.725,2211.27,356.520660400391,45.0007286071777,1.40134561061859,-0.71363890171051,-0.308083415031433,0.433489292860031,-0.716933326165324,-0.308476381450513,0.437963381430462,6
1.41999816894531,-0.481098145246506,2.75897431373596,1.43933880329132,-0.47914673136562,2.75965292774086,1.43605014590267,2209.592,2209.886,2211.507,2210.716,356.553588867188,45.0006332397461,1.38823509216309,-0.725903570652008,-0.313300937414169,0.440606772899628,-0.729391385793766,-0.313836736470737,0.445573815653291,6
1.43999862670898,-0.495859146118164,2.75260496139526,1.44829249382019,-0.4938584461112,2.75332288788357,1.44503730286896,2209.04,2209.522,2211.41,2210.876,356.587585449219,45.000545501709,1.374547123909,-0.738049983978271,-0.318467795848846,0.447687149047852,-0.741725227577294,-0.31914364402254,0.453108367133042,6
1.45999908447266,-0.510860621929169,2.74613332748413,1.45738756656647,-0.508815552717244,2.74688726276417,1.45417436589355,2208.661,2209.185,2211.266,2210.67,356.622772216797,45.0004768371582,1.36022353172302,-0.750075399875641,-0.323583275079727,0.454752445220947,-0.753929052770513,-0.324394609067776,0.460563493506643,6
1.47999954223633,-0.526100099086761,2.73956036567688,1.4666234254837,-0.524015393706918,2.74034719582071,1.4634597115653,2208.198,2208.856,2211.025,2210.276,356.659332275391,45.0003929138184,1.34529387950897,-0.76197475194931,-0.328645706176758,0.461795836687088,-0.76599717101811,-0.329587183205524,0.467935718624829,6
1.5,-0.541574954986572,2.73288726806641,1.47599959373474,-0.539455198877605,2.73370387899399,1.47289164761066,2207.722,2208.45,2210.595,2209.812,356.697357177734,45.000316619873,1.32978343963623,-0.77374279499054,-0.333653062582016,0.468811511993408,-0.777924000354858,-0.334718964672088,0.475221632552146,6
1.52000045776367,-0.557282507419586,2.72611522674561,1.48551547527313,-0.555132087468752,2.72695855179478,1.48246841421797,2207.255,2207.944,2209.941,2209.308,356.736846923828,45.0002174377441,1.31369185447693,-0.785374045372009,-0.338603049516678,0.475792467594147,-0.789704067205609,-0.339787598340998,0.482417891566952,6
1.53999710083008,-0.573219776153564,2.71924543380737,1.49516999721527,-0.571040013494911,2.72011381564173,1.49218631798906,2206.717,2207.365,2209.154,2208.729,356.777740478516,45.0000991821289,1.29701864719391,-0.796862840652466,-0.343493163585663,0.482728719711304,-0.801329803423436,-0.344789827850059,0.489519872406387,6
1.55999755859375,-0.589383780956268,2.7122790813446,1.50496196746826,-0.587181951496087,2.71316839067337,1.50204717602401,2205.506,2206.436,2208.934,2208.251,356.820251464844,45.0000038146973,1.27956891059875,-0.808202862739563,-0.348320811986923,0.48959618806839,-0.812800388649436,-0.349725300221754,0.496527073925997,6
1.57999801635742,-0.605771601200104,2.7052173614502,1.51489090919495,-0.603551689586986,2.70612494969039,1.51204719357901,2205.922,2206.311,2206.89,2206.971,356.864105224609,44.9998207092285,1.26184225082397,-0.819391131401062,-0.353085160255432,0.496445685625076,-0.824108441976122,-0.354590839657789,0.503434987244577,6
1.59999847412109,-0.622380018234253,2.69806170463562,1.5249547958374,-0.620145926473056,2.69898491314762,1.52218435394475,2204.638,2205.251,2206.165,2206.5,356.908935546875,44.9996643066406,1.24358022212982,-0.83041900396347,-0.357781648635864,0.503193438053131,-0.835248923368005,-0.359384277571697,0.510240533483095,5
1.61999893188477,-0.639205634593964,2.69081354141235,1.53515219688416,-0.636961261140657,2.69174974440622,1.53245657949507,2203.589,2204.272,2205.426,2205.617,356.954895019531,44.9995307922363,1.22474241256714,-0.841284334659576,-0.362409859895706,0.509867548942566,-0.846216901179681,-0.364103492014234,0.516940699976329,5
1.63999938964844,-0.656245350837708,2.68347406387329,1.54548144340515,-0.653994195024907,2.68442094880091,1.54286173301126,2202.51,2203.311,2204.574,2204.59,357.002136230469,44.9993934631348,1.20535910129547,-0.851982772350311,-0.366968333721161,0.516464293003082,-0.857007552155828,-0.368746407673381,0.523532540272869,5
1.65999984741211,-0.673495531082153,2.67604494094849,1.55594098567963,-0.671241134177535,2.67700007270724,1.55339761900642,2201.394,2202.281,2203.596,2203.528,357.05078125,44.999267578125,1.18544363975525,-0.862509548664093,-0.371455132961273,0.522977888584137,-0.867616161431205,-0.373310995874343,0.530013174135115,5
1.68000030517578,-0.690952718257904,2.66852760314941,1.56652915477753,-0.688698391434734,2.66948870260877,1.56406198504972,2200.39,2201.199,2202.337,2202.427,357.100860595703,44.9991188049316,1.16500437259674,-0.87285989522934,-0.375868082046509,0.529406070709229,-0.878038122530658,-0.377795274579551,0.536379787539275,5
1.69999694824219,-0.708613276481628,2.66092348098755,1.57724392414093,-0.706358800111611,2.66188992212981,1.57485045312518,2199.297,2200.069,2200.992,2201.283,357.152252197266,44.9989776611328,1.14404726028442,-0.883028566837311,-0.380204886198044,0.535738348960876,-0.888267004546665,-0.382196476749158,0.542628451944297,5
1.71999740600586,-0.726473450660706,2.65323424339294,1.58808290958405,-0.724225231782013,2.65420249571236,1.58576477743246,2197.487,2198.586,2200.314,2200.278,357.205200195313,44.9988632202148,1.12236607074738,-0.893009960651398,-0.384462952613831,0.541951358318329,-0.898302321135456,-0.386514393123025,0.548758870250362,5
1.73999786376953,-0.744529545307159,2.64546132087708,1.59904491901398,-0.742290383213093,2.64642956573347,1.59680049654058,2197.506,2197.945,2197.685,2198.466,357.259368896484,44.9986572265625,1.10046660900116,-0.902801513671875,-0.388641625642776,0.54810357093811,-0.908137821269591,-0.39074633405868,0.554767223802352,5
1.7599983215332,-0.762777388095856,2.63760662078857,1.61012709140778,-0.760550216073323,2.63857286977439,1.60795514349582,2195.699,2196.405,2196.492,2197.507,357.314422607422,44.9984893798828,1.07809543609619,-0.912395417690277,-0.392736583948135,0.554106950759888,-0.917769332013572,-0.394890504058555,0.560650963419089,4
1.77999877929688,-0.781213104724884,2.62967157363892,1.62132704257965,-0.779000609654483,2.63063418086074,1.61922620102184,2194.226,2194.964,2195.261,2196.146,357.370483398438,44.9983367919922,1.05521845817566,-0.921790242195129,-0.396747618913651,0.559995174407959,-0.927192788821983,-0.398945154262308,0.566407606133204,4
1.79999923706055,-0.799832761287689,2.62165808677673,1.63264226913452,-0.79763736303951,2.62261530652977,1.63061110284395,2192.632,2193.559,2194.049,2194.666,357.427673339844,44.9981994628906,1.03186845779419,-0.930982232093811,-0.400673478841782,0.56576269865036,-0.936404235539493,-0.402908582446823,0.572034735191139,4
1.81999969482422,-0.818632125854492,2.61356782913208,1.64407050609589,-0.816456197270346,2.61451808789761,1.64210723501345,2191.146,2192.061,2192.632,2193.211,357.486175537109,44.9980812072754,1.00802671909332,-0.939967632293701,-0.404512614011765,0.571410834789276,-0.945399824400851,-0.406779133026206,0.577530000053147,3
1.84000015258789,-0.837606966495514,2.60540246963501,1.65560925006866,-0.835452757515797,2.60634439872645,1.65371193723192,2189.705,2190.607,2191.025,2191.671,357.545928955078,44.9979476928711,0.983732283115387,-0.948742032051086,-0.408263027667999,0.576934933662415,-0.954175816030892,-0.41055519705179,0.58289111639329,3
1.8599967956543,-0.856752991676331,2.59716391563416,1.66725587844849,-0.854618942724365,2.59809772467243,1.66542026069341,2188.246,2189.117,2189.314,2190.118,357.60693359375,44.9978065490723,0.95901083946228,-0.957301139831543,-0.411922752857208,0.582329034805298,-0.962726969681477,-0.41423451957606,0.588114882720311,0
1.87999725341797,-0.876065790653229,2.58885407447815,1.67900729179382,-0.873957566090845,2.58977685529642,1.67723392393473,2186.072,2187.235,2188.284,2188.803,357.669372558594,44.9976997375488,0.9336177110672,-0.965640246868134,-0.415489345788956,0.587570607662201,-0.971053025860989,-0.417816988947023,0.593201140514831,0
1.89999771118164,-0.89554089307785,2.58047485351563,1.69086170196533,-0.893460418296025,2.58138532283915,1.68914791201086,2185.842,2186.277,2185.26,2186.608,357.732849121094,44.9975051879883,0.908087313175201,-0.973756909370422,-0.418962270021439,0.592721164226532,-0.979148917665041,-0.421300425017273,0.598146794484026,0
1.91999816894531,-0.915173828601837,2.57202816009521,1.70281553268433,-0.913122862707269,2.57292512231409,1.7011593924753,2183.729,2184.414,2183.723,2185.352,357.797027587891,44.9973526000977,0.882155179977417,-0.981644868850708,-0.422337800264359,0.59769207239151,-0.987011339258123,-0.424683405378145,0.60294982514457,0
1.93999862670898,-0.934959828853607,2.56351590156555,1.71486580371857,-0.932940197657643,2.56439827671719,1.71326549315307,2181.873,2182.658,2182.297,2183.694,357.862030029297,44.9972229003906,0.855780005455017,-0.989303112030029,-0.425615906715393,0.60251647233963,-0.99463709319481,-0.4279645542582,0.607608279226948,0
1.95999908447266,-0.954894483089447,2.55493998527527,1.72700977325439,-0.952907658613767,2.55580683609405,1.72546330346508,2180.045,2180.98,2180.797,2181.911,357.928009033203,44.9971199035645,0.829007804393768,-0.996728956699371,-0.428795844316483,0.60719633102417,-1.00202309041976,-0.431142542523221,0.612120269675456,0
1.97999954223633,-0.974972903728485,2.54630255699158,1.73924434185028,-0.973020420343666,2.54715287660719,1.73774987575242,2178.263,2179.24,2179.161,2180.169,357.995086669922,44.9970207214355,0.801838755607605,-1.00391924381256,-0.43187627196312,0.611730337142944,-1.00916635026771,-0.434216087676217,0.616483975648197,0
2,-0.99519020318985,2.53760552406311,1.75156664848328,-0.993273599084619,2.53843849960327,1.75012222660065,2176.622,2177.516,2177.285,2178.402,358.063293457031,44.9969024658203,0.774292230606079,-1.01087057590485,-0.434855550527573,0.616118252277374,-1.01606400046349,-0.437183953857422,0.620697642517089,0
2.01999664306641,-1.01554179191589,2.5288507938385,1.76397371292114,-1.01365835337184,2.52966750931758,1.76257495489689,2174.958,2175.811,2175.327,2176.608,358.132537841797,44.9967918395996,0.74640566110611,-1.01757943630219,-0.437731951475143,0.620353639125824,-1.02271203275434,-0.440044416427654,0.624758821703072,0
2.03999710083008,-1.03602266311646,2.52004075050354,1.77646195888519,-1.03417746715556,2.52083870789413,1.77510976131291,2172.495,2173.707,2174.164,2175.096,358.203033447266,44.9967193603516,0.717925071716309,-1.0240421295166,-0.440503507852554,0.624413251876831,-1.02911032850577,-0.442797424341804,0.628667440734183,0
2.05999755859375,-1.05662775039673,2.51117730140686,1.78902924060822,-1.05482201812353,2.5119559343546,1.78772119534738,2172.164,2172.536,2170.904,2172.681,358.274383544922,44.9965438842773,0.689386129379272,-1.03025650978088,-0.443169832229614,0.628365099430084,-1.03525504859546,-0.445441325732794,0.632421154350513,0
2.07999801635742,-1.07735204696655,2.50226283073425,1.80167162418365,-1.07558691007788,2.50302138145056,1.80040614381254,2169.839,2170.534,2169.202,2171.215,358.346221923828,44.9964141845703,0.660555303096771,-1.03621792793274,-0.445727795362473,0.632117331027985,-1.04114375428791,-0.447975071280863,0.63601847276659,0
2.09999847412109,-1.09819054603577,2.49329924583435,1.8143857717514,-1.09646699912883,2.4940372624541,1.8131614643864,2167.851,2168.572,2167.584,2169.425,358.418670654297,44.9963150024414,0.631359457969666,-1.0419260263443,-0.448177546262741,0.635706722736359,-1.04677411523768,-0.450397658303471,0.63945797241075,0
2.11999893188477,-1.11913824081421,2.48428893089294,1.82716846466064,-1.11745709586255,2.485005810225,1.82598398693703,2165.823,2166.736,2165.986,2167.487,358.491851806641,44.9962387084961,0.60184246301651,-1.04737889766693,-0.450518697500229,0.639133512973785,-1.0521439094894,-0.452708130755304,0.642738295925142,0
2.13999938964844,-1.14018964767456,2.47523403167725,1.84001648426056,-1.138551967509,2.47592927627801,1.83887051484687,2163.944,2164.84,2164.189,2165.611,358.565979003906,44.996166229248,0.571996510028839,-1.05257427692413,-0.452750355005264,0.642401337623596,-1.05725102347782,-0.454905579228273,0.645858152165725,0
2.15999984741211,-1.16133999824524,2.46613669395447,1.85292661190033,-1.15974634010981,2.46680992985011,1.85181782633704,2162.183,2163.045,2162.181,2163.661,358.640960693359,44.9960899353027,0.541887760162354,-1.05750966072083,-0.454871356487274,0.645508646965027,-1.06209345202774,-0.456989140951513,0.648816316202266,0
2.18000030517578,-1.18258368968964,2.45699906349182,1.86589562892914,-1.18103490068612,2.45765005696766,1.86482267579167,2160.339,2161.141,2160.188,2161.826,358.716766357422,44.9960021972656,0.511487126350403,-1.06218242645264,-0.456880182027817,0.648448467254639,-1.06666929835407,-0.458957999791384,0.651611629318345,0
2.19999694824219,-1.20391535758972,2.4478235244751,1.87892007827759,-1.20240821395574,2.44845371736898,1.8778792993441,2158.561,2159.327,2158.124,2159.874,358.793273925781,44.995922088623,0.480853378772736,-1.06659030914307,-0.458775818347931,0.651221692562103,-1.07097597819164,-0.460811043810786,0.654242512826705,0
2.21999740600586,-1.22533011436462,2.43861246109009,1.8919962644577,-1.22386905090202,2.43921971877738,1.89098938974483,2156.007,2157.121,2156.833,2158.246,358.870727539063,44.9958801269531,0.449738174676895,-1.07073104381561,-0.460557103157043,0.653806984424591,-1.07501345493598,-0.46254825725983,0.656708944366236,0
2.23999786376953,-1.24682211875916,2.429368019104,1.9051216840744,-1.24540792547886,2.42995214277345,1.90414715211632,2155.514,2155.797,2153.595,2155.735,358.94873046875,44.9957504272461,0.418651521205902,-1.07460284233093,-0.462223619222641,0.656269192695618,-1.07877930973132,-0.464168599372462,0.659009446295705,0
2.2599983215332,-1.26838600635529,2.42009258270264,1.91829216480255,-1.26701939030951,2.42065333321126,1.9173492587411,2153.112,2153.731,2151.824,2154.154,359.026977539063,44.9956588745117,0.387383699417114,-1.07820332050323,-0.463773369789124,0.658523380756378,-1.08227207933222,-0.465671440555045,0.661143124741302,0
2.27999877929688,-1.29001677036285,2.41078853607178,1.93150424957275,-1.28869796983554,2.41132564607061,1.93059236468599,2151.035,2151.713,2150.161,2152.263,359.105590820313,44.9955940246582,0.355880379676819,-1.08153259754181,-0.465206772089005,0.660604417324066,-1.08549040888332,-0.467056197851165,0.663109152043028,0
2.29999923706055,-1.31170856952667,2.40145802497864,1.94475448131561,-1.31043816248474,2.40197144852433,1.94387310912637,2148.949,2149.726,2148.501,2150.346,359.184692382813,44.9955520629883,0.324111998081207,-1.08458971977234,-0.466523796319962,0.662514328956604,-1.08843305191934,-0.468322334941636,0.664906766754694,0
2.31999969482422,-1.33345603942871,2.39210319519043,1.95803964138031,-1.33223444283894,2.39259311800549,1.9571881166705,2147.05,2147.905,2146.62,2148.291,359.264465332031,44.9955177307129,0.292178362607956,-1.08737325668335,-0.467723995447159,0.66425758600235,-1.09109887036509,-0.469469362144493,0.666535273643923,0
2.34000015258789,-1.35525369644165,2.38272738456726,1.97135627269745,-1.35408126380187,2.38319304127467,1.97053399868384,2145.193,2146.017,2144.627,2146.34,359.344848632813,44.9954681396484,0.260107755661011,-1.08988177776337,-0.46880641579628,0.665830671787262,-1.09348683453544,-0.470496836415,0.667994043692144,0
2.3599967956543,-1.37709593772888,2.37333202362061,1.98470091819763,-1.37596887940059,2.37377541175173,1.98390480150359,2143.502,2143.978,2142.432,2144.563,359.425750732422,44.9954071044922,0.227786600589752,-1.09211385250092,-0.469770044088364,0.667234838008881,-1.09559564748259,-0.471404199712748,0.669282284614185,0
2.37999725341797,-1.39897727966309,2.36391973495483,1.99806976318359,-1.39790005743958,2.36433903852774,1.99730221593832,2140.841,2141.928,2141.171,2142.78,359.50732421875,44.9953956604004,0.195100948214531,-1.09406793117523,-0.470614373683929,0.668442249298096,-1.09742530100382,-0.472191448508328,0.67039999139912,0
2.39999771118164,-1.42089200019836,2.35449314117432,2.01146030426025,-1.41986502747765,2.35488812555058,2.01072027337798,2140.429,2140.615,2137.885,2140.193,359.589233398438,44.9953002929688,0.162595793604851,-1.09574246406555,-0.471339076757431,0.669524312019348,-1.09897466165884,-0.47285809511406,0.671346471645978,0
2.41999816894531,-1.44283473491669,2.34505414962769,2.02486824989319,-1.44185817738692,2.34542508756209,2.02415554546122,2138.032,2138.449,2136.086,2138.724,359.671081542969,44.9952278137207,0.129973649978638,-1.09713685512543,-0.471942782402039,0.670394241809845,-1.10024313330221,-0.473403883025206,0.672121361178802,0
2.43999862670898,-1.46479988098145,2.33560562133789,2.03829002380371,-1.46387388420027,2.33595234396796,2.03760459720517,2135.873,2136.489,2134.516,2136.781,359.753051757813,44.9951972961426,0.0972262099385262,-1.0982518196106,-0.472426265478134,0.671085178852081,-1.10123022817855,-0.473828602374257,0.672724362035447,0
2.45999908447266,-1.48678159713745,2.32614994049072,2.05172204971313,-1.48590651627916,2.32647231790489,2.05106398832971,2133.888,2134.507,2132.81,2134.865,359.835266113281,44.9951820373535,0.064325675368309,-1.09908735752106,-0.472789883613586,0.671606004238129,-1.10193556692257,-0.474132089930926,0.673155242467576,0
2.47999954223633,-1.50877451896667,2.31668901443481,2.06516122817993,-1.50795043548148,2.31698743530794,2.06453027458184,2132.022,2132.662,2130.924,2132.874,359.917846679688,44.9951705932617,0.031334862112999,-1.09964299201965,-0.473033457994461,0.671957314014435,-1.10235887855907,-0.474314229102152,0.673413836940663,0
2.5,-1.53077268600464,2.30722618103027,2.07860398292542,-1.52999999932945,2.30750012397766,2.0780000090599,2130.128,2130.821,2129.016,2130.93,0.000768435769714415,44.9951515197754,-0.00170240143779665,-1.09991800785065,-0.473156601190567,0.67213499546051,-1.10250000050292,-0.474374949932098,0.673500046133994,0
2.51999664306641,-1.55277097225189,2.29776310920715,2.09204697608948,-1.55204535801192,2.29801462201262,2.09146717466799,2128.512,2128.875,2126.841,2129.101,0.0839163213968277,44.9951133728027,359.965148925781,-1.09991204738617,-0.473158866167068,0.672144711017609,-1.10235893238473,-0.47431425226183,0.67341386982192,0
2.53999710083008,-1.57476353645325,2.28830242156982,2.10548615455627,-1.57408927882895,2.2885297387209,2.10493346190651,2125.833,2126.763,2125.655,2127.471,0.167508617043495,44.9951362609863,359.931732177734,-1.09962475299835,-0.473040193319321,0.671956181526184,-1.10193567455836,-0.474132136243598,0.673155308220598,0
2.55999755859375,-1.59674453735352,2.2788462638855,2.11891889572144,-1.59612191359838,2.27904971150017,2.11839285467467,2125.506,2125.512,2122.431,2124.857,0.251166880130768,44.9950485229492,359.898559570313,-1.09905469417572,-0.472800254821777,0.671643018722534,-1.10123038958312,-0.473828671822132,0.672724460634977,0
2.57999801635742,-1.61870861053467,2.2693977355957,2.13234114646912,-1.6181376241771,2.2695769662859,2.13184190871882,2123.109,2123.476,2120.72,2123.373,0.334526866674423,44.9950103759766,359.865447998047,-1.09820330142975,-0.472438633441925,0.671118021011353,-1.10024334841354,-0.473403975581601,0.672121492586955,0
2.59999847412109,-1.64065003395081,2.25995850563049,2.14574956893921,-1.64013077892511,2.26011392621545,2.14527718375796,2121.149,2121.398,2119.079,2121.65,0.417699128389359,44.9949951171875,359.832244873047,-1.09707152843475,-0.471956074237823,0.670419216156006,-1.09897493039424,-0.472858210743393,0.671346635812239,0
2.61999893188477,-1.66256332397461,2.25053119659424,2.15914058685303,-1.66209575487342,2.25066301069528,2.1586952448081,2119.116,2119.681,2117.507,2119.61,0.50085586309433,44.995002746582,359.799041748047,-1.09566020965576,-0.471353471279144,0.669546902179718,-1.09742562325992,-0.472191587166126,0.670400188260345,0
2.63999938964844,-1.68444263935089,2.24111890792847,2.17251062393188,-1.68402693989188,2.24122663446822,2.17209266350648,2117.281,2117.799,2115.753,2117.766,0.584112823009491,44.9950103759766,359.765869140625,-1.09396982192993,-0.470631033182144,0.668507695198059,-1.09559602313537,-0.471404361345641,0.669282514094601,0
2.65999984741211,-1.70628261566162,2.23172307014465,2.18585658073425,-1.70591873485703,2.23180720668066,2.18546601943597,2115.675,2115.933,2113.727,2115.973,0.667404651641846,44.995002746582,359.732666015625,-1.09200072288513,-0.469788610935211,0.667303562164307,-1.09348683453544,-0.470496836414999,0.667994043692144,0
2.67999649047852,-1.72807776927948,2.22234654426575,2.19917511940002,-1.72776139360717,2.22240892083372,2.19880935881846,2113.833,2114.256,2111.881,2114.057,0.750650942325592,44.9949989318848,359.699554443359,-1.08975327014923,-0.468826532363892,0.665923953056335,-1.09109935234628,-0.469469569527535,0.666535568078712,0
2.69999694824219,-1.74982225894928,2.21299171447754,2.21246218681335,-1.74955768413056,2.21303058593937,2.21212437257479,2111.437,2112.121,2110.645,2112.579,0.8340944647789,44.9950408935547,359.666259765625,-1.08722841739655,-0.46774485707283,0.664359331130981,-1.08843358680109,-0.468322565086308,0.664907093505606,0
2.71999740600586,-1.77151083946228,2.20366096496582,2.22571563720703,-1.77129788800495,2.2036763835632,2.22540512387247,2111.185,2110.941,2107.521,2110.051,0.917299866676331,44.9949722290039,359.633331298828,-1.08442485332489,-0.46654349565506,0.662670493125916,-1.08549099645889,-0.467056450668518,0.663109510983775,0
2.73999786376953,-1.79313778877258,2.1943564414978,2.23893117904663,-1.79297647980783,2.19434869114016,2.23864823731709,2108.851,2108.924,2105.923,2108.737,0.999922871589661,44.9949493408203,359.600463867188,-1.08134567737579,-0.465222895145416,0.660774171352386,-1.08227271937422,-0.465671715947234,0.661143515732969,0
2.7599983215332,-1.81469750404358,2.18508076667786,2.25210523605347,-1.81458795796224,2.18504987584512,2.25185035208115,2106.937,2107.144,2104.434,2106.9,1.08210074901581,44.9949493408203,359.567718505859,-1.07799243927002,-0.463784068822861,0.658708155155182,-1.07878000199166,-0.464168897232749,0.659009869186748,0
2.77999877929688,-1.8361850976944,2.17583632469177,2.26523470878601,-1.83612684690458,2.17578229366013,2.2650081232283,2105.135,2105.358,2102.86,2105.116,1.16397178173065,44.9949684143066,359.535064697266,-1.07436680793762,-0.462228119373322,0.65647828578949,-1.07501419914593,-0.462548577472581,0.656709398992482,0
2.79999923706055,-1.85759425163269,2.16662526130676,2.27831649780273,-1.85758769925251,2.16654828844162,2.27811822303765,2103.336,2103.562,2101.252,2103.416,1.24563491344452,44.9949951171875,359.502502441406,-1.07047033309937,-0.460555672645569,0.654083788394928,-1.07097677406178,-0.460811386251471,0.65424299901135,0
2.81999969482422,-1.87892055511475,2.15744996070862,2.29134702682495,-1.87896509797278,2.15735019098767,2.29117734232814,2101.794,2102.003,2099.403,2101.515,1.32706141471863,44.9950180053711,359.470123291016,-1.06630384922028,-0.45876732468605,0.651530385017395,-1.06666929835407,-0.458957999791384,0.651611629318345,0
2.83999633789063,-1.9001579284668,2.14831280708313,2.30432319641113,-1.90024960698239,2.14819206138118,2.30417971674389,2100.101,2100.197,2097.663,2099.939,1.40818166732788,44.9950332641602,359.437835693359,-1.06186902523041,-0.456863313913345,0.64881032705307,-1.06209435025759,-0.456989527434725,0.648816864916866,0
2.8599967956543,-1.9213011264801,2.13921594619751,2.31724143028259,-1.9214439980555,2.13907270700516,2.31712703951851,2097.926,2098.348,2096.433,2098.428,1.48918867111206,44.9950790405273,359.405548095703,-1.05716753005981,-0.454844385385513,0.64591509103775,-1.05725197237562,-0.454905987512489,0.645858731832587,0
2.87999725341797,-1.94234490394592,2.13016176223755,2.33009934425354,-1.94253888918396,2.12999616467562,2.3300135793296,2097.679,2097.23,2093.556,2096.065,1.56964612007141,44.9950332641602,359.373748779297,-1.05219876766205,-0.452710539102554,0.642897665500641,-1.05214490868305,-0.452708560680416,0.642738906316949,0
2.89999771118164,-1.96328449249268,2.12115240097046,2.34289312362671,-1.96352900640172,2.1209647036328,2.34283611439361,2095.515,2095.347,2092.074,2094.858,1.6492418050766,44.9950141906738,359.342132568359,-1.0469673871994,-0.450462877750397,0.639684557914734,-1.04677516433438,-0.450398109700476,0.639458613287558,0
2.91999816894531,-1.98411405086517,2.11219024658203,2.35561919212341,-1.98440911693069,2.11198057539494,2.35559144808806,2093.672,2093.596,2090.775,2093.259,1.72813594341278,44.9950523376465,359.310668945313,-1.04147553443909,-0.448102861642838,0.636308968067169,-1.04114485287423,-0.447975543971863,0.636019143875825,0
2.93999862670898,-2.00482845306396,2.10327768325806,2.3682746887207,-2.00517403134858,2.10304601282548,2.36827641027585,2092.055,2092.052,2089.307,2091.491,1.80646848678589,44.9950790405273,359.279449462891,-1.03572535514832,-0.445631861686707,0.632780969142914,-1.03525619623725,-0.445441819530995,0.632421855426973,0
2.95999908447266,-2.02542304992676,2.09441637992859,2.38085675239563,-2.02581860575671,2.0941632292003,2.38088785862954,2090.511,2090.445,2087.726,2089.88,1.88427138328552,44.9951248168945,359.248474121094,-1.02971923351288,-0.443050771951675,0.629100024700165,-1.02911152474823,-0.442797939051516,0.628668171500036,0
2.97999954223633,-2.04589223861694,2.08560943603516,2.39336204528809,-2.04633774394789,2.08533441727499,2.3934226799557,2088.896,2088.891,2086.203,2088.289,1.96155989170074,44.9951629638672,359.2177734375,-1.02345931529999,-0.440360516309738,0.625263273715973,-1.022713277122,-0.440044951844293,0.624759581867857,0
3,-2.06623101234436,2.07685828208923,2.40578770637512,-2.06672639957428,2.07656174835205,2.40587779151916,2087.646,2087.298,2084.395,2086.742,2.03821468353271,44.9951858520508,359.187286376953,-1.01694774627686,-0.437561750411987,0.621280312538147,-1.01606400046349,-0.437183953857422,0.620697642517089,0
3.01999664306641,-2.08643507957458,2.06816482543945,2.41813039779663,-2.08697572864857,2.06784902775215,2.41824779066609,2086.105,2085.891,2082.816,2085.117,2.11411786079407,44.9952087402344,359.157135009766,-1.01018714904785,-0.434655725955963,0.617139995098114,-1.00916768936771,-0.434216663853534,0.616484793683489,0
3.03999710083008,-2.10649871826172,2.05953216552734,2.43038702011108,-2.10708851762775,2.05919505654068,2.43053437959959,2083.887,2084.108,2081.973,2083.897,2.18955230712891,44.9952735900879,359.127075195313,-1.00318086147308,-0.431643813848495,0.612832486629486,-1.00202447609459,-0.431143138740389,0.612121116162586,0
3.05999755859375,-2.12641716003418,2.05096173286438,2.44255542755127,-2.12705600675913,2.05060360379452,2.44273220712343,2083.946,2083.037,2079.265,2081.753,2.26411843299866,44.9952545166016,359.097534179688,-0.995928227901459,-0.428526014089584,0.608421921730042,-0.994638524886308,-0.427965170275055,0.607609153824944,0
3.07999801635742,-2.14618587493896,2.04245567321777,2.4546320438385,-2.14687337079936,2.04207674568107,2.45483832557174,2081.924,2081.493,2077.98,2080.603,2.33751749992371,44.9952735900879,359.068389892578,-0.988435864448547,-0.425304591655731,0.603829205036163,-0.987012816387451,-0.424684040945629,0.602950727499826,0
3.09999847412109,-2.16580009460449,2.03401613235474,2.46661376953125,-2.16653584520328,2.033616532251,2.46684982435823,2080.336,2079.93,2076.813,2079.183,2.40988039970398,44.9953117370605,359.039581298828,-0.980706512928009,-0.421980887651443,0.599090218544006,-0.979150439632689,-0.421301079877433,0.598147724230312,0
3.11999893188477,-2.1852548122406,2.02564525604248,2.47849798202515,-2.18603872829175,2.02522498650551,2.47876383130049,2078.847,2078.479,2075.584,2077.718,2.48134875297546,44.9953765869141,359.011077880859,-0.972743391990662,-0.418556749820709,0.594211399555206,-0.971054592046769,-0.41781766283301,0.593202097273285,0
3.13999938964844,-2.20454573631287,2.0173442363739,2.49028182029724,-2.20537738341953,2.01690410346351,2.49057751394429,2077.54,2077.127,2074.183,2076.226,2.55195713043213,44.995433807373,358.982940673828,-0.964549541473389,-0.415033578872681,0.589196979999542,-0.962728579444533,-0.414235212212131,0.588115866099442,0
3.15999984741211,-2.22366857528687,2.00911593437195,2.50196266174316,-2.2245472411431,2.00865584922888,2.50228808088789,2076.121,2075.84,2072.863,2074.773,2.62171506881714,44.995491027832,358.955291748047,-0.956128358840942,-0.411412626504898,0.584042549133301,-0.954175816030892,-0.41055519705179,0.582891116393291,0
3.17999649047852,-2.24261808395386,2.00096201896667,2.51353788375854,-2.2435401949712,2.00048371179835,2.51389058000227,2074.975,2074.321,2071.365,2073.562,2.69054436683655,44.995532989502,358.927947998047,-0.947482883930206,-0.407694846391678,0.578756392002106,-0.9454015193052,-0.406779862296197,0.577531035443764,0
3.19999694824219,-2.26139068603516,1.99288439750671,2.52500438690186,-2.2623590635174,1.99238647840124,2.5253867331345,2073.251,2072.965,2070.371,2072.313,2.75854682922363,44.9956092834473,358.90087890625,-0.938617050647736,-0.403882175683975,0.573323845863342,-0.936405971974636,-0.402909329586355,0.572035795952272,0
3.21999740600586,-2.2799813747406,1.98488473892212,2.53636026382446,-2.28099585204123,1.98436758895103,2.53677165642235,2073.082,2071.989,2068.177,2070.518,2.82535719871521,44.99560546875,358.874450683594,-0.929531693458557,-0.399975061416626,0.567788243293762,-0.927194566064376,-0.398945918960059,0.566408691822848,0
3.23999786376953,-2.29838585853577,1.9769651889801,2.54760217666626,-2.29944628156995,1.97642888457015,2.54804273590817,2071.423,2070.668,2067.031,2069.464,2.89074063301086,44.9956359863281,358.848541259766,-0.920233964920044,-0.395976036787033,0.562096774578094,-0.917771149318993,-0.394891285994308,0.560652073582612,0
3.2599983215332,-2.31660032272339,1.96912753582001,2.55872774124146,-2.31770615117141,1.96857217280235,2.55919740530806,2070.126,2069.311,2065.96,2068.244,2.95476365089417,44.9956893920898,358.823059082031,-0.910727322101593,-0.391886860132217,0.556277275085449,-0.908139677873146,-0.390747132903322,0.554768357972493,0
3.27999877929688,-2.3346209526062,1.96137309074402,2.56973433494568,-2.33577134012187,1.96079922667992,2.57023314733618,2068.782,2068.042,2064.963,2067.022,3.0175473690033,44.9957618713379,358.798034667969,-0.901016175746918,-0.387709736824036,0.550332367420197,-0.898304216251578,-0.386515208538549,0.548760027947228,0
3.29999923706055,-2.35244274139404,1.95370447635651,2.58061957359314,-2.35363781007389,1.95311178379095,2.5811474950291,2067.504,2066.894,2063.946,2065.749,3.07921409606934,44.9958457946777,358.773468017578,-0.891104459762573,-0.383446574211121,0.544266819953918,-0.888268937369113,-0.38219730838866,0.542629632675369,0
3.31999969482422,-2.37006282806396,1.94612240791321,2.59138131141663,-2.37130160722417,1.94551154534655,2.59193803307009,2066.695,2065.741,2062.533,2064.511,3.13967180252075,44.9958992004395,358.749450683594,-0.880995571613312,-0.379098653793335,0.538091599941254,-0.878038122530657,-0.377795274579551,0.536379787539275,0
3.33999633789063,-2.38747692108154,1.93862891197205,2.60201716423035,-2.38875555478454,1.93800159931817,2.60260037727124,2065.422,2064.637,2061.467,2063.404,3.1988570690155,44.9959564208984,358.725952148438,-0.870694637298584,-0.374668061733246,0.531791150569916,-0.867618167158097,-0.373311858882592,0.530014399402376,0
3.3599967956543,-2.40468072891235,1.93122577667236,2.61252450942993,-2.40600253440574,1.930580705812,2.61313628798802,2063.988,2063.365,2060.701,2062.46,3.25693726539612,44.996036529541,358.702850341797,-0.860205948352814,-0.370156526565552,0.525369644165039,-0.85700959304645,-0.368747285811601,0.523533787021104,0
3.37999725341797,-2.42167139053345,1.92391443252563,2.62290191650391,-2.42303550945299,1.9232518924954,2.62354146665005,2064.126,2062.682,2058.67,2060.791,3.31350874900818,44.9960479736328,358.680541992188,-0.849530935287476,-0.365564942359924,0.518867015838623,-0.846218976345105,-0.364104384899943,0.516941967662506,0
3.39999771118164,-2.43844485282898,1.91669654846191,2.63314652442932,-2.43985088596004,1.91601670575165,2.63381371775943,2062.571,2061.428,2057.835,2060.153,3.36836361885071,44.9960899353027,358.658782958984,-0.838678479194641,-0.360896348953247,0.512225985527039,-0.835251031898626,-0.359385184813519,0.51024182155155,0
3.41999816894531,-2.45499777793884,1.90957355499268,2.64325618743896,-2.45644516534361,1.90887665092339,2.64395090408624,2061.541,2060.39,2056.983,2059.054,3.42158937454224,44.9961585998535,358.637573242188,-0.827652096748352,-0.356152802705765,0.505480647087097,-0.824110582941664,-0.354591760855451,0.503436295127018,0
3.43999862670898,-2.47132682800293,1.90254688262939,2.65322875976563,-2.47281494657125,1.90183319137989,2.6539509479928,2060.474,2059.408,2056.176,2058.01,3.47328066825867,44.9962387084961,358.616973876953,-0.816457033157349,-0.351336926221848,0.498632550239563,-0.812802561098952,-0.34972623496609,0.496528401041508,0
3.45999908447266,-2.48742866516113,1.89561748504639,2.66306257247925,-2.48895692832918,1.89488774758421,2.66381183275806,2059.535,2058.46,2055.294,2057.005,3.52349495887756,44.9963188171387,358.596984863281,-0.805098176002502,-0.346450686454773,0.491687476634979,-0.801332006385299,-0.344790775723006,0.489521218161412,0
3.47999954223633,-2.50330018997192,1.88878774642944,2.67275547981262,-2.50486791119015,1.88804169616054,2.67353160390184,2058.648,2057.605,2054.379,2055.998,3.57223272323608,44.9963912963867,358.577697753906,-0.79358047246933,-0.341496139764786,0.484647125005722,-0.789704067205609,-0.339787598340998,0.482417891566951,0
3.49999618530273,-2.51893854141235,1.88205814361572,2.68230581283569,-2.52054183223243,1.88129764581471,2.68310655767985,2058.005,2056.558,2053.3,2055.224,3.61937522888184,44.9964561462402,358.558990478516,-0.781908690929413,-0.336475133895874,0.477517575025558,-0.777926261338517,-0.334719937510192,0.475223013751781,0
3.51999664306641,-2.53434038162231,1.87543022632599,2.69171142578125,-2.53598168290031,1.87465430941181,2.69253852151874,2056.666,2055.699,2052.829,2054.442,3.66503739356995,44.9965515136719,358.540802001953,-0.770089030265808,-0.331390500068665,0.470283389091492,-0.765999459475408,-0.329588167864767,0.467937116607681,0
3.53999710083008,-2.54950261116028,1.86890554428101,2.7009711265564,-2.55118156992615,1.86811422266028,2.70182389531326,2056.87,2055.17,2051.26,2053.103,3.7089216709137,44.9965896606445,358.523498535156,-0.758123576641083,-0.326243281364441,0.462989062070847,-0.753931367647136,-0.324395605094516,0.460564907628649,0
3.55999755859375,-2.56442332267761,1.86248469352722,2.7100830078125,-2.56613872308604,1.86167857751006,2.71096098677687,2055.836,2054.248,2050.497,2052.587,3.75079107284546,44.9966354370117,358.506896972656,-0.746021389961243,-0.321036785840988,0.455591022968292,-0.741727567798258,-0.319144650954242,0.45310979673751,0
3.57999801635742,-2.57909917831421,1.85616934299469,2.71904516220093,-2.58085048488145,1.85534851740854,2.71994817248517,2054.815,2053.422,2050.063,2051.864,3.79076409339905,44.9967308044434,358.490966796875,-0.733787894248962,-0.315773755311966,0.448105990886688,-0.72939375026341,-0.313837753835969,0.445575260070899,0
3.59999847412109,-2.59352779388428,1.84996008872986,2.72785615921021,-2.59531431270705,1.84912513636775,2.72878389920025,2054.205,2052.708,2049.395,2051.024,3.82891583442688,44.9968223571777,358.475738525391,-0.721428096294403,-0.310456514358521,0.44055113196373,-0.716935713767317,-0.308477408768949,0.437964839979262,0
3.61999893188477,-2.60770678520203,1.8438583612442,2.73651456832886,-2.6095277810186,1.84300947803163,2.73746668519498,2053.484,2052.084,2048.779,2050.259,3.86526775360107,44.9969177246094,358.461303710938,-0.708948314189911,-0.305087864398956,0.432922780513763,-0.704359365424783,-0.303066157419654,0.430282145026854,0
3.63999938964844,-2.62163376808167,1.83786511421204,2.74501919746399,-2.6234885835008,1.83700253474321,2.74599512157732,2052.962,2051.367,2048.062,2049.633,3.8997802734375,44.9970016479492,358.447631835938,-0.69635409116745,-0.29967001080513,0.425228089094162,-0.691670720740692,-0.297606588091786,0.422530849991739,0
3.65999603271484,-2.63530683517456,1.8319810628891,2.75336861610413,-2.63719194552437,1.83110636089208,2.75436629160077,2052.451,2050.782,2047.358,2048.973,3.93236112594604,44.9970855712891,358.434692382813,-0.683651566505432,-0.294205456972122,0.417467623949051,-0.678878353700696,-0.292102389931838,0.414716192587956,0
3.67999649047852,-2.64872360229492,1.82620716094971,2.76156139373779,-2.65064103434641,1.825319593696,2.76258213009327,2051.527,2050.098,2047.079,2048.531,3.9631085395813,44.997184753418,358.422454833984,-0.670847475528717,-0.288697212934494,0.409635454416275,-0.665983614869008,-0.28655414404986,0.40683899785411,0
3.69999694824219,-2.6618824005127,1.82054436206818,2.76959681510925,-2.66383127580226,1.81964420129024,2.77063984276899,2051.808,2049.82,2045.952,2047.537,3.99177432060242,44.9972496032715,358.411163330078,-0.657945394515991,-0.283147007226944,0.401766002178192,-0.65299527533123,-0.280965624398954,0.398904623909523,0
