t,x_s1,x_s2,x_s3,x_s_d1,x_s_d2,x_s_d3,propellers_rpms1,propellers_rpms2,propellers_rpms3,propellers_rpms4,rollRad,pitchRad,yawRad,v_s1,v_s2,v_s3,v_s_d1,v_s_d2,v_s_d3,insideCount
0,-0.0599999986588955,2.94000005722046,1.17999994754791,-0.0599999986588955,2.94000005722046,1.17999994754791,0,0,0,0,0,45.0048027038574,0,0,0,0,-1.06581410364015E-15,4.44089209850063E-16,-7.105427357601E-16,0
0.0200004577636719,-0.0599999986588955,2.94000005722046,1.17705690860748,-0.0600018691155303,2.93999925241522,1.18000109018068,0,0,0,0,0.937003672122955,44.8630027770996,-0.00115976633969694,3.71994488546079E-08,3.50004931704007E-08,-0.147149950265884,-0.000279999361409376,-0.000120475902936966,0.000171047240579747,5
0.0399971008300781,-0.0599999986588955,2.94000005722046,1.17018985748291,-0.0600148681826738,2.93999365927978,1.18000903110795,0,0,0,0,1.87400352954865,44.7211418151855,-0.00311126722954214,3.70364325874561E-08,3.5142885934647E-08,-0.343349903821945,-0.00111080915396111,-0.000477950146533378,0.000678575978318444,6
0.05999755859375,-0.0599062256515026,2.94009447097778,1.16346502304077,-0.0600498857373401,2.93997859220429,1.18003042278566,3197.335,2848.712,1517.244,2782.325,1.4036545753479,44.7413520812988,0.0288805682212114,0.00468864291906357,0.00471881497651339,-0.336239993572235,-0.00247936261166862,-0.00106680046642749,0.00151460392977639,6
0.0799980163574219,-0.0597377792000771,2.94026732444763,1.15723741054535,-0.0601175407449857,2.93994948214456,1.1800717521741,2865.672,2651.749,2344.538,2562.213,0.339705348014832,44.8158149719238,0.099783681333065,0.00842232163995504,0.00864463113248348,-0.311380177736282,-0.00437227586895222,-0.00188126815916228,0.00267095510032206,6
0.0999984741210938,-0.059556283056736,2.94046425819397,1.15151941776276,-0.0602281887669101,2.93990187339187,1.18013934532406,2239.947,2528.134,3137.914,2508.576,359.321685791016,44.9191017150879,0.178528979420662,0.00907482765614986,0.00984909757971764,-0.28589791059494,-0.00677637982016689,-0.00291568692648091,0.00413958468881675,5
0.119998931884766,-0.0594243593513966,2.94063234329224,1.146568775177,-0.0603919230601972,2.93983142309968,1.18023936804881,2123.861,2454.789,3351.751,2464.455,358.750061035156,44.999870300293,0.253328680992126,0.00659625697880983,0.00839871168136597,-0.247529804706573,-0.00967861374975049,-0.00416443710735115,0.005912514107932,5
0.139999389648438,-0.0593829154968262,2.94074034690857,1.14257037639618,-0.0606185767455666,2.93973390035084,1.18037782724834,2312.252,2456.611,3069.123,2463.386,358.636169433594,45.0326461791992,0.326390385627747,0.00207220669835806,0.00539944134652615,-0.1999192237854,-0.0130660253322238,-0.00562194567796536,0.00798183098414958,5
0.159999847412109,-0.0594432428479195,2.94078588485718,1.139524102211,-0.0609177249752248,2.93960518522485,1.18056057223372,2536.574,2486.763,2635.468,2491.902,358.756958007813,45.0249900817871,0.398222595453262,-0.00301631446927786,0.00228031701408327,-0.152312979102135,-0.0169257706321904,-0.00728268625174051,0.0103396891577615,5
0.180000305175781,-0.0595999248325825,2.94078183174133,1.13730895519257,-0.0612986871007165,2.9394412678651,1.18079329605139,2666.502,2506.054,2302.555,2513.225,358.864227294922,44.9985504150391,0.467378258705139,-0.0078340582549572,-0.000196800567209721,-0.110757857561111,-0.0212451141043368,-0.00914117907931815,0.0129783086828701,5
0.199996948242188,-0.0598474517464638,2.94074010848999,1.13576078414917,-0.0617704296168641,2.93923829023936,1.1810814761931,2653.541,2500.153,2183.294,2508.564,358.816986083984,44.9743957519531,0.532914459705353,-0.0123763913288713,-0.00209059752523899,-0.0774066150188446,-0.0260104776919234,-0.0111915819022102,0.0158893949364944,5
0.219997406005859,-0.0601893551647663,2.9406623840332,1.1347451210022,-0.0623419453860714,2.93899238297017,1.18143060625819,2540.288,2470.447,2245.763,2478.99,358.612487792969,44.9636840820313,0.594540417194366,-0.0170951206237078,-0.00388054992072284,-0.0507831647992134,-0.0312111627562649,-0.0134292913950757,0.0190664122872106,5
0.239997863769531,-0.0606385841965675,2.94054174423218,1.13419318199158,-0.0630217183703222,2.93869989564571,1.18184586896662,2411.872,2429.783,2374.062,2437.264,358.334716796875,44.9659080505371,0.652650892734528,-0.0224614776670933,-0.00603112392127514,-0.0275966040790081,-0.0368338920540454,-0.0158485947310391,0.0225012498742643,5
0.259998321533203,-0.0612129233777523,2.94036626815796,1.13409042358398,-0.063818066443955,2.93835724931701,1.18233234557803,2329.723,2392.01,2462.44,2398.57,358.076416015625,44.9738731384277,0.707786440849304,-0.0287169180810452,-0.00876802857965231,-0.00513896718621254,-0.04286636357961,-0.0184441987007453,0.0261863925943699,4
0.279998779296875,-0.0619294308125973,2.94012522697449,1.1344405412674,-0.0647390625194898,2.93796097043536,1.18289496770872,2305.733,2365.093,2470.048,2370.693,357.887084960938,44.9803161621094,0.760585069656372,-0.0358254611492157,-0.0120557891204953,0.0175061747431755,-0.0492963837173861,-0.0212108567320638,0.0301143915580518,4
0.299999237060547,-0.0628009513020515,2.93981122970581,1.13523626327515,-0.065792536715479,2.93750768991949,1.18353851865591,2317.462,2348.233,2415.726,2353.483,357.765014648438,44.9817810058594,0.811331331729889,-0.0435761548578739,-0.015705794095993,0.0397839806973934,-0.0561118672418845,-0.0241433688900884,0.0342778640896448,4
0.319999694824219,-0.0638357624411583,2.93942070007324,1.13644921779633,-0.0669860785243584,2.93699414222283,1.1842676347221,2334.824,2336.477,2342.677,2341.665,357.678619384766,44.9788436889648,0.860038995742798,-0.051740437746048,-0.0195234604179859,0.0606479272246361,-0.0633008373176985,-0.0272365818771378,0.0386694937272938,4
0.340000152587891,-0.0650394037365913,2.93895268440247,1.13803613185883,-0.0683270389802989,2.93641716440073,1.18508680653936,2337.843,2324.782,2286.754,2330.006,357.594360351563,44.9741477966309,0.90659087896347,-0.060182012617588,-0.0234036091715097,0.0793464034795761,-0.0708514254995047,-0.0304853890327553,0.0432820302229541,4
0.360000610351563,-0.0664169266819954,2.93840575218201,1.1399507522583,-0.0698225328270578,2.93577369517774,1.18600038039362,2322.245,2310.589,2261.704,2315.939,357.494476318359,44.9703025817871,0.950824677944183,-0.068876177072525,-0.0273418631404638,0.0957323983311653,-0.0787518717320621,-0.0338847303337087,0.0481082895423912,4
0.379997253417969,-0.0679742321372032,2.93777799606323,1.14215385913849,-0.0714791088463715,2.935060916796,1.18701235683346,2295.465,2294.365,2260.958,2299.539,357.379699707031,44.968563079834,0.992758095264435,-0.0778652057051659,-0.0313894376158714,0.110156044363976,-0.0869889214763108,-0.0374289027221294,0.0531401746945263,4
0.399997711181641,-0.0697182044386864,2.93706607818604,1.14461696147919,-0.0733040467096699,2.93427569701629,1.18812718289655,2268.46,2277.727,2268.675,2282.912,357.261566162109,44.9687690734863,1.03239071369171,-0.0871987268328667,-0.0355984419584274,0.123154014348984,-0.0955541759940907,-0.0411142924556206,0.058372555021277,4
0.419998168945313,-0.0716561004519463,2.93626618385315,1.14732038974762,-0.0753034649285836,2.93341540321397,1.18934859628618,2249.156,2263,2270.848,2267.609,357.152008056641,44.9699058532715,1.07001173496246,-0.0968948379158974,-0.0399897769093513,0.135171502828598,-0.104434660908044,-0.0449353170220673,0.0637975046779765,4
0.439998626708984,-0.0737947225570679,2.93537521362305,1.1502480506897,-0.0774835548069347,2.93247737144397,1.19068037917324,2237.915,2250.553,2263.405,2255.068,357.056976318359,44.9710350036621,1.10570645332336,-0.106931194663048,-0.0445485673844814,0.14638352394104,-0.113619049702587,-0.0488871029382406,0.0694081044730023,4
0.459999084472656,-0.0761399939656258,2.93439030647278,1.1533842086792,-0.0798502821969742,2.93145903476675,1.19212617600376,2232.244,2240.413,2248.648,2244.841,356.975646972656,44.9716873168945,1.13953649997711,-0.117263734340668,-0.0492414571344852,0.156805336475372,-0.123096124252221,-0.0529648233581361,0.075197501428542,4
0.479999542236328,-0.0786969363689423,2.93330955505371,1.15671169757843,-0.0824093896672336,2.93035792231548,1.19368949482325,2227.944,2231.881,2232.436,2236.14,356.903442382813,44.9718971252441,1.1715714931488,-0.127846986055374,-0.0540358684957027,0.166374653577805,-0.13285477482153,-0.0571636980729742,0.0811589087805935,4
0.5,-0.0814699232578278,2.93213129043579,1.16021311283112,-0.085166398670376,2.92917165836334,1.195373708601,2222.397,2224.128,2219.477,2228.276,356.835662841797,44.9720077514648,1.20184195041656,-0.138649567961693,-0.0589117109775543,0.175068020820618,-0.142884000065179,-0.0614789935111996,0.0872856059789651,5
0.520000457763672,-0.0844630524516106,2.93085408210754,1.16387188434601,-0.0881266117110474,2.92789796139072,1.19718205655433,2215.08,2216.81,2211.453,2220.816,356.769836425781,44.9723205566406,1.2303900718689,-0.14965657889843,-0.0638626739382744,0.182939559221268,-0.153172907027918,-0.0659060227384819,0.0935709386872751,5
0.539997100830078,-0.0876803174614906,2.92947626113892,1.16767406463623,-0.0912944900108037,2.92653491185861,1.19911726397389,2207.05,2209.894,2207.289,2213.798,356.705902099609,44.9729843139648,1.25725150108337,-0.160863324999809,-0.068890392780304,0.190106153488159,-0.163708678212627,-0.0704392707438901,0.100007076896547,5
0.55999755859375,-0.0911256447434425,2.92799639701843,1.17160797119141,-0.094676112580471,2.92507989413848,1.20118304443252,2199.466,2203.541,2205.049,2207.459,356.645446777344,44.9739952087402,1.28242039680481,-0.172266319394112,-0.0739967823028564,0.196695744991302,-0.17448465888317,-0.0750758741803766,0.106589955332319,5
0.579998016357422,-0.0948028415441513,2.92641282081604,1.1756649017334,-0.0982755538235842,2.92353115512831,1.20338188691976,2194.201,2198.352,2201.906,2201.73,356.589721679688,44.9751243591309,1.30613958835602,-0.18385948240757,-0.0791803300380707,0.202847212553024,-0.185488294752812,-0.0798104312890852,0.113311904776732,5
0.599998474121094,-0.0987154245376587,2.92472410202026,1.17983710765839,-0.102097262171133,2.92188678079254,1.2057165089127,2190.015,2193.795,2198.437,2197.244,356.539276123047,44.9762992858887,1.32838320732117,-0.195629090070724,-0.0844336450099945,0.208608746528625,-0.196709126405959,-0.0846384416756885,0.120166535736014,5
0.619998931884766,-0.102866649627686,2.92292904853821,1.18411791324615,-0.106145477944935,2.92014494663912,1.20818950075775,2187.16,2190.143,2194.524,2193.482,356.493743896484,44.9774398803711,1.34920287132263,-0.207561403512955,-0.0897487103939056,0.214041903614998,-0.208136802817102,-0.0895554515830839,0.127147524930208,5
0.639999389648438,-0.107259482145309,2.92102670669556,1.18850159645081,-0.110424235525481,2.91830391678686,1.21080332699501,2184.955,2187.189,2190.877,2190.424,356.452453613281,44.9785423278809,1.36864328384399,-0.219642102718353,-0.0951174199581146,0.219184726476669,-0.219761081350814,-0.0945570538913933,0.134248615293163,5
0.659999847412109,-0.11189666390419,2.91901612281799,1.19298315048218,-0.114937365519793,2.91636204303257,1.21356032768253,2183.052,2184.788,2188.032,2187.931,356.414611816406,44.9796257019043,1.38674283027649,-0.231859192252159,-0.100533619523048,0.224076822400093,-0.231571827761751,-0.0996388881179631,0.141463615972542,5
0.680000305175781,-0.11678072810173,2.9168963432312,1.19755840301514,-0.119688496929273,2.91431776391831,1.21646271972064,2181.297,2182.867,2186.212,2185.892,356.379730224609,44.9807434082031,1.40354824066162,-0.244203150272369,-0.105993092060089,0.228762313723564,-0.243559016194652,-0.104796640417365,0.148786402329814,5
0.699996948242188,-0.121914058923721,2.91466641426086,1.20222425460815,-0.124680083855354,2.91217002351282,1.2195120022816,2179.792,2181.375,2185.249,2184.271,356.347686767578,44.9818801879883,1.41911506652832,-0.25666618347168,-0.111492946743965,0.233290657401085,-0.255710395848158,-0.11002503961202,0.1562094905416,5
0.719997406005859,-0.12729886174202,2.91232585906982,1.20697832107544,-0.129917262555645,2.90991661182791,1.22271131302505,2178.389,2180.15,2185.151,2183.162,356.318634033203,44.9830780029297,1.43339252471924,-0.269240528345108,-0.11703035235405,0.23770247399807,-0.26802079535749,-0.115321860608138,0.163729721501856,5
0.739997863769531,-0.132937267422676,2.90987372398376,1.21181976795197,-0.135402141159277,2.90755662179454,1.22606193977416,2178.406,2179.738,2184.326,2182.159,356.292572021484,44.9842224121094,1.44663798809052,-0.281920045614243,-0.122603036463261,0.242072135210037,-0.280478211503383,-0.120681938755799,0.171339762631236,5
0.759998321533203,-0.138831153512001,2.90730953216553,1.21674764156342,-0.141137563960274,2.90508882959244,1.22956562006379,2178.062,2179.354,2184.326,2181.912,356.269256591797,44.9853591918945,1.45879197120667,-0.294694393873215,-0.128205940127373,0.246393442153931,-0.293073051970232,-0.126101146749576,0.179033754133825,5
0.779998779296875,-0.144982293248177,2.90463280677795,1.2217618227005,-0.147126184485884,2.90251209348295,1.2332239748923,2178.257,2179.333,2184.486,2181.897,356.248626708984,44.9864692687988,1.46985232830048,-0.307556807994843,-0.133836209774017,0.250712066888809,-0.305795832832518,-0.131575403921268,0.186805902427515,5
0.799999237060547,-0.15139228105545,2.90184307098389,1.22686290740967,-0.153370467664426,2.8998253528763,1.23703851004595,2178.731,2179.649,2184.847,2182.134,356.230529785156,44.987548828125,1.4798538684845,-0.320499569177628,-0.139490574598312,0.255052238702774,-0.318637178554805,-0.1371006762399,0.194650480144012,5
0.819999694824219,-0.15806257724762,2.89893984794617,1.23205161094666,-0.159872691993147,2.89702762739878,1.24101061742316,2179.427,2180.221,2185.425,2182.616,356.214813232422,44.9885864257813,1.48883354663849,-0.333515137434006,-0.145166009664536,0.259435832500458,-0.331587821991737,-0.142672976311719,0.202561826128828,5
0.840000152587891,-0.16499450802803,2.89592266082764,1.23732924461365,-0.166634951706069,2.89411801595997,1.2451415763588,2180.299,2181.009,2186.226,2183.304,356.201354980469,44.9895858764648,1.49683594703674,-0.346596330404282,-0.150859743356705,0.263882160186768,-0.344638604388044,-0.148288363380199,0.210534345441289,5
0.859996795654297,-0.172189235687256,2.89279127120972,1.24269735813141,-0.173657794122436,2.89109628306371,1.24943172120167,2181.313,2181.974,2187.228,2184.171,356.190063476563,44.990550994873,1.50390267372131,-0.359736263751984,-0.156569063663483,0.268408477306366,-0.357777960707973,-0.153941861333544,0.218560973181522,5
0.879997253417969,-0.179647788405418,2.88954544067383,1.24815773963928,-0.180945630646592,2.88796053060595,1.25388374680983,2182.132,2182.873,2188.751,2185.344,356.181030273438,44.9914970397949,1.50991487503052,-0.372927576303482,-0.162291064858437,0.273020952939987,-0.371001963495383,-0.159631780297098,0.226639310127856,5
0.899997711181641,-0.187371090054512,2.88618493080139,1.25371313095093,-0.188498701076517,2.88471065540831,1.25849779967213,2184.137,2184.47,2189.25,2186.206,356.174011230469,44.9923553466797,1.51519227027893,-0.386165410280228,-0.168024346232414,0.277768403291702,-0.384299280991351,-0.165353244531568,0.234762433885595,5
0.919998168945313,-0.195359915494919,2.88270974159241,1.25936543941498,-0.196318384305134,2.8813460641717,1.26327472213274,2185.273,2185.664,2190.642,2187.685,356.168731689453,44.9931678771973,1.51960778236389,-0.399440348148346,-0.17376446723938,0.282612711191177,-0.397661187980262,-0.171102499820431,0.242925014356675,5
0.939998626708984,-0.203614860773087,2.8791196346283,1.26511704921722,-0.204405885800988,2.87786623821667,1.26821525059358,2186.66,2186.994,2192.123,2189.08,356.165252685547,44.9939498901367,1.52313554286957,-0.412747770547867,-0.179510071873665,0.287581890821457,-0.411079067636589,-0.176875838584386,0.251121787656841,5
0.959999084472656,-0.212136477231979,2.87541437149048,1.27097070217133,-0.212762239776093,2.87427073255068,1.27332001683864,2188.076,2188.473,2193.666,2190.44,356.163513183594,44.9946823120117,1.52582538127899,-0.426081478595734,-0.185259148478508,0.292681723833084,-0.424544411524882,-0.18266959988136,0.259347556115652,5
0.979999542236328,-0.220925197005272,2.87159419059753,1.27692902088165,-0.221388311353785,2.87055917493534,1.27858954935826,2189.562,2189.984,2195.182,2191.854,356.163604736328,44.9953842163086,1.52771925926208,-0.439435303211212,-0.191009551286697,0.297917693853378,-0.438048819599778,-0.188480169406503,0.267597188276474,5
1,-0.229981258511543,2.86765909194946,1.28299486637115,-0.230284798736574,2.86673126495361,1.28402427467346,2191.146,2191.46,2196.585,2193.366,356.165466308594,44.9960327148438,1.52880275249481,-0.452802956104279,-0.196758851408958,0.303293466567993,-0.451584000205995,-0.194303979492187,0.275865618896484,5
1.01999664306641,-0.239304810762405,2.86360907554626,1.28917098045349,-0.239450461003889,2.86278753653895,1.28962343472523,2192.728,2192.996,2197.942,2194.844,356.169036865234,44.9966278076172,1.52910053730011,-0.466177880764008,-0.202504634857178,0.308807462453842,-0.465139182559269,-0.200136395770846,0.284146268271649,5
1.03999710083008,-0.248895868659019,2.85944414138794,1.29545986652374,-0.248889165986195,2.85872632547195,1.29538939231083,2193.843,2194.299,2199.778,2196.446,356.174407958984,44.997200012207,1.5284823179245,-0.479552924633026,-0.208244100213051,0.314445823431015,-0.478711464817306,-0.205976169660809,0.292437363711796,5
1.05999755859375,-0.258754342794418,2.85516452789307,1.30186486244202,-0.258599401509697,2.85454828239877,1.3013212236669,2196.144,2196.219,2200.308,2197.522,356.181365966797,44.9976692199707,1.52731490135193,-0.492923974990845,-0.213976234197617,0.320249408483505,-0.492290296490434,-0.211818761581115,0.30073246008742,5
1.07999801635742,-0.268879979848862,2.8507707118988,1.30838811397552,-0.268581219802083,2.85025338484727,1.30741896069852,2197.303,2197.476,2201.739,2199.184,356.189666748047,44.9981117248535,1.52542006969452,-0.506281793117523,-0.219696834683418,0.326160669326782,-0.50586781946303,-0.217660790404144,0.309026756998312,5
1.09999847412109,-0.279272437095642,2.84626269340515,1.31503212451935,-0.278834517009062,2.84584167750307,1.31368253996271,2198.603,2198.774,2203.156,2200.588,356.199340820313,44.9985237121582,1.52275252342224,-0.519622445106506,-0.225404903292656,0.332198917865753,-0.519436284009554,-0.223498921639497,0.317315520258069,5
1.11999893188477,-0.289931237697601,2.84164071083069,1.32179927825928,-0.289359035362208,2.84131327127672,1.32011180399278,2199.806,2200.124,2204.556,2201.819,356.210510253906,44.9989013671875,1.51936280727386,-0.532940208911896,-0.231098800897598,0.338359266519547,-0.532988048794549,-0.229329867434001,0.325594081894103,5
1.13999938964844,-0.300855815410614,2.83690524101257,1.32869207859039,-0.300154365346813,2.83666834237095,1.32670650262257,2201.017,2201.387,2205.791,2203.021,356.223205566406,44.9992523193359,1.51527774333954,-0.546229302883148,-0.236776500940323,0.344639182090759,-0.546515580872639,-0.235150386571708,0.333857840147634,5
1.15999984741211,-0.312045514583588,2.83205652236938,1.3357127904892,-0.311219947869739,2.83190713134792,1.33346629431082,2202.242,2202.553,2206.813,2204.206,356.237487792969,44.9995498657227,1.51049017906189,-0.559483647346497,-0.242435649037361,0.351032972335815,-0.560011455688534,-0.240957284473894,0.34210225947369,6
1.18000030517578,-0.323499411344528,2.82709503173828,1.34286344051361,-0.322555076427271,2.82702994219644,1.34039074746542,2203.371,2203.677,2207.734,2205.287,356.253265380859,44.9998054504395,1.50501787662506,-0.572696924209595,-0.248073890805244,0.35753071308136,-0.573468357077025,-0.246747413199059,0.350322870541114,6
1.19999694824219,-0.335216701030731,2.82202124595642,1.35014593601227,-0.334156660511822,2.8220381046756,1.34747797414352,2204.422,2204.715,2208.549,2206.291,356.270538330078,45.0000228881836,1.49887430667877,-0.585863053798676,-0.253688842058182,0.364124864339828,-0.58687652428584,-0.252516572968185,0.358513710658656,6
1.21999740600586,-0.347196191549301,2.81683564186096,1.35756182670593,-0.346028131869748,2.8169301422008,1.35473007074542,2204.855,2205.375,2209.869,2207.395,356.289398193359,45.000244140625,1.49186849594116,-0.5989750623703,-0.259277820587158,0.370792806148529,-0.600233974716476,-0.258263910724523,0.366673568687828,6
1.23999786376953,-0.35943678021431,2.81153893470764,1.36511337757111,-0.358166167196084,2.81170748469733,1.36214500711597,2206.631,2206.734,2209.601,2207.775,356.309722900391,45.0003662109375,1.48442482948303,-0.612029433250427,-0.264840215444565,0.377576857805252,-0.613531154887641,-0.263985315871967,0.374796608555988,6
1.2599983215332,-0.371937096118927,2.80613160133362,1.37280142307281,-0.370569492049568,2.80637068052165,1.3697220047189,2207.014,2207.26,2210.343,2208.806,356.331176757813,45.0004806518555,1.47632122039795,-0.625016748905182,-0.270371466875076,0.384404718875885,-0.626761182173783,-0.269677827009021,0.382878625774588,6
1.27999877929688,-0.384695768356323,2.80061411857605,1.38062727451324,-0.383236695417198,2.80092033679326,1.37746020158837,2207.502,2207.854,2211.073,2209.424,356.353851318359,45.0005683898926,1.4675475358963,-0.637933611869812,-0.275870829820633,0.391294330358505,-0.639917282339435,-0.275338529371412,0.39091548206889,6
1.29999923706055,-0.397711247205734,2.79498744010925,1.388592004776,-0.396166231882091,2.79535711846185,1.38535865365334,2207.892,2208.394,2211.709,2209.9,356.377960205078,45.000659942627,1.45813119411469,-0.650774717330933,-0.281336694955826,0.398239016532898,-0.652992789539212,-0.280964554832093,0.398903105377968,6
1.31999969482422,-0.410981893539429,2.78925204277039,1.39669668674469,-0.409356423791328,2.7896817473746,1.39341633606181,2208.323,2208.803,2212.073,2210.339,356.403564453125,45.0007247924805,1.44806087017059,-0.66353452205658,-0.286766916513443,0.405233919620514,-0.665981146317813,-0.286553081901244,0.406837489854705,6
1.34000015258789,-0.424506068229675,2.78340888023376,1.40494203567505,-0.422805463423808,2.78389500134342,1.40163214450516,2208.674,2209.186,2212.262,2210.637,356.430633544922,45.0007514953613,1.43737196922302,-0.676206886768341,-0.292159259319305,0.412267625331879,-0.678875903610019,-0.292101335726266,0.414714695865794,6
1.3599967956543,-0.438281774520874,2.77745866775513,1.41332864761353,-0.436508776648329,2.77799884848916,1.41000328471804,2208.954,2209.412,2212.297,2210.911,356.459197998047,45.0007553100586,1.42604517936707,-0.688785910606384,-0.297511100769043,0.419330537319183,-0.691668290305691,-0.297605542343502,0.422529365276922,6
1.37999725341797,-0.452307045459747,2.77140235900879,1.42185664176941,-0.450469530727146,2.77199192602736,1.41853169153152,2208.592,2209.315,2212.832,2211.216,356.489379882813,45.0007743835449,1.41390573978424,-0.701264679431915,-0.302819758653641,0.426398038864136,-0.704356955827446,-0.303065120637236,0.430280673041441,6
1.39999771118164,-0.466579854488373,2.76524066925049,1.43052697181702,-0.464682951063699,2.76587628833354,1.42721444821907,2209.696,2209.911,2211.645,2210.801,356.520935058594,45.0006942749023,1.40139162540436,-0.713639855384827,-0.308084428310394,0.433515042066574,-0.716933326165324,-0.308476381450513,0.437963381430462,6
1.41999816894531,-0.481097877025604,2.75897455215454,1.4393390417099,-0.47914673136562,2.75965292774086,1.43605014590267,2209.214,2209.667,2211.652,2211.038,356.553558349609,45.0006217956543,1.38829183578491,-0.725902080535889,-0.313300371170044,0.440601408481598,-0.729391385793766,-0.313836736470737,0.445573815653291,6
1.43999862670898,-0.49585884809494,2.75260519981384,1.44829261302948,-0.4938584461112,2.75332288788357,1.44503730286896,2208.914,2209.45,2211.621,2210.888,356.58740234375,45.000560760498,1.37457764148712,-0.738048672676086,-0.318467080593109,0.447680771350861,-0.741725227577294,-0.31914364402254,0.453108367133042,6
1.45999908447266,-0.510860323905945,2.74613356590271,1.45738756656647,-0.508815552717244,2.74688726276417,1.45417436589355,2208.546,2209.165,2211.468,2210.634,356.622589111328,45.00048828125,1.36023640632629,-0.750074684619904,-0.323582887649536,0.454746901988983,-0.753929052770513,-0.324394609067776,0.460563493506643,6
1.47999954223633,-0.526099860668182,2.73956060409546,1.4666234254837,-0.524015393706918,2.74034719582071,1.4634597115653,2208.17,2208.851,2211.11,2210.253,356.659210205078,45.0004119873047,1.34529709815979,-0.76197475194931,-0.328645825386047,0.461793512105942,-0.76599717101811,-0.329587183205524,0.467935718624829,6
1.5,-0.541574716567993,2.73288750648499,1.47599971294403,-0.539455198877605,2.73370387899399,1.47289164761066,2207.755,2208.452,2210.573,2209.811,356.697326660156,45.0003242492676,1.32977890968323,-0.773743271827698,-0.333653628826141,0.468811959028244,-0.777924000354858,-0.334718964672088,0.475221632552146,6
1.51999664306641,-0.557282209396362,2.72611546516418,1.48551559448242,-0.555129074991064,2.72695984797977,1.48246657394236,2207.316,2207.97,2209.856,2209.301,356.736877441406,45.0002098083496,1.31369364261627,-0.785374641418457,-0.33860370516777,0.475794225931168,-0.789701834723693,-0.339786637766398,0.482416527778586,6
1.53999710083008,-0.573219418525696,2.71924567222595,1.49516987800598,-0.571040013494911,2.72011381564173,1.49218631798906,2206.184,2207.084,2209.712,2208.941,356.778045654297,45.0001220703125,1.29681372642517,-0.796862483024597,-0.34349337220192,0.482714682817459,-0.801329803423436,-0.344789827850059,0.489519872406387,6
1.55999755859375,-0.589383542537689,2.71227931976318,1.50496232509613,-0.587181951496087,2.71316839067337,1.50204717602401,2206.674,2207.031,2207.746,2207.746,356.820556640625,44.9999504089355,1.27963304519653,-0.808203637599945,-0.348321884870529,0.489624053239822,-0.812800388649436,-0.349725300221754,0.496527073925997,6
1.57999801635742,-0.605771243572235,2.70521759986877,1.51489114761353,-0.603551689586986,2.70612494969039,1.51204719357901,2205.477,2206.056,2207.081,2207.34,356.864074707031,44.9997940063477,1.26190412044525,-0.819389343261719,-0.353084534406662,0.496438711881638,-0.824108441976122,-0.354590839657789,0.503434987244577,6
1.59999847412109,-0.62237960100174,2.6980619430542,1.52495491504669,-0.620145926473056,2.69898491314762,1.52218435394475,2204.506,2205.199,2206.399,2206.483,356.908721923828,44.9996528625488,1.24362552165985,-0.830417394638062,-0.357780933380127,0.503186166286469,-0.835248923368005,-0.359384277571697,0.510240533483095,5
1.61999893188477,-0.639205276966095,2.69081377983093,1.53515207767487,-0.636961261140657,2.69174974440622,1.53245657949507,2203.45,2204.246,2205.657,2205.585,356.954650878906,44.9995307922363,1.22477447986603,-0.841283440589905,-0.36240953207016,0.509861052036285,-0.846216901179681,-0.364103492014234,0.516940699976329,5
1.63999938964844,-0.656245052814484,2.68347430229187,1.54548132419586,-0.653994195024907,2.68442094880091,1.54286173301126,2202.463,2203.286,2204.687,2204.583,357.001983642578,44.9994049072266,1.20536959171295,-0.851982772350311,-0.366968631744385,0.516461253166199,-0.857007552155828,-0.368746407673381,0.523532540272869,5
1.65999984741211,-0.67349511384964,2.67604517936707,1.55594086647034,-0.671241134177535,2.67700007270724,1.55339761900642,2201.438,2202.295,2203.568,2203.515,357.05078125,44.999267578125,1.18544447422028,-0.862510144710541,-0.371455907821655,0.52297842502594,-0.867616161431205,-0.373310995874343,0.530013174135115,5
1.67999649047852,-0.690952360630035,2.66852784156799,1.56652903556824,-0.688695041988866,2.66949014378176,1.56405993892551,2200.483,2201.243,2202.217,2202.41,357.100891113281,44.9991111755371,1.16502165794373,-0.872860670089722,-0.37586897611618,0.529408752918243,-0.878036152828799,-0.377794427071868,0.536378584279145,5
1.69999694824219,-0.708612859249115,2.66092371940613,1.57724344730377,-0.706358800111611,2.66188992212981,1.57485045312518,2198.703,2199.744,2201.602,2201.544,357.152587890625,44.9990005493164,1.14382886886597,-0.883028388023376,-0.380205184221268,0.535723149776459,-0.888267004546665,-0.382196476749158,0.542628451944297,5
1.71999740600586,-0.726473152637482,2.65323448181152,1.58808302879333,-0.724225231782013,2.65420249571236,1.58576477743246,2198.762,2199.226,2199.041,2199.717,357.205505371094,44.9988021850586,1.12243115901947,-0.89301061630249,-0.384463936090469,0.54198145866394,-0.898302321135456,-0.386514393123025,0.548758870250362,5
1.73999786376953,-0.744529068470001,2.64546155929565,1.59904491901398,-0.742290383213093,2.64642956573347,1.59680049654058,2197.03,2197.688,2197.878,2198.859,357.259338378906,44.9986190795898,1.10053265094757,-0.902799665927887,-0.388640850782394,0.548096537590027,-0.908137821269591,-0.39074633405868,0.554767223802352,5
1.7599983215332,-0.762776970863342,2.63760685920715,1.6101268529892,-0.760550216073323,2.63857286977439,1.60795514349582,2195.555,2196.355,2196.741,2197.487,357.314178466797,44.9984703063965,1.07814991474152,-0.912393808364868,-0.392735719680786,0.554099380970001,-0.917769332013572,-0.394890504058555,0.560650963419089,4
1.77999877929688,-0.781212687492371,2.6296718120575,1.62132656574249,-0.779000609654483,2.63063418086074,1.61922620102184,2194.05,2194.91,2195.542,2196.135,357.370208740234,44.9983367919922,1.05524289608002,-0.921789348125458,-0.396747201681137,0.559987783432007,-0.927192788821983,-0.398945154262308,0.566407606133204,4
1.79999923706055,-0.799832403659821,2.62165832519531,1.63264179229736,-0.79763736303951,2.62261530652977,1.63061110284395,2192.605,2193.562,2194.156,2194.625,357.427520751953,44.9982032775879,1.03188252449036,-0.930982291698456,-0.400673747062683,0.56576019525528,-0.936404235539493,-0.402908582446823,0.572034735191139,4
1.81999969482422,-0.818631708621979,2.61356806755066,1.64407002925873,-0.816456197270346,2.61451808789761,1.64210723501345,2191.193,2192.065,2192.599,2193.212,357.486145019531,44.9980697631836,1.0080326795578,-0.939968287944794,-0.404513299465179,0.571411967277527,-0.945399824400851,-0.406779133026206,0.577530000053147,3
1.83999633789063,-0.837606608867645,2.60540270805359,1.65560877323151,-0.835449117627072,2.60634596486888,1.6537097136807,2189.797,2190.642,2190.901,2191.669,357.545989990234,44.9979209899902,0.983745753765106,-0.948742806911469,-0.408263862133026,0.576938211917877,-0.954174163352093,-0.410554485950274,0.582890106797601,3
1.8599967956543,-0.856752574443817,2.59716415405273,1.66725504398346,-0.854618942724365,2.59809772467243,1.66542026069341,2187.622,2188.801,2189.943,2190.383,357.607299804688,44.9978179931641,0.958781182765961,-0.957301020622253,-0.41192302107811,0.582313895225525,-0.962726969681477,-0.41423451957606,0.588114882720311,0
1.87999725341797,-0.876065313816071,2.58885431289673,1.67900705337524,-0.873957566090845,2.58977685529642,1.67723392393473,2187.429,2187.893,2186.952,2188.205,357.669708251953,44.9976272583008,0.933687508106232,-0.965640604496002,-0.415490210056305,0.58760267496109,-0.971053025860989,-0.417816988947023,0.593201140514831,0
1.89999771118164,-0.895540535449982,2.5804750919342,1.69086134433746,-0.893460418296025,2.58138532283915,1.68914791201086,2185.349,2186.034,2185.447,2187.005,357.732818603516,44.9974746704102,0.90817791223526,-0.97375500202179,-0.418961465358734,0.592714786529541,-0.979148917665041,-0.421300425017273,0.598146794484026,0
1.91999816894531,-0.915173411369324,2.57202839851379,1.70281505584717,-0.913122862707269,2.57292512231409,1.7011593924753,2183.524,2184.29,2184.046,2185.395,357.796752929688,44.9973411560059,0.882195770740509,-0.981643259525299,-0.42233681678772,0.597683429718018,-0.987011339258123,-0.424683405378145,0.60294982514457,0
1.93999862670898,-0.934959471225739,2.56351613998413,1.71486520767212,-0.932940197657643,2.56439827671719,1.71326549315307,2181.735,2182.657,2182.556,2183.623,357.861755371094,44.9972305297852,0.855800569057465,-0.989302337169647,-0.42561548948288,0.602510452270508,-0.99463709319481,-0.4279645542582,0.607608279226948,0
1.95999908447266,-0.954894125461578,2.55494022369385,1.72700905799866,-0.952907658613767,2.55580683609405,1.72546330346508,2180.006,2180.969,2180.91,2181.886,357.927856445313,44.997127532959,0.829013586044312,-0.996729075908661,-0.428796172142029,0.607194483280182,-1.00202309041976,-0.431142542523221,0.612120269675456,0
1.97999954223633,-0.974972426891327,2.54630279541016,1.73924374580383,-0.973020420343666,2.54715287660719,1.73774987575242,2178.326,2179.26,2179.113,2180.153,357.995086669922,44.9970207214355,0.801845133304596,-1.0039199590683,-0.431877076625824,0.611732661724091,-1.00916635026771,-0.434216087676217,0.616483975648197,0
2,-0.995189845561981,2.53760576248169,1.75156617164612,-0.993273599084619,2.53843849960327,1.75012222660065,2176.722,2177.547,2177.151,2178.403,358.063385009766,44.9968948364258,0.774311900138855,-1.01087141036987,-0.434856414794922,0.616122484207153,-1.01606400046349,-0.437183953857422,0.620697642517089,0
2.01999664306641,-1.01554131507874,2.52885103225708,1.76397323608398,-1.01365835337184,2.52966750931758,1.76257495489689,2174.991,2175.793,2175.251,2176.656,358.132598876953,44.9967727661133,0.74641078710556,-1.01758015155792,-0.437732607126236,0.620356261730194,-1.02271203275434,-0.440044416427654,0.624758821703072,0
2.03999710083008,-1.03602230548859,2.52004098892212,1.77646148204803,-1.03417746715556,2.52083870789413,1.77510976131291,2172.528,2173.743,2174.111,2175.073,358.203063964844,44.9967002868652,0.717940211296082,-1.02404260635376,-0.440504044294357,0.624415218830109,-1.02911032850577,-0.442797424341804,0.628667440734183,0
2.05999755859375,-1.05662739276886,2.51117753982544,1.78902876377106,-1.05482201812353,2.5119559343546,1.78772119534738,2172.117,2172.514,2170.946,2172.705,358.274383544922,44.9965362548828,0.68939083814621,-1.03025698661804,-0.443170219659805,0.62836480140686,-1.03525504859546,-0.445441325732794,0.632421154350513,0
2.07999801635742,-1.07735180854797,2.50226306915283,1.8016711473465,-1.07558691007788,2.50302138145056,1.80040614381254,2169.818,2170.534,2169.241,2171.204,358.34619140625,44.996410369873,0.660554349422455,-1.03621852397919,-0.445728123188019,0.63211727142334,-1.04114375428791,-0.447975071280863,0.63601847276659,0
2.09999847412109,-1.09819042682648,2.49329948425293,1.81438529491425,-1.09646699912883,2.4940372624541,1.8131614643864,2167.827,2168.554,2167.625,2169.433,358.418640136719,44.9963035583496,0.631342113018036,-1.04192674160004,-0.448177963495255,0.635706782341003,-1.04677411523768,-0.450397658303471,0.63945797241075,0
2.11999893188477,-1.11913800239563,2.48428916931152,1.82716798782349,-1.11745709586255,2.485005810225,1.82598398693703,2165.82,2166.743,2165.999,2167.475,358.491851806641,44.9962310791016,0.601816534996033,-1.04737961292267,-0.450519233942032,0.639134347438812,-1.0521439094894,-0.452708130755304,0.642738295925142,0
2.13999938964844,-1.14018952846527,2.47523427009583,1.8400160074234,-1.138551967509,2.47592927627801,1.83887051484687,2163.989,2164.879,2164.143,2165.575,358.565979003906,44.9961547851563,0.571993589401245,-1.05257499217987,-0.452751040458679,0.642403542995453,-1.05725102347782,-0.454905579228273,0.645858152165725,0
2.15999984741211,-1.16133975982666,2.46613693237305,1.85292613506317,-1.15974634010981,2.46680992985011,1.85181782633704,2162.164,2163.013,2162.187,2163.701,358.640960693359,44.9960746765137,0.541877686977386,-1.05751025676727,-0.454872012138367,0.645509541034698,-1.06209345202774,-0.456989140951513,0.648816316202266,0
2.17999649047852,-1.18258333206177,2.4569993019104,1.86589515209198,-1.18103083166728,2.45765180775279,1.86482019009156,2160.375,2161.169,2160.154,2161.798,358.716766357422,44.9959907531738,0.511493146419525,-1.06218290328979,-0.456880837678909,0.648450374603271,-1.06666845113384,-0.45895763525619,0.65161111176473,0
2.19999694824219,-1.20391511917114,2.44782376289368,1.87891924381256,-1.20240821395574,2.44845371736898,1.8778792993441,2157.841,2159.004,2158.854,2160.146,358.793579101563,44.9959526062012,0.480619937181473,-1.06659030914307,-0.458776265382767,0.651205122470856,-1.07097597819164,-0.460811043810786,0.654242512826705,0
2.21999740600586,-1.22532975673676,2.43861269950867,1.89199602603912,-1.22386905090202,2.43921971877738,1.89098938974483,2157.414,2157.732,2155.542,2157.612,358.871032714844,44.9958152770996,0.449800044298172,-1.07073068618774,-0.460557758808136,0.653839111328125,-1.07501345493598,-0.46254825725983,0.656708944366236,0
2.23999786376953,-1.24682188034058,2.42936825752258,1.90512132644653,-1.24540792547886,2.42995214277345,1.90414715211632,2155.011,2155.573,2153.761,2156.144,358.948699951172,44.9957237243652,0.418735921382904,-1.07460117340088,-0.462223023176193,0.656264185905457,-1.07877930973132,-0.464168599372462,0.659009446295705,0
2.2599983215332,-1.26838576793671,2.42009282112122,1.91829168796539,-1.26701939030951,2.42065333321126,1.9173492587411,2152.918,2153.607,2152.12,2154.207,359.026763916016,44.9956550598145,0.387415528297424,-1.07820188999176,-0.463772684335709,0.658516108989716,-1.08227207933222,-0.465671440555045,0.661143124741302,0
2.27999877929688,-1.29001641273499,2.41078877449036,1.93150365352631,-1.28869796983554,2.41132564607061,1.93059236468599,2150.907,2151.721,2150.394,2152.192,359.105346679688,44.9956016540527,0.355893552303314,-1.08153176307678,-0.465206563472748,0.660599529743195,-1.08549040888332,-0.467056197851165,0.663109152043028,0
2.29999923706055,-1.31170833110809,2.40145826339722,1.94475388526917,-1.31043816248474,2.40197144852433,1.94387310912637,2148.947,2149.745,2148.565,2150.299,359.1845703125,44.9955673217773,0.324134796857834,-1.08458960056305,-0.46652415394783,0.66251403093338,-1.08843305191934,-0.468322334941636,0.664906766754694,0
2.31999969482422,-1.33345580101013,2.39210367202759,1.95803904533386,-1.33223444283894,2.39259311800549,1.9571881166705,2147.072,2147.874,2146.602,2148.327,359.264434814453,44.9955177307129,0.292182296514511,-1.08737361431122,-0.467724651098251,0.664259433746338,-1.09109887036509,-0.469469362144493,0.666535273643923,0
2.33999633789063,-1.35525345802307,2.38272762298584,1.97135579586029,-1.35407709248145,2.38319483607731,1.97053145048929,2145.304,2146.016,2144.493,2146.363,359.344909667969,44.9954605102539,0.260081619024277,-1.08988213539124,-0.468807071447372,0.66583514213562,-1.09348640563071,-0.470496651869278,0.667993781680938,0
2.3599967956543,-1.37709558010101,2.37333226203918,1.98470020294189,-1.37596887940059,2.37377541175173,1.98390480150359,2142.772,2143.752,2143.12,2144.78,359.426116943359,44.9954414367676,0.227541774511337,-1.09211385250092,-0.469770550727844,0.667219221591949,-1.09559564748259,-0.471404199712748,0.669282284614185,0
2.37999725341797,-1.39897704124451,2.36391997337341,1.99806976318359,-1.39790005743958,2.36433903852774,1.99730221593832,2142.348,2142.538,2139.801,2142.118,359.507659912109,44.9953384399414,0.195181861519814,-1.09406685829163,-0.470614790916443,0.668476045131683,-1.09742530100382,-0.472191448508328,0.67039999139912,0
2.39999771118164,-1.42089176177979,2.35449314117432,2.01146006584167,-1.41986502747765,2.35488812555058,2.01072027337798,2139.849,2140.333,2138.097,2140.679,359.589202880859,44.9952621459961,0.162673681974411,-1.09574043750763,-0.471338331699371,0.669517934322357,-1.09897466165884,-0.47285809511406,0.671346471645978,0
2.41999816894531,-1.4428346157074,2.34505414962769,2.02486777305603,-1.44185817738692,2.34542508756209,2.02415554546122,2137.822,2138.396,2136.413,2138.694,359.670837402344,44.995231628418,0.130037799477577,-1.09713518619537,-0.471941918134689,0.670386016368866,-1.10024313330221,-0.473403883025206,0.672121361178802,0
2.43999862670898,-1.46479940414429,2.33560585975647,2.03828930854797,-1.46387388420027,2.33595234396796,2.03760459720517,2135.733,2136.419,2134.771,2136.782,359.752807617188,44.9952125549316,0.097246415913105,-1.09825098514557,-0.472425878047943,0.671079695224762,-1.10123022817855,-0.473828602374257,0.672724362035447,0
2.45999908447266,-1.48678123950958,2.3261501789093,2.0517213344574,-1.48590651627916,2.32647231790489,2.05106398832971,2133.95,2134.546,2132.812,2134.798,359.835113525391,44.9951972961426,0.0643470361828804,-1.09908723831177,-0.472790032625198,0.671607255935669,-1.10193556692257,-0.474132089930926,0.673155242467576,0
2.47999954223633,-1.50877404212952,2.31668949127197,2.06516051292419,-1.50795043548148,2.31698743530794,2.06453027458184,2131.997,2132.649,2130.935,2132.906,359.917785644531,44.995174407959,0.0313376933336258,-1.09964323043823,-0.473033964633942,0.67195850610733,-1.10235887855907,-0.474314229102152,0.673413836940663,0
2.49999618530273,-1.53077256679535,2.30722641944885,2.07860326766968,-1.52999579362571,2.30750193357449,2.07799743986112,2130.251,2130.839,2128.885,2130.924,0.000779057503677905,44.9951438903809,-0.00170759228058159,-1.09991836547852,-0.473157316446304,0.672139585018158,-1.10250000049778,-0.474374949929889,0.673500046130858,0
2.51999664306641,-1.5527708530426,2.29776334762573,2.09204578399658,-1.55204535801192,2.29801462201262,2.09146717466799,2127.705,2128.592,2127.589,2129.395,0.084277905523777,44.9951553344727,359.964904785156,-1.09991228580475,-0.473159551620483,0.672128021717072,-1.10235893238473,-0.47431425226183,0.67341386982192,0
2.53999710083008,-1.57476329803467,2.28830242156982,2.10548567771912,-1.57408927882895,2.2885297387209,2.10493346190651,2127.391,2127.383,2124.292,2126.756,0.167863056063652,44.9950637817383,359.931793212891,-1.09962344169617,-0.473040550947189,0.671990394592285,-1.10193567455836,-0.474132136243598,0.673155308220598,0
2.55999755859375,-1.59674417972565,2.27884650230408,2.11891841888428,-1.59612191359838,2.27904971150017,2.11839285467467,2124.946,2125.32,2122.6,2125.281,0.251161277294159,44.9950141906738,359.898681640625,-1.09905278682709,-0.472799688577652,0.671638190746307,-1.10123038958312,-0.473828671822132,0.672724460634977,0
2.57999801635742,-1.61870837211609,2.2693977355957,2.13234066963196,-1.6181376241771,2.2695769662859,2.13184190871882,2122.991,2123.315,2120.943,2123.459,0.334288477897644,44.9949989318848,359.865509033203,-1.09820151329041,-0.472437798976898,0.671112596988678,-1.10024334841354,-0.473403975581601,0.672121492586955,0
2.59999847412109,-1.64064967632294,2.25995874404907,2.14574885368347,-1.64013077892511,2.26011392621545,2.14527718375796,2120.911,2121.426,2119.399,2121.572,0.417431145906448,44.9950141906738,359.832275390625,-1.09707045555115,-0.471955716609955,0.670412242412567,-1.09897493039424,-0.472858210743393,0.671346635812239,0
2.61999893188477,-1.66256308555603,2.2505316734314,2.15913987159729,-1.66209575487342,2.25066301069528,2.1586952448081,2119.148,2119.641,2117.566,2119.603,0.50068473815918,44.9950141906738,359.799072265625,-1.09565985202789,-0.471353679895401,0.669547021389008,-1.09742562325992,-0.472191587166126,0.670400188260345,0
2.63999938964844,-1.68444228172302,2.24111890792847,2.17251014709473,-1.68402693989188,2.24122663446822,2.17209266350648,2117.304,2117.785,2115.729,2117.792,0.584056198596954,44.9950141906738,359.765838623047,-1.09396994113922,-0.47063159942627,0.668509960174561,-1.09559602313537,-0.471404361345641,0.669282514094601,0
2.65999603271484,-1.70628237724304,2.23172307014465,2.18585634231567,-1.70591456353497,2.23180900148401,2.18546347124042,2115.688,2116.075,2113.692,2115.849,0.667446672916412,44.995002746582,359.732727050781,-1.09200084209442,-0.469789415597916,0.667306065559387,-1.09348726343002,-0.470497020956359,0.667994305697154,0
2.67999649047852,-1.72807741165161,2.22234678268433,2.19917464256287,-1.72776139360717,2.22240892083372,2.19880935881846,2113.205,2113.878,2112.458,2114.444,0.751052796840668,44.9950332641602,359.699340820313,-1.08975350856781,-0.468827188014984,0.665911436080933,-1.09109935234628,-0.469469569527535,0.666535568078712,0
2.69999694824219,-1.74982190132141,2.21299195289612,2.21246242523193,-1.74955768413056,2.21303058593937,2.21212437257479,2112.973,2112.684,2109.29,2111.904,0.834433436393738,44.9949569702148,359.666320800781,-1.0872266292572,-0.467744767665863,0.66439288854599,-1.08843358680109,-0.468322565086308,0.664907093505606,0
2.71999740600586,-1.77151036262512,2.2036612033844,2.22571563720703,-1.77129788800495,2.2036763835632,2.22540512387247,2110.58,2110.747,2107.716,2110.488,0.917246401309967,44.9949417114258,359.633392333984,-1.08442294597626,-0.466542690992355,0.662664473056793,-1.08549099645889,-0.467056450668518,0.663109510983775,0
2.73999786376953,-1.79313719272614,2.19435667991638,2.23893094062805,-1.79297647980783,2.19434869114016,2.23864823731709,2108.671,2108.854,2106.216,2108.723,0.999640762805939,44.9949493408203,359.600524902344,-1.08134412765503,-0.465221971273422,0.660766541957855,-1.08227271937422,-0.465671715947234,0.661143515732969,0
2.7599983215332,-1.81469702720642,2.18508100509644,2.25210499763489,-1.81458795796224,2.18504987584512,2.25185035208115,2106.774,2107.116,2104.7,2106.866,1.08179187774658,44.9949722290039,359.567779541016,-1.07799172401428,-0.463783711194992,0.65870213508606,-1.07878000199166,-0.464168897232749,0.659009869186748,0
2.77999877929688,-1.83618450164795,2.17583632469177,2.26523447036743,-1.83612684690458,2.17578229366013,2.2650081232283,2105.057,2105.324,2103.004,2105.115,1.16378831863403,44.9949951171875,359.535095214844,-1.07436692714691,-0.462228327989578,0.656475782394409,-1.07501419914593,-0.462548577472581,0.656709398992482,0
2.79999923706055,-1.85759377479553,2.16662526130676,2.27831625938416,-1.85758769925251,2.16654828844162,2.27811822303765,2103.396,2103.629,2101.213,2103.343,1.24561333656311,44.9950141906738,359.502532958984,-1.07047080993652,-0.460556268692017,0.65408593416214,-1.07097677406178,-0.460811386251471,0.65424299901135,0
2.81999969482422,-1.87891983985901,2.15744996070862,2.29134702682495,-1.87896509797278,2.15735019098767,2.29117734232814,2101.89,2101.954,2099.28,2101.584,1.32714247703552,44.9950141906738,359.470153808594,-1.06630444526672,-0.458767801523209,0.651534259319305,-1.06666929835407,-0.458957999791384,0.651611629318345,0
2.83999633789063,-1.90015721321106,2.14831280708313,2.30432319641113,-1.90024960698239,2.14819206138118,2.30417971674389,2100.215,2100.25,2097.507,2099.909,1.40826070308685,44.9950141906738,359.437896728516,-1.06186950206757,-0.456863462924957,0.648814499378204,-1.06209435025759,-0.456989527434725,0.648816864916866,0
2.8599967956543,-1.92130041122437,2.13921594619751,2.31724143028259,-1.9214439980555,2.13907270700516,2.31712703951851,2097.911,2098.325,2096.405,2098.473,1.4892019033432,44.995059967041,359.405578613281,-1.05716812610626,-0.454844295978546,0.645915806293488,-1.05725197237562,-0.454905987512489,0.645858731832587,0
2.87999725341797,-1.94234442710876,2.13016176223755,2.33009934425354,-1.94253888918396,2.12999616467562,2.3300135793296,2097.635,2097.227,2093.602,2096.062,1.5696028470993,44.9950180053711,359.373748779297,-1.0521993637085,-0.452710390090942,0.642896592617035,-1.05214490868305,-0.452708560680416,0.642738906316949,0
2.89999771118164,-1.96328401565552,2.12115240097046,2.34289288520813,-1.96352900640172,2.1209647036328,2.34283611439361,2095.452,2095.327,2092.152,2094.868,1.6491916179657,44.9950141906738,359.342132568359,-1.04696822166443,-0.45046278834343,0.639682829380035,-1.04677516433438,-0.450398109700476,0.639458613287558,0
2.91999816894531,-1.98411333560944,2.11219024658203,2.35561895370483,-1.98440911693069,2.11198057539494,2.35559144808806,2093.68,2093.622,2090.789,2093.223,1.72810912132263,44.9950523376465,359.310699462891,-1.0414764881134,-0.44810289144516,0.636309027671814,-1.04114485287423,-0.447975543971863,0.636019143875825,0
2.93999862670898,-2.00482773780823,2.10327768325806,2.3682746887207,-2.00517403134858,2.10304601282548,2.36827641027585,2092.096,2092.084,2089.271,2091.458,1.80645310878754,44.9950790405273,359.279510498047,-1.03572630882263,-0.445631921291351,0.632782220840454,-1.03525619623725,-0.445441819530995,0.632421855426973,0
2.95999908447266,-2.02542209625244,2.09441661834717,2.38085675239563,-2.02581860575671,2.0941632292003,2.38088785862954,2090.498,2090.408,2087.726,2089.924,1.88425922393799,44.9951286315918,359.248504638672,-1.02972030639648,-0.44305083155632,0.629100322723389,-1.02911152474823,-0.442797939051516,0.628668171500036,0
2.97999954223633,-2.04589128494263,2.08560943603516,2.39336204528809,-2.04633774394789,2.08533441727499,2.3934226799557,2088.961,2088.885,2086.143,2088.287,1.96152234077454,44.9951553344727,359.217803955078,-1.02346050739288,-0.440360516309738,0.625264942646027,-1.022713277122,-0.440044951844293,0.624759581867857,0
2.99999618530273,-2.0662305355072,2.07685828208923,2.40578770637512,-2.06672252359526,2.07656341607755,2.40587542374406,2087.547,2087.333,2084.471,2086.721,2.03816938400269,44.9951858520508,359.187316894531,-1.01694917678833,-0.437561839818954,0.621278703212738,-1.01606529245116,-0.437184509763622,0.620698431772196,0
3.01999664306641,-2.08643436431885,2.06816482543945,2.41813015937805,-2.08697572864857,2.06784902775215,2.41824779066609,2085.423,2085.562,2083.458,2085.467,2.11439943313599,44.9952507019043,359.156890869141,-1.01018917560577,-0.434655994176865,0.617124915122986,-1.00916768936771,-0.434216663853534,0.616484793683489,0
3.03999710083008,-2.1064977645874,2.05953192710876,2.43038725852966,-2.10708851762775,2.05919505654068,2.43053437959959,2085.292,2084.671,2080.834,2083.145,2.1898205280304,44.9952278137207,359.127136230469,-1.00318014621735,-0.431643277406693,0.612860143184662,-1.00202447609459,-0.431143138740389,0.612121116162586,0
3.05999755859375,-2.12641644477844,2.0509614944458,2.44255566596985,-2.12705600675913,2.05060360379452,2.44273220712343,2083.431,2082.893,2079.398,2082.143,2.26409888267517,44.995231628418,359.09765625,-0.995928227901459,-0.428525298833847,0.608417093753815,-0.994638524886308,-0.427965170275055,0.607609153824944,0
3.07999801635742,-2.14618515968323,2.04245543479919,2.4546320438385,-2.14687337079936,2.04207674568107,2.45483832557174,2081.753,2081.311,2078.229,2080.726,2.33734202384949,44.9952735900879,359.068450927734,-0.988436341285706,-0.425303667783737,0.60382217168808,-0.987012816387451,-0.424684040945629,0.602950727499826,0
3.09999847412109,-2.16579937934875,2.03401613235474,2.46661376953125,-2.16653584520328,2.033616532251,2.46684982435823,2080.243,2079.947,2076.989,2079.117,2.40970087051392,44.9953269958496,359.039611816406,-0.980707466602325,-0.421980172395706,0.599085688591003,-0.979150439632689,-0.421301079877433,0.598147724230312,0
3.11999893188477,-2.18525409698486,2.0256450176239,2.47849798202515,-2.18603872829175,2.02522498650551,2.47876383130049,2078.857,2078.459,2075.62,2077.714,2.4812376499176,44.9953842163086,359.011077880859,-0.972744703292847,-0.418556302785873,0.594210624694824,-0.971054592046769,-0.41781766283301,0.593202097273285,0
3.13999938964844,-2.20454502105713,2.0173442363739,2.49028182029724,-2.20537738341953,2.01690410346351,2.49057751394429,2077.515,2077.211,2074.197,2076.156,2.55194091796875,44.9954299926758,358.982971191406,-0.964551091194153,-0.415033340454102,0.589196741580963,-0.962728579444533,-0.414235212212131,0.588115866099442,0
3.15999603271484,-2.22366762161255,2.00911593437195,2.50196266174316,-2.22454360124808,2.00865741537402,2.50228585733282,2076.239,2075.773,2072.748,2074.839,2.62174820899963,44.995475769043,358.955291748047,-0.956129908561707,-0.411412358283997,0.584045350551605,-0.95417746870157,-0.410555908149813,0.582892125984019,0
3.17999649047852,-2.2426176071167,2.00096201896667,2.51353764533997,-2.2435401949712,2.00048371179835,2.51389058000227,2074.427,2074.201,2071.808,2073.751,2.69082045555115,44.9955596923828,358.927795410156,-0.947484970092773,-0.407694846391678,0.578745484352112,-0.9454015193052,-0.406779862296197,0.577531035443764,0
3.19999694824219,-2.26138997077942,1.99288439750671,2.52500462532043,-2.2623590635174,1.99238647840124,2.5253867331345,2074.347,2073.286,2069.499,2071.825,2.75877523422241,44.9955444335938,358.900909423828,-0.938616693019867,-0.403881281614304,0.573344469070435,-0.936405971974636,-0.402909329586355,0.572035795952272,0
3.21999740600586,-2.27998065948486,1.98488473892212,2.53636026382446,-2.28099585204123,1.98436758895103,2.53677165642235,2072.694,2071.917,2068.266,2070.784,2.82532572746277,44.9955749511719,358.87451171875,-0.929532051086426,-0.399974077939987,0.567784309387207,-0.927194566064376,-0.398945918960059,0.566408691822848,0
3.23999786376953,-2.29838514328003,1.9769651889801,2.54760217666626,-2.29944628156995,1.97642888457015,2.54804273590817,2071.272,2070.575,2067.244,2069.513,2.89055609703064,44.9956321716309,358.848541259766,-0.920234620571136,-0.395975112915039,0.562090456485748,-0.917771149318993,-0.394891285994308,0.560652073582612,0
3.2599983215332,-2.31659984588623,1.96912741661072,2.55872750282288,-2.31770615117141,1.96857217280235,2.55919740530806,2070.009,2069.303,2066.146,2068.213,2.95456957817078,44.9956970214844,358.823059082031,-0.910728394985199,-0.391886293888092,0.556272268295288,-0.908139677873146,-0.390747132903322,0.554768357972493,0
3.27999877929688,-2.33461999893188,1.96137356758118,2.5697340965271,-2.33577134012187,1.96079922667992,2.57023314733618,2068.713,2068.03,2065.074,2067.02,3.01745629310608,44.9957733154297,358.798034667969,-0.901017606258392,-0.387709558010101,0.550329744815826,-0.898304216251578,-0.386515208538549,0.548760027947228,0
3.29999923706055,-2.35244226455688,1.95370447635651,2.58061957359314,-2.35363781007389,1.95311178379095,2.5811474950291,2067.739,2066.888,2063.751,2065.73,3.07917022705078,44.9958343505859,358.773468017578,-0.891105711460114,-0.383446365594864,0.5442715883255,-0.888268937369113,-0.38219730838866,0.542629632675369,0
3.31999588012695,-2.37006187438965,1.94612264633179,2.59138131141663,-2.37129825777079,1.94551298652277,2.59193598694128,2066.486,2065.792,2062.649,2064.53,3.13968348503113,44.9958992004395,358.749450683594,-0.88099730014801,-0.379098773002625,0.538088738918304,-0.878040092225563,-0.377796122084242,0.536380990795156,0
3.33999633789063,-2.38747596740723,1.93862903118134,2.60201692581177,-2.38875555478454,1.93800159931817,2.60260037727124,2065.14,2064.478,2061.742,2063.563,3.19909977912903,44.9959754943848,358.725799560547,-0.870696544647217,-0.374668270349503,0.531784474849701,-0.867618167158097,-0.373311858882592,0.530014399402376,0
3.3599967956543,-2.40467977523804,1.93122601509094,2.61252474784851,-2.40600253440574,1.930580705812,2.61313628798802,2064.953,2063.703,2059.911,2061.983,3.25710511207581,44.9959869384766,358.702911376953,-0.8602055311203,-0.370155930519104,0.525388181209564,-0.85700959304645,-0.368747285811601,0.523533787021104,0
3.37999725341797,-2.42167067527771,1.92391455173492,2.62290191650391,-2.42303550945299,1.9232518924954,2.62354146665005,2063.723,2062.505,2058.796,2061.152,3.31343483924866,44.9960250854492,358.680603027344,-0.849531590938568,-0.365564346313477,0.518862366676331,-0.846218976345105,-0.364104384899943,0.516941967662506,0
3.39999771118164,-2.43844437599182,1.91669678688049,2.63314628601074,-2.43985088596004,1.91601670575165,2.63381371775943,2062.386,2061.378,2058.082,2060.163,3.36818718910217,44.9960899353027,358.658782958984,-0.838679492473602,-0.360895901918411,0.512219071388245,-0.835251031898626,-0.359385184813519,0.51024182155155,0
3.41999816894531,-2.45499753952026,1.90957379341125,2.64325571060181,-2.45644516534361,1.90887665092339,2.64395090408624,2061.482,2060.361,2057.125,2059.037,3.4214448928833,44.9961738586426,358.637542724609,-0.827653348445892,-0.35615274310112,0.505477070808411,-0.824110582941664,-0.354591760855451,0.503436295127018,0
3.43999862670898,-2.47132635116577,1.90254712104797,2.65322828292847,-2.47281494657125,1.90183319137989,2.6539509479928,2060.455,2059.44,2056.225,2057.972,3.47323775291443,44.9962425231934,358.616943359375,-0.816458404064178,-0.351337164640427,0.498631685972214,-0.812802561098952,-0.34972623496609,0.496528401041508,0
3.45999908447266,-2.48742866516113,1.89561796188354,2.66306209564209,-2.48895692832918,1.89488774758421,2.66381183275806,2059.655,2058.523,2055.187,2056.94,3.523521900177,44.9963188171387,358.596984863281,-0.805099308490753,-0.346451073884964,0.491690456867218,-0.801332006385299,-0.344790775723006,0.489521218161412,0
3.47999572753906,-2.50330018997192,1.8887882232666,2.67275500297546,-2.50486489870395,1.88804299234919,2.67352976362102,2058.636,2057.49,2054.351,2056.146,3.57228899002075,44.9964027404785,358.57763671875,-0.793581604957581,-0.341496586799622,0.484648138284683,-0.789706299681989,-0.339788558913217,0.482419255351936,0
3.49999618530273,-2.51893854141235,1.88205850124359,2.68230509757996,-2.52054183223243,1.88129764581471,2.68310655767985,2057.617,2056.527,2053.625,2055.303,3.61961913108826,44.9964828491211,358.558776855469,-0.781910061836243,-0.336475908756256,0.477510124444962,-0.777926261338517,-0.334719937510192,0.475223013751781,0
3.51999664306641,-2.53434038162231,1.87543070316315,2.69171118736267,-2.53598168290031,1.87465430941181,2.69253852151874,2057.55,2056.008,2052.15,2053.973,3.66522264480591,44.9965133666992,358.540802001953,-0.770087838172913,-0.331390529870987,0.470300018787384,-0.765999459475408,-0.329588167864767,0.467937116607681,0
3.53999710083008,-2.5495023727417,1.8689056634903,2.70097088813782,-2.55118156992615,1.86811422266028,2.70182389531326,2056.532,2055.01,2051.351,2053.432,3.70889949798584,44.9965744018555,358.523498535156,-0.758123219013214,-0.32624340057373,0.462986171245575,-0.753931367647136,-0.324395605094516,0.460564907628649,0
3.55999755859375,-2.56442308425903,1.8624849319458,2.71008253097534,-2.56613872308604,1.86167857751006,2.71096098677687,2055.702,2054.292,2050.681,2052.51,3.75066614151001,44.9966430664063,358.506927490234,-0.746021211147308,-0.321037024259567,0.455586433410645,-0.741727567798258,-0.319144650954242,0.45310979673751,0
3.57999801635742,-2.57909870147705,1.85616970062256,2.71904468536377,-2.58085048488145,1.85534851740854,2.71994817248517,2054.768,2053.308,2050.174,2051.942,3.79063296318054,44.9967460632324,358.490966796875,-0.733788013458252,-0.315774083137512,0.448103785514832,-0.72939375026341,-0.313837753835969,0.445575260070899,0
3.59999847412109,-2.59352779388428,1.84996032714844,2.72785568237305,-2.59531431270705,1.84912513636775,2.72878389920025,2054.223,2052.735,2049.406,2050.984,3.82882046699524,44.9968299865723,358.475769042969,-0.721428394317627,-0.310456961393356,0.440551668405533,-0.716935713767317,-0.308477408768949,0.437964839979262,0
3.61999893188477,-2.60770654678345,1.84385871887207,2.7365140914917,-2.6095277810186,1.84300947803163,2.73746668519498,2053.383,2052.044,2048.857,2050.325,3.86526036262512,44.9969253540039,358.461273193359,-0.708948969841003,-0.305088520050049,0.432921886444092,-0.704359365424783,-0.303066157419654,0.430282145026854,0
3.63999938964844,-2.62163329124451,1.83786535263062,2.74501872062683,-2.6234885835008,1.83700253474321,2.74599512157732,2053.126,2051.436,2047.931,2049.54,3.89981865882874,44.9969940185547,358.447601318359,-0.696354389190674,-0.299670577049255,0.425232261419296,-0.691670720740692,-0.297606588091786,0.422530849991739,0
3.65999603271484,-2.6353063583374,1.83198094367981,2.75336813926697,-2.63719194552437,1.83110636089208,2.75436629160077,2052.463,2050.828,2047.302,2048.957,3.93238615989685,44.9970779418945,358.434722900391,-0.683651924133301,-0.294206023216248,0.417469710111618,-0.678878353700696,-0.292102389931838,0.414716192587956,0
3.67999649047852,-2.64872336387634,1.826207280159,2.76156091690063,-2.65064103434641,1.825319593696,2.76258213009327,2051.462,2050.092,2047.126,2048.552,3.96312379837036,44.9971923828125,358.422515869141,-0.67084801197052,-0.288697719573975,0.409635066986084,-0.665983614869008,-0.28655414404986,0.40683899785411,0
3.69999694824219,-2.66188216209412,1.82054471969604,2.76959633827209,-2.66383127580226,1.81964420129024,2.77063984276899,2051.844,2049.69,2045.941,2047.649,3.99178338050842,44.9972381591797,358.411163330078,-0.657945990562439,-0.283147245645523,0.401767134666443,-0.65299527533123,-0.280965624398954,0.398904623909523,0
