t,x_s1,x_s2,x_s3,x_s_d1,x_s_d2,x_s_d3,propellers_rpms1,propellers_rpms2,propellers_rpms3,propellers_rpms4,rollRad,pitchRad,yawRad,v_s1,v_s2,v_s3,v_s_d1,v_s_d2,v_s_d3,insideCount
0,-0.0599999986588955,2.94000005722046,1.17999994754791,-0.0599999986588955,2.94000005722046,1.17999994754791,0,0,0,0,0,45.0048027038574,0,0,0,0,-1.06581410364015E-15,4.44089209850063E-16,-7.105427357601E-16,0
0.0199966430664063,-0.0599999986588955,2.94000005722046,1.17705690860748,-0.0600018680476204,2.93999925287472,1.18000108952831,0,0,0,0,0.937003672122955,44.8630027770996,-0.00115976633969694,3.71994488546079E-08,3.50004931704007E-08,-0.147149950265884,-0.000279892991557604,-0.000120430134961378,0.000170982260897168,5
0.0400009155273438,-0.0599999986588955,2.94000005722046,1.17018985748291,-0.0600148724204753,2.93999365745638,1.18000903369676,0,0,0,0,1.87400352954865,44.7211418151855,-0.00311126722954214,3.70364325874561E-08,3.5142885934647E-08,-0.343349903821945,-0.00111101934050116,-0.00047804058392963,0.000678704377995865,6
0.05999755859375,-0.0599062256515026,2.94009447097778,1.16346514225006,-0.0600498857373401,2.93997859220429,1.18003042278566,3197.48,2848.784,1517.084,2782.271,1.40359055995941,44.7413444519043,0.0289342664182186,0.00468872953206301,0.00471890158951283,-0.336236238479614,-0.00247936261166862,-0.00106680046642749,0.00151460392977639,6
0.0800018310546875,-0.0597377866506577,2.94026732444763,1.15723741054535,-0.0601175574246769,2.93994947496775,1.18007176236346,2865.49,2651.661,2344.691,2562.31,0.339586973190308,44.8158302307129,0.099812276661396,0.00842196960002184,0.00864456128329039,-0.31138402223587,-0.00437268608126799,-0.00188144466206175,0.00267120569262453,6
0.0999984741210938,-0.0595563054084778,2.94046425819397,1.15151941776276,-0.0602281887669101,2.93990187339187,1.18013934532406,2240,2528.164,3137.915,2508.515,359.321563720703,44.9191131591797,0.17857064306736,0.00907409749925137,0.00984881818294525,-0.285897731781006,-0.00677637982016689,-0.00291568692648091,0.00413958468881675,5
0.1199951171875,-0.0594244040548801,2.94063210487366,1.146568775177,-0.0603918861403606,2.93983143898525,1.18023934549506,2123.74,2454.734,3351.874,2464.508,358.749969482422,44.9998931884766,0.253337025642395,0.00659507419914007,0.0083981454372406,-0.247532427310944,-0.00967801353495435,-0.00416417885169243,0.00591214744607921,5
0.139999389648438,-0.0593829900026321,2.94074010848999,1.14257037639618,-0.0606185767455666,2.93973390035084,1.18037782724834,2312.209,2456.627,3069.197,2463.347,358.636199951172,45.0326652526855,0.326388955116272,0.00207073101773858,0.00539864134043455,-0.199920564889908,-0.0130660253322238,-0.00562194567796536,0.00798183098414958,5
0.159996032714844,-0.0594433471560478,2.9407856464386,1.13952422142029,-0.0609176604100223,2.93960521300545,1.18056053279185,2536.791,2486.807,2635.254,2491.862,358.757049560547,45.0249900817871,0.398247480392456,-0.00301785906776786,0.00227956823073328,-0.152307540178299,-0.0169249902365933,-0.00728235046931681,0.0103392124262691,5
0.180000305175781,-0.0596000514924526,2.94078159332275,1.13730907440186,-0.0612986871007165,2.9394412678651,1.18079329605139,2666.388,2505.992,2302.605,2513.318,358.864318847656,44.9985542297363,0.467362850904465,-0.00783529877662659,-0.000197063200175762,-0.110759370028973,-0.0212451141043368,-0.00914117907931815,0.0129783086828701,5
0.199996948242188,-0.0598476007580757,2.94073987007141,1.13576102256775,-0.0617704296168641,2.93923829023936,1.1810814761931,2653.708,2500.229,2183.134,2508.486,358.817047119141,44.9743804931641,0.532925009727478,-0.012377455830574,-0.00209072278812528,-0.0774031430482864,-0.0260104776919234,-0.0111915819022102,0.0158893949364944,5
0.220001220703125,-0.0601895190775394,2.94066214561462,1.13474535942078,-0.0623420644491781,2.93899233174064,1.18143067899198,2540.194,2470.422,2245.823,2479.029,358.612457275391,44.9636840820313,0.594549179077148,-0.0170959625393152,-0.00388051453046501,-0.0507851988077164,-0.03121219533433,-0.0134297356845702,0.0190670430730375,5
0.239997863769531,-0.0606387667357922,2.9405415058136,1.13419342041016,-0.0630217183703222,2.93869989564571,1.18184586896662,2411.932,2429.821,2374.022,2437.219,358.334625244141,44.9659004211426,0.652693450450897,-0.0224624611437321,-0.00603123800829053,-0.027596028521657,-0.0368338920540454,-0.0158485947310391,0.0225012498742643,5
0.260002136230469,-0.0612131282687187,2.94036602973938,1.13409054279327,-0.0638182299684225,2.938357178957,1.18233244547258,2329.484,2391.904,2462.692,2398.658,358.076324462891,44.9738883972168,0.707778751850128,-0.0287181176245213,-0.00876816734671593,-0.0051452461630106,-0.0428675524613532,-0.0184447102433459,0.0261871188636747,4
0.279998779296875,-0.0619296729564667,2.94012498855591,1.13444077968597,-0.0647390625194898,2.93796097043536,1.18289496770872,2305.936,2365.182,2469.9,2370.585,357.887054443359,44.9803199768066,0.760612368583679,-0.0358272083103657,-0.0120563358068466,0.0175098888576031,-0.0492963837173861,-0.0212108567320638,0.0301143915580518,4
0.299995422363281,-0.0628012269735336,2.93981075286865,1.13523638248444,-0.0657923226682404,2.93750778201804,1.18353838789779,2317.266,2348.138,2415.889,2353.59,357.765014648438,44.9818000793457,0.811306715011597,-0.0435778014361858,-0.0157062876969576,0.0397800728678703,-0.0561105313314725,-0.0241427940851591,0.0342770480028206,4
0.319999694824219,-0.0638360679149628,2.93942022323608,1.13644933700562,-0.0669860785243584,2.93699414222283,1.1842676347221,2334.78,2336.491,2342.761,2341.62,357.678771972656,44.9788589477539,0.859987735748291,-0.0517420507967472,-0.0195239521563053,0.0606460273265839,-0.0633008373176985,-0.0272365818771378,0.0386694937272938,4
0.339996337890625,-0.0650397390127182,2.93895220756531,1.13803648948669,-0.068326768706371,2.93641728069206,1.18508664143323,2338.194,2324.897,2286.38,2329.92,357.594543457031,44.9741401672363,0.906599521636963,-0.0601834803819656,-0.0234039928764105,0.0793552249670029,-0.0708499516420146,-0.0304847548730522,0.0432811298664125,4
0.360000610351563,-0.0664172694087029,2.93840527534485,1.13995110988617,-0.0698225328270578,2.93577369517774,1.18600038039362,2322.021,2310.47,2261.841,2316.087,357.49462890625,44.9703063964844,0.950778007507324,-0.0688766464591026,-0.0273415129631758,0.0957281365990639,-0.0787518717320621,-0.0338847303337087,0.0481082895423912,4
0.379997253417969,-0.0679745823144913,2.93777751922607,1.14215433597565,-0.0714791088463715,2.935060916796,1.18701235683346,2295.713,2294.497,2260.728,2299.403,357.379760742188,44.9685592651367,0.992772281169891,-0.0778655037283897,-0.0313889496028423,0.110160574316978,-0.0869889214763108,-0.0374289027221294,0.0531401746945263,4
0.400001525878906,-0.0697185471653938,2.93706560134888,1.14461731910706,-0.0733044112230977,2.93427554017634,1.18812740557212,2268.306,2277.662,2268.787,2282.989,357.261535644531,44.9687690734863,1.03240358829498,-0.0871984511613846,-0.035597451031208,0.123149953782558,-0.0955558400788823,-0.0411150084648172,0.0583735715847086,4
0.419998168945313,-0.0716564431786537,2.93626570701599,1.14732074737549,-0.0753034649285836,2.93341540321397,1.18934859628618,2249.264,2263.059,2270.773,2267.542,357.15185546875,44.9699020385742,1.07007741928101,-0.0968949422240257,-0.0399889685213566,0.135172322392464,-0.104434660908044,-0.0449353170220673,0.0637975046779765,4
0.439994812011719,-0.0737950727343559,2.93537473678589,1.15024816989899,-0.0774831213880516,2.93247755793201,1.1906801144044,2237.532,2250.375,2263.818,2255.208,357.056823730469,44.971061706543,1.10568809509277,-0.10693134367466,-0.0445476695895195,0.146372854709625,-0.11361726969793,-0.0488863370519643,0.0694070170959338,4
0.459999084472656,-0.076140359044075,2.93438982963562,1.1533842086792,-0.0798502821969742,2.93145903476675,1.19212617600376,2232.182,2240.377,2248.826,2244.8,356.975738525391,44.9717140197754,1.13943731784821,-0.11726451665163,-0.0492412000894547,0.156801015138626,-0.123096124252221,-0.0529648233581361,0.075197501428542,4
0.479995727539063,-0.0786973163485527,2.93330907821655,1.15671193599701,-0.0824088828700873,2.93035814037613,1.19368918522879,2228.398,2232.114,2231.953,2235.956,356.903656005859,44.9718933105469,1.17157208919525,-0.127848088741302,-0.054035983979702,0.166386052966118,-0.132852887402757,-0.0571628859694044,0.0811577557859174,4
0.5,-0.0814703032374382,2.93213081359863,1.16021323204041,-0.085166398670376,2.92917165836334,1.195373708601,2222.13,2223.957,2219.631,2228.487,356.835876464844,44.9720039367676,1.2017765045166,-0.138649314641953,-0.0589109323918819,0.175063118338585,-0.142884000065179,-0.0614789935111996,0.0872856059789651,5
0.519996643066406,-0.084463432431221,2.93085360527039,1.16387212276459,-0.0881260274065667,2.92789821280061,1.19718169961184,2215.458,2216.996,2211.073,2220.653,356.769958496094,44.9722900390625,1.23041081428528,-0.14965632557869,-0.0638619065284729,0.182947561144829,-0.153170920546857,-0.0659051680111775,0.0935697251769938,5
0.540000915527344,-0.0876806601881981,2.92947578430176,1.16767406463623,-0.0912951145137283,2.92653464315245,1.19911764547298,2206.629,2209.697,2207.664,2213.985,356.705963134766,44.9729957580566,1.25719082355499,-0.160861805081367,-0.068888746201992,0.190095528960228,-0.163710711144578,-0.0704401454577151,0.100008318782952,5
0.55999755859375,-0.0911259800195694,2.92799592018127,1.17160820960999,-0.094676112580471,2.92507989413848,1.20118304443252,2200.05,2203.849,2204.503,2207.178,356.645324707031,44.9739532470703,1.28253412246704,-0.172265782952309,-0.0739956870675087,0.196707800030708,-0.17448465888317,-0.0750758741803766,0.106589955332319,5
0.580001831054688,-0.0948031395673752,2.92641234397888,1.17566478252411,-0.0982762614093182,2.92353085067394,1.20338231917284,2193.539,2198.02,2202.518,2202.049,356.589508056641,44.9751358032227,1.30614411830902,-0.183857873082161,-0.0791784822940826,0.20283117890358,-0.185490414529404,-0.0798113433697334,0.113313199715174,5
0.599998474121094,-0.098715715110302,2.92472362518311,1.17983710765839,-0.102097262171133,2.92188678079254,1.2057165089127,2190.361,2193.986,2198.225,2197.014,356.5390625,44.9763031005859,1.32846260070801,-0.195629343390465,-0.0844329297542572,0.208613783121109,-0.196709126405959,-0.0846384416756885,0.120166535736014,5
0.6199951171875,-0.102866947650909,2.92292857170105,1.18411767482758,-0.106144683970236,2.92014528826426,1.208189015731,2186.716,2189.918,2194.97,2193.68,356.49365234375,44.977466583252,1.34917390346527,-0.207561418414116,-0.0897479206323624,0.214031174778938,-0.208134604141382,-0.0895545055543457,0.127146181793521,5
0.639999389648438,-0.107259795069695,2.9210262298584,1.18850135803223,-0.110424235525481,2.91830391678686,1.21080332699501,2184.933,2187.164,2191.008,2190.38,356.452667236328,44.9785575866699,1.36851680278778,-0.219642773270607,-0.0951171368360519,0.219182088971138,-0.219761081350814,-0.0945570538913933,0.134248615293163,5
0.659996032714844,-0.111897006630898,2.91901564598083,1.19298326969147,-0.114936482147704,2.9163624231229,1.21355978804431,2183.692,2185.106,2187.309,2187.711,356.414916992188,44.9796028137207,1.38675034046173,-0.231860235333443,-0.100533604621887,0.224094212055206,-0.231569557951997,-0.0996379114822372,0.141462229381183,5
0.680000305175781,-0.116781041026115,2.91689586639404,1.19755840301514,-0.119688496929273,2.91431776391831,1.21646271972064,2180.898,2182.627,2186.463,2186.176,356.380004882813,44.9807319641113,1.40346193313599,-0.244201928377151,-0.105991691350937,0.228755012154579,-0.243559016194652,-0.104796640417365,0.148786402329814,5
0.699996948242188,-0.121914342045784,2.91466593742371,1.20222437381744,-0.124680083855354,2.91217002351282,1.2195120022816,2180.266,2181.639,2184.782,2184.035,356.347778320313,44.9818534851074,1.41915094852448,-0.256665199995041,-0.111491627991199,0.233300760388374,-0.255710395848158,-0.11002503961202,0.1562094905416,5
0.720001220703125,-0.127299100160599,2.91232538223267,1.20697832107544,-0.129918284978346,2.90991617190799,1.22271193760712,2178.103,2180.018,2185.372,2183.307,356.318511962891,44.9830665588379,1.433429479599,-0.269238293170929,-0.117028214037418,0.237695634365082,-0.268023157655716,-0.11532287703907,0.163731164592979,5
0.739997863769531,-0.132937476038933,2.90987324714661,1.21181976795197,-0.135402141159277,2.90755662179454,1.22606193977416,2178.58,2179.845,2184.212,2182.044,356.292236328125,44.9842071533203,1.44677376747131,-0.281918793916702,-0.122601345181465,0.242074206471443,-0.280478211503383,-0.120681938755799,0.171339762631236,5
0.759994506835938,-0.138831332325935,2.90730905532837,1.21674728393555,-0.14113644597991,2.90508931062815,1.22956493710703,2177.398,2179.022,2185.073,2182.153,356.268951416016,44.9853935241699,1.45877814292908,-0.294692993164063,-0.128204166889191,0.246375441551208,-0.293070637251543,-0.126100107763583,0.179032279019858,5
0.779998779296875,-0.144982472062111,2.9046323299408,1.22176134586334,-0.147126184485884,2.90251209348295,1.2332239748923,2178.163,2179.293,2184.78,2181.811,356.248748779297,44.9865112304688,1.46971142292023,-0.30755689740181,-0.133835539221764,0.250706046819687,-0.305795832832518,-0.131575403921268,0.186805902427515,5
0.799995422363281,-0.151392489671707,2.90184259414673,1.22686278820038,-0.153369252164744,2.89982587587186,1.23703776751617,2179.5,2180.034,2184.006,2181.856,356.230834960938,44.9875144958496,1.47987353801727,-0.320500761270523,-0.139490693807602,0.255073040723801,-0.318634718604462,-0.13709961779199,0.194648977398734,5
0.819999694824219,-0.158062756061554,2.89893937110901,1.23205137252808,-0.159872691993147,2.89702762739878,1.24101061742316,2178.994,2179.936,2185.679,2182.96,356.215118408203,44.988582611084,1.48874068260193,-0.333513796329498,-0.145164549350739,0.259428739547729,-0.331587821991737,-0.142672976311719,0.202561826128828,5
0.839996337890625,-0.164994671940804,2.89592218399048,1.23732924461365,-0.166633637018892,2.89411858163313,1.24514077323692,2180.921,2181.333,2185.583,2183.038,356.201538085938,44.9895362854004,1.49688684940338,-0.346595376729965,-0.15085831284523,0.263896614313126,-0.344636106234817,-0.148287288494656,0.210532819358465,5
0.860000610351563,-0.172189310193062,2.89279079437256,1.24269711971283,-0.173659158941841,2.89109569582005,1.24943255494854,2180.637,2181.641,2187.842,2184.474,356.190093994141,44.9905624389648,1.50381994247437,-0.359732955694199,-0.156566202640533,0.268391966819763,-0.357780475378537,-0.153942943326036,0.218562509354528,5
0.879997253417969,-0.179647833108902,2.88954496383667,1.24815797805786,-0.180945630646592,2.88796053060595,1.25388374680983,2183.035,2183.379,2187.897,2184.895,356.180816650391,44.9914588928223,1.5101135969162,-0.372926354408264,-0.162289410829544,0.27304071187973,-0.371001963495383,-0.159631780297098,0.226639310127856,5
0.900001525878906,-0.187371090054512,2.88618445396423,1.25371289253235,-0.188500167066783,2.88471002463366,1.25849869522271,2183.091,2183.93,2190.249,2186.694,356.173614501953,44.9923782348633,1.51522445678711,-0.386162310838699,-0.16802142560482,0.277743190526962,-0.384301823631742,-0.165354338558695,0.234763987144933,5
0.919998168945313,-0.195359885692596,2.88270926475525,1.25936532020569,-0.196318384305134,2.8813460641717,1.26327472213274,2185.805,2185.944,2190.319,2187.346,356.168395996094,44.9931640625,1.51974523067474,-0.399440556764603,-0.173763453960419,0.282621324062347,-0.397661187980262,-0.171102499820431,0.242925014356675,5
0.939994812011719,-0.203614830970764,2.87911915779114,1.26511669158936,-0.204404317663683,2.87786691294234,1.26821429264298,2185.998,2186.66,2192.796,2189.362,356.165069580078,44.9939918518066,1.52310967445374,-0.412747621536255,-0.179508954286575,0.28756657242775,-0.4110765036434,-0.176874735369747,0.251120221353413,5
0.959999084472656,-0.212136477231979,2.87541389465332,1.27097022533417,-0.212762239776093,2.87427073255068,1.27332001683864,2188.063,2188.44,2193.834,2190.374,356.163818359375,44.9947280883789,1.52565312385559,-0.42608255147934,-0.185258939862251,0.292679250240326,-0.424544411524882,-0.18266959988136,0.259347556115652,5
0.979995727539063,-0.220925211906433,2.87159371376038,1.27692914009094,-0.22138664033507,2.87055989392801,1.27858852855901,2190.503,2190.459,2194.103,2191.534,356.164031982422,44.9953575134277,1.5277453660965,-0.439437121152878,-0.191009879112244,0.29794442653656,-0.438046240701377,-0.188479059778567,0.267595612867683,5
1,-0.229981243610382,2.8676586151123,1.28299486637115,-0.230284798736574,2.86673126495361,1.28402427467346,2190.574,2191.114,2196.942,2193.771,356.165832519531,44.996036529541,1.52869927883148,-0.452801287174225,-0.196756973862648,0.303283661603928,-0.451584000205995,-0.194303979492187,0.275865618896484,5
1.01999664306641,-0.239304766058922,2.86360859870911,1.28917133808136,-0.239450461003889,2.86278753653895,1.28962343472523,2193.417,2193.365,2197.254,2194.522,356.169158935547,44.9965934753418,1.52916657924652,-0.466176718473434,-0.202502772212029,0.308822810649872,-0.465139182559269,-0.200136395770846,0.284146268271649,5
1.04000091552734,-0.248895764350891,2.85944366455078,1.29546010494232,-0.24889099213045,2.8587255397331,1.29539050787386,2193.417,2194.107,2200.112,2196.652,356.174194335938,44.997200012207,1.52854311466217,-0.479549914598465,-0.208241045475006,0.31443589925766,-0.478714054341683,-0.205977283860805,0.292438945611829,5
1.05999755859375,-0.258754223585129,2.85516428947449,1.3018651008606,-0.258599401509697,2.85454828239877,1.3013212236669,2196.374,2196.372,2200.17,2197.35,356.180847167969,44.9976577758789,1.5275114774704,-0.492922455072403,-0.213973954319954,0.320251941680908,-0.492290296490434,-0.211818761581115,0.30073246008742,5
1.08000183105469,-0.268879860639572,2.85077047348022,1.30838775634766,-0.268583149539609,2.85025255453512,1.30742013954506,2196.388,2196.979,2202.778,2199.542,356.189208984375,44.998176574707,1.52538204193115,-0.506280183792114,-0.219694554805756,0.326135665178299,-0.50587040849135,-0.217661904390701,0.309028338595312,5
1.09999847412109,-0.279272317886353,2.84626245498657,1.31503200531006,-0.278834517009062,2.84584167750307,1.31368253996271,2199.335,2199.212,2202.591,2200.137,356.199066162109,44.9985389709473,1.52286767959595,-0.519624590873718,-0.225404962897301,0.332214206457138,-0.519436284009554,-0.223498921639497,0.317315520258069,5
1.1199951171875,-0.289931148290634,2.84164047241211,1.32179892063141,-0.289357002179081,2.84131414609862,1.32011056195293,2199.127,2199.739,2205.173,2202.192,356.21044921875,44.9989585876465,1.51930129528046,-0.532941460609436,-0.231098428368568,0.338345557451248,-0.532985466132485,-0.229328756186667,0.32559250418615,5
1.13999938964844,-0.300855755805969,2.83690500259399,1.32869172096252,-0.300154365346813,2.83666834237095,1.32670650262257,2201.029,2201.354,2205.909,2202.968,356.223663330078,44.9992904663086,1.51505124568939,-0.546231329441071,-0.236776724457741,0.344637870788574,-0.546515580872639,-0.235150386571708,0.333857840147634,5
1.15999603271484,-0.312045514583588,2.83205628395081,1.33571302890778,-0.311217811600473,2.8319080505249,1.33346498929726,2203.313,2203.106,2205.573,2203.832,356.238006591797,44.99951171875,1.51049935817719,-0.559486150741577,-0.242436230182648,0.351063311100006,-0.560008885098767,-0.240956178420931,0.342100689140515,6
1.18000030517578,-0.323499411344528,2.8270947933197,1.34286332130432,-0.322555076427271,2.82702994219644,1.34039074746542,2202.64,2203.255,2208.233,2205.761,356.253662109375,44.9998092651367,1.50487160682678,-0.572695255279541,-0.248071879148483,0.357517033815384,-0.573468357077025,-0.246747413199059,0.350322870541114,6
1.19999694824219,-0.335216611623764,2.82202100753784,1.35014617443085,-0.334156660511822,2.8220381046756,1.34747797414352,2205.192,2205.134,2207.817,2205.904,356.270629882813,44.9999885559082,1.49892282485962,-0.585862040519714,-0.253687143325806,0.364141225814819,-0.58687652428584,-0.252516572968185,0.358513710658656,6
1.22000122070313,-0.347196072340012,2.81683540344238,1.35756182670593,-0.346030421585499,2.81692915700008,1.35473146949704,2204.356,2205.169,2210.276,2207.611,356.289154052734,45.0002365112305,1.49192559719086,-0.598972141742706,-0.259275108575821,0.370781153440475,-0.600236516861372,-0.258265004538453,0.366675121644476,6
1.23999786376953,-0.359436631202698,2.81153869628906,1.36511337757111,-0.358166167196084,2.81170748469733,1.36214500711597,2206.896,2206.892,2209.446,2207.595,356.309143066406,45.0003547668457,1.48463678359985,-0.612028300762177,-0.264838486909866,0.377580165863037,-0.613531154887641,-0.263985315871967,0.374796608555988,6
1.25999450683594,-0.371936917304993,2.80613136291504,1.37280094623566,-0.3705671011502,2.80637170925886,1.36972054415578,2205.963,2206.728,2211.531,2209.185,356.330688476563,45.0005264282227,1.47629427909851,-0.625015616416931,-0.2703697681427,0.384376615285873,-0.626758665639206,-0.269676744214496,0.382877088462885,6
1.27999877929688,-0.384695649147034,2.80061388015747,1.3806266784668,-0.383236695417198,2.80092033679326,1.37746020158837,2207.385,2207.795,2211.494,2209.292,356.354034423828,45.0006370544434,1.46731793880463,-0.637934923171997,-0.275871068239212,0.39128640294075,-0.639917282339435,-0.275338529371412,0.39091548206889,6
1.29999542236328,-0.397711187601089,2.79498720169067,1.38859212398529,-0.396163740917024,2.79535819025452,1.38535713196165,2209.103,2209.003,2210.375,2209.46,356.378448486328,45.0006217956543,1.45815408229828,-0.650777578353882,-0.281338185071945,0.398272514343262,-0.652990303744023,-0.280963485263868,0.398901586844477,6
1.31999969482422,-0.410981893539429,2.78925180435181,1.3966965675354,-0.409356423791328,2.7896817473746,1.39341633606181,2207.662,2208.371,2212.441,2210.868,356.404083251953,45.0007133483887,1.44791746139526,-0.663533449172974,-0.286766022443771,0.405223906040192,-0.665981146317813,-0.286553081901244,0.406837489854705,6
1.33999633789063,-0.424505978822708,2.78340864181519,1.40494239330292,-0.422802873722428,2.78389611561957,1.401630562497,2209.621,2209.664,2211.279,2210.246,356.430938720703,45.0006942749023,1.43743872642517,-0.676206171512604,-0.292158275842667,0.412289947271347,-0.678873453515705,-0.29210028151913,0.41471319914141,6
1.36000061035156,-0.438281536102295,2.77745842933655,1.41332852840424,-0.436511415158101,2.77799771321212,1.41000489654248,2207.933,2208.931,2213.215,2211.35,356.459259033203,45.0007743835449,1.42592108249664,-0.68878173828125,-0.297508031129837,0.419305860996246,-0.691670720740693,-0.297606588091785,0.422530849991739,6
1.37999725341797,-0.452306866645813,2.77140212059021,1.42185711860657,-0.450469530727146,2.77199192602736,1.41853169153152,2209.934,2210.051,2211.58,2210.546,356.489013671875,45.0007095336914,1.41420042514801,-0.70126336812973,-0.302818298339844,0.426426857709885,-0.704356955827446,-0.303065120637236,0.430280673041441,6
1.40000152587891,-0.466579556465149,2.76524043083191,1.43052661418915,-0.464685685951852,2.76587511158757,1.42721611891956,2208.099,2209.092,2213.167,2211.55,356.520324707031,45.0007438659668,1.40142428874969,-0.713636040687561,-0.308081328868866,0.433476626873016,-0.716935713767318,-0.308477408768949,0.437964839979263,6
1.41999816894531,-0.481097608804703,2.75897431373596,1.43933892250061,-0.47914673136562,2.75965292774086,1.43605014590267,2210.025,2210.106,2211.165,2210.501,356.553009033203,45.0006256103516,1.38848841190338,-0.72590297460556,-0.313300043344498,0.440614253282547,-0.729391385793766,-0.313836736470737,0.445573815653291,6
1.43999481201172,-0.495858639478683,2.75260496139526,1.44829213619232,-0.493855616658466,2.75332410531803,1.44503557440044,2207.93,2208.951,2212.601,2211.331,356.587127685547,45.0006256103516,1.37453031539917,-0.738049268722534,-0.31846672296524,0.447658389806747,-0.7417228873516,-0.319142637088802,0.453106937525684,6
1.45999908447266,-0.510860085487366,2.74613332748413,1.45738697052002,-0.508815552717244,2.74688726276417,1.45417436589355,2208.553,2209.129,2211.678,2210.533,356.623016357422,45.000545501709,1.35997676849365,-0.750076949596405,-0.323583751916885,0.454743981361389,-0.753929052770513,-0.324394609067776,0.460563493506643,6
1.47999572753906,-0.526099681854248,2.73956036567688,1.46662366390228,-0.524012471663969,2.74034845309416,1.46345792653486,2209.548,2209.539,2209.543,2209.776,356.659851074219,45.000358581543,1.34532833099365,-0.761977672576904,-0.3286472260952,0.461832106113434,-0.765994882555672,-0.329586198544069,0.467934320638836,6
1.5,-0.541574478149414,2.73288726806641,1.47599959373474,-0.539455198877605,2.73370387899399,1.47289164761066,2206.923,2207.955,2211.076,2210.411,356.697845458984,45.0003128051758,1.32962322235107,-0.773741543292999,-0.333652019500732,0.468797832727432,-0.777924000354858,-0.334718964672088,0.475221632552146,6
1.51999664306641,-0.557281911373138,2.72611522674561,1.48551595211029,-0.555129074991064,2.72695984797977,1.48246657394236,2208.297,2208.488,2208.9,2208.829,356.737060546875,45.0001525878906,1.31377947330475,-0.785373270511627,-0.338602095842361,0.475815415382385,-0.789701834723693,-0.339786637766398,0.482416527778586,6
1.54000091552734,-0.573219001293182,2.71924543380737,1.49516999721527,-0.571043070329722,2.72011250037111,1.49218818536175,2205.557,2206.822,2210.202,2209.233,356.777740478516,45.000114440918,1.29689836502075,-0.796858847141266,-0.343490272760391,0.482700228691101,-0.801332006385301,-0.344790775723006,0.489521218161413,6
1.55999755859375,-0.589383065700531,2.7122790813446,1.50496256351471,-0.587181951496087,2.71316839067337,1.50204717602401,2206.996,2207.229,2207.57,2207.507,356.819854736328,44.999942779541,1.27990758419037,-0.808201968669891,-0.348319709300995,0.48962727189064,-0.812800388649436,-0.349725300221754,0.496527073925997,6
1.57999420166016,-0.605770766735077,2.7052173614502,1.51489067077637,-0.603548545866849,2.70612630234534,1.51204527312944,2204.174,2205.421,2208.531,2207.81,356.863433837891,44.999870300293,1.26189064979553,-0.819388091564178,-0.353082537651062,0.496403902769089,-0.824106301004481,-0.354589918457504,0.503433679358411,6
1.59999847412109,-0.622379183769226,2.69806170463562,1.52495419979095,-0.620145926473056,2.69898491314762,1.52218435394475,2204.348,2205.125,2206.931,2206.323,356.908874511719,44.9997406005859,1.24336504936218,-0.830419063568115,-0.357781112194061,0.503175616264343,-0.835248923368005,-0.359384277571697,0.510240533483095,5
1.6199951171875,-0.639204919338226,2.69081354141235,1.53515219688416,-0.636958033083316,2.69175113334911,1.53245460752521,2204.909,2204.952,2204.091,2205.047,356.955200195313,44.9994964599609,1.2248055934906,-0.841286718845367,-0.362411111593246,0.509900271892548,-0.846214826007804,-0.364102599125749,0.516939432286212,5
1.63999938964844,-0.656244575977325,2.68347430229187,1.54548120498657,-0.653994195024907,2.68442094880091,1.54286173301126,2201.675,2202.795,2205.107,2205.213,357.002593994141,44.9994010925293,1.20520496368408,-0.851982057094574,-0.366967529058456,0.516449630260468,-0.857007552155828,-0.368746407673381,0.523532540272869,5
1.65999603271484,-0.673494756221771,2.67604517936707,1.5559413433075,-0.671237824488362,2.67700149677403,1.55339559716896,2202.638,2202.835,2202.345,2203.055,357.051086425781,44.9991874694824,1.18551707267761,-0.862509548664093,-0.371454507112503,0.523006081581116,-0.867614155697522,-0.373310132863173,0.530011948863706,5
1.68000030517578,-0.690951883792877,2.66852784156799,1.56652891635895,-0.688698391434734,2.66948870260877,1.56406198504972,2199.195,2200.682,2203.342,2202.957,357.100952148438,44.9991226196289,1.16485011577606,-0.872856497764587,-0.375865370035172,0.529378354549408,-0.878038122530658,-0.377795274579551,0.536379787539275,5
1.69999694824219,-0.708612442016602,2.66092371940613,1.57724404335022,-0.706358800111611,2.66188992212981,1.57485045312518,2200.29,2200.604,2200.182,2200.706,357.152160644531,44.9989204406738,1.1441468000412,-0.883026838302612,-0.380203276872635,0.535755693912506,-0.888267004546665,-0.382196476749158,0.542628451944297,5
1.72000122070313,-0.726472496986389,2.65323448181152,1.58808279037476,-0.724228658537036,2.6542010212754,1.58576687078363,2196.884,2198.307,2200.786,2200.604,357.204803466797,44.998851776123,1.12245547771454,-0.893007159233093,-0.384460747241974,0.541937291622162,-0.898304216251578,-0.386515208538549,0.548760027947228,5
1.73999786376953,-0.744528591632843,2.64546155929565,1.59904503822327,-0.742290383213093,2.64642956573347,1.59680049654058,2197.999,2198.191,2197.308,2198.212,357.258697509766,44.9986228942871,1.10076344013214,-0.902800917625427,-0.388640642166138,0.548111498355865,-0.908137821269591,-0.39074633405868,0.554767223802352,5
1.75999450683594,-0.762776494026184,2.63760685920715,1.61012649536133,-0.760546715064628,2.63857437616062,1.60795300478424,2194.381,2195.758,2197.871,2198.054,357.313873291016,44.99853515625,1.07808434963226,-0.912395298480988,-0.392735689878464,0.554073393344879,-0.917767514700581,-0.394889722119545,0.560649853250941,4
1.77999877929688,-0.781212329864502,2.6296718120575,1.62132620811462,-0.779000609654483,2.63063418086074,1.61922620102184,2194.09,2194.897,2195.75,2195.993,357.370727539063,44.998405456543,1.05493974685669,-0.921792507171631,-0.396748602390289,0.559985101222992,-0.927192788821983,-0.398945154262308,0.566407606133204,4
1.79999542236328,-0.799832046031952,2.62165832519531,1.63264226913452,-0.797633790944145,2.62261684350262,1.63060892070663,2194.18,2194.306,2192.404,2194.076,357.428253173828,44.9981422424316,1.03190004825592,-0.930985450744629,-0.400675535202026,0.565803170204163,-0.936402499096495,-0.402907835303912,0.572033674425208,4
1.81999969482422,-0.818631410598755,2.61356806755066,1.64407014846802,-0.816456197270346,2.61451808789761,1.64210723501345,2190.247,2191.543,2193.139,2193.886,357.486724853516,44.9980583190918,1.00785207748413,-0.939966976642609,-0.404512077569962,0.57139641046524,-0.945399824400851,-0.406779133026206,0.577530000053147,3
1.83999633789063,-0.837606191635132,2.60540270805359,1.65560936927795,-0.835449117627072,2.60634596486888,1.6537097136807,2190.917,2191.179,2189.848,2191.14,357.546203613281,44.9978523254395,0.983826875686646,-0.948741257190704,-0.40826228260994,0.576961100101471,-0.954174163352093,-0.410554485950274,0.582890106797601,3
1.86000061035156,-0.856752157211304,2.59716439247131,1.66725528240204,-0.854622615239374,2.59809614449182,1.66542250417552,2186.913,2188.531,2190.479,2190.707,357.60693359375,44.9978179931641,0.958866477012634,-0.957297503948212,-0.411920100450516,0.582297563552856,-0.962728579444532,-0.414235212212131,0.588115866099442,0
1.87999725341797,-0.876064956188202,2.58885455131531,1.67900741100311,-0.873957566090845,2.58977685529642,1.67723392393473,2187.799,2188.058,2186.764,2187.973,357.668884277344,44.997615814209,0.933949589729309,-0.965638935565948,-0.415488213300705,0.587605595588684,-0.971053025860989,-0.417816988947023,0.593201140514831,0
1.90000152587891,-0.895540058612823,2.58047533035278,1.69086086750031,-0.893464153455626,2.58138371570432,1.68915019376158,2183.835,2185.384,2187.08,2187.518,357.732086181641,44.99755859375,0.908115923404694,-0.973754346370697,-0.418960094451904,0.592675268650055,-0.979150439632688,-0.421301079877433,0.598147724230311,0
1.91999816894531,-0.915172934532166,2.57202863693237,1.70281505584717,-0.913122862707269,2.57292512231409,1.7011593924753,2184.739,2184.897,2183.163,2184.693,357.796356201172,44.9973411560059,0.882375955581665,-0.981646656990051,-0.422338485717773,0.597707152366638,-0.987011339258123,-0.424683405378145,0.60294982514457,0
1.93999481201172,-0.934959053993225,2.56351637840271,1.71486485004425,-0.932936403420974,2.56439990927123,1.7132631753131,2180.673,2182.115,2183.425,2184.243,357.861694335938,44.9972877502441,0.855720400810242,-0.98930561542511,-0.425617069005966,0.602491080760956,-0.994635661494588,-0.427963938237592,0.607607404623624,0
1.95999908447266,-0.95489376783371,2.55494046211243,1.72700870037079,-0.952907658613767,2.55580683609405,1.72546330346508,2180.059,2180.922,2181.038,2181.813,357.928527832031,44.9971694946289,0.828686237335205,-0.996732950210571,-0.428798317909241,0.607193648815155,-1.00202309041976,-0.431142542523221,0.612120269675456,0
1.97999572753906,-0.974972188472748,2.54630279541016,1.73924422264099,-0.973016570682103,2.54715453300902,1.73774752405424,2179.948,2180.023,2177.33,2179.559,357.995849609375,44.9969291687012,0.801855146884918,-1.00392293930054,-0.431878954172134,0.611776053905487,-1.00916501115878,-0.434215511495054,0.616483157607448,0
2,-0.995189547538757,2.53760576248169,1.75156629085541,-0.993273599084619,2.53843849960327,1.75012222660065,2175.577,2177.002,2177.885,2179.103,358.063934326172,44.996883392334,0.774120330810547,-1.01087033748627,-0.434855431318283,0.616102159023285,-1.01606400046349,-0.437183953857422,0.620697642517089,0
2.01999664306641,-1.01554095745087,2.52885103225708,1.76397383213043,-1.01365835337184,2.52966750931758,1.76257495489689,2176.171,2176.326,2174.224,2176.068,358.132751464844,44.9967041015625,0.746500849723816,-1.01757860183716,-0.437731295824051,0.620378792285919,-1.02271203275434,-0.440044416427654,0.624758821703072,0
2.04000091552734,-1.03602182865143,2.52004098892212,1.7764618396759,-1.0341813929022,2.52083701875502,1.77511215949027,2171.764,2173.447,2174.692,2175.435,358.202667236328,44.996696472168,0.718027830123901,-1.02403962612152,-0.440501540899277,0.624398052692413,-1.02911152474823,-0.442797939051516,0.628668171500036,0
2.05999755859375,-1.0566269159317,2.51117753982544,1.78902924060822,-1.05482201812353,2.5119559343546,1.78772119534738,2172.527,2172.724,2170.737,2172.41,358.273559570313,44.9965286254883,0.689693868160248,-1.03025567531586,-0.443168640136719,0.628368437290192,-1.03525504859546,-0.445441325732794,0.632421154350513,0
2.07999420166016,-1.07735133171082,2.50226306915283,1.80167078971863,-1.07558293843174,2.50302309033894,1.80040371759589,2168.276,2169.847,2170.856,2171.794,358.345520019531,44.996509552002,0.660524249076843,-1.03621864318848,-0.445727288722992,0.632078230381012,-1.0411426556922,-0.447974598585819,0.636017801651613,0
2.09999847412109,-1.09819006919861,2.49329948425293,1.8143846988678,-1.09646699912883,2.4940372624541,1.8131614643864,2167.683,2168.494,2168.18,2169.239,358.418853759766,44.9964141845703,0.63103860616684,-1.04192924499512,-0.448179185390472,0.63569575548172,-1.04677411523768,-0.450397658303471,0.63945797241075,0
2.1199951171875,-1.11913776397705,2.48428916931152,1.82716822624207,-1.11745308225396,2.48500753716864,1.82598153508617,2167.54,2167.498,2164.231,2166.83,358.492492675781,44.9961967468262,0.601841866970062,-1.04738235473633,-0.450521260499954,0.639178276062012,-1.0521429102862,-0.45270770082608,0.642737685527497,0
2.13999938964844,-1.1401891708374,2.47523427009583,1.8400160074234,-1.138551967509,2.47592927627801,1.83887051484687,2163.024,2164.343,2164.625,2166.34,358.566680908203,44.9961700439453,0.57178658246994,-1.05257475376129,-0.452750772237778,0.642389893531799,-1.05725102347782,-0.454905579228273,0.645858152165725,0
2.15999603271484,-1.16133940219879,2.46613693237305,1.85292673110962,-1.15974228854654,2.4668116731246,1.85181535130026,2163.54,2163.625,2160.891,2163.076,358.641326904297,44.9960060119629,0.541969537734985,-1.0575088262558,-0.454870998859406,0.645538449287415,-1.06209255378819,-0.456988754464129,0.648815767481742,0
2.18000030517578,-1.18258285522461,2.4569993019104,1.86589503288269,-1.18103490068612,2.45765005696766,1.86482267579167,2158.915,2160.558,2161.357,2162.48,358.716827392578,44.9960289001465,0.511327028274536,-1.0621794462204,-0.456878125667572,0.648417413234711,-1.06666929835407,-0.458957999791384,0.651611629318345,0
2.19999694824219,-1.20391476154327,2.44782376289368,1.87891983985901,-1.20240821395574,2.44845371736898,1.8778792993441,2159.683,2159.87,2157.319,2159.174,358.793090820313,44.9958915710449,0.480985403060913,-1.06658780574799,-0.458774447441101,0.65123987197876,-1.07097597819164,-0.460811043810786,0.654242512826705,0
2.22000122070313,-1.2253292798996,2.43861269950867,1.89199566841125,-1.22387315175433,2.43921795429519,1.89099189489151,2155.227,2156.771,2157.448,2158.677,358.870269775391,44.995906829834,0.449826389551163,-1.07072854042053,-0.460555523633957,0.653790473937988,-1.07501419914593,-0.462548577472581,0.656709398992482,0
2.23999786376953,-1.24682116508484,2.42936825752258,1.90512120723724,-1.24540792547886,2.42995214277345,1.90414715211632,2156.134,2156.09,2153.164,2155.38,358.948028564453,44.9957427978516,0.418974131345749,-1.07460224628448,-0.46222311258316,0.656279623508453,-1.07877930973132,-0.464168599372462,0.659009446295705,0
2.25999450683594,-1.26838541030884,2.42009282112122,1.91829097270966,-1.26701526177039,2.4206551096063,1.91734673668097,2151.639,2153.076,2153.25,2154.814,359.026458740234,44.9957466125488,0.387376964092255,-1.07820439338684,-0.463773459196091,0.658489942550659,-1.08227143928024,-0.465671165158559,0.661142733743536,0
2.27999877929688,-1.29001605510712,2.41078877449036,1.93150281906128,-1.28869796983554,2.41132564607061,1.93059236468599,2150.891,2151.613,2150.669,2152.141,359.105926513672,44.9956893920898,0.35555574297905,-1.08153533935547,-0.465208381414413,0.66059535741806,-1.08549040888332,-0.467056197851165,0.663109152043028,0
2.29999542236328,-1.31170773506165,2.40145826339722,1.94475400447845,-1.31043401044317,2.40197323503182,1.94387057270897,2150.749,2150.559,2146.692,2149.586,359.185333251953,44.9955024719238,0.324152678251266,-1.08459162712097,-0.466525763273239,0.662560105323792,-1.08843251702753,-0.468322104792631,0.664906439997631,0
2.31999969482422,-1.33345532417297,2.39210367202759,1.95803892612457,-1.33223444283894,2.39259311800549,1.9571881166705,2146.015,2147.376,2147.143,2149.079,359.265075683594,44.9955177307129,0.292018592357635,-1.08737289905548,-0.467723995447159,0.664243936538696,-1.09109887036509,-0.469469362144493,0.666535273643923,0
2.33999633789063,-1.35525286197662,2.38272762298584,1.97135603427887,-1.35407709248145,2.38319483607731,1.97053145048929,2146.52,2146.497,2143.446,2145.791,359.345092773438,44.9953956604004,0.260188281536102,-1.08988010883331,-0.468805521726608,0.665858089923859,-1.09348640563071,-0.470496651869278,0.667993781680938,0
2.36000061035156,-1.37709510326385,2.37333226203918,1.9847000837326,-1.37597305876702,2.37377361348711,1.98390735461333,2141.968,2143.486,2143.702,2145.153,359.425750732422,44.9954452514648,0.227643594145775,-1.09211111068726,-0.469768077135086,0.667201936244965,-1.09559602313537,-0.471404361345641,0.669282514094601,0
2.37999725341797,-1.39897632598877,2.36391997337341,1.9980696439743,-1.39790005743958,2.36433903852774,1.99730221593832,2142.739,2142.714,2139.648,2141.825,359.506805419922,44.9953346252441,0.195479601621628,-1.09406542778015,-0.4706130027771,0.668478429317474,-1.09742530100382,-0.472191448508328,0.67039999139912,0
2.39999389648438,-1.42089128494263,2.35449314117432,2.01145935058594,-1.41986083522252,2.35488992936084,2.01071771239474,2138.278,2139.73,2139.682,2141.258,359.588500976563,44.9953765869141,0.162661835551262,-1.09574139118195,-0.471337705850601,0.669479966163635,-1.09897439291323,-0.472857979480329,0.671346307473475,0
2.41999816894531,-1.44283401966095,2.34505414962769,2.02486681938171,-1.44185817738692,2.34542508756209,2.02415554546122,2137.638,2138.281,2137.002,2138.563,359.671081542969,44.9953346252441,0.129724889993668,-1.09713792800903,-0.471943110227585,0.670374691486359,-1.10024313330221,-0.473403883025206,0.672121361178802,0
2.43999481201172,-1.46479892730713,2.33560585975647,2.03828930854797,-1.46386968334064,2.3359541514805,2.03760203096557,2137.558,2137.209,2132.979,2136.028,359.75341796875,44.9951667785645,0.0972934365272522,-1.09825265407562,-0.472427368164063,0.671124815940857,-1.10123006676374,-0.473828532921971,0.672724263429655,0
2.45999908447266,-1.48678064346313,2.3261501789093,2.05172109603882,-1.48590651627916,2.32647231790489,2.05106398832971,2132.924,2134.005,2133.285,2135.638,359.835784912109,44.9951972961426,0.06416355073452,-1.09908723831177,-0.472789794206619,0.671594321727753,-1.10193556692257,-0.474132089930926,0.673155242467576,0
2.47999572753906,-1.50877356529236,2.31668949127197,2.06516075134277,-1.50794623031618,2.31698924467309,2.06452770571198,2133.41,2133.218,2129.678,2132.248,359.918121337891,44.9950904846191,0.0314482152462006,-1.0996413230896,-0.473032623529434,0.671986997127533,-1.10235882472314,-0.474314205938057,0.673413804053135,0
2.5,-1.53077185153961,2.30722618103027,2.07860279083252,-1.52999999932945,2.30750012397766,2.0780000090599,2128.727,2130.246,2130.089,2131.66,0.000841077126096934,44.995174407959,-0.00187196210026741,-1.09991598129272,-0.473154902458191,0.67210727930069,-1.10250000050292,-0.474374949932098,0.673500046133994,0
2.51999664306641,-1.55276989936829,2.29776334762573,2.09204602241516,-1.55204535801192,2.29801462201262,2.09146717466799,2129.594,2129.468,2126.108,2128.31,0.0837921872735023,44.9950790405273,359.965301513672,-1.0999094247818,-0.473157405853271,0.672162115573883,-1.10235893238473,-0.47431425226183,0.67341386982192,0
2.54000091552734,-1.57476234436035,2.2883026599884,2.10548496246338,-1.57409348237975,2.28852793005043,2.10493602979009,2125.254,2126.448,2126.042,2127.908,0.167120352387428,44.9951324462891,359.931854248047,-1.09962284564972,-0.473038733005524,0.671946167945862,-1.10193556692257,-0.474132089930926,0.673155242467576,0
2.55999755859375,-1.5967435836792,2.27884674072266,2.11891794204712,-1.59612191359838,2.27904971150017,2.11839285467467,2126.048,2125.743,2122.049,2124.567,0.250446081161499,44.9950294494629,359.898895263672,-1.09905397891998,-0.47279942035675,0.671653032302856,-1.10123038958312,-0.473828671822132,0.672724460634977,0
2.57999420166016,-1.61870765686035,2.26939797401428,2.13233971595764,-1.61813342708139,2.26957877217893,2.13183934477855,2121.593,2122.812,2122.133,2124.106,0.333972811698914,44.9950828552246,359.865417480469,-1.09820532798767,-0.472438782453537,0.671085834503174,-1.10024356351463,-0.47340406813359,0.672121623988854,0
2.59999847412109,-1.64064908027649,2.25995874404907,2.14574790000916,-1.64013077892511,2.26011392621545,2.14527718375796,2121.017,2121.467,2119.572,2121.364,0.41799134016037,44.9950752258301,359.831939697266,-1.09707462787628,-0.471957564353943,0.67041140794754,-1.09897493039424,-0.472858210743393,0.671346635812239,0
2.6199951171875,-1.66256237030029,2.2505316734314,2.15913963317871,-1.66209156852628,2.2506648119635,2.15869268743396,2120.879,2120.347,2115.817,2118.931,0.501435220241547,44.9949340820313,359.799102783203,-1.09566152095795,-0.471354782581329,0.669590830802917,-1.09742594550583,-0.472191725819537,0.67040038511534,0
2.63999938964844,-1.68444180488586,2.24111914634705,2.17250967025757,-1.68402693989188,2.24122663446822,2.17209266350648,2116.264,2117.279,2116.226,2118.598,0.584684073925018,44.9949989318848,359.765686035156,-1.09397041797638,-0.470631062984467,0.668496429920197,-1.09559602313537,-0.471404361345641,0.669282514094601,0
2.65999603271484,-1.70628178119659,2.23172330856323,2.18585634231567,-1.70591456353497,2.23180900148401,2.18546347124042,2116.929,2116.481,2112.677,2115.288,0.667623341083527,44.9949188232422,359.732757568359,-1.09199905395508,-0.469787627458572,0.667328953742981,-1.09348726343002,-0.470497020956359,0.667994305697154,0
2.68000030517578,-1.72807669639587,2.22234678268433,2.19917416572571,-1.72776555581996,2.22240712994983,2.19881190144931,2112.398,2113.714,2113.009,2114.754,0.750687301158905,44.9950256347656,359.699401855469,-1.08975195884705,-0.468824982643127,0.665895700454712,-1.09109887036509,-0.469469362144494,0.666535273643922,0
2.69999694824219,-1.74982130527496,2.21299195289612,2.21246194839478,-1.74955768413056,2.21303058593937,2.21212437257479,2113.338,2112.882,2109.181,2111.562,0.833606958389282,44.9949493408203,359.666625976563,-1.08722579479218,-0.467743277549744,0.664394974708557,-1.08843358680109,-0.468322565086308,0.664907093505606,0
2.72000122070313,-1.77150976657867,2.20366144180298,2.22571444511414,-1.77130202882336,2.20367460188472,2.22540765343382,2109,2110.101,2109.249,2111.178,0.916609168052673,44.9950370788574,359.633361816406,-1.08442544937134,-0.466542690992355,0.662628710269928,-1.08549040888332,-0.467056197851165,0.663109152043028,0
2.73999786376953,-1.79313683509827,2.19435667991638,2.23893022537231,-1.79297647980783,2.19434869114016,2.23864823731709,2110.028,2109.329,2105.33,2107.998,0.999269187450409,44.994945526123,359.600677490234,-1.08134710788727,-0.465223222970963,0.66079169511795,-1.08227271937422,-0.465671715947234,0.661143515732969,0
2.75999450683594,-1.81469655036926,2.18508100509644,2.25210380554199,-1.81458384274179,2.18505164650952,2.2518478381572,2105.567,2106.735,2105.54,2107.503,1.08182775974274,44.9950218200684,359.567657470703,-1.07799661159515,-0.463785827159882,0.658685028553009,-1.07878069424208,-0.464169195088763,0.659010292071722,0
2.77999877929688,-1.83618402481079,2.17583632469177,2.26523327827454,-1.83612684690458,2.17578229366013,2.2650081232283,2105.236,2105.32,2103.023,2104.991,1.16452121734619,44.9950256347656,359.534790039063,-1.07437109947205,-0.46223047375679,0.656479120254517,-1.07501419914593,-0.462548577472581,0.656709398992482,0
2.79999542236328,-1.85759341716766,2.16662502288818,2.278315782547,-1.85758361379882,2.16655004629821,2.27811572729775,2105.03,2104.245,2099.588,2102.719,1.2463310956955,44.9949150085449,359.502563476563,-1.07047176361084,-0.460556983947754,0.65412700176239,-1.07097756992209,-0.460811728687929,0.654243485189995,0
2.81999969482422,-1.87891936302185,2.15744996070862,2.29134607315063,-1.87896509797278,2.15735019098767,2.29117734232814,2100.675,2101.493,2099.969,2102.348,1.32766592502594,44.995002746582,359.469970703125,-1.06630504131317,-0.458767235279083,0.651516795158386,-1.06666929835407,-0.458957999791384,0.651611629318345,0
2.83999633789063,-1.90015685558319,2.14831280708313,2.30432271957397,-1.90024960698239,2.14819206138118,2.30417971674389,2101.454,2100.641,2096.6,2099.284,1.40834820270538,44.9949531555176,359.437957763672,-1.06186759471893,-0.456861644983292,0.648836016654968,-1.06209435025759,-0.456989527434725,0.648816864916866,0
2.86000061035156,-1.92130029201508,2.13921594619751,2.31724071502686,-1.9214480311499,2.13907097167731,2.31712950327294,2097.053,2098.098,2097.006,2098.858,1.48883378505707,44.9950790405273,359.405639648438,-1.05716705322266,-0.454842418432236,0.645900309085846,-1.05725102347782,-0.454905579228273,0.645858152165725,0
2.87999725341797,-1.94234430789948,2.13016152381897,2.3300986289978,-1.94253888918396,2.12999616467562,2.3300135793296,2098.027,2097.37,2093.481,2095.762,1.5688693523407,44.9950256347656,359.373992919922,-1.05219888687134,-0.452709048986435,0.642900347709656,-1.05214490868305,-0.452708560680416,0.642738906316949,0
2.89999389648438,-1.96328365802765,2.12115240097046,2.34289169311523,-1.96352501326936,2.1209664217661,2.34283367505136,2093.977,2094.871,2093.524,2095.419,1.64869093894958,44.9951248168945,359.342102050781,-1.0469708442688,-0.450463145971298,0.639652132987976,-1.04677621342161,-0.450398561093403,0.639459254158576,0
2.91999816894531,-1.98411309719086,2.11219000816345,2.35561776161194,-1.98440911693069,2.11198057539494,2.35559144808806,2093.728,2093.556,2091.096,2093.072,1.72842395305634,44.9951438903809,359.310424804688,-1.04147934913635,-0.448104172945023,0.636306047439575,-1.04114485287423,-0.447975543971863,0.636019143875825,0
2.93999481201172,-2.00482773780823,2.10327768325806,2.36827421188354,-2.00517008215741,2.10304771205211,2.36827399777659,2093.639,2092.695,2087.803,2090.803,1.80703687667847,44.995044708252,359.279541015625,-1.03572654724121,-0.445632547140121,0.632820785045624,-1.03525734386973,-0.445442313325187,0.632422556497743,0
2.95999908447266,-2.02542209625244,2.09441661834717,2.38085603713989,-2.02581860575671,2.0941632292003,2.38088785862954,2089.579,2089.914,2088.109,2090.747,1.88487160205841,44.9951286315918,359.248321533203,-1.02972078323364,-0.443050593137741,0.629091441631317,-1.02911152474823,-0.442797939051516,0.628668171500036,0
2.97999572753906,-2.04589104652405,2.08560943603516,2.39336180686951,-2.04633384260397,2.08533609591429,2.39342029668558,2090.203,2089.377,2085.138,2087.611,1.96178364753723,44.9950904846191,359.217834472656,-1.02345788478851,-0.440358847379684,0.62528920173645,-1.02271452148052,-0.440045487257004,0.624760342027062,0
3,-2.06623005867004,2.07685804367065,2.40578699111938,-2.06672639957428,2.07656174835205,2.40587779151916,2086.228,2086.943,2085.436,2087.324,2.03821992874146,44.9952163696289,359.187194824219,-1.01694762706757,-0.437560200691223,0.621254324913025,-1.01606400046349,-0.437183953857422,0.620697642517089,0
3.01999664306641,-2.08643364906311,2.06816530227661,2.41813015937805,-2.08697572864857,2.06784902775215,2.41824779066609,2087.059,2086.194,2082.291,2084.521,2.11394214630127,44.9951972961426,359.157257080078,-1.01018536090851,-0.434653788805008,0.617153167724609,-1.00916768936771,-0.434216663853534,0.616484793683489,0
3.04000091552734,-2.10649752616882,2.05953240394592,2.4303867816925,-2.10709234004513,2.05919341186127,2.43053671465473,2083.45,2083.85,2082.222,2084.282,2.18915557861328,44.9952964782715,359.127136230469,-1.00318050384521,-0.431642293930054,0.612826466560364,-1.00202309041976,-0.43114254252322,0.612120269675456,0
3.05999755859375,-2.12641620635986,2.05096173286438,2.44255542755127,-2.12705600675913,2.05060360379452,2.44273220712343,2084.25,2083.254,2079.088,2081.467,2.26347780227661,44.9952583312988,359.097778320313,-0.995928525924683,-0.428525120019913,0.608427107334137,-0.994638524886308,-0.427965170275055,0.607609153824944,0
3.07999420166016,-2.14618492126465,2.04245591163635,2.45463156700134,-2.14686960564145,2.04207836572333,2.45483602549553,2080.625,2081.05,2079.125,2081.175,2.33712649345398,44.9953575134277,359.068389892578,-0.988439500331879,-0.425305157899857,0.603803515434265,-0.987014293508169,-0.424684676509408,0.602951629849824,0
3.09999847412109,-2.1657989025116,2.03401637077332,2.46661329269409,-2.16653584520328,2.033616532251,2.46684982435823,2080.407,2079.861,2077.038,2079.063,2.41021299362183,44.9953956604004,359.039306640625,-0.980710029602051,-0.421982079744339,0.599088251590729,-0.979150439632689,-0.421301079877433,0.598147724230312,0
3.1199951171875,-2.18525385856628,2.02564525604248,2.47849822044373,-2.18603502400946,2.02522658035469,2.47876156841225,2080.348,2079.084,2074.184,2077.029,2.4818422794342,44.9953269958496,359.011108398438,-0.972743928432465,-0.418557107448578,0.594247162342072,-0.971056158224178,-0.417818336715394,0.593203054026623,0
3.13999938964844,-2.20454502105713,2.01734447479248,2.49028182029724,-2.20537738341953,2.01690410346351,2.49057751394429,2076.527,2076.732,2074.657,2076.959,2.55244660377502,44.9954376220703,358.982818603516,-0.964551031589508,-0.415033489465714,0.589184880256653,-0.962728579444533,-0.414235212212131,0.588115866099442,0
3.15999603271484,-2.22366762161255,2.00911617279053,2.50196313858032,-2.22454360124808,2.00865741537402,2.50228585733282,2077.288,2076.111,2071.989,2074.267,2.62189126014709,44.9954299926758,358.955322265625,-0.956127047538757,-0.411411106586456,0.584062814712524,-0.95417746870157,-0.410555908149813,0.582892125984019,0
3.18000030517578,-2.24261713027954,2.00096225738525,2.51353788375854,-2.24354380138856,2.00048216005771,2.51389278310636,2073.758,2074.052,2072.232,2074.053,2.69056224822998,44.9955673217773,358.927825927734,-0.94748318195343,-0.407693713903427,0.578733563423157,-0.94539982440085,-0.406779133026206,0.577530000053146,0
3.19999694824219,-2.26138949394226,1.99288487434387,2.52500486373901,-2.2623590635174,1.99238647840124,2.5253867331345,2074.75,2073.464,2069.329,2071.49,2.75812315940857,44.9955520629883,358.901153564453,-0.938614845275879,-0.403880327939987,0.573347926139832,-0.936405971974636,-0.402909329586355,0.572035795952272,0
3.21999359130859,-2.27998018264771,1.9848849773407,2.53636002540588,-2.28099231507127,1.9843691108104,2.5367694957426,2071.379,2071.401,2069.421,2071.438,2.82478451728821,44.995662689209,358.874481201172,-0.929533779621124,-0.399974703788757,0.567756950855255,-0.927196343299057,-0.398946683654493,0.566409777507781,0
3.23999786376953,-2.29838514328003,1.97696542739868,2.5476016998291,-2.29944628156995,1.97642888457015,2.54804273590817,2071.122,2070.614,2067.682,2069.301,2.89069867134094,44.995719909668,358.848358154297,-0.920236647129059,-0.395976632833481,0.562082290649414,-0.917771149318993,-0.394891285994308,0.560652073582612,0
3.25999450683594,-2.31659936904907,1.96912789344788,2.55872774124146,-2.31770268688992,1.96857366338589,2.55919528903255,2071.339,2069.666,2064.985,2067.728,2.95500183105469,44.9956665039063,358.823059082031,-0.910727679729462,-0.391887158155441,0.556301951408386,-0.90814153446928,-0.390747931744771,0.554769492138098,0
3.27999877929688,-2.33461999893188,1.96137356758118,2.56973433494568,-2.33577134012187,1.96079922667992,2.57023314733618,2068.093,2067.82,2065.224,2067.531,3.01794099807739,44.9957695007324,358.797882080078,-0.901017606258392,-0.387710154056549,0.550325274467468,-0.898304216251578,-0.386515208538549,0.548760027947228,0
3.29999542236328,-2.35244178771973,1.9537045955658,2.5806200504303,-2.35363442159312,1.95311324175956,2.58114542505908,2068.587,2067.187,2063.07,2065.282,3.07939743995667,44.9957809448242,358.773529052734,-0.891103267669678,-0.383445739746094,0.544286549091339,-0.888270870184445,-0.382198140025101,0.542630813402095,0
3.31999969482422,-2.37006187438965,1.94612288475037,2.59138154983521,-2.37130160722417,1.94551154534655,2.59193803307009,2065.572,2065.484,2063.288,2065.012,3.13975763320923,44.9959106445313,358.749389648438,-0.880996227264404,-0.379098206758499,0.538070917129517,-0.878038122530657,-0.377795274579551,0.536379787539275,0
3.33999633789063,-2.38747549057007,1.9386293888092,2.6020176410675,-2.38875555478454,1.93800159931817,2.60260037727124,2066.391,2064.815,2060.874,2062.945,3.1987509727478,44.9959259033203,358.726013183594,-0.870693147182465,-0.374666839838028,0.531803667545319,-0.867618167158097,-0.373311858882592,0.530014399402376,0
3.36000061035156,-2.40467977523804,1.93122625350952,2.61252474784851,-2.406005803634,1.93057929915441,2.61313828510855,2063.464,2063.338,2060.993,2062.65,3.25660753250122,44.9960441589355,358.702941894531,-0.860206067562103,-0.370155990123749,0.525360286235809,-0.857007552155826,-0.36874640767338,0.523532540272868,0
3.37999725341797,-2.42167043685913,1.92391490936279,2.62290215492249,-2.42303550945299,1.9232518924954,2.62354146665005,2064.375,2062.67,2058.577,2060.707,3.31297421455383,44.9960403442383,358.680725097656,-0.849531531333923,-0.365564674139023,0.518867969512939,-0.846218976345105,-0.364104384899943,0.516941967662506,0
3.39999389648438,-2.43844389915466,1.91669690608978,2.63314628601074,-2.43984769972619,1.91601807669906,2.63381177133889,2061.583,2061.153,2058.682,2060.559,3.36802172660828,44.9961547851563,358.658752441406,-0.838681995868683,-0.36089751124382,0.512205243110657,-0.835253140422974,-0.35938609205264,0.510243109616171,0
3.41999816894531,-2.45499730110168,1.90957355499268,2.64325571060181,-2.45644516534361,1.90887665092339,2.64395090408624,2061.523,2060.408,2057.222,2058.903,3.42182064056396,44.9962043762207,358.637390136719,-0.827655434608459,-0.356154471635818,0.505475997924805,-0.824110582941664,-0.354591760855451,0.503436295127018,0
3.43999481201172,-2.47132611274719,1.90254712104797,2.65322875976563,-2.4728118459714,1.90183452548138,2.65394905388473,2061.553,2059.759,2055.222,2057.565,3.473712682724,44.9961891174316,358.617004394531,-0.816457748413086,-0.351337730884552,0.49865597486496,-0.812804733542555,-0.349727169707881,0.496529728153404,0
3.45999908447266,-2.48742842674255,1.89561784267426,2.66306233406067,-2.48895692832918,1.89488774758421,2.66381183275806,2059.018,2058.202,2055.424,2057.519,3.52393770217896,44.9963035583496,358.596893310547,-0.805099606513977,-0.346451133489609,0.491682827472687,-0.801332006385299,-0.344790775723006,0.489521218161412,0
3.47999572753906,-2.50329995155334,1.88878798484802,2.67275547981262,-2.50486489870395,1.88804299234919,2.67352976362102,2059.425,2057.799,2053.78,2055.652,3.57239985466003,44.9963417053223,358.577697753906,-0.793579518795013,-0.341495364904404,0.484659790992737,-0.789706299681989,-0.339788558913217,0.482419255351936,0
3.5,-2.51893782615662,1.88205873966217,2.68230557441711,-2.5205447997813,1.88129636896134,2.68310837050915,2057.068,2056.399,2053.974,2055.568,3.61941885948181,44.9964790344238,358.558868408203,-0.781909227371216,-0.336474865674973,0.477499216794968,-0.777924000354857,-0.334718964672089,0.475221632552147,0
3.51999664306641,-2.53433966636658,1.87543082237244,2.69171166419983,-2.53598168290031,1.87465430941181,2.69253852151874,2057.934,2056.055,2051.977,2053.777,3.66469717025757,44.996509552002,358.540985107422,-0.770086824893951,-0.331389397382736,0.470302551984787,-0.765999459475408,-0.329588167864767,0.467937116607681,0
3.54000091552734,-2.5495023727417,1.86890578269958,2.70097088813782,-2.55118444594166,1.86811298519115,2.70182565222626,2055.416,2054.755,2052.286,2053.849,3.7084641456604,44.996639251709,358.523498535156,-0.758125483989716,-0.326243758201599,0.462962925434113,-0.753929052770513,-0.324394609067776,0.460563493506644,0
3.55999755859375,-2.56442260742188,1.86248517036438,2.71008276939392,-2.56613872308604,1.86167857751006,2.71096098677687,2056.389,2054.423,2050.357,2052.143,3.75042366981506,44.9966621398926,358.506988525391,-0.746022462844849,-0.321037501096725,0.455595165491104,-0.741727567798258,-0.319144650954242,0.45310979673751,0
3.57999420166016,-2.57909870147705,1.85616970062256,2.71904468536377,-2.58084770246059,1.8553497146065,2.71994647274769,2054.282,2053.245,2050.438,2052.181,3.79065990447998,44.9967727661133,358.490936279297,-0.733790874481201,-0.315775394439697,0.448097974061966,-0.729396114728537,-0.313838771199258,0.445576704485749,0
3.59999847412109,-2.59352731704712,1.84996056556702,2.72785568237305,-2.59531431270705,1.84912513636775,2.72878389920025,2054.17,2052.67,2049.497,2051.027,3.82925391197205,44.9968528747559,358.4755859375,-0.721430838108063,-0.310458272695541,0.440550237894058,-0.716935713767317,-0.308477408768949,0.437964839979262,0
3.6199951171875,-2.60770630836487,1.84385871887207,2.73651456832886,-2.60952509409627,1.84301063413925,2.73746504379605,2054.504,2052.381,2047.878,2049.854,3.86564517021179,44.9968643188477,358.461303710938,-0.708948314189911,-0.305088579654694,0.432945102453232,-0.704361775018033,-0.303067194200314,0.43028361700977,0
3.63999938964844,-2.62163305282593,1.83786535263062,2.74501895904541,-2.6234885835008,1.83700253474321,2.74599512157732,2052.316,2051.212,2048.335,2050.037,3.90008592605591,44.9969863891602,358.447509765625,-0.696355223655701,-0.299670696258545,0.425220519304276,-0.691670720740692,-0.297606588091786,0.422530849991739,0
3.65999603271484,-2.63530611991882,1.83198130130768,2.75336861610413,-2.63719194552437,1.83110636089208,2.75436629160077,2053.133,2050.99,2046.9,2048.582,3.93241477012634,44.9970359802246,358.434783935547,-0.683650553226471,-0.294205188751221,0.417477756738663,-0.678878353700696,-0.292102389931838,0.414716192587956,0
3.68000030517578,-2.64872360229492,1.82620739936829,2.76156115531921,-2.65064357486757,1.82531850058072,2.762583682058,2051.067,2049.946,2047.37,2048.803,3.96291518211365,44.9971809387207,358.422515869141,-0.670847773551941,-0.288697242736816,0.409627258777618,-0.665981146317811,-0.286553081901244,0.406837489854705,0
3.69999694824219,-2.6618824005127,1.82054424285889,2.76959633827209,-2.66383127580226,1.81964420129024,2.77063984276899,2051.893,2049.789,2046.01,2047.479,3.99142551422119,44.9972457885742,358.411224365234,-0.657945871353149,-0.283147096633911,0.401764452457428,-0.65299527533123,-0.280965624398954,0.398904623909523,0
