t,x_s1,x_s2,x_s3,x_s_d1,x_s_d2,x_s_d3,propellers_rpms1,propellers_rpms2,propellers_rpms3,propellers_rpms4,rollRad,pitchRad,yawRad,v_s1,v_s2,v_s3,v_s_d1,v_s_d2,v_s_d3,insideCount
0,-0.0599999986588955,2.94000005722046,1.17999994754791,-0.0599999986588955,2.94000005722046,1.17999994754791,0,0,0,0,0,45.0048027038574,0,0,0,0,-1.06581410364015E-15,4.44089209850063E-16,-7.105427357601E-16,0
0.0199966430664063,-0.0599999986588955,2.94000005722046,1.17705690860748,-0.0600018680476204,2.93999925287472,1.18000108952831,0,0,0,0,0.937003672122955,44.8630027770996,-0.00115976633969694,3.71994488546079E-08,3.50004931704007E-08,-0.147149950265884,-0.000279892991557604,-0.000120430134961378,0.000170982260897168,5
0.0400009155273438,-0.0599999986588955,2.94000005722046,1.17018985748291,-0.0600148724204753,2.93999365745638,1.18000903369676,0,0,0,0,1.87400352954865,44.7211418151855,-0.00311126722954214,3.70364325874561E-08,3.5142885934647E-08,-0.343349903821945,-0.00111101934050116,-0.00047804058392963,0.000678704377995865,6
0.05999755859375,-0.0599062256515026,2.94009447097778,1.16346514225006,-0.0600498857373401,2.93997859220429,1.18003042278566,3197.48,2848.784,1517.084,2782.271,1.40359055995941,44.7413444519043,0.0289342664182186,0.00468872953206301,0.00471890158951283,-0.336236238479614,-0.00247936261166862,-0.00106680046642749,0.00151460392977639,6
0.0800018310546875,-0.0597377866506577,2.94026732444763,1.15723741054535,-0.0601175574246769,2.93994947496775,1.18007176236346,2865.49,2651.661,2344.691,2562.31,0.339586973190308,44.8158302307129,0.099812276661396,0.00842196960002184,0.00864456128329039,-0.31138402223587,-0.00437268608126799,-0.00188144466206175,0.00267120569262453,6
0.0999984741210938,-0.0595563054084778,2.94046425819397,1.15151941776276,-0.0602281887669101,2.93990187339187,1.18013934532406,2240,2528.164,3137.915,2508.515,359.321563720703,44.9191131591797,0.17857064306736,0.00907409749925137,0.00984881818294525,-0.285897731781006,-0.00677637982016689,-0.00291568692648091,0.00413958468881675,5
0.1199951171875,-0.0594244040548801,2.94063210487366,1.146568775177,-0.0603918861403606,2.93983143898525,1.18023934549506,2123.74,2454.734,3351.874,2464.508,358.749969482422,44.9998931884766,0.253337025642395,0.00659507419914007,0.0083981454372406,-0.247532427310944,-0.00967801353495435,-0.00416417885169243,0.00591214744607921,5
0.139999389648438,-0.0593829900026321,2.94074010848999,1.14257037639618,-0.0606185767455666,2.93973390035084,1.18037782724834,2312.209,2456.627,3069.197,2463.347,358.636199951172,45.0326652526855,0.326388955116272,0.00207073101773858,0.00539864134043455,-0.199920564889908,-0.0130660253322238,-0.00562194567796536,0.00798183098414958,5
0.159996032714844,-0.0594433471560478,2.9407856464386,1.13952422142029,-0.0609176604100223,2.93960521300545,1.18056053279185,2536.791,2486.807,2635.254,2491.862,358.757049560547,45.0249900817871,0.398247480392456,-0.00301785906776786,0.00227956823073328,-0.152307540178299,-0.0169249902365933,-0.00728235046931681,0.0103392124262691,5
0.180000305175781,-0.0596000514924526,2.94078159332275,1.13730907440186,-0.0612986871007165,2.9394412678651,1.18079329605139,2666.388,2505.992,2302.605,2513.318,358.864318847656,44.9985542297363,0.467362850904465,-0.00783529877662659,-0.000197063200175762,-0.110759370028973,-0.0212451141043368,-0.00914117907931815,0.0129783086828701,5
0.199996948242188,-0.0598476007580757,2.94073987007141,1.13576102256775,-0.0617704296168641,2.93923829023936,1.1810814761931,2653.708,2500.229,2183.134,2508.486,358.817047119141,44.9743804931641,0.532925009727478,-0.012377455830574,-0.00209072278812528,-0.0774031430482864,-0.0260104776919234,-0.0111915819022102,0.0158893949364944,5
0.220001220703125,-0.0601895190775394,2.94066214561462,1.13474535942078,-0.0623420644491781,2.93899233174064,1.18143067899198,2540.194,2470.422,2245.823,2479.029,358.612457275391,44.9636840820313,0.594549179077148,-0.0170959625393152,-0.00388051453046501,-0.0507851988077164,-0.03121219533433,-0.0134297356845702,0.0190670430730375,5
0.239997863769531,-0.0606387667357922,2.9405415058136,1.13419342041016,-0.0630217183703222,2.93869989564571,1.18184586896662,2411.932,2429.821,2374.022,2437.219,358.334625244141,44.9659004211426,0.652693450450897,-0.0224624611437321,-0.00603123800829053,-0.027596028521657,-0.0368338920540454,-0.0158485947310391,0.0225012498742643,5
0.259994506835938,-0.0612131282687187,2.94036602973938,1.13409054279327,-0.0638179029240226,2.93835731967507,1.18233224568626,2329.484,2391.904,2462.692,2398.658,358.076324462891,44.9738883972168,0.707778751850128,-0.0287181176245213,-0.00876816734671593,-0.0051452461630106,-0.0428651747123285,-0.0184436871643672,0.0261856663338995,4
0.279998779296875,-0.0619296692311764,2.94012498855591,1.13444066047668,-0.0647390625194898,2.93796097043536,1.18289496770872,2305.689,2365.064,2470.161,2370.675,357.887145996094,44.9803314208984,0.76052337884903,-0.0358270034193993,-0.012056240811944,0.0175035521388054,-0.0492963837173861,-0.0212108567320638,0.0301143915580518,4
0.299995422363281,-0.062801219522953,2.93981075286865,1.13523650169373,-0.0657923226682404,2.93750778201804,1.18353838789779,2317.756,2348.371,2415.424,2353.364,357.76513671875,44.9817771911621,0.811326920986176,-0.0435776822268963,-0.0157064627856016,0.0397912561893463,-0.0561105313314725,-0.0241427940851591,0.0342770480028206,4
0.319999694824219,-0.063836045563221,2.93942022323608,1.13644933700562,-0.0669860785243584,2.93699414222283,1.1842676347221,2334.614,2336.407,2342.807,2341.768,357.678771972656,44.9788436889648,0.860016822814941,-0.0517411977052689,-0.0195235572755337,0.0606441274285316,-0.0633008373176985,-0.0272365818771378,0.0386694937272938,4
0.339996337890625,-0.0650397017598152,2.93895220756531,1.1380363702774,-0.068326768706371,2.93641728069206,1.18508664143323,2338.125,2324.859,2286.486,2329.931,357.594482421875,44.9741325378418,0.906615853309631,-0.060182724148035,-0.0234035439789295,0.0793521776795387,-0.0708499516420146,-0.0304847548730522,0.0432811298664125,4
0.360000610351563,-0.0664172247052193,2.93840527534485,1.13995087146759,-0.0698225328270578,2.93577369517774,1.18600038039362,2321.973,2310.461,2261.932,2316.07,357.494537353516,44.9703025817871,0.950785934925079,-0.0688761919736862,-0.0273412726819515,0.0957258567214012,-0.0787518717320621,-0.0338847303337087,0.0481082895423912,4
0.379997253417969,-0.0679745301604271,2.93777751922607,1.14215409755707,-0.0714791088463715,2.935060916796,1.18701235683346,2295.702,2294.5,2260.763,2299.392,357.379730224609,44.9685478210449,0.992777824401855,-0.0778653845191002,-0.031388908624649,0.110159903764725,-0.0869889214763108,-0.0374289027221294,0.0531401746945263,4
0.400001525878906,-0.0697185024619102,2.93706560134888,1.14461708068848,-0.0733044112230977,2.93427554017634,1.18812740557212,2268.329,2277.665,2268.766,2282.991,357.261535644531,44.9687652587891,1.03240740299225,-0.0871985256671906,-0.0355975776910782,0.123150676488876,-0.0955558400788823,-0.0411150084648172,0.0583735715847086,4
0.419998168945313,-0.0716564059257507,2.93626570701599,1.14732050895691,-0.0753034649285836,2.93341540321397,1.18934859628618,2249.288,2263.067,2270.737,2267.546,357.151885986328,44.9698905944824,1.07008242607117,-0.0968950763344765,-0.0399891436100006,0.135173439979553,-0.104434660908044,-0.0449353170220673,0.0637975046779765,4
0.439994812011719,-0.0737950354814529,2.93537473678589,1.15024793148041,-0.0774831213880516,2.93247755793201,1.1906801144044,2237.547,2250.38,2263.789,2255.214,357.056854248047,44.9710464477539,1.10569286346436,-0.106931425631046,-0.0445478484034538,0.146373778581619,-0.11361726969793,-0.0488863370519643,0.0694070170959338,4
0.459999084472656,-0.076140321791172,2.93438982963562,1.15338397026062,-0.0798502821969742,2.93145903476675,1.19212617600376,2232.185,2240.383,2248.814,2244.801,356.975769042969,44.9717025756836,1.139444231987,-0.117264539003372,-0.0492412075400352,0.156801462173462,-0.123096124252221,-0.0529648233581361,0.075197501428542,4
0.479995727539063,-0.0786972790956497,2.93330907821655,1.15671169757843,-0.0824088828700873,2.93035814037613,1.19368918522879,2228.399,2232.106,2231.953,2235.964,356.903656005859,44.9718704223633,1.17157411575317,-0.127848103642464,-0.0540359020233154,0.166386187076569,-0.132852887402757,-0.0571628859694044,0.0811577557859174,4
0.5,-0.0814702659845352,2.93213081359863,1.16021299362183,-0.085166398670376,2.92917165836334,1.195373708601,2222.119,2223.959,2219.646,2228.483,356.835876464844,44.9719924926758,1.20177590847015,-0.138649314641953,-0.0589108653366566,0.175062999129295,-0.142884000065179,-0.0614789935111996,0.0872856059789651,5
0.519996643066406,-0.084463395178318,2.93085360527039,1.16387188434601,-0.0881260274065667,2.92789821280061,1.19718169961184,2215.45,2217.001,2211.086,2220.648,356.769958496094,44.972282409668,1.23041188716888,-0.149656370282173,-0.0638617724180222,0.182947546243668,-0.153170920546857,-0.0659051680111775,0.0935697251769938,5
0.540000915527344,-0.0876806378364563,2.92947578430176,1.16767382621765,-0.0912951145137283,2.92653464315245,1.19911764547298,2206.632,2209.69,2207.665,2213.991,356.705963134766,44.9729766845703,1.2571884393692,-0.160861909389496,-0.0688886567950249,0.190095886588097,-0.163710711144578,-0.0704401454577151,0.100008318782952,5
0.55999755859375,-0.091125950217247,2.92799592018127,1.17160797119141,-0.094676112580471,2.92507989413848,1.20118304443252,2200.047,2203.854,2204.506,2207.176,356.645324707031,44.973949432373,1.28253078460693,-0.172265917062759,-0.0739956423640251,0.196708142757416,-0.17448465888317,-0.0750758741803766,0.106589955332319,5
0.579994201660156,-0.0948031097650528,2.92641234397888,1.17566466331482,-0.0982748462459366,2.92353145957921,1.20338145467162,2193.545,2198.023,2202.514,2202.046,356.589508056641,44.9751243591309,1.30614364147186,-0.183858007192612,-0.0791784971952438,0.202831760048866,-0.185486174984119,-0.0798095192118365,0.113310609843116,5
0.599998474121094,-0.098715677857399,2.92472362518311,1.17983663082123,-0.102097262171133,2.92188678079254,1.2057165089127,2189.868,2193.731,2198.772,2197.184,356.539276123047,44.9763145446777,1.32828104496002,-0.195628628134727,-0.0844325199723244,0.208600923418999,-0.196709126405959,-0.0846384416756885,0.120166535736014,5
0.6199951171875,-0.102866917848587,2.92292857170105,1.18411779403687,-0.106144683970236,2.92014528826426,1.208189015731,2187.703,2190.426,2193.976,2193.249,356.493896484375,44.9774169921875,1.34921836853027,-0.207561895251274,-0.0897483006119728,0.214055433869362,-0.208134604141382,-0.0895545055543457,0.127146181793521,5
0.639999389648438,-0.10725973546505,2.9210262298584,1.18850135803223,-0.110424235525481,2.91830391678686,1.21080332699501,2184.604,2186.966,2191.115,2190.68,356.452667236328,44.9785385131836,1.36856865882874,-0.219641044735909,-0.0951160714030266,0.219178318977356,-0.219761081350814,-0.0945570538913933,0.134248615293163,5
0.659996032714844,-0.111896902322769,2.91901564598083,1.19298315048218,-0.114936482147704,2.9163624231229,1.21355978804431,2183.553,2185.041,2187.526,2187.718,356.414733886719,44.9795951843262,1.3867791891098,-0.231858611106873,-0.100532434880733,0.224088400602341,-0.231569557951997,-0.0996379114822372,0.141462229381183,5
0.680000305175781,-0.116780914366245,2.91689586639404,1.19755816459656,-0.119688496929273,2.91431776391831,1.21646271972064,2180.792,2182.61,2186.656,2186.137,356.379791259766,44.9807434082031,1.40347695350647,-0.244200870394707,-0.105990953743458,0.228750437498093,-0.243559016194652,-0.104796640417365,0.148786402329814,5
0.699996948242188,-0.121914207935333,2.91466593742371,1.20222413539886,-0.124680083855354,2.91217002351282,1.2195120022816,2180.244,2181.635,2184.862,2184.009,356.347686767578,44.9818687438965,1.4191632270813,-0.256664842367172,-0.111491419374943,0.233299359679222,-0.255710395848158,-0.11002503961202,0.1562094905416,5
0.720001220703125,-0.127298980951309,2.91232538223267,1.20697808265686,-0.129918284978346,2.90991617190799,1.22271193760712,2178.142,2180.021,2185.34,2183.307,356.318511962891,44.9830741882324,1.43344020843506,-0.269238382577896,-0.117028377950191,0.237697005271912,-0.268023157655716,-0.11532287703907,0.163731164592979,5
0.739997863769531,-0.132937356829643,2.90987324714661,1.21181964874268,-0.135402141159277,2.90755662179454,1.22606193977416,2178.634,2179.857,2184.133,2182.053,356.292297363281,44.9842147827148,1.44678354263306,-0.281918972730637,-0.12260153144598,0.242076545953751,-0.280478211503383,-0.120681938755799,0.171339762631236,5
0.759994506835938,-0.138831213116646,2.90730905532837,1.21674716472626,-0.14113644597991,2.90508931062815,1.22956493710703,2177.443,2179.033,2184.997,2182.164,356.269012451172,44.9853973388672,1.45878720283508,-0.29469308257103,-0.128204166889191,0.24637745320797,-0.293070637251543,-0.126100107763583,0.179032279019858,5
0.779998779296875,-0.144982352852821,2.9046323299408,1.22176134586334,-0.147126184485884,2.90251209348295,1.2332239748923,2178.17,2179.295,2184.755,2181.819,356.248748779297,44.9865074157715,1.46971654891968,-0.307556807994843,-0.13383537530899,0.250706732273102,-0.305795832832518,-0.131575403921268,0.186805902427515,5
0.799995422363281,-0.151392355561256,2.90184259414673,1.22686278820038,-0.153369252164744,2.89982587587186,1.23703776751617,2179.484,2180.038,2184.023,2181.849,356.230804443359,44.9875259399414,1.47987818717957,-0.320500582456589,-0.139490589499474,0.255072802305222,-0.318634718604462,-0.13709961779199,0.194648977398734,5
0.819999694824219,-0.158062621951103,2.89893937110901,1.23205137252808,-0.159872691993147,2.89702762739878,1.24101061742316,2178.967,2179.939,2185.717,2182.947,356.215087890625,44.9885902404785,1.48875224590302,-0.333513647317886,-0.145164504647255,0.259428024291992,-0.331587821991737,-0.142672976311719,0.202561826128828,5
0.839996337890625,-0.164994522929192,2.89592218399048,1.23732924461365,-0.166633637018892,2.89411858163313,1.24514077323692,2180.909,2181.321,2185.606,2183.042,356.201507568359,44.9895515441895,1.49689757823944,-0.346595287322998,-0.150858297944069,0.263896286487579,-0.344636106234817,-0.148287288494656,0.210532819358465,5
0.860000610351563,-0.172189176082611,2.89279079437256,1.24269711971283,-0.173659158941841,2.89109569582005,1.24943255494854,2180.646,2181.64,2187.839,2184.471,356.190093994141,44.9905662536621,1.50383031368256,-0.359733015298843,-0.156566232442856,0.268392264842987,-0.357780475378537,-0.153942943326036,0.218562509354528,5
0.879997253417969,-0.179647698998451,2.88954496383667,1.24815797805786,-0.180945630646592,2.88796053060595,1.25388374680983,2183.034,2183.374,2187.895,2184.902,356.180786132813,44.9914588928223,1.51011848449707,-0.372926503419876,-0.162289395928383,0.273040920495987,-0.371001963495383,-0.159631780297098,0.226639310127856,5
0.900001525878906,-0.187370955944061,2.88618445396423,1.25371289253235,-0.188500167066783,2.88471002463366,1.25849869522271,2183.099,2183.933,2190.238,2186.694,356.173614501953,44.9923858642578,1.51522493362427,-0.386162459850311,-0.16802142560482,0.27774366736412,-0.384301823631742,-0.165354338558695,0.234763987144933,5
0.919998168945313,-0.195359766483307,2.88270926475525,1.25936532020569,-0.196318384305134,2.8813460641717,1.26327472213274,2185.809,2185.954,2190.31,2187.34,356.168395996094,44.9931716918945,1.51974821090698,-0.399440705776215,-0.173763439059258,0.282621651887894,-0.397661187980262,-0.171102499820431,0.242925014356675,5
0.939994812011719,-0.203614726662636,2.87911915779114,1.26511669158936,-0.204404317663683,2.87786691294234,1.26821429264298,2185.996,2186.656,2192.797,2189.367,356.1650390625,44.9939994812012,1.52311086654663,-0.412747800350189,-0.179508879780769,0.287566632032394,-0.4110765036434,-0.176874735369747,0.251120221353413,5
0.959999084472656,-0.212136372923851,2.87541389465332,1.27097022533417,-0.212762239776093,2.87427073255068,1.27332001683864,2188.061,2188.436,2193.837,2190.376,356.163818359375,44.9947357177734,1.52564990520477,-0.426082760095596,-0.185258850455284,0.292679250240326,-0.424544411524882,-0.18266959988136,0.259347556115652,5
0.979995727539063,-0.220925107598305,2.87159371376038,1.27692914009094,-0.22138664033507,2.87055989392801,1.27858852855901,2190.502,2190.464,2194.105,2191.529,356.164031982422,44.9953651428223,1.52774250507355,-0.439437329769135,-0.191009715199471,0.29794442653656,-0.438046240701377,-0.188479059778567,0.267595612867683,5
1,-0.229981154203415,2.8676586151123,1.28299486637115,-0.230284798736574,2.86673126495361,1.28402427467346,2190.578,2191.111,2196.939,2193.771,356.165832519531,44.9960441589355,1.52869415283203,-0.452801495790482,-0.196756884455681,0.303283840417862,-0.451584000205995,-0.194303979492187,0.275865618896484,5
1.01999664306641,-0.239304691553116,2.86360859870911,1.28917133808136,-0.239450461003889,2.86278753653895,1.28962343472523,2193.411,2193.368,2197.261,2194.516,356.169158935547,44.9966087341309,1.52916443347931,-0.466176897287369,-0.202502727508545,0.308822751045227,-0.465139182559269,-0.200136395770846,0.284146268271649,5
1.04000091552734,-0.248895674943924,2.85944366455078,1.29546010494232,-0.24889099213045,2.8587255397331,1.29539050787386,2193.417,2194.104,2200.113,2196.654,356.174194335938,44.9972076416016,1.52854216098785,-0.479550123214722,-0.20824109017849,0.314436018466949,-0.478714054341683,-0.205977283860805,0.292438945611829,5
1.05999755859375,-0.258754134178162,2.85516428947449,1.3018651008606,-0.258599401509697,2.85454828239877,1.3013212236669,2196.375,2196.375,2200.167,2197.347,356.180847167969,44.9976692199707,1.52751493453979,-0.492922693490982,-0.213973939418793,0.320252150297165,-0.492290296490434,-0.211818761581115,0.30073246008742,5
1.07999420166016,-0.268879741430283,2.85077047348022,1.30838787555695,-0.268579290074434,2.85025421515517,1.30741778185801,2196.393,2196.97,2202.771,2199.552,356.189208984375,44.9981803894043,1.52538120746613,-0.506280481815338,-0.219694539904594,0.326135993003845,-0.50586523043438,-0.217659676417445,0.30902517540111,5
1.09999847412109,-0.279272198677063,2.84626245498657,1.31503164768219,-0.278834517009062,2.84584167750307,1.31368253996271,2198.456,2198.758,2203.579,2200.426,356.199432373047,44.9985961914063,1.52254152297974,-0.519623279571533,-0.225404262542725,0.332190334796906,-0.519436284009554,-0.223498921639497,0.317315520258069,5
1.1199951171875,-0.289931058883667,2.84164047241211,1.32179939746857,-0.289357002179081,2.84131414609862,1.32011056195293,2200.864,2200.657,2203.397,2201.433,356.210876464844,44.998893737793,1.5193784236908,-0.532942712306976,-0.23109944164753,0.338388115167618,-0.532985466132485,-0.229328756186667,0.32559250418615,5
1.13999938964844,-0.30085563659668,2.83690500259399,1.3286919593811,-0.300154365346813,2.83666834237095,1.32670650262257,2200.43,2200.996,2206.131,2203.49,356.2236328125,44.9992599487305,1.5151447057724,-0.546228408813477,-0.236775010824203,0.344629734754562,-0.546515580872639,-0.235150386571708,0.333857840147634,5
1.15999603271484,-0.312045335769653,2.83205628395081,1.33571302890778,-0.311217811600473,2.8319080505249,1.33346498929726,2203.091,2202.981,2205.929,2203.861,356.237701416016,44.9995040893555,1.51054430007935,-0.559483349323273,-0.24243426322937,0.351052910089493,-0.560008885098767,-0.240956178420931,0.342100689140515,6
1.18000030517578,-0.323499202728271,2.8270947933197,1.34286320209503,-0.322555076427271,2.82702994219644,1.34039074746542,2202.459,2203.239,2208.556,2205.686,356.253326416016,44.999828338623,1.50489377975464,-0.572693467140198,-0.248070612549782,0.357508510351181,-0.573468357077025,-0.246747413199059,0.350322870541114,6
1.19999694824219,-0.335216403007507,2.82202100753784,1.35014593601227,-0.334156660511822,2.8220381046756,1.34747797414352,2205.141,2205.125,2207.96,2205.864,356.270446777344,45.0000038146973,1.49893665313721,-0.585861384868622,-0.25368669629097,0.364137709140778,-0.58687652428584,-0.252516572968185,0.358513710658656,6
1.22000122070313,-0.347195833921432,2.81683540344238,1.35756158828735,-0.346030421585499,2.81692915700008,1.35473146949704,2204.424,2205.176,2210.223,2207.61,356.289123535156,45.0002517700195,1.49193549156189,-0.598972320556641,-0.259275168180466,0.37078258395195,-0.600236516861372,-0.258265004538453,0.366675121644476,6
1.23999786376953,-0.359436422586441,2.81153869628906,1.36511325836182,-0.358166167196084,2.81170748469733,1.36214500711597,2206.996,2206.915,2209.304,2207.61,356.309234619141,45.0003547668457,1.48464715480804,-0.612028658390045,-0.264838606119156,0.377583533525467,-0.613531154887641,-0.263985315871967,0.374796608555988,6
1.25999450683594,-0.371936738491058,2.80613136291504,1.37280082702637,-0.3705671011502,2.80637170925886,1.36972054415578,2206.026,2206.743,2211.418,2209.206,356.330749511719,45.0005264282227,1.47630178928375,-0.625015735626221,-0.270369648933411,0.384378999471664,-0.626758665639206,-0.269676744214496,0.382877088462885,6
1.27999877929688,-0.384695410728455,2.80061388015747,1.38062655925751,-0.383236695417198,2.80092033679326,1.37746020158837,2207.396,2207.804,2211.455,2209.3,356.354064941406,45.0006332397461,1.46732246875763,-0.637934744358063,-0.275870621204376,0.391286849975586,-0.639917282339435,-0.275338529371412,0.39091548206889,6
1.29999542236328,-0.397710978984833,2.79498720169067,1.388592004776,-0.396163740917024,2.79535819025452,1.38535713196165,2209.089,2209.013,2210.386,2209.453,356.37841796875,45.0006256103516,1.45816230773926,-0.650777280330658,-0.281337559223175,0.398271769285202,-0.652990303744023,-0.280963485263868,0.398901586844477,6
1.31999969482422,-0.410981625318527,2.78925180435181,1.39669644832611,-0.409356423791328,2.7896817473746,1.39341633606181,2207.617,2208.353,2212.501,2210.875,356.404022216797,45.0007133483887,1.44791758060455,-0.66353315114975,-0.286765396595001,0.405222147703171,-0.665981146317813,-0.286553081901244,0.406837489854705,6
1.33999633789063,-0.424505740404129,2.78340864181519,1.40494227409363,-0.422802873722428,2.78389611561957,1.401630562497,2209.607,2209.675,2211.315,2210.224,356.430847167969,45.0006942749023,1.43744540214539,-0.676206052303314,-0.292157828807831,0.412288993597031,-0.678873453515705,-0.29210028151913,0.41471319914141,6
1.36000061035156,-0.438281387090683,2.77745842933655,1.41332840919495,-0.436511415158101,2.77799771321212,1.41000489654248,2207.92,2208.916,2213.243,2211.356,356.459197998047,45.0007781982422,1.42592585086823,-0.688781797885895,-0.297507792711258,0.419305294752121,-0.691670720740693,-0.297606588091785,0.422530849991739,6
1.37999725341797,-0.452306628227234,2.77140212059021,1.42185699939728,-0.450469530727146,2.77199192602736,1.41853169153152,2209.933,2210.044,2211.586,2210.551,356.489013671875,45.0007057189941,1.41419756412506,-0.701263606548309,-0.302818119525909,0.426426827907562,-0.704356955827446,-0.303065120637236,0.430280673041441,6
1.39999389648438,-0.466579347848892,2.76524043083191,1.43052649497986,-0.464680216184654,2.76587746507559,1.42721277752413,2208.136,2209.114,2213.123,2211.537,356.520324707031,45.0007400512695,1.40142905712128,-0.71363639831543,-0.308081269264221,0.433477818965912,-0.716930938559026,-0.308475354130225,0.437961922879032,6
1.41999816894531,-0.481097370386124,2.75897455215454,1.43933820724487,-0.47914673136562,2.75965292774086,1.43605014590267,2208.927,2209.536,2212.375,2210.889,356.553497314453,45.0006980895996,1.38808715343475,-0.725901484489441,-0.313299179077148,0.440585047006607,-0.729391385793766,-0.313836736470737,0.445573815653291,6
1.43999481201172,-0.495858371257782,2.75260519981384,1.44829249382019,-0.493855616658466,2.75332410531803,1.44503557440044,2210.14,2210.055,2210.37,2210.401,356.587677001953,45.0005302429199,1.37460505962372,-0.738050580024719,-0.318467736244202,0.447711884975433,-0.7417228873516,-0.319142637088802,0.453106937525684,6
1.45999908447266,-0.510859787464142,2.74613356590271,1.4573872089386,-0.508815552717244,2.74688726276417,1.45417436589355,2207.769,2208.727,2211.982,2211.152,356.622955322266,45.0005035400391,1.36007857322693,-0.750073313713074,-0.323581665754318,0.454733282327652,-0.753929052770513,-0.324394609067776,0.460563493506643,6
1.47999572753906,-0.526099264621735,2.73956060409546,1.46662354469299,-0.524012471663969,2.74034845309416,1.46345792653486,2209.264,2209.386,2210.003,2209.802,356.659454345703,45.0003623962402,1.34538161754608,-0.761974334716797,-0.328644961118698,0.461818873882294,-0.765994882555672,-0.329586198544069,0.467934320638836,6
1.5,-0.541574060916901,2.73288750648499,1.47599923610687,-0.539455198877605,2.73370387899399,1.47289164761066,2206.694,2207.926,2211.487,2210.326,356.697418212891,45.0003471374512,1.32965159416199,-0.773739576339722,-0.33365061879158,0.46878719329834,-0.777924000354858,-0.334718964672088,0.475221632552146,6
1.51999664306641,-0.55728155374527,2.72611546516418,1.48551547527313,-0.555129074991064,2.72695984797977,1.48246657394236,2208.234,2208.461,2209.082,2208.795,356.73681640625,45.0001907348633,1.31378757953644,-0.785372853279114,-0.33860182762146,0.475811243057251,-0.789701834723693,-0.339786637766398,0.482416527778586,6
1.54000091552734,-0.573218762874603,2.71924567222595,1.49516952037811,-0.571043070329722,2.72011250037111,1.49218818536175,2205.638,2206.834,2210.144,2209.226,356.777709960938,45.0001335144043,1.29689621925354,-0.796859443187714,-0.343490779399872,0.482702106237411,-0.801332006385301,-0.344790775723006,0.489521218161413,6
1.55999755859375,-0.589382767677307,2.71227931976318,1.50496220588684,-0.587181951496087,2.71316839067337,1.50204717602401,2207.118,2207.253,2207.402,2207.527,356.819946289063,44.999942779541,1.27989590167999,-0.808202743530273,-0.348320364952087,0.489631593227386,-0.812800388649436,-0.349725300221754,0.496527073925997,6
1.57999420166016,-0.605770528316498,2.70521759986877,1.5148903131485,-0.603548545866849,2.70612630234534,1.51204527312944,2204.287,2205.475,2208.349,2207.809,356.863555908203,44.9998588562012,1.26189279556274,-0.819388568401337,-0.353082984685898,0.496408224105835,-0.824106301004481,-0.354589918457504,0.503433679358411,6
1.59999847412109,-0.622379004955292,2.6980619430542,1.52495384216309,-0.620145926473056,2.69898491314762,1.52218435394475,2204.354,2205.121,2206.878,2206.357,356.908935546875,44.9997291564941,1.24336433410645,-0.830419063568115,-0.357781201601028,0.50317656993866,-0.835248923368005,-0.359384277571697,0.510240533483095,5
1.6199951171875,-0.639204680919647,2.69081377983093,1.53515183925629,-0.636958033083316,2.69175113334911,1.53245460752521,2204.874,2204.949,2204.128,2205.049,356.955169677734,44.9994964599609,1.22480010986328,-0.841286420822144,-0.362410992383957,0.509899199008942,-0.846214826007804,-0.364102599125749,0.516939432286212,5
1.63999938964844,-0.656244337558746,2.68347454071045,1.5454808473587,-0.653994195024907,2.68442094880091,1.54286173301126,2201.646,2202.803,2205.161,2205.19,357.002532958984,44.999397277832,1.20520830154419,-0.85198175907135,-0.366967558860779,0.516448378562927,-0.857007552155828,-0.368746407673381,0.523532540272869,5
1.65999603271484,-0.673494517803192,2.67604541778564,1.55594098567963,-0.671237824488362,2.67700149677403,1.55339559716896,2202.595,2202.824,2202.412,2203.054,357.050994873047,44.999195098877,1.18552434444427,-0.862509429454803,-0.371454685926437,0.523004770278931,-0.867614155697522,-0.373310132863173,0.530011948863706,5
1.68000030517578,-0.690951645374298,2.66852807998657,1.56652855873108,-0.688698391434734,2.66948870260877,1.56406198504972,2199.191,2200.669,2203.367,2202.961,357.100891113281,44.9991302490234,1.1648542881012,-0.872856676578522,-0.375865787267685,0.529378294944763,-0.878038122530658,-0.377795274579551,0.536379787539275,5
1.69999694824219,-0.708612143993378,2.66092395782471,1.57724368572235,-0.706358800111611,2.66188992212981,1.57485045312518,2200.3,2200.606,2200.177,2200.704,357.152130126953,44.9989242553711,1.14414930343628,-0.883027195930481,-0.380203872919083,0.535756468772888,-0.888267004546665,-0.382196476749158,0.542628451944297,5
1.72000122070313,-0.726472318172455,2.6532347202301,1.58808243274689,-0.724228658537036,2.6542010212754,1.58576687078363,2196.91,2198.321,2200.753,2200.599,357.204803466797,44.9988555908203,1.12246632575989,-0.893007636070251,-0.384461313486099,0.541938722133636,-0.898304216251578,-0.386515208538549,0.548760027947228,5
1.73999786376953,-0.744528353214264,2.64546179771423,1.5990446805954,-0.742290383213093,2.64642956573347,1.59680049654058,2197.997,2198.163,2197.302,2198.246,357.258697509766,44.9986190795898,1.10075545310974,-0.902801394462585,-0.388641089200974,0.548112213611603,-0.908137821269591,-0.39074633405868,0.554767223802352,5
1.75999450683594,-0.76277631521225,2.63760709762573,1.61012613773346,-0.760546715064628,2.63857437616062,1.60795300478424,2194.403,2195.789,2197.844,2198.03,357.313873291016,44.99853515625,1.07808065414429,-0.912395775318146,-0.392736166715622,0.554074645042419,-0.917767514700581,-0.394889722119545,0.560649853250941,4
1.77999877929688,-0.781212151050568,2.62967205047607,1.62132585048676,-0.779000609654483,2.63063418086074,1.61922620102184,2194.071,2194.889,2195.766,2196.005,357.370697021484,44.9984016418457,1.05493319034576,-0.921792984008789,-0.396749019622803,0.559985339641571,-0.927192788821983,-0.398945154262308,0.566407606133204,4
1.79999542236328,-0.799831867218018,2.62165856361389,1.63264191150665,-0.797633790944145,2.62261684350262,1.63060892070663,2194.18,2194.308,2192.41,2194.073,357.428253173828,44.9981384277344,1.03189158439636,-0.930985927581787,-0.40067595243454,0.565803706645966,-0.936402499096495,-0.402907835303912,0.572033674425208,4
1.81999969482422,-0.818631231784821,2.61356830596924,1.64406979084015,-0.816456197270346,2.61451808789761,1.64210723501345,2190.248,2191.547,2193.142,2193.882,357.486724853516,44.9980583190918,1.00784516334534,-0.939967453479767,-0.404512584209442,0.571397125720978,-0.945399824400851,-0.406779133026206,0.577530000053147,3
1.83999633789063,-0.837606012821198,2.60540294647217,1.65560901165009,-0.835449117627072,2.60634596486888,1.6537097136807,2190.914,2191.182,2189.853,2191.137,357.546203613281,44.9978523254395,0.983824491500854,-0.948741793632507,-0.408262819051743,0.576961755752563,-0.954174163352093,-0.410554485950274,0.582890106797601,3
1.86000061035156,-0.856751978397369,2.59716463088989,1.66725492477417,-0.854622615239374,2.59809614449182,1.66542250417552,2186.914,2188.524,2190.48,2190.713,357.60693359375,44.9978179931641,0.95886242389679,-0.957298040390015,-0.411920636892319,0.582298278808594,-0.962728579444532,-0.414235212212131,0.588115866099442,0
1.87999725341797,-0.876064836978912,2.58885478973389,1.67900705337524,-0.873957566090845,2.58977685529642,1.67723392393473,2187.805,2188.061,2186.759,2187.972,357.668884277344,44.997615814209,0.93394535779953,-0.965639531612396,-0.415488809347153,0.587606489658356,-0.971053025860989,-0.417816988947023,0.593201140514831,0
1.89999389648438,-0.895539939403534,2.58047556877136,1.69086050987244,-0.893456683142228,2.58138692997148,1.6891456302637,2183.825,2185.377,2187.089,2187.525,357.732116699219,44.99755859375,0.908105373382568,-0.9737548828125,-0.418960779905319,0.592675864696503,-0.979147395688901,-0.421299770153459,0.598145864732551,0
1.91999816894531,-0.915172815322876,2.57202887535095,1.70281398296356,-0.913122862707269,2.57292512231409,1.7011593924753,2183.39,2184.264,2184.599,2185.165,357.796966552734,44.9974403381348,0.881883502006531,-0.981645822525024,-0.422338515520096,0.597673237323761,-0.987011339258123,-0.424683405378145,0.60294982514457,0
1.93999481201172,-0.93495899438858,2.56351661682129,1.71486508846283,-0.932936403420974,2.56439990927123,1.7132631753131,2183.392,2183.4,2180.82,2183.024,357.862335205078,44.997184753418,0.855826914310455,-0.989305794239044,-0.425618410110474,0.602554440498352,-0.994635661494588,-0.427963938237592,0.607607404623624,0
1.95999908447266,-0.954893589019775,2.55494070053101,1.72700870037079,-0.952907658613767,2.55580683609405,1.72546330346508,2179.085,2180.413,2181.385,2182.637,357.928497314453,44.997127532959,0.828813254833221,-0.996729016304016,-0.428796619176865,0.607181906700134,-1.00202309041976,-0.431142542523221,0.612120269675456,0
1.97999572753906,-0.974971890449524,2.54630327224731,1.73924398422241,-0.973016570682103,2.54715453300902,1.73774752405424,2179.644,2179.865,2177.833,2179.576,357.995422363281,44.9969367980957,0.801927089691162,-1.00391924381256,-0.431877017021179,0.611762046813965,-1.00916501115878,-0.434215511495054,0.616483157607448,0
2,-0.995189249515533,2.53760623931885,1.75156581401825,-0.993273599084619,2.53843849960327,1.75012222660065,2175.331,2176.946,2178.322,2179.04,358.063446044922,44.9969139099121,0.774141550064087,-1.01086795330048,-0.434854447841644,0.616091251373291,-1.01606400046349,-0.437183953857422,0.620697642517089,0
2.01999664306641,-1.01554083824158,2.52885150909424,1.76397323608398,-1.01365835337184,2.52966750931758,1.76257495489689,2176.059,2176.338,2174.462,2175.99,358.132446289063,44.9967422485352,0.746510922908783,-1.01757776737213,-0.437731564044952,0.620373785495758,-1.02271203275434,-0.440044416427654,0.624758821703072,0
2.04000091552734,-1.03602159023285,2.52004146575928,1.77646124362946,-1.0341813929022,2.52083701875502,1.77511215949027,2171.823,2173.431,2174.669,2175.448,358.20263671875,44.9967231750488,0.71801483631134,-1.0240398645401,-0.440502643585205,0.624399721622467,-1.02911152474823,-0.442797939051516,0.628668171500036,0
2.05999755859375,-1.05662679672241,2.5111780166626,1.78902876377106,-1.05482201812353,2.5119559343546,1.78772119534738,2172.709,2172.792,2170.51,2172.387,358.273651123047,44.9965400695801,0.68969738483429,-1.0302562713623,-0.443170011043549,0.628374755382538,-1.03525504859546,-0.445441325732794,0.632421154350513,0
2.07999420166016,-1.07735109329224,2.50226354598999,1.80167043209076,-1.07558293843174,2.50302309033894,1.80040371759589,2168.36,2169.842,2170.695,2171.853,358.345642089844,44.9965019226074,0.660516440868378,-1.03621888160706,-0.445728421211243,0.632082521915436,-1.0411426556922,-0.447974598585819,0.636017801651613,0
2.09999847412109,-1.09818983078003,2.49329996109009,1.81438434123993,-1.09646699912883,2.4940372624541,1.8131614643864,2167.744,2168.546,2168.073,2169.218,358.4189453125,44.9964065551758,0.631050765514374,-1.04192900657654,-0.448179990053177,0.63569837808609,-1.04677411523768,-0.450397658303471,0.63945797241075,0
2.1199951171875,-1.11913728713989,2.48428964614868,1.8271678686142,-1.11745308225396,2.48500753716864,1.82598153508617,2167.499,2167.48,2164.259,2166.854,358.492492675781,44.9961891174316,0.60185581445694,-1.04738187789917,-0.45052182674408,0.639177620410919,-1.0521429102862,-0.45270770082608,0.642737685527497,0
2.13999938964844,-1.14018893241882,2.4752345085144,1.84001564979553,-1.138551967509,2.47592927627801,1.83887051484687,2162.994,2164.358,2164.678,2166.31,358.566589355469,44.9961700439453,0.571822881698608,-1.05257439613342,-0.452751368284225,0.642388880252838,-1.05725102347782,-0.454905579228273,0.645858152165725,0
2.15999603271484,-1.16133904457092,2.46613717079163,1.85292637348175,-1.15974228854654,2.4668116731246,1.85181535130026,2163.41,2163.578,2161.05,2163.104,358.641235351563,44.9960174560547,0.541995823383331,-1.05750870704651,-0.454871654510498,0.645535171031952,-1.06209255378819,-0.456988754464129,0.648815767481742,0
2.18000030517578,-1.18258261680603,2.45699954032898,1.86589479446411,-1.18103490068612,2.45765005696766,1.86482267579167,2158.975,2160.564,2161.336,2162.455,358.716796875,44.9960403442383,0.511356949806213,-1.06217968463898,-0.456879019737244,0.648418784141541,-1.06666929835407,-0.458957999791384,0.651611629318345,0
2.19999694824219,-1.20391428470612,2.44782400131226,1.87891960144043,-1.20240821395574,2.44845371736898,1.8778792993441,2159.678,2159.853,2157.309,2159.203,358.793090820313,44.9958915710449,0.480998635292053,-1.06658828258514,-0.458775341510773,0.651240885257721,-1.07097597819164,-0.460811043810786,0.654242512826705,0
2.21999359130859,-1.22532892227173,2.43861293792725,1.89199542999268,-1.22386495005255,2.43922148325834,1.89098688459988,2155.292,2156.818,2157.373,2158.641,358.870300292969,44.9959030151367,0.44985893368721,-1.07072913646698,-0.460556328296661,0.653792917728424,-1.07501271071614,-0.462547937042828,0.656708489733953,0
2.23999786376953,-1.24682092666626,2.42936849594116,1.90512037277222,-1.24540792547886,2.42995214277345,1.90414715211632,2154.661,2155.403,2154.645,2155.977,358.948669433594,44.9958381652832,0.418476045131683,-1.0746021270752,-0.462223529815674,0.656244397163391,-1.07877930973132,-0.464168599372462,0.659009446295705,0
2.25999450683594,-1.26838481426239,2.42009305953979,1.91829144954681,-1.26701526177039,2.4206551096063,1.91734673668097,2154.536,2154.376,2150.6,2153.449,359.027099609375,44.9956321716309,0.38749161362648,-1.07820332050323,-0.463774293661118,0.658554136753082,-1.08227143928024,-0.465671165158559,0.661142733743536,0
2.27999877929688,-1.29001545906067,2.41078901290894,1.93150317668915,-1.28869796983554,2.41132564607061,1.93059236468599,2149.881,2151.171,2150.975,2152.969,359.105834960938,44.9956321716309,0.355735957622528,-1.08153164386749,-0.465206772089005,0.660584151744843,-1.08549040888332,-0.467056197851165,0.663109152043028,0
2.29999542236328,-1.31170737743378,2.4014585018158,1.94475400447845,-1.31043401044317,2.40197323503182,1.94387057270897,2150.374,2150.321,2147.26,2149.682,359.184844970703,44.9954986572266,0.324255019426346,-1.08458852767944,-0.466523826122284,0.662544012069702,-1.08843251702753,-0.468322104792631,0.664906439997631,0
2.31999969482422,-1.33345472812653,2.39210414886475,1.9580385684967,-1.33223444283894,2.39259311800549,1.9571881166705,2145.678,2147.307,2147.686,2149.021,359.264556884766,44.9955520629883,0.292039304971695,-1.08737123012543,-0.467722922563553,0.664230167865753,-1.09109887036509,-0.469469362144493,0.666535273643923,0
2.33999633789063,-1.35525238513947,2.382728099823,1.971355676651,-1.35407709248145,2.38319483607731,1.97053145048929,2146.546,2146.542,2143.558,2145.68,359.344787597656,44.9954299926758,0.260193288326263,-1.08987987041473,-0.468805640935898,0.665855824947357,-1.09348640563071,-0.470496651869278,0.667993781680938,0
2.36000061035156,-1.3770946264267,2.37333273887634,1.98469972610474,-1.37597305876702,2.37377361348711,1.98390735461333,2142.008,2143.5,2143.661,2145.158,359.425659179688,44.9954681396484,0.227637723088264,-1.0921117067337,-0.469768941402435,0.667203605175018,-1.09559602313537,-0.471404361345641,0.669282514094601,0
2.37999725341797,-1.39897584915161,2.36392045021057,1.99806940555573,-1.39790005743958,2.36433903852774,1.99730221593832,2142.892,2142.752,2139.454,2141.826,359.506896972656,44.9953231811523,0.195479780435562,-1.09406626224518,-0.470614045858383,0.668483555316925,-1.09742530100382,-0.472191448508328,0.67039999139912,0
2.39999389648438,-1.42089080810547,2.35449361801147,2.01145911216736,-1.41986083522252,2.35488992936084,2.01071771239474,2138.381,2139.749,2139.511,2141.285,359.588623046875,44.9953575134277,0.162664040923119,-1.09574210643768,-0.471338540315628,0.669484078884125,-1.09897439291323,-0.472857979480329,0.671346307473475,0
2.41999816894531,-1.4428334236145,2.34505486488342,2.02486658096313,-1.44185817738692,2.34542508756209,2.02415554546122,2137.661,2138.29,2136.936,2138.58,359.671142578125,44.9953117370605,0.129724711179733,-1.09713840484619,-0.471943706274033,0.670376002788544,-1.10024313330221,-0.473403883025206,0.672121361178802,0
2.43999481201172,-1.46479845046997,2.33560633659363,2.03828907012939,-1.46386968334064,2.3359541514805,2.03760203096557,2137.571,2137.199,2132.961,2136.04,359.753387451172,44.9951477050781,0.0972808450460434,-1.09825301170349,-0.472427815198898,0.671124875545502,-1.10123006676374,-0.473828532921971,0.672724263429655,0
2.45999908447266,-1.48678028583527,2.32615041732788,2.05172085762024,-1.48590651627916,2.32647231790489,2.05106398832971,2132.789,2134.034,2133.43,2135.602,359.835693359375,44.9951972961426,0.0641658082604408,-1.09908771514893,-0.472790330648422,0.671590626239777,-1.10193556692257,-0.474132089930926,0.673155242467576,0
2.47999572753906,-1.5087730884552,2.31668949127197,2.06516051292419,-1.50794623031618,2.31698924467309,2.06452770571198,2133.365,2133.199,2129.771,2132.239,359.918060302734,44.9950942993164,0.0314605347812176,-1.09964203834534,-0.473033368587494,0.671984970569611,-1.10235882472314,-0.474314205938057,0.673413804053135,0
2.5,-1.53077125549316,2.30722665786743,2.07860255241394,-1.52999999932945,2.30750012397766,2.0780000090599,2128.76,2130.27,2130.078,2131.627,0.000844546768348664,44.9951782226563,-0.0018250378780067,-1.09991681575775,-0.473155736923218,0.672107994556427,-1.10250000050292,-0.474374949932098,0.673500046133994,0
2.51999664306641,-1.55276954174042,2.29776358604431,2.09204578399658,-1.55204535801192,2.29801462201262,2.09146717466799,2129.719,2129.373,2125.974,2128.413,0.083797000348568,44.9950790405273,359.965301513672,-1.09991037845612,-0.473158091306686,0.672165632247925,-1.10235893238473,-0.47431425226183,0.67341386982192,0
2.54000091552734,-1.57476186752319,2.28830289840698,2.1054847240448,-1.57409348237975,2.28852793005043,2.10493602979009,2125.14,2126.512,2126.117,2127.868,0.16711750626564,44.9951362609863,359.931854248047,-1.09962379932404,-0.473039388656616,0.671944558620453,-1.10193556692257,-0.474132089930926,0.673155242467576,0
2.55999755859375,-1.59674310684204,2.27884697914124,2.11891770362854,-1.59612191359838,2.27904971150017,2.11839285467467,2126.107,2125.762,2122.015,2124.533,0.250443994998932,44.9950294494629,359.89892578125,-1.09905505180359,-0.472800105810165,0.671654164791107,-1.10123038958312,-0.473828671822132,0.672724460634977,0
2.57999420166016,-1.61870718002319,2.26939821243286,2.13233947753906,-1.61813342708139,2.26957877217893,2.13183934477855,2121.573,2122.79,2122.145,2124.133,0.333965808153152,44.9950904846191,359.865417480469,-1.09820628166199,-0.47243943810463,0.671085894107819,-1.10024356351463,-0.47340406813359,0.672121623988854,0
2.59999847412109,-1.64064872264862,2.25995898246765,2.14574766159058,-1.64013077892511,2.26011392621545,2.14527718375796,2121.028,2121.474,2119.568,2121.352,0.417979538440704,44.9950675964355,359.831939697266,-1.0970755815506,-0.47195827960968,0.670412003993988,-1.09897493039424,-0.472858210743393,0.671346635812239,0
2.6199951171875,-1.66256189346313,2.25053191184998,2.15913939476013,-1.66209156852628,2.2506648119635,2.15869268743396,2120.851,2120.332,2115.84,2118.952,0.501429080963135,44.994930267334,359.799072265625,-1.09566259384155,-0.471355497837067,0.669590830802917,-1.09742594550583,-0.472191725819537,0.67040038511534,0
2.63999938964844,-1.684441447258,2.24111938476563,2.17250943183899,-1.68402693989188,2.24122663446822,2.17209266350648,2116.292,2117.303,2116.204,2118.571,0.584681987762451,44.9949989318848,359.765686035156,-1.09397149085999,-0.470631808042526,0.668497502803802,-1.09559602313537,-0.471404361345641,0.669282514094601,0
2.65999603271484,-1.70628142356873,2.23172354698181,2.18585610389709,-1.70591456353497,2.23180900148401,2.18546347124042,2116.906,2116.456,2112.693,2115.317,0.667626321315765,44.9949188232422,359.732757568359,-1.09200012683868,-0.46978834271431,0.667329072952271,-1.09348726343002,-0.470497020956359,0.667994305697154,0
2.68000030517578,-1.72807645797729,2.22234702110291,2.19917392730713,-1.72776555581996,2.22240712994983,2.19881190144931,2112.417,2113.729,2112.996,2114.735,0.750694096088409,44.9950294494629,359.699401855469,-1.08975291252136,-0.46882575750351,0.665896534919739,-1.09109887036509,-0.469469362144494,0.666535273643922,0
2.69999694824219,-1.74982094764709,2.2129921913147,2.2124617099762,-1.74955768413056,2.21303058593937,2.21212437257479,2113.325,2112.875,2109.19,2111.573,0.833617508411407,44.9949493408203,359.666595458984,-1.08722674846649,-0.467743992805481,0.664395332336426,-1.08843358680109,-0.468322565086308,0.664907093505606,0
2.71999359130859,-1.77150940895081,2.20366144180298,2.22571420669556,-1.77129374718429,2.20367816524265,2.22540259430974,2109.03,2110.121,2109.222,2111.155,0.916614294052124,44.9950294494629,359.633361816406,-1.08442628383636,-0.466543436050415,0.662629902362823,-1.08549158402443,-0.467056703481556,0.663109869918395,0
2.73999786376953,-1.79313635826111,2.19435691833496,2.238929271698,-1.79297647980783,2.19434869114016,2.23864823731709,2108.57,2108.805,2106.699,2108.547,0.999898195266724,44.9950294494629,359.600250244141,-1.08134841918945,-0.465224117040634,0.660759210586548,-1.08227271937422,-0.465671715947234,0.661143515732969,0
2.75999450683594,-1.81469619274139,2.18508124351501,2.25210428237915,-1.81458384274179,2.18505164650952,2.2518478381572,2108.497,2107.772,2103.066,2106.179,1.08239126205444,44.9949073791504,359.567779541016,-1.07799386978149,-0.463785529136658,0.658744931221008,-1.07878069424208,-0.464169195088763,0.659010292071722,0
2.77999877929688,-1.83618366718292,2.17583656311035,2.26523351669312,-1.83612684690458,2.17578229366013,2.2650081232283,2104.087,2104.89,2103.407,2105.888,1.16443955898285,44.9949798583984,359.534912109375,-1.07436859607697,-0.462229073047638,0.656466364860535,-1.07501419914593,-0.462548577472581,0.656709398992482,0
2.79999542236328,-1.85759294033051,2.16662526130676,2.278315782547,-1.85758361379882,2.16655004629821,2.27811572729775,2104.736,2104.106,2100.085,2102.712,1.24590277671814,44.9949264526367,359.502624511719,-1.07046973705292,-0.460555523633957,0.654113054275513,-1.07097756992209,-0.460811728687929,0.654243485189995,0
2.81999969482422,-1.87891888618469,2.1574501991272,2.29134583473206,-1.87896509797278,2.15735019098767,2.29117734232814,2100.426,2101.493,2100.386,2102.248,1.3272180557251,44.9950294494629,359.470031738281,-1.06630408763885,-0.458766669034958,0.651506364345551,-1.06666929835407,-0.458957999791384,0.651611629318345,0
2.83999633789063,-1.90015637874603,2.14831280708313,2.3043224811554,-1.90024960698239,2.14819206138118,2.30417971674389,2101.385,2100.627,2096.768,2099.253,1.40809404850006,44.9949684143066,359.43798828125,-1.06186759471893,-0.45686200261116,0.648832559585571,-1.06209435025759,-0.456989527434725,0.648816864916866,0
2.86000061035156,-1.92129969596863,2.13921618461609,2.31724047660828,-1.9214480311499,2.13907097167731,2.31712950327294,2097.118,2098.142,2096.952,2098.823,1.48882031440735,44.9950790405273,359.405670166016,-1.05716753005981,-0.454843282699585,0.645902454853058,-1.05725102347782,-0.454905579228273,0.645858152165725,0
2.87999725341797,-1.94234359264374,2.13016200065613,2.3300986289978,-1.94253888918396,2.12999616467562,2.3300135793296,2098.245,2097.336,2093.224,2095.826,1.56897640228271,44.995002746582,359.3740234375,-1.0521993637085,-0.452709764242172,0.642906963825226,-1.05214490868305,-0.452708560680416,0.642738906316949,0
2.89999389648438,-1.96328318119049,2.12115263938904,2.34289169311523,-1.96352501326936,2.1209664217661,2.34283367505136,2094.075,2094.894,2093.345,2095.444,1.64876139163971,44.9950866699219,359.342102050781,-1.04697120189667,-0.450463533401489,0.639656186103821,-1.04677621342161,-0.450398561093403,0.639459254158576,0
2.91999816894531,-1.98411273956299,2.11219024658203,2.35561776161194,-1.98440911693069,2.11198057539494,2.35559144808806,2093.622,2093.592,2091.155,2093.063,1.7284255027771,44.9951248168945,359.310424804688,-1.04147970676422,-0.448104441165924,0.636304199695587,-1.04114485287423,-0.447975543971863,0.636019143875825,0
2.93999481201172,-2.00482749938965,2.10327792167664,2.36827421188354,-2.00517008215741,2.10304771205211,2.36827399777659,2093.632,2092.672,2087.844,2090.802,1.80699849128723,44.9950180053711,359.279541015625,-1.03572690486908,-0.445632815361023,0.632819592952728,-1.03525734386973,-0.445442313325187,0.632422556497743,0
2.95999908447266,-2.02542161941528,2.09441685676575,2.38085603713989,-2.02581860575671,2.0941632292003,2.38088785862954,2089.541,2089.91,2088.161,2090.742,1.88482844829559,44.9951095581055,359.248291015625,-1.02972114086151,-0.44305095076561,0.629090130329132,-1.02911152474823,-0.442797939051516,0.628668171500036,0
2.97999572753906,-2.04589104652405,2.08560943603516,2.39336180686951,-2.04633384260397,2.08533609591429,2.39342029668558,2090.243,2089.423,2085.114,2087.556,1.96174049377441,44.9950714111328,359.217864990234,-1.02345836162567,-0.440359324216843,0.625289797782898,-1.02271452148052,-0.440045487257004,0.624760342027062,0
3,-2.06623005867004,2.07685852050781,2.40578675270081,-2.06672639957428,2.07656174835205,2.40587779151916,2086.097,2086.87,2085.549,2087.413,2.03822374343872,44.9952087402344,359.187164306641,-1.0169483423233,-0.437560737133026,0.621251702308655,-1.01606400046349,-0.437183953857422,0.620697642517089,0
3.01999664306641,-2.08643364906311,2.06816530227661,2.41812992095947,-2.08697572864857,2.06784902775215,2.41824779066609,2087.233,2086.155,2082.162,2084.53,2.11396360397339,44.995174407959,359.157196044922,-1.01018583774567,-0.434654355049133,0.617156565189362,-1.00916768936771,-0.434216663853534,0.616484793683489,0
3.03999328613281,-2.10649704933167,2.0595326423645,2.43038630485535,-2.10708469520508,2.05919670122237,2.43053204454123,2083.34,2084.017,2082.281,2084.153,2.18918824195862,44.9952812194824,359.127166748047,-1.00318086147308,-0.431642979383469,0.612825214862823,-1.00202586176059,-0.431143734953757,0.612121962644322,0
3.05999755859375,-2.12641572952271,2.05096220970154,2.44255447387695,-2.12705600675913,2.05060360379452,2.44273220712343,2083.166,2082.749,2080.085,2082.021,2.26402378082275,44.9953155517578,359.097412109375,-0.995929718017578,-0.428526073694229,0.608403384685516,-0.994638524886308,-0.427965170275055,0.607609153824944,0
3.07999420166016,-2.14618444442749,2.04245638847351,2.45463156700134,-2.14686960564145,2.04207836572333,2.45483602549553,2083.098,2081.875,2077.111,2080.018,2.33753299713135,44.9952392578125,359.068481445313,-0.988435745239258,-0.425304442644119,0.603851854801178,-0.987014293508169,-0.424684676509408,0.602951629849824,0
3.09999847412109,-2.1657989025116,2.03401660919189,2.46661305427551,-2.16653584520328,2.033616532251,2.46684982435823,2079.358,2079.548,2077.406,2079.822,2.41005730628967,44.9953384399414,359.039428710938,-0.980708003044128,-0.421981155872345,0.599076271057129,-0.979150439632689,-0.421301079877433,0.598147724230312,0
3.1199951171875,-2.18525362014771,2.02564549446106,2.47849774360657,-2.18603502400946,2.02522658035469,2.47876156841225,2079.971,2078.919,2074.736,2077.079,2.48145079612732,44.9953269958496,359.011138916016,-0.97274261713028,-0.418556362390518,0.594232380390167,-0.971056158224178,-0.417818336715394,0.593203054026623,0
3.13999938964844,-2.20454478263855,2.01734447479248,2.49028134346008,-2.20537738341953,2.01690410346351,2.49057751394429,2076.439,2076.783,2074.926,2076.806,2.55210018157959,44.9954528808594,358.982879638672,-0.964550375938416,-0.415033489465714,0.589178502559662,-0.962728579444533,-0.414235212212131,0.588115866099442,0
3.15999603271484,-2.22366714477539,2.00911641120911,2.50196266174316,-2.22454360124808,2.00865741537402,2.50228585733282,2077.217,2076.121,2072.11,2074.246,2.6217405796051,44.9954528808594,358.955383300781,-0.956127047538757,-0.411411732435226,0.584060728549957,-0.95417746870157,-0.410555908149813,0.582892125984019,0
3.18000030517578,-2.24261689186096,2.00096249580383,2.51353740692139,-2.24354380138856,2.00048216005771,2.51389278310636,2073.962,2074.015,2072.05,2074.084,2.69056963920593,44.9955596923828,358.927856445313,-0.947483360767365,-0.407694399356842,0.578738868236542,-0.94539982440085,-0.406779133026206,0.577530000053146,0
3.19999694824219,-2.26138925552368,1.99288487434387,2.52500438690186,-2.2623590635174,1.99238647840124,2.5253867331345,2074.767,2073.46,2069.234,2071.552,2.75820112228394,44.995532989502,358.901153564453,-0.938615262508392,-0.403880923986435,0.573350787162781,-0.936405971974636,-0.402909329586355,0.572035795952272,0
3.21999359130859,-2.27997994422913,1.98488545417786,2.53635954856873,-2.28099231507127,1.9843691108104,2.5367694957426,2071.428,2071.486,2069.348,2071.371,2.824871301651,44.9956321716309,358.87451171875,-0.929534077644348,-0.399975180625916,0.567759156227112,-0.927196343299057,-0.398946683654493,0.566409777507781,0
3.23999786376953,-2.29838466644287,1.97696566581726,2.54760122299194,-2.29944628156995,1.97642888457015,2.54804273590817,2071.224,2070.521,2067.579,2069.39,2.89071655273438,44.9956893920898,358.848327636719,-0.920236766338348,-0.39597687125206,0.562085092067719,-0.917771149318993,-0.394891285994308,0.560652073582612,0
3.25999450683594,-2.31659936904907,1.96912801265717,2.5587272644043,-2.31770268688992,1.96857366338589,2.55919528903255,2071.251,2069.81,2065.044,2067.605,2.95494627952576,44.9956474304199,358.823089599609,-0.910727918148041,-0.391887426376343,0.55630087852478,-0.90814153446928,-0.390747931744771,0.554769492138098,0
3.27999877929688,-2.33461976051331,1.96137368679047,2.56973361968994,-2.33577134012187,1.96079922667992,2.57023314733618,2067.969,2067.69,2065.367,2067.653,3.01789021492004,44.9957656860352,358.797882080078,-0.901018142700195,-0.387710511684418,0.550322532653809,-0.898304216251578,-0.386515208538549,0.548760027947228,0
3.29999542236328,-2.35244178771973,1.95370471477509,2.58061933517456,-2.35363442159312,1.95311324175956,2.58114542505908,2068.679,2067.256,2063.034,2065.18,3.07937693595886,44.9957733154297,358.773559570313,-0.891103625297546,-0.383446156978607,0.544288516044617,-0.888270870184445,-0.382198140025101,0.542630813402095,0
3.31999969482422,-2.37006163597107,1.94612264633179,2.59138083457947,-2.37130160722417,1.94551154534655,2.59193803307009,2065.528,2065.434,2063.312,2065.083,3.13976907730103,44.995906829834,358.749359130859,-0.880996763706207,-0.379098623991013,0.538071572780609,-0.878038122530657,-0.377795274579551,0.536379787539275,0
3.33999633789063,-2.38747549057007,1.9386293888092,2.60201692581177,-2.38875555478454,1.93800159931817,2.60260037727124,2066.424,2064.921,2060.849,2062.839,3.19879174232483,44.9959144592285,358.72607421875,-0.870693504810333,-0.374667257070541,0.531805574893951,-0.867618167158097,-0.373311858882592,0.530014399402376,0
3.36000061035156,-2.40467953681946,1.93122625350952,2.61252427101135,-2.406005803634,1.93057929915441,2.61313828510855,2063.5,2063.193,2060.954,2062.798,3.25665235519409,44.9960327148438,358.702941894531,-0.860206425189972,-0.370156139135361,0.525362491607666,-0.857007552155826,-0.36874640767338,0.523532540272868,0
3.37999725341797,-2.42166996002197,1.92391490936279,2.62290167808533,-2.42303550945299,1.9232518924954,2.62354146665005,2064.415,2062.765,2058.534,2060.611,3.31298804283142,44.9960327148438,358.680725097656,-0.849531710147858,-0.365564733743668,0.518870174884796,-0.846218976345105,-0.364104384899943,0.516941967662506,0
3.39999389648438,-2.43844389915466,1.91669690608978,2.63314580917358,-2.43984769972619,1.91601807669906,2.63381177133889,2061.577,2061.165,2058.68,2060.55,3.36798858642578,44.9961471557617,358.658782958984,-0.838682174682617,-0.360897570848465,0.512206435203552,-0.835253140422974,-0.35938609205264,0.510243109616171,0
3.41999816894531,-2.45499706268311,1.90957379341125,2.64325523376465,-2.45644516534361,1.90887665092339,2.64395090408624,2061.401,2060.308,2057.335,2059.012,3.42178964614868,44.9962196350098,358.637390136719,-0.827655911445618,-0.356154531240463,0.50547456741333,-0.824110582941664,-0.354591760855451,0.503436295127018,0
3.43999481201172,-2.47132611274719,1.90254688262939,2.65322852134705,-2.4728118459714,1.90183452548138,2.65394905388473,2061.67,2059.811,2055.154,2057.476,3.47368144989014,44.9962005615234,358.616973876953,-0.81645804643631,-0.351337790489197,0.498659014701843,-0.812804733542555,-0.349727169707881,0.496529728153404,0
3.45999908447266,-2.48742818832397,1.89561796188354,2.66306209564209,-2.48895692832918,1.89488774758421,2.66381183275806,2058.858,2058.255,2055.542,2057.496,3.52394700050354,44.9963111877441,358.596893310547,-0.805100202560425,-0.346451491117477,0.491681396961212,-0.801332006385299,-0.344790775723006,0.489521218161412,0
3.47999572753906,-2.50329971313477,1.8887882232666,2.67275547981262,-2.50486489870395,1.88804299234919,2.67352976362102,2059.61,2057.727,2053.65,2055.68,3.57242226600647,44.9963493347168,358.577697753906,-0.793579757213593,-0.341495603322983,0.48466432094574,-0.789706299681989,-0.339788558913217,0.482419255351936,0
3.5,-2.51893758773804,1.88205850124359,2.68230557441711,-2.5205447997813,1.88129636896134,2.68310837050915,2057.022,2056.412,2053.967,2055.585,3.61941456794739,44.9964828491211,358.558837890625,-0.781909644603729,-0.336475163698196,0.477500379085541,-0.777924000354857,-0.334718964672089,0.475221632552147,0
3.51999664306641,-2.53433966636658,1.87543082237244,2.69171166419983,-2.53598168290031,1.87465430941181,2.69253852151874,2057.844,2056.139,2052.054,2053.699,3.66469955444336,44.9965209960938,358.541046142578,-0.770087361335754,-0.331389784812927,0.470301598310471,-0.765999459475408,-0.329588167864767,0.467937116607681,0
3.53999328613281,-2.54950213432312,1.86890602111816,2.70097088813782,-2.55117869390181,1.86811546013321,2.70182213839487,2055.471,2054.602,2052.263,2053.975,3.70848321914673,44.9966430664063,358.523498535156,-0.758125960826874,-0.326243996620178,0.462964355945587,-0.753933682518821,-0.324396601119134,0.46056632174764,0
3.55999755859375,-2.56442260742188,1.86248517036438,2.71008253097534,-2.56613872308604,1.86167857751006,2.71096098677687,2055.637,2054.233,2050.982,2052.424,3.75078129768372,44.9967079162598,358.506713867188,-0.746023833751678,-0.321038156747818,0.455580860376358,-0.741727567798258,-0.319144650954242,0.45310979673751,0
3.57999420166016,-2.57909822463989,1.85616970062256,2.71904516220093,-2.58084770246059,1.8553497146065,2.71994647274769,2055.833,2053.794,2049.256,2051.336,3.79094552993774,44.996711730957,358.490997314453,-0.733787953853607,-0.315774708986282,0.448126822710037,-0.729396114728537,-0.313838771199258,0.445576704485749,0
3.59999847412109,-2.59352707862854,1.84996056556702,2.72785615921021,-2.59531431270705,1.84912513636775,2.72878389920025,2053.613,2052.512,2049.611,2051.48,3.82919359207153,44.9968223571777,358.475708007813,-0.721429586410522,-0.310457706451416,0.440545797348022,-0.716935713767317,-0.308477408768949,0.437964839979262,0
3.6199951171875,-2.60770606994629,1.84385871887207,2.73651480674744,-2.60952509409627,1.84301063413925,2.73746504379605,2054.242,2052.185,2048.2,2050.003,3.8654043674469,44.9968719482422,358.461334228516,-0.708947777748108,-0.305087953805923,0.43293622136116,-0.704361775018033,-0.303067194200314,0.43028361700977,0
3.63999938964844,-2.62163281440735,1.8378654718399,2.74501919746399,-2.6234885835008,1.83700253474321,2.74599512157732,2052.208,2051.233,2048.548,2049.951,3.89985370635986,44.9970092773438,358.447540283203,-0.696355104446411,-0.299670398235321,0.425215125083923,-0.691670720740692,-0.297606588091786,0.422530849991739,0
3.65999603271484,-2.63530611991882,1.83198130130768,2.75336861610413,-2.63719194552437,1.83110636089208,2.75436629160077,2053.125,2050.987,2046.955,2048.559,3.93228769302368,44.9970550537109,358.434783935547,-0.68365079164505,-0.294205248355865,0.417476505041122,-0.678878353700696,-0.292102389931838,0.414716192587956,0
3.68000030517578,-2.64872312545776,1.82620763778687,2.76156115531921,-2.65064357486757,1.82531850058072,2.762583682058,2051.057,2049.963,2047.369,2048.804,3.96292066574097,44.9971923828125,358.422485351563,-0.670848190784454,-0.288697481155396,0.409627437591553,-0.665981146317811,-0.286553081901244,0.406837489854705,0
3.69999694824219,-2.66188192367554,1.82054460048676,2.76959657669067,-2.66383127580226,1.81964420129024,2.77063984276899,2052.119,2049.834,2045.796,2047.421,3.99146223068237,44.9972305297852,358.411254882813,-0.657945871353149,-0.283147215843201,0.401769459247589,-0.65299527533123,-0.280965624398954,0.398904623909523,0
