t,x_s1,x_s2,x_s3,x_s_d1,x_s_d2,x_s_d3,propellers_rpms1,propellers_rpms2,propellers_rpms3,propellers_rpms4,rollRad,pitchRad,yawRad,v_s1,v_s2,v_s3,v_s_d1,v_s_d2,v_s_d3,insideCount
0,-0.0599999986588955,2.94000005722046,1.17999994754791,-0.0599999986588955,2.94000005722046,1.17999994754791,0,0,0,0,0,45.0048027038574,0,0,0,0,-1.06581410364015E-15,4.44089209850063E-16,-7.105427357601E-16,0
0.0200042724609375,-0.0599999986588955,2.94000005722046,1.17705690860748,-0.0600018701838461,2.93999925195556,1.1800010908333,0,0,0,0,0.937003672122955,44.8630027770996,-0.00115976633969694,3.71994488546079E-08,3.50004931704007E-08,-0.147149950265884,-0.000280105751305916,-0.000120521679537258,0.000171112232507361,5
0.0399932861328125,-0.0599999986588955,2.94000005722046,1.17018985748291,-0.060014863945674,2.93999366110285,1.18000902851964,0,0,0,0,1.87400352954865,44.7211418151855,-0.00311126722954214,3.70364325874561E-08,3.5142885934647E-08,-0.343349903821945,-0.00111059898697896,-0.000477859717552347,0.000678447590588643,6
0.05999755859375,-0.0599062293767929,2.94009447097778,1.16346502304077,-0.0600498857373401,2.93997859220429,1.18003042278566,3197.19,2848.641,1517.403,2782.379,1.40371799468994,44.7413673400879,0.0288274101912975,0.00468855630606413,0.00471872743219137,-0.336243748664856,-0.00247936261166862,-0.00106680046642749,0.00151460392977639,6
0.0800018310546875,-0.0597377754747868,2.94026732444763,1.15723752975464,-0.0601175574246769,2.93994947496775,1.18007176236346,2865.853,2651.835,2344.386,2562.115,0.339822888374329,44.8158149719238,0.0997550711035728,0.00842265971004963,0.00864472053945065,-0.311376333236694,-0.00437268608126799,-0.00188144466206175,0.00267120569262453,6
0.0999908447265625,-0.0595562644302845,2.94046425819397,1.15151965618134,-0.0602281370710988,2.93990189563514,1.1801393137439,2240.029,2528.161,3137.778,2508.584,359.321746826172,44.9190902709961,0.178532809019089,0.00907563231885433,0.00984945334494114,-0.285894840955734,-0.00677536694902951,-0.00291525111632684,0.00413896594164447,5
0.1199951171875,-0.0594243183732033,2.94063234329224,1.14656889438629,-0.0603918861403606,2.93983143898525,1.18023934549506,2123.573,2454.671,3352.003,2464.582,358.750122070313,44.999885559082,0.253259539604187,0.00659737922251225,0.00839937385171652,-0.247536301612854,-0.00967801353495435,-0.00416417885169243,0.00591214744607921,5
0.139999389648438,-0.0593828484416008,2.94074034690857,1.14257061481476,-0.0606185767455666,2.93973390035084,1.18037782724834,2312.49,2456.716,3068.955,2463.237,358.636291503906,45.0326461791992,0.326357305049896,0.00207357434555888,0.00540005043148994,-0.199915498495102,-0.0130660253322238,-0.00562194567796536,0.00798183098414958,5
0.160003662109375,-0.0594431385397911,2.94078588485718,1.13952434062958,-0.0609177895434042,2.93960515744296,1.18056061167741,2536.621,2486.791,2635.364,2491.91,358.756988525391,45.0249786376953,0.398233413696289,-0.00301444111391902,0.00228119059465826,-0.152311220765114,-0.0169265510445065,-0.00728302204135792,0.0103401658994673,5
0.17999267578125,-0.0595997795462608,2.94078207015991,1.13730919361115,-0.0612985250199726,2.93944133760391,1.18079319703879,2666.505,2506.052,2302.529,2513.244,358.864135742188,44.9985427856445,0.467424005270004,-0.00783213041722775,-0.000195700908079743,-0.110758066177368,-0.0212433804254414,-0.00914043312572283,0.0129772496054864,5
0.199996948242188,-0.0598472729325294,2.94074034690857,1.13576090335846,-0.0617704296168641,2.93923829023936,1.1810814761931,2653.149,2499.932,2183.713,2508.745,358.816955566406,44.9744148254395,0.532822847366333,-0.012374609708786,-0.00208951998502016,-0.077417403459549,-0.0260104776919234,-0.0111915819022102,0.0158893949364944,5
0.220001220703125,-0.0601891428232193,2.94066286087036,1.13474535942078,-0.0623420644491781,2.93899233174064,1.18143067899198,2540.682,2470.692,2245.453,2478.713,358.612487792969,44.9636726379395,0.59453547000885,-0.0170935746282339,-0.00387999881058931,-0.050775982439518,-0.03121219533433,-0.0134297356845702,0.0190670430730375,5
0.239990234375,-0.0606383383274078,2.94054222106934,1.13419342041016,-0.0630214373585105,2.93870001655724,1.18184569730089,2411.908,2429.759,2373.927,2437.356,358.334625244141,44.9658966064453,0.652682244777679,-0.022459814324975,-0.00603062706068158,-0.0275941770523787,-0.0368316683029241,-0.015847637913056,0.0224998914194052,5
0.259994506835938,-0.0612126402556896,2.9403669834137,1.13409042358398,-0.0638179029240226,2.93835731967507,1.18233224568626,2329.215,2391.804,2462.954,2398.742,358.076385498047,44.9738998413086,0.70769065618515,-0.0287151206284761,-0.0087673794478178,-0.00515219382941723,-0.0428651747123285,-0.0184436871643672,0.0261856663338995,4
0.279998779296875,-0.0619291253387928,2.94012594223022,1.13444066047668,-0.0647390625194898,2.93796097043536,1.18289496770872,2306.159,2365.252,2469.728,2370.486,357.887176513672,44.9803085327148,0.760521590709686,-0.0358242131769657,-0.0120557975023985,0.0175134893506765,-0.0492963837173861,-0.0212108567320638,0.0301143915580518,4
0.300003051757813,-0.0628006160259247,2.93981194496155,1.13523638248444,-0.0657927507678135,2.93750759781875,1.18353864941714,2317.546,2348.32,2415.53,2353.472,357.765014648438,44.9817657470703,0.811341345310211,-0.0435743667185307,-0.015705743804574,0.0397876501083374,-0.0561132031658829,-0.0241439437008635,0.0342786801847687,4
0.319992065429688,-0.0638353899121284,2.93942141532898,1.13644933700562,-0.0669855955880233,2.93699435001684,1.18426733970383,2334.837,2336.475,2342.621,2341.701,357.678436279297,44.9788246154785,0.860105693340302,-0.051738552749157,-0.0195232760161161,0.0606481619179249,-0.0632980253096114,-0.0272353719486164,0.0386677759154339,4
0.339996337890625,-0.0650389939546585,2.9389533996582,1.13803589344025,-0.068326768706371,2.93641728069206,1.18508664143323,2337.219,2324.475,2287.433,2330.238,357.594268798828,44.974178314209,0.906481802463531,-0.0601800531148911,-0.0234034433960915,0.0793292969465256,-0.0708499516420146,-0.0304847548730522,0.0432811298664125,4
0.360000610351563,-0.0664164945483208,2.93840646743774,1.1399507522583,-0.0698225328270578,2.93577369517774,1.18600038039362,2322.725,2310.846,2261.354,2315.629,357.494567871094,44.9702987670898,0.950786232948303,-0.0688752382993698,-0.0273426547646523,0.0957407429814339,-0.0787518717320621,-0.0338847303337087,0.0481082895423912,4
0.379989624023438,-0.0679737702012062,2.93777871131897,1.14215397834778,-0.0714784451857985,2.93506120235061,1.18701195141357,2295.622,2294.425,2260.667,2299.572,357.379730224609,44.9685401916504,0.99280172586441,-0.0778638198971748,-0.031390018761158,0.11016208678484,-0.0869857157641562,-0.0374275233937465,0.0531382163749952,4
0.399993896484375,-0.0697176977992058,2.93706679344177,1.1446168422699,-0.0733036822025899,2.9342758538535,1.18812696022487,2267.995,2277.472,2269.11,2283.146,357.261627197266,44.9687767028809,1.03230452537537,-0.0871965438127518,-0.0355984084308147,0.123142145574093,-0.0955525119207663,-0.0411135764513579,0.0583715384648505,4
0.419998168945313,-0.0716555640101433,2.93626689910889,1.14732038974762,-0.0753034649285836,2.93341540321397,1.18934859628618,2249.578,2263.221,2270.5,2267.364,357.152099609375,44.9698829650879,1.06999754905701,-0.0968931689858437,-0.0399902872741222,0.13517889380455,-0.104434660908044,-0.0449353170220673,0.0637975046779765,4
0.44000244140625,-0.0737941414117813,2.93537592887878,1.15024816989899,-0.077483988232608,2.93247718495301,1.19068064394622,2237.991,2250.605,2263.221,2255.089,357.056915283203,44.971004486084,1.1057767868042,-0.106929033994675,-0.0445488169789314,0.146386384963989,-0.113620829717891,-0.048887868829098,0.0694091918565748,4
0.459991455078125,-0.0761393755674362,2.93439102172852,1.1533842086792,-0.0798493430620752,2.93145943885026,1.1921256023009,2232.224,2240.394,2248.643,2244.883,356.975372314453,44.9716644287109,1.13966464996338,-0.117261692881584,-0.049241628497839,0.156804040074348,-0.123092454730403,-0.0529632444654124,0.0751952597749251,4
0.479995727539063,-0.0786962732672691,2.93331027030945,1.15671122074127,-0.0824088828700873,2.93035814037613,1.19368918522879,2227.072,2231.453,2233.425,2236.434,356.9033203125,44.9719429016113,1.17144644260406,-0.127844780683517,-0.0540359057486057,0.166350021958351,-0.132852887402757,-0.0571628859694044,0.0811577557859174,4
0.5,-0.0814692601561546,2.93213200569153,1.16021287441254,-0.085166398670376,2.92917165836334,1.195373708601,2223.09,2224.498,2218.951,2227.854,356.835815429688,44.971996307373,1.20180821418762,-0.13864940404892,-0.0589132979512215,0.175080895423889,-0.142884000065179,-0.0614789935111996,0.0872856059789651,5
0.520004272460938,-0.0844623744487762,2.93085479736328,1.16387188434601,-0.088127196023106,2.92789770997757,1.19718241350145,2215.309,2216.9,2211.025,2220.866,356.769927978516,44.972282409668,1.23046398162842,-0.149655759334564,-0.0638638734817505,0.182948917150497,-0.153174893518032,-0.065906877469682,0.0935721522030874,5
0.539993286132813,-0.0876796171069145,2.92947697639465,1.16767406463623,-0.091293865515634,2.92653518056143,1.19911688247953,2207.119,2209.893,2207.109,2213.879,356.705749511719,44.9729461669922,1.25739645957947,-0.16086208820343,-0.0688910037279129,0.190109133720398,-0.163706645289342,-0.0704383960337938,0.100005835015435,5
0.55999755859375,-0.0911249071359634,2.92799711227417,1.17160749435425,-0.094676112580471,2.92507989413848,1.20118304443252,2198.696,2203.164,2205.894,2207.733,356.645263671875,44.9740142822266,1.28235518932343,-0.172264501452446,-0.0739968419075012,0.196674466133118,-0.17448465888317,-0.0750758741803766,0.106589955332319,5
0.580001831054688,-0.0948020964860916,2.92641353607178,1.17566466331482,-0.0982762614093182,2.92353085067394,1.20338231917284,2194.742,2198.673,2201.522,2201.362,356.589691162109,44.9751167297363,1.3061637878418,-0.183859705924988,-0.0791817978024483,0.202856719493866,-0.185490414529404,-0.0798113433697334,0.113313199715174,5
0.599990844726563,-0.098714679479599,2.924724817276,1.1798369884491,-0.102095761416081,2.92188742652551,1.20571559212485,2190.156,2193.866,2198.167,2197.275,356.539093017578,44.9762687683105,1.32851362228394,-0.195629328489304,-0.0844351351261139,0.208614960312843,-0.19670480600515,-0.0846365827279185,0.120163896470579,5
0.6199951171875,-0.102865889668465,2.92292976379395,1.18411731719971,-0.106144683970236,2.92014528826426,1.208189015731,2186.161,2189.601,2195.585,2193.904,356.493804931641,44.9774856567383,1.34902250766754,-0.207560420036316,-0.0897493213415146,0.21401609480381,-0.208134604141382,-0.0895545055543457,0.127146181793521,5
0.639999389648438,-0.107258751988411,2.92102742195129,1.18850135803223,-0.110424235525481,2.91830391678686,1.21080332699501,2185.883,2187.676,2190.087,2189.918,356.452789306641,44.9785079956055,1.36858463287354,-0.219643235206604,-0.0951195433735847,0.219204246997833,-0.219761081350814,-0.0945570538913933,0.134248615293163,5
0.660003662109375,-0.111895926296711,2.91901683807373,1.19298315048218,-0.114938248900541,2.91636166293851,1.21356086732604,2183.292,2184.902,2187.525,2187.994,356.414764404297,44.9795761108398,1.38682448863983,-0.231858849525452,-0.10053475946188,0.224087819457054,-0.231574097577923,-0.0996398647564507,0.141465002567821,5
0.67999267578125,-0.116779968142509,2.91689705848694,1.19755840301514,-0.119686638739014,2.91431856344567,1.2164615845812,2181.317,2182.843,2186.082,2185.99,356.379486083984,44.9806938171387,1.40371692180634,-0.244202062487602,-0.105993412435055,0.228763863444328,-0.243554411173546,-0.104794659005432,0.14878358919428,5
0.699996948242188,-0.121913239359856,2.9146671295166,1.20222353935242,-0.124680083855354,2.91217002351282,1.2195120022816,2178.492,2180.738,2186.727,2184.689,356.347534179688,44.98193359375,1.4189133644104,-0.256663769483566,-0.111492499709129,0.233254283666611,-0.255710395848158,-0.11002503961202,0.1562094905416,5
0.720001220703125,-0.127298071980476,2.91232657432556,1.20697808265686,-0.129918284978346,2.90991617190799,1.22271193760712,2179.625,2180.853,2184.123,2182.438,356.318695068359,44.9830474853516,1.43344151973724,-0.269241899251938,-0.117032438516617,0.237727999687195,-0.268023157655716,-0.11532287703907,0.163731164592979,5
0.739990234375,-0.132936477661133,2.9098744392395,1.21181964874268,-0.135400001298574,2.90755754251682,1.22606063256665,2178.394,2179.693,2184.053,2182.387,356.292388916016,44.984188079834,1.44681692123413,-0.281920164823532,-0.12260427325964,0.242078021168709,-0.280473432677602,-0.12067988256057,0.171336843321139,5
0.759994506835938,-0.138830333948135,2.90731024742126,1.21674680709839,-0.14113644597991,2.90508931062815,1.22956493710703,2176.804,2178.65,2185.708,2182.429,356.269287109375,44.9854202270508,1.45857298374176,-0.294692844152451,-0.128206014633179,0.246359750628471,-0.293070637251543,-0.126100107763583,0.179032279019858,5
0.779998779296875,-0.144981503486633,2.90463352203369,1.22176146507263,-0.147126184485884,2.90251209348295,1.2332239748923,2179.342,2179.943,2183.588,2181.259,356.248992919922,44.986457824707,1.46977841854095,-0.30755826830864,-0.133838251233101,0.250734329223633,-0.305795832832518,-0.131575403921268,0.186805902427515,5
0.800003051757813,-0.151391491293907,2.90184378623962,1.22686278820038,-0.153371683173492,2.89982482987671,1.23703925258147,2179.012,2179.776,2184.262,2182.209,356.230682373047,44.9874992370605,1.47994482517242,-0.320499330759048,-0.139491692185402,0.255064994096756,-0.318639638509124,-0.13710173468952,0.194651982891718,5
0.819992065429688,-0.158061772584915,2.8989405632019,1.23205149173737,-0.159870162197751,2.89702871589906,1.24100907201063,2179.458,2180.203,2185.267,2182.723,356.214508056641,44.9885368347168,1.48903453350067,-0.333514004945755,-0.145166262984276,0.259437918663025,-0.33158286215529,-0.142670842232658,0.202558796242139,5
0.839996337890625,-0.164993643760681,2.89592337608337,1.23732829093933,-0.166633637018892,2.89411858163313,1.24514077323692,2178.767,2180.241,2187.972,2183.807,356.201202392578,44.9896583557129,1.49659609794617,-0.346593499183655,-0.150858968496323,0.263839274644852,-0.344636106234817,-0.148287288494656,0.210532819358465,5
0.860000610351563,-0.172188386321068,2.89279198646545,1.24269688129425,-0.173659158941841,2.89109569582005,1.24943255494854,2182.449,2182.631,2186.364,2183.443,356.190338134766,44.990550994873,1.50382518768311,-0.359737455844879,-0.156571120023727,0.268430233001709,-0.357780475378537,-0.153942943326036,0.218562509354528,5
0.879989624023438,-0.17964693903923,2.88954615592957,1.24815773963928,-0.18094280014554,2.88796174849148,1.2538820177009,2182.811,2183.197,2187.717,2185.298,356.180999755859,44.9914360046387,1.51015758514404,-0.372928112745285,-0.162292778491974,0.273044914007187,-0.370996904517929,-0.159629603560431,0.226636219677473,5
0.899993896484375,-0.187370181083679,2.88618564605713,1.2537122964859,-0.18849723509595,2.8847112861788,1.25849690412748,2182.416,2183.494,2190.968,2187.025,356.174041748047,44.9924011230469,1.51497662067413,-0.38616219162941,-0.168023496866226,0.277725398540497,-0.384296738353309,-0.165352150505452,0.234760880627692,5
0.919998168945313,-0.195358991622925,2.88271021842957,1.25936496257782,-0.196318384305134,2.8813460641717,1.26327472213274,2186.455,2186.328,2189.728,2186.954,356.169036865234,44.9931449890137,1.51954305171967,-0.399440824985504,-0.173765912652016,0.282634794712067,-0.397661187980262,-0.171102499820431,0.242925014356675,5
0.94000244140625,-0.203613936901093,2.87912011146545,1.26511681079865,-0.204407453948074,2.87786556348678,1.26821620855017,2186.876,2187.167,2191.615,2189.099,356.165313720703,44.9939041137695,1.52328288555145,-0.412746608257294,-0.179510593414307,0.28759241104126,-0.411081631631503,-0.176876941799768,0.251123353961324,5
0.959991455078125,-0.212135523557663,2.87541484832764,1.27097046375275,-0.212759000778906,2.87427212620069,1.27331803818581,2188.117,2188.397,2193.521,2190.599,356.163116455078,44.9946403503418,1.52608239650726,-0.426079899072647,-0.185258895158768,0.292683392763138,-0.424539267042903,-0.182667386354485,0.259344413431889,5
0.979995727539063,-0.22092416882515,2.87159466743469,1.27692782878876,-0.22138664033507,2.87055989392801,1.27858852855901,2187.827,2189.106,2197.166,2192.431,356.163421630859,44.995475769043,1.52745640277863,-0.439431995153427,-0.19100821018219,0.297869116067886,-0.438046240701377,-0.188479059778567,0.267595612867683,5
1,-0.229980260133743,2.86765956878662,1.28299427032471,-0.230284798736574,2.86673126495361,1.28402427467346,2192.502,2192.24,2195.519,2192.525,356.165802001953,44.9960250854492,1.52872681617737,-0.452804416418076,-0.196760728955269,0.303320229053497,-0.451584000205995,-0.194303979492187,0.275865618896484,5
1.02000427246094,-0.239303797483444,2.86360955238342,1.28917074203491,-0.239454009753966,2.86278600961093,1.28962560260127,2193.112,2193.154,2197.183,2194.939,356.169250488281,44.9965782165527,1.52923464775085,-0.466177672147751,-0.202505528926849,0.308824449777603,-0.465144357597929,-0.200138622445408,0.284149429622012,5
1.03999328613281,-0.248894855380058,2.8594446182251,1.29545998573303,-0.248887339851819,2.85872711120656,1.29538827675384,2194.372,2194.494,2199.01,2196.464,356.173919677734,44.9971199035645,1.52890157699585,-0.479552507400513,-0.208244159817696,0.31446248292923,-0.478708875293167,-0.205975055460915,0.292435781811908,5
1.05999755859375,-0.258753269910812,2.8551652431488,1.30186378955841,-0.258599401509697,2.85454828239877,1.3013212236669,2193.876,2195.063,2202.771,2198.376,356.180847167969,44.9977493286133,1.52714669704437,-0.492920726537704,-0.213974341750145,0.320189237594604,-0.492290296490434,-0.211818761581115,0.30073246008742,5
1.08000183105469,-0.268878936767578,2.85077118873596,1.30838751792908,-0.268583149539609,2.85025255453512,1.30742013954506,2198.617,2198.233,2200.874,2198.287,356.189605712891,44.9981117248535,1.52538681030273,-0.506285011768341,-0.219699069857597,0.326184004545212,-0.50587040849135,-0.217661904390701,0.309028338595312,5
1.09999084472656,-0.279271423816681,2.84626293182373,1.31503176689148,-0.278830554044452,2.84584338265603,1.31368011904947,2198.892,2199.006,2202.568,2200.577,356.199249267578,44.9984931945801,1.52295589447021,-0.519625186920166,-0.225407153367996,0.332214087247849,-0.519431110871131,-0.223496695782555,0.317312360068532,5
1.1199951171875,-0.28993022441864,2.84164094924927,1.32179808616638,-0.289357002179081,2.84131414609862,1.32011056195293,2198.165,2199.161,2206.275,2202.579,356.210815429688,44.9989814758301,1.51905715465546,-0.532940030097961,-0.231099188327789,0.338318467140198,-0.532985466132485,-0.229328756186667,0.32559250418615,5
1.13999938964844,-0.30085489153862,2.83690547943115,1.32869160175323,-0.300154365346813,2.83666834237095,1.32670650262257,2202.7,2202.231,2204.265,2202.207,356.223968505859,44.9992141723633,1.51518607139587,-0.546232759952545,-0.236779004335403,0.344677329063416,-0.546515580872639,-0.235150386571708,0.333857840147634,5
1.16000366210938,-0.312044531106949,2.83205676078796,1.33571267127991,-0.311222084148811,2.83190621216671,1.33346759933036,2202.619,2202.726,2205.951,2204.339,356.237854003906,44.9994735717773,1.51062428951263,-0.559483766555786,-0.242435932159424,0.351051926612854,-0.560014026276883,-0.240958390526247,0.342103829805999,6
1.17999267578125,-0.323498427867889,2.82709527015686,1.34286332130432,-0.322550701230474,2.8270318247214,1.34038807472597,2203.358,2203.646,2207.575,2205.429,356.252868652344,44.9997444152832,1.50530076026917,-0.572695314884186,-0.248072504997253,0.357532203197479,-0.573463232144024,-0.246745208083563,0.350319739799517,6
1.19999694824219,-0.335215598344803,2.822021484375,1.35014462471008,-0.334156660511822,2.8220381046756,1.34747797414352,2202.211,2203.632,2211.096,2206.976,356.270233154297,45.0001335144043,1.49854111671448,-0.585859000682831,-0.253686100244522,0.364062666893005,-0.58687652428584,-0.252516572968185,0.358513710658656,6
1.22000122070313,-0.347195148468018,2.81683588027954,1.35756134986877,-0.346030421585499,2.81692915700008,1.35473146949704,2206.878,2206.539,2208.208,2206.192,356.289489746094,45.0002136230469,1.49194955825806,-0.59897768497467,-0.259279608726501,0.370834767818451,-0.600236516861372,-0.258265004538453,0.366675121644476,6
1.239990234375,-0.359435737133026,2.81153917312622,1.36511301994324,-0.358161486344149,2.81170949873715,1.36214214765657,2206.57,2206.645,2209.216,2208.144,356.309448242188,45.0003204345703,1.48471689224243,-0.61202996969223,-0.264840751886368,0.377585738897324,-0.613526094901141,-0.263983138701136,0.374793517489195,6
1.25999450683594,-0.371936053037643,2.8061318397522,1.37280011177063,-0.3705671011502,2.80637170925886,1.36972054415578,2205.045,2206.138,2212.508,2209.634,356.331237792969,45.000560760498,1.47598147392273,-0.625014841556549,-0.270370304584503,0.384352624416351,-0.626758665639206,-0.269676744214496,0.382877088462885,6
1.27999877929688,-0.384694784879684,2.80061435699463,1.38062679767609,-0.383236695417198,2.80092033679326,1.37746020158837,2209.252,2208.824,2209.594,2208.425,356.3544921875,45.0005378723145,1.46743428707123,-0.637936294078827,-0.275872737169266,0.391331613063812,-0.639917282339435,-0.275338529371412,0.39091548206889,6
1.30000305175781,-0.397710263729095,2.79498767852783,1.388592004776,-0.396168722856641,2.79535604666509,1.38536017535082,2208.324,2208.601,2210.782,2210.012,356.378295898438,45.0005798339844,1.45827984809875,-0.650774478912354,-0.281336903572083,0.39825975894928,-0.652995275331231,-0.280965624398954,0.398904623909522,6
1.31999206542969,-0.41098091006279,2.78925228118896,1.39669680595398,-0.409351342777246,2.78968393359302,1.39341323214959,2208.374,2208.76,2211.817,2210.519,356.403137207031,45.0006408691406,1.44837284088135,-0.663532793521881,-0.286765575408936,0.405237823724747,-0.665976209205206,-0.286550957599616,0.406834473849655,6
1.33999633789063,-0.424504965543747,2.78340911865234,1.40494084358215,-0.422802873722428,2.78389611561957,1.401630562497,2206.313,2208.023,2214.928,2211.412,356.430419921875,45.0008506774902,1.43700861930847,-0.676202654838562,-0.292156279087067,0.412202298641205,-0.678873453515705,-0.29210028151913,0.41471319914141,6
1.36000061035156,-0.438280701637268,2.77745890617371,1.41332817077637,-0.436511415158101,2.77799771321212,1.41000489654248,2210.689,2210.412,2210.99,2209.787,356.459564208984,45.0007438659668,1.4259318113327,-0.688787400722504,-0.297512173652649,0.419363528490067,-0.691670720740693,-0.297606588091785,0.422530849991739,6
1.37998962402344,-0.452306002378464,2.77140259742737,1.42185688018799,-0.450464156928423,2.77199423822282,1.41852840876173,2209.57,2209.778,2211.336,2211.15,356.489349365234,45.0006637573242,1.41426599025726,-0.701265037059784,-0.302820265293121,0.426432698965073,-0.704352136620515,-0.303063047067127,0.430277729063129,6
1.39999389648438,-0.4665786921978,2.76524090766907,1.43052589893341,-0.464680216184654,2.76587746507559,1.42721277752413,2207.136,2208.478,2214.178,2212.024,356.520965576172,45.0007705688477,1.40107488632202,-0.713635146617889,-0.3080815076828,0.433451563119888,-0.716930938559026,-0.308475354130225,0.437961922879032,6
1.41999816894531,-0.481096744537354,2.75897479057312,1.43933856487274,-0.47914673136562,2.75965292774086,1.43605014590267,2210.992,2210.65,2210.286,2209.934,356.553985595703,45.0005874633789,1.38820660114288,-0.725902318954468,-0.313300609588623,0.440634340047836,-0.729391385793766,-0.313836736470737,0.445573815653291,6
1.44000244140625,-0.495857656002045,2.75260543823242,1.44829249382019,-0.493861275572861,2.75332167044526,1.44503903134294,2209.237,2209.634,2210.863,2210.987,356.587493896484,45.00048828125,1.37475621700287,-0.738046526908875,-0.318466037511826,0.447696328163147,-0.741727567798258,-0.319144650954242,0.453109796737511,6
1.45999145507813,-0.510859131813049,2.74613380432129,1.45738744735718,-0.508809800712713,2.74688973769103,1.45417085208374,2208.579,2209.118,2211.286,2210.791,356.621978759766,45.0004272460938,1.36058926582336,-0.750071942806244,-0.323580801486969,0.454748392105103,-0.753924423002454,-0.324392617007921,0.460560665253582,6
1.47999572753906,-0.526098549365997,2.73956084251404,1.46662187576294,-0.524012471663969,2.74034845309416,1.46345792653486,2205.659,2207.598,2213.946,2211.109,356.658935546875,45.000545501709,1.34491312503815,-0.761970221996307,-0.328642547130585,0.461723834276199,-0.765994882555672,-0.329586198544069,0.467934320638836,6
1.5,-0.541573405265808,2.73288774490356,1.475998878479,-0.539455198877605,2.73370387899399,1.47289164761066,2209.713,2209.546,2209.069,2208.591,356.697784423828,45.0003242492676,1.32966363430023,-0.773744702339172,-0.333654582500458,0.468849569559097,-0.777924000354858,-0.334718964672088,0.475221632552146,6
1.52000427246094,-0.557280957698822,2.72611570358276,1.48551523685455,-0.555135099954955,2.72695725560613,1.48247025449879,2207.844,2208.185,2208.803,2209.44,356.737182617188,45.0001449584961,1.31387555599213,-0.785373866558075,-0.338603436946869,0.475817620754242,-0.789706299681991,-0.339788558913217,0.482419255351937,6
1.53999328613281,-0.573218166828156,2.71924591064453,1.49516999721527,-0.571036956668503,2.72011513090874,1.49218445062151,2206.911,2207.326,2208.671,2208.975,356.777374267578,45.0000228881836,1.29738068580627,-0.796861350536346,-0.3434918820858,0.482736974954605,-0.801327600455846,-0.344788879974649,0.489518526647862,6
1.55999755859375,-0.589382112026215,2.71227955818176,1.50496077537537,-0.587181951496087,2.71316839067337,1.50204717602401,2203.529,2205.483,2211.089,2208.953,356.819854736328,45.0000839233398,1.27939236164093,-0.808199763298035,-0.348318129777908,0.489542037248611,-0.812800388649436,-0.349725300221754,0.496527073925997,6
1.58000183105469,-0.60577005147934,2.70521783828735,1.51489019393921,-0.60355483331529,2.70612359703193,1.51204911403357,2207.306,2207.127,2205.914,2206.029,356.863983154297,44.9998054504395,1.26189172267914,-0.819392919540405,-0.353085786104202,0.496469914913177,-0.824110582941666,-0.354591760855452,0.503436295127019,6
1.59999084472656,-0.622378408908844,2.69806218147278,1.52495431900024,-0.620139554045575,2.69898765502515,1.52218046112824,2204.916,2205.383,2205.585,2206.599,356.908569335938,44.9996147155762,1.24386727809906,-0.830420613288879,-0.35778221487999,0.50320690870285,-0.835244706287931,-0.359382463079953,0.510237957334684,5
1.6199951171875,-0.639204084873199,2.69081401824951,1.5351505279541,-0.636958033083316,2.69175113334911,1.53245460752521,2201.24,2203.031,2207.901,2206.602,356.955078125,44.999641418457,1.22430610656738,-0.841283619403839,-0.362408936023712,0.509807705879211,-0.846214826007804,-0.364102599125749,0.516939432286212,5
1.63999938964844,-0.656243860721588,2.68347454071045,1.54548072814941,-0.653994195024907,2.68442094880091,1.54286173301126,2204.727,2204.449,2202.696,2203.392,357.002960205078,44.9993553161621,1.20521318912506,-0.851986169815063,-0.366970479488373,0.516511082649231,-0.857007552155828,-0.368746407673381,0.523532540272869,5
1.66000366210938,-0.673494040966034,2.67604541778564,1.55594074726105,-0.671244443874359,2.67699864863716,1.55339964084857,2201.919,2202.517,2202.46,2203.685,357.051208496094,44.9991607666016,1.18561625480652,-0.862509369850159,-0.371455103158951,0.523002743721008,-0.867618167158098,-0.373311858882592,0.530014399402375,5
1.67999267578125,-0.69095116853714,2.66852807998657,1.56652891635895,-0.688691692550512,2.66949158495151,1.56405789280588,2200.424,2201.136,2202.064,2202.648,357.100341796875,44.9990425109863,1.16537010669708,-0.872857987880707,-0.375866174697876,0.529409289360046,-0.878034183119987,-0.377793579561193,0.536377381014768,5
1.69999694824219,-0.708611607551575,2.66092395782471,1.57724213600159,-0.706358800111611,2.66188992212981,1.57485045312518,2196.432,2198.724,2204.173,2202.229,357.151947021484,44.9991111755371,1.14361774921417,-0.88302481174469,-0.380201607942581,0.535660088062286,-0.888267004546665,-0.382196476749158,0.542628451944297,5
1.72000122070313,-0.726471841335297,2.6532347202301,1.58808219432831,-0.724228658537036,2.6542010212754,1.58576687078363,2200.197,2200.048,2198.139,2198.69,357.205291748047,44.9988250732422,1.1224627494812,-0.893012464046478,-0.384464293718338,0.542005777359009,-0.898304216251578,-0.386515208538549,0.548760027947228,5
1.739990234375,-0.74452793598175,2.64546179771423,1.59904444217682,-0.74228345468553,2.64643254688532,1.59679626401121,2197.393,2197.839,2197.205,2198.947,357.258972167969,44.9986000061035,1.10083222389221,-0.902801811695099,-0.388641506433487,0.548113942146301,-0.908134108040217,-0.390744736359816,0.554764955448471,5
1.75999450683594,-0.762775778770447,2.63760709762573,1.61012518405914,-0.760546715064628,2.63857437616062,1.60795300478424,2193.107,2195.018,2199.253,2198.608,357.314483642578,44.9986114501953,1.07765710353851,-0.912393927574158,-0.392734944820404,0.55403995513916,-0.917767514700581,-0.394889722119545,0.560649853250941,4
1.77999877929688,-0.78121155500412,2.62967205047607,1.62132596969604,-0.779000609654483,2.63063418086074,1.61922620102184,2196.505,2196.159,2193.437,2194.812,357.371185302734,44.9982986450195,1.05507326126099,-0.921792805194855,-0.39674910902977,0.560041010379791,-0.927192788821983,-0.398945154262308,0.566407606133204,4
1.80000305175781,-0.79983115196228,2.62165856361389,1.63264167308807,-0.797640935141499,2.62261376955408,1.63061328498531,2193.154,2193.798,2192.929,2194.818,357.428009033203,44.9981079101563,1.03204846382141,-0.930981695652008,-0.400673180818558,0.565787672996521,-0.936405971974637,-0.402909329586356,0.572035795952272,4
1.81999206542969,-0.818630516529083,2.61356830596924,1.64407002925873,-0.816448984455027,2.61452119137054,1.64210282881713,2191.21,2192.011,2192.328,2193.426,357.485595703125,44.9979858398438,1.0084171295166,-0.939965724945068,-0.404510706663132,0.571415305137634,-0.945396434568188,-0.406777674475912,0.57752792925727,3
1.83999633789063,-0.83760529756546,2.60540318489075,1.65560710430145,-0.835449117627072,2.60634596486888,1.6537097136807,2186.716,2189.216,2194.281,2192.707,357.545654296875,44.9980773925781,0.983285129070282,-0.948738813400269,-0.40826004743576,0.576855301856995,-0.954174163352093,-0.410554485950274,0.582890106797601,3
1.86000061035156,-0.856751322746277,2.59716463088989,1.6672545671463,-0.854622615239374,2.59809614449182,1.66542250417552,2190.503,2190.286,2187.685,2188.703,357.607360839844,44.9977912902832,0.958846926689148,-0.957302689552307,-0.411923766136169,0.582370638847351,-0.962728579444532,-0.414235212212131,0.588115866099442,0
1.87998962402344,-0.876064121723175,2.58885478973389,1.67900681495667,-0.873950157556149,2.58978004298193,1.67722939817649,2187.265,2187.822,2186.49,2188.672,357.669281005859,44.9975776672363,0.934042155742645,-0.965640306472778,-0.415489703416824,0.587612748146057,-0.971049893464309,-0.417815641164241,0.593199226982579,0
1.89999389648438,-0.895539104938507,2.58047556877136,1.69085967540741,-0.893456683142228,2.58138692997148,1.6891456302637,2182.625,2184.595,2188.312,2188.183,357.732879638672,44.9976196289063,0.907695412635803,-0.973753452301025,-0.418959766626358,0.592645466327667,-0.979147395688901,-0.421299770153459,0.598145864732551,0
1.91999816894531,-0.915171980857849,2.57202887535095,1.70281434059143,-0.913122862707269,2.57292512231409,1.7011593924753,2185.973,2185.555,2182.103,2183.947,357.797515869141,44.9973182678223,0.882049381732941,-0.981644868850708,-0.422338128089905,0.597732305526733,-0.987011339258123,-0.424683405378145,0.60294982514457,0
1.94000244140625,-0.934958040714264,2.56351661682129,1.71486508846283,-0.932943991899774,2.5643966441608,1.71326781099638,2182.266,2182.882,2181.39,2183.805,357.862091064453,44.997142791748,0.856003999710083,-0.989300847053528,-0.425614953041077,0.60253632068634,-0.994638524886308,-0.427965170275055,0.607609153824943,0
1.95999145507813,-0.954892575740814,2.55494070053101,1.72700905799866,-0.952900013794853,2.55581012544606,1.7254586333645,2180.046,2180.878,2180.624,2182.137,357.92724609375,44.9970588684082,0.829418063163757,-0.996726453304291,-0.42879381775856,0.607198178768158,-1.00202031904361,-0.431141350077486,0.612118576685011,0
1.97999572753906,-0.974970877170563,2.54630327224731,1.73924207687378,-0.973016570682103,2.54715453300902,1.73774752405424,2175.223,2177.856,2182.449,2181.231,357.994781494141,44.9971771240234,0.801383197307587,-1.00391674041748,-0.431873857975006,0.611650705337524,-1.00916501115878,-0.434215511495054,0.616483157607448,0
2,-0.995188295841217,2.53760623931885,1.75156533718109,-0.993273599084619,2.53843849960327,1.75012222660065,2179.035,2178.754,2175.526,2176.892,358.063812255859,44.9969024658203,0.774157583713531,-1.01087212562561,-0.43485689163208,0.616163611412048,-1.01606400046349,-0.437183953857422,0.620697642517089,0
2.01998901367188,-1.01553976535797,2.52885150909424,1.76397299766541,-1.01365055070775,2.52967086658596,1.76257018837116,2175.551,2176.035,2174.128,2176.79,358.132843017578,44.9967079162598,0.746607065200806,-1.01757884025574,-0.437732130289078,0.620381534099579,-1.02270954399163,-0.440043345582587,0.624757301356767,0
2.03999328613281,-1.03602063655853,2.52004146575928,1.77646040916443,-1.03417354141348,2.52084039703127,1.77510736313833,2170.584,2172.696,2175.891,2176.091,358.203430175781,44.9967727661133,0.717598676681519,-1.02403891086578,-0.440501481294632,0.624369204044342,-1.02910913225408,-0.442796909628122,0.628666709962695,0
2.05999755859375,-1.05662572383881,2.5111780166626,1.78902840614319,-1.05482201812353,2.5119559343546,1.78772119534738,2173.968,2173.415,2169.446,2171.655,358.274871826172,44.9964942932129,0.689352512359619,-1.03025388717651,-0.443168550729752,0.628398954868317,-1.03525504859546,-0.445441325732794,0.632421154350513,0
2.08000183105469,-1.07735002040863,2.50226354598999,1.80167090892792,-1.07559088172821,2.50301967256038,1.80040857003175,2170.045,2170.664,2168.589,2171.341,358.346038818359,44.9963493347168,0.660813570022583,-1.03621339797974,-0.445725113153458,0.632128298282623,-1.04114485287423,-0.447975543971863,0.636019143875825,0
2.09999084472656,-1.09818840026855,2.49329996109009,1.81438493728638,-1.09645901288412,2.49404069871208,1.81315658571413,2167.693,2168.468,2167.684,2169.583,358.417602539063,44.996280670166,0.631796002388,-1.04192221164703,-0.448174476623535,0.635701179504395,-1.04677201701582,-0.450396755497224,0.639456690639761,0
2.1199951171875,-1.11913597583771,2.48428964614868,1.82716596126556,-1.11745308225396,2.48500753716864,1.82598153508617,2162.638,2165.342,2169.442,2168.574,358.491363525391,44.9964370727539,0.601391911506653,-1.04737663269043,-0.450516283512115,0.639049768447876,-1.0521429102862,-0.45270770082608,0.642737685527497,0
2.13999938964844,-1.14018750190735,2.4752345085144,1.84001493453979,-1.138551967509,2.47592927627801,1.83887051484687,2166.508,2166.088,2162.359,2164.035,358.566467285156,44.9961853027344,0.571876168251038,-1.05257558822632,-0.452751725912094,0.642448663711548,-1.05725102347782,-0.454905579228273,0.645858152165725,0
2.16000366210938,-1.16133761405945,2.46613717079163,1.85292565822601,-1.15975039167652,2.46680818657414,1.85182030137592,2162.834,2163.309,2160.885,2163.834,358.641326904297,44.9960174560547,0.542134523391724,-1.05750906467438,-0.454871624708176,0.645538926124573,-1.0620943502576,-0.456989527434725,0.648816864916866,0
2.17999267578125,-1.18258118629456,2.45699954032898,1.8658949136734,-1.18102676265167,2.45765355853653,1.86481770439342,2160.635,2161.093,2159.573,2162.096,358.71630859375,44.995922088623,0.511963367462158,-1.06218099594116,-0.456878781318665,0.648460865020752,-1.06666760390386,-0.458957270716794,0.65161059420515,0
2.19999694824219,-1.20391297340393,2.44782400131226,1.87891781330109,-1.20240821395574,2.44845371736898,1.8778792993441,2155.407,2157.939,2161.327,2161.09,358.793121337891,44.9960784912109,0.480441182851791,-1.06658911705017,-0.458773463964462,0.651143312454224,-1.07097597819164,-0.460811043810786,0.654242512826705,0
2.22000122070313,-1.22532773017883,2.43861293792725,1.8919951915741,-1.22387315175433,2.43921795429519,1.89099189489151,2159.161,2158.63,2154.413,2156.418,358.870880126953,44.9958229064941,0.449871897697449,-1.07073211669922,-0.460557371377945,0.653867661952972,-1.07501419914593,-0.462548577472581,0.656709398992482,0
2.239990234375,-1.24681973457336,2.42936849594116,1.90512073040009,-1.24539969505118,2.42995568409656,1.90414212427648,2155.301,2155.733,2153.116,2156.249,358.948272705078,44.9956855773926,0.419079691171646,-1.07460284233093,-0.462222725152969,0.656279563903809,-1.07877792518082,-0.464168003639063,0.659008600495412,0
2.25999450683594,-1.26838374137878,2.42009305953979,1.91828978061676,-1.26701526177039,2.4206551096063,1.91734673668097,2150.095,2152.292,2154.875,2155.45,359.026977539063,44.9958076477051,0.386933863162994,-1.07820403575897,-0.463771998882294,0.65844988822937,-1.08227143928024,-0.465671165158559,0.661142733743536,0
2.27999877929688,-1.29001438617706,2.41078901290894,1.93150281906128,-1.28869796983554,2.41132564607061,1.93059236468599,2153.602,2152.914,2148.303,2150.706,359.106231689453,44.9955673217773,0.355738043785095,-1.08153426647186,-0.465207397937775,0.660652160644531,-1.08549040888332,-0.467056197851165,0.663109152043028,0
2.30000305175781,-1.31170630455017,2.40145826339722,1.94475364685059,-1.31044231452835,2.40196966201596,1.94387564554502,2149.521,2150.004,2147.318,2150.467,359.184967041016,44.9954605102539,0.324342638254166,-1.08458912372589,-0.466522991657257,0.662541687488556,-1.08843358680109,-0.468322565086307,0.664907093505606,0
2.31999206542969,-1.33345365524292,2.39210414886475,1.95803892612457,-1.33222611841886,2.3925966997709,1.95718303141218,2147.052,2147.811,2146.37,2148.549,359.263824462891,44.9954490661621,0.292630881071091,-1.08737230300903,-0.467721790075302,0.664261519908905,-1.09109790637238,-0.469468947365361,0.666534684755819,0
2.33999633789063,-1.35525131225586,2.382728099823,1.97135400772095,-1.35407709248145,2.38319483607731,1.97053145048929,2142.061,2144.54,2147.847,2147.648,359.344573974609,44.9956321716309,0.259589552879333,-1.08988237380981,-0.468804180622101,0.665752708911896,-1.09348640563071,-0.470496651869278,0.667993781680938,0
2.36000061035156,-1.37709355354309,2.37333273887634,1.98469948768616,-1.37597305876702,2.37377361348711,1.98390735461333,2145.916,2145.315,2140.817,2142.802,359.426177978516,44.9954109191895,0.227625772356987,-1.0921151638031,-0.469770312309265,0.667276918888092,-1.09559602313537,-0.471404361345641,0.669282514094601,0
2.37998962402344,-1.39897501468658,2.36392045021057,1.99806916713715,-1.39789168475144,2.36434264106153,1.9972971011938,2142.14,2142.445,2139.318,2142.667,359.507202148438,44.9952774047852,0.195566192269325,-1.09406769275665,-0.470613926649094,0.668486356735229,-1.09742465646102,-0.47219117117957,0.670399597657984,0
2.39999389648438,-1.42088985443115,2.35449361801147,2.01145815849304,-1.41986083522252,2.35488992936084,2.01071771239474,2136.888,2138.938,2141.009,2142.011,359.589294433594,44.995418548584,0.162192285060883,-1.09574258327484,-0.471337378025055,0.669447362422943,-1.09897439291323,-0.472857979480329,0.671346307473475,0
2.41999816894531,-1.44283258914948,2.34505486488342,2.02486681938171,-1.44185817738692,2.34542508756209,2.02415554546122,2140.48,2139.577,2134.48,2137.123,359.671600341797,44.9952011108398,0.129869908094406,-1.09713673591614,-0.471942365169525,0.670434832572937,-1.10024313330221,-0.473403883025206,0.672121361178802,0
2.44000244140625,-1.46479749679565,2.33560633659363,2.03828907012939,-1.46387808506052,2.33595053645515,2.03760716344514,2136.326,2136.669,2133.547,2136.94,359.753112792969,44.9951133728027,0.0974307879805565,-1.09825015068054,-0.47242483496666,0.671106994152069,-1.10123038958312,-0.473828671822132,0.672724460634977,0
2.45999145507813,-1.48677921295166,2.32615065574646,2.0517213344574,-1.48589810917879,2.32647593524532,2.05105885256329,2133.897,2134.483,2132.609,2135.024,359.83447265625,44.9951095581055,0.0647595375776291,-1.09908592700958,-0.472787737846375,0.671608805656433,-1.10193535162022,-0.474131997292339,0.673155110942729,0
2.47999572753906,-1.50877213478088,2.31668996810913,2.06515884399414,-1.50794623031618,2.31698924467309,2.06452770571198,2128.742,2131.306,2134.231,2134.131,359.917541503906,44.9953384399414,0.0308811571449041,-1.09964430332184,-0.473032116889954,0.671877682209015,-1.10235882472314,-0.474314205938057,0.673413804053135,0
2.5,-1.53077065944672,2.30722665786743,2.07860255241394,-1.52999999932945,2.30750012397766,2.0780000090599,2132.76,2131.953,2127.26,2129.309,0.00124085962306708,44.9951438903809,-0.00186775450129062,-1.09991919994354,-0.47315725684166,0.672180950641632,-1.10250000050292,-0.474374949932098,0.673500046133994,0
2.51998901367188,-1.55276870727539,2.29776382446289,2.09204602241516,-1.5520369476803,2.29801824074336,2.09146203692764,2128.965,2129.173,2125.782,2129.204,0.0841976851224899,44.9950332641602,359.965362548828,-1.0999116897583,-0.473158746957779,0.672169923782349,-1.10235904000526,-0.474314298567936,0.67341393556562,0
2.53999328613281,-1.57476127147675,2.28830313682556,2.10548424720764,-1.57408507527774,2.28853154739156,2.10493089402267,2123.964,2125.76,2127.229,2128.594,0.167955979704857,44.995189666748,359.931396484375,-1.09962439537048,-0.473038882017136,0.671916604042053,-1.10193578218388,-0.474132182551855,0.673155373967352,0
2.55999755859375,-1.59674215316772,2.27884721755981,2.11891770362854,-1.59612191359838,2.27904971150017,2.11839285467467,2127.401,2126.335,2121.002,2123.754,0.251638680696487,44.9949798583984,359.898529052734,-1.09905230998993,-0.472798556089401,0.671676874160767,-1.10123038958312,-0.473828671822132,0.672724460634977,0
2.58000183105469,-1.61870622634888,2.26939845085144,2.1323401927948,-1.61814182127198,2.26957516039323,2.13184447265859,2123.324,2123.594,2120.104,2123.509,0.334299892187119,44.9949264526367,359.865692138672,-1.09819972515106,-0.472435921430588,0.671129703521729,-1.10024313330221,-0.473403883025206,0.672121361178803,0
2.59999084472656,-1.64064753055573,2.25995945930481,2.14574837684631,-1.64012239440973,2.26011753383818,2.14527206178836,2120.897,2121.346,2119.262,2121.76,0.416613191366196,44.9949493408203,359.832672119141,-1.09706926345825,-0.471953392028809,0.670412182807922,-1.09897546783438,-0.47285844198887,0.671346964126033,0
2.6199951171875,-1.66256093978882,2.25053238868713,2.15913772583008,-1.66209156852628,2.2506648119635,2.15869268743396,2115.923,2118.356,2120.762,2120.858,0.500397622585297,44.9951972961426,359.798583984375,-1.09566223621368,-0.47135254740715,0.669468820095062,-1.09742594550583,-0.472191725819537,0.67040038511534,0
2.63999938964844,-1.6844402551651,2.24111986160278,2.17250871658325,-1.68402693989188,2.24122663446822,2.17209266350648,2119.917,2118.894,2114.023,2116.153,0.58455502986908,44.9950103759766,359.765686035156,-1.09397089481354,-0.470631837844849,0.668553411960602,-1.09559602313537,-0.471404361345641,0.669282514094601,0
2.66000366210938,-1.70628035068512,2.23172378540039,2.18585538864136,-1.70592290617745,2.23180541187802,2.18546856763052,2116.289,2116.272,2112.503,2116.047,0.667715907096863,44.9949150085449,359.732879638672,-1.09200048446655,-0.46978884935379,0.667333126068115,-1.09348640563071,-0.470496651869278,0.667993781680938,0
2.67999267578125,-1.72807550430298,2.22234749794006,2.19917416572571,-1.72775723139253,2.2224107117184,2.19880681618649,2114.018,2114.167,2111.407,2114.34,0.750210523605347,44.9949111938477,359.699981689453,-1.08975291252136,-0.468825668096542,0.665934145450592,-1.09109983431736,-0.469469776906228,0.666535862507326,0
2.69999694824219,-1.74981999397278,2.21299266815186,2.21246027946472,-1.74955768413056,2.21303058593937,2.21212437257479,2109.117,2111.141,2112.854,2113.602,0.833716750144958,44.9951400756836,359.666046142578,-1.08723092079163,-0.467744410037994,0.664306163787842,-1.08843358680109,-0.468322565086308,0.664907093505606,0
2.72000122070313,-1.77150845527649,2.20366168022156,2.22571420669556,-1.77130202882336,2.20367460188472,2.22540765343382,2112.941,2111.768,2106.466,2108.807,0.917183756828308,44.9949569702148,359.633361816406,-1.08442652225494,-0.466543972492218,0.662699043750763,-1.08549040888332,-0.467056197851165,0.663109152043028,0
2.739990234375,-1.79313540458679,2.19435715675354,2.23892998695374,-1.79296822271738,2.1943522439355,2.23864319318939,2109.097,2109.123,2105.34,2108.787,0.999495625495911,44.9948959350586,359.600830078125,-1.08134794235229,-0.465223610401154,0.660789847373962,-1.08227399942825,-0.465672266718727,0.661144297698006,0
2.75999450683594,-1.81469535827637,2.18508148193359,2.25210309028625,-1.81458384274179,2.18505164650952,2.2518478381572,2104.161,2105.919,2106.948,2108.268,1.08232986927032,44.9950866699219,359.567291259766,-1.07799792289734,-0.463785588741302,0.658649802207947,-1.07878069424208,-0.464169195088763,0.659010292071722,0
2.77999877929688,-1.8361828327179,2.17583680152893,2.26523351669312,-1.83612684690458,2.17578229366013,2.2650081232283,2107.779,2106.371,2100.99,2103.611,1.16479742527008,44.9949226379395,359.534912109375,-1.07436871528625,-0.462229281663895,0.65652734041214,-1.07501419914593,-0.462548577472581,0.656709398992482,0
2.80000305175781,-1.85759210586548,2.16662573814392,2.278315782547,-1.85759178470316,2.16654653058634,2.2781207187757,2103.848,2103.857,2100.142,2103.497,1.24601030349731,44.9948883056641,359.502685546875,-1.07047033309937,-0.460555404424667,0.654110193252563,-1.07097597819164,-0.460811043810786,0.654242512826704,0
2.81999206542969,-1.87891840934753,2.15745043754578,2.29134654998779,-1.87895695992541,2.1573536925621,2.29117237092199,2101.79,2101.837,2099.185,2101.813,1.32649898529053,44.9949417114258,359.470489501953,-1.06630396842957,-0.458765834569931,0.651534080505371,-1.06667099276523,-0.458958728849171,0.651612664407684,0
2.83999633789063,-1.90015590190887,2.14831304550171,2.3043212890625,-1.90024960698239,2.14819206138118,2.30417971674389,2096.966,2099.063,2100.673,2101.128,1.40796744823456,44.9951858520508,359.437408447266,-1.06187319755554,-0.456862956285477,0.648738086223602,-1.06209435025759,-0.456989527434725,0.648816864916866,0
2.86000061035156,-1.92129898071289,2.13921642303467,2.31724071502686,-1.9214480311499,2.13907097167731,2.31712950327294,2100.963,2099.61,2094.408,2096.531,1.48930478096008,44.9950370788574,359.405639648438,-1.05716824531555,-0.454844266176224,0.645967543125153,-1.05725102347782,-0.454905579228273,0.645858152165725,0
2.87998962402344,-1.94234299659729,2.13016223907471,2.33009886741638,-1.94253086194772,2.12999961857111,2.33000867561624,2097.525,2097.126,2093.038,2096.623,1.56927180290222,44.9949684143066,359.374084472656,-1.05220031738281,-0.45271036028862,0.642910361289978,-1.05214690704168,-0.452709420518306,0.642740127083052,0
2.89999389648438,-1.96328258514404,2.12115287780762,2.34289145469666,-1.96352501326936,2.1209664217661,2.34283367505136,2092.705,2094.208,2094.609,2096.16,1.64938998222351,44.9951629638672,359.341705322266,-1.04697263240814,-0.450463682413101,0.639624416828156,-1.04677621342161,-0.450398561093403,0.639459254158576,0
2.91999816894531,-1.98411226272583,2.11219072341919,2.35561847686768,-1.98440911693069,2.11198057539494,2.35559144808806,2096.193,2094.589,2089.105,2091.703,1.72880792617798,44.9950218200684,359.310546875,-1.0414764881134,-0.448103040456772,0.636352300643921,-1.04114485287423,-0.447975543971863,0.636019143875825,0
2.94000244140625,-2.00482678413391,2.10327816009521,2.36827445030212,-2.00517798053537,2.10304431360073,2.36827882277243,2092.475,2092.228,2088.343,2091.66,1.8067455291748,44.9950103759766,359.279602050781,-1.03572499752045,-0.445631086826324,0.632803380489349,-1.03525504859546,-0.445441325732794,0.632421154350513,0
2.95999145507813,-2.02542114257813,2.09441709518433,2.38085651397705,-2.02581075424974,2.0941666074844,2.38088306226645,2090.51,2090.358,2087.53,2090.085,1.88373136520386,44.9950675964355,359.248809814453,-1.02971911430359,-0.443049222230911,0.629102885723114,-1.02911391720548,-0.442798968459032,0.628669633014836,0
2.97999572753906,-2.04589033126831,2.08560991287231,2.39336037635803,-2.04633384260397,2.08533609591429,2.39342029668558,2086.031,2087.863,2088.895,2089.425,1.96138083934784,44.9953269958496,359.217346191406,-1.02346348762512,-0.440360456705093,0.625198245048523,-1.02271452148052,-0.440045487257004,0.624760342027062,0
3,-2.06622910499573,2.07685875892639,2.40578675270081,-2.06672639957428,2.07656174835205,2.40587779151916,2089.872,2088.239,2083.086,2085.196,2.03859686851501,44.9951934814453,359.187164306641,-1.01694786548615,-0.43756166100502,0.621314585208893,-1.01606400046349,-0.437183953857422,0.620697642517089,0
3.01998901367188,-2.08643293380737,2.06816554069519,2.41812992095947,-2.0869680292999,2.06785234056679,2.41824308725414,2086.565,2086.031,2081.902,2085.276,2.11428499221802,44.9951438903809,359.157318115234,-1.01018643379211,-0.43465518951416,0.617161571979523,-1.00917036754089,-0.434217816196637,0.616486429737696,0
3.03999328613281,-2.10649681091309,2.0595326423645,2.43038582801819,-2.10708469520508,2.05919670122237,2.43053204454123,2082.145,2083.34,2083.326,2084.904,2.18987083435059,44.9953422546387,359.126800537109,-1.00318217277527,-0.431643337011337,0.612798452377319,-1.00202586176059,-0.431143734953757,0.612121962644322,0
3.05999755859375,-2.12641525268555,2.05096197128296,2.44255471229553,-2.12705600675913,2.05060360379452,2.44273220712343,2085.545,2083.668,2078.203,2080.742,2.26447486877441,44.9952087402344,359.097503662109,-0.995925903320313,-0.428524494171143,0.608447015285492,-0.994638524886308,-0.427965170275055,0.607609153824944,0
3.08000183105469,-2.14618396759033,2.04245615005493,2.45463156700134,-2.14687713595163,2.04207512564123,2.45484062564451,2082.077,2081.62,2077.512,2080.676,2.33737564086914,44.9952087402344,359.068634033203,-0.988433301448822,-0.425302565097809,0.603837907314301,-0.987011339258122,-0.424683405378145,0.60294982514457,0
3.09999084472656,-2.1657977104187,2.03401684761047,2.46661329269409,-2.16652837486666,2.03361974652815,2.46684526084616,2080.265,2079.765,2076.824,2079.394,2.40906882286072,44.995288848877,359.039916992188,-0.980705261230469,-0.421978861093521,0.599087655544281,-0.979153483542501,-0.421302389586788,0.598149583707317,0
3.1199951171875,-2.18525266647339,2.02564525604248,2.47849631309509,-2.18603502400946,2.02522658035469,2.47876156841225,2076.197,2077.626,2078.056,2078.718,2.48104190826416,44.9955368041992,359.0107421875,-0.972747266292572,-0.418556809425354,0.594151616096497,-0.971056158224178,-0.417818336715394,0.593203054026623,0
3.13999938964844,-2.20454359054565,2.01734471321106,2.49028086662292,-2.20537738341953,2.01690410346351,2.49057751394429,2079.596,2077.998,2072.985,2074.787,2.55233287811279,44.9954414367676,358.98291015625,-0.964549422264099,-0.415033459663391,0.589228332042694,-0.962728579444533,-0.414235212212131,0.588115866099442,0
3.16000366210938,-2.22366642951965,2.00911617279053,2.50196218490601,-2.22455088103183,2.00865428308644,2.50229030443911,2076.783,2075.863,2071.788,2075.023,2.62195539474487,44.9954109191895,358.955444335938,-0.956127524375916,-0.411411792039871,0.584067821502686,-0.954174163352092,-0.410554485950274,0.582890106797601,0
3.17999267578125,-2.24261617660522,2.00096225738525,2.51353740692139,-2.24353658854737,2.00048526354177,2.51388837689424,2075.023,2074.377,2071.044,2073.684,2.69015717506409,44.9954605102539,358.928283691406,-0.947482764720917,-0.407693415880203,0.578762054443359,-0.945403214201559,-0.406780591562751,0.577532070829503,0
3.19999694824219,-2.26138854026794,1.99288463592529,2.52500295639038,-2.2623590635174,1.99238647840124,2.5253867331345,2071.281,2072.245,2072.139,2073.191,2.75826048851013,44.9956893920898,358.900726318359,-0.938620924949646,-0.403881758451462,0.573280453681946,-0.936405971974636,-0.402909329586355,0.572035795952272,0
3.22000122070313,-2.27997922897339,1.98488521575928,2.53635907173157,-2.28099938900442,1.98436606709459,2.53677381709797,2074.628,2072.61,2067.323,2069.434,2.82526350021362,44.9955902099609,358.87451171875,-0.929532766342163,-0.399974375963211,0.567810535430908,-0.927192788821982,-0.398945154262308,0.566407606133204,0
3.239990234375,-2.29838371276855,1.97696590423584,2.54760122299194,-2.2994392795179,1.97643189735754,2.54803845846384,2071.611,2070.72,2066.563,2069.619,2.89038515090942,44.9955863952637,358.848785400391,-0.920235931873322,-0.395975649356842,0.562108516693115,-0.917774783907129,-0.394892849856044,0.560654293895788,0
3.25999450683594,-2.31659841537476,1.96912789344788,2.55872583389282,-2.31770268688992,1.96857366338589,2.55919528903255,2067.915,2068.506,2067.813,2069.319,2.95491719245911,44.9957962036133,358.822692871094,-0.91073340177536,-0.391887992620468,0.556233704090118,-0.90814153446928,-0.390747931744771,0.554769492138098,0
3.27999877929688,-2.33461904525757,1.96137368679047,2.56973314285278,-2.33577134012187,1.96079922667992,2.57023314733618,2070.813,2068.833,2063.666,2065.714,3.01812553405762,44.9957237243652,358.797912597656,-0.901017069816589,-0.387709677219391,0.550366163253784,-0.898304216251578,-0.386515208538549,0.548760027947228,0
3.30000305175781,-2.35244083404541,1.95370495319366,2.5806188583374,-2.35364119854729,1.95311032582551,2.58114956499463,2067.954,2066.968,2063.089,2065.933,3.07944989204407,44.9957542419434,358.773590087891,-0.891104400157928,-0.383445620536804,0.544286906719208,-0.888267004546666,-0.382196476749158,0.542628451944297,0
3.31999206542969,-2.37006092071533,1.94612288475037,2.59138083457947,-2.37129490830989,1.94551442770222,2.59193394080789,2066.639,2065.716,2062.403,2064.652,3.13921618461609,44.9958343505859,358.749725341797,-0.880996227264404,-0.379097282886505,0.538093328475952,-0.878042061913513,-0.37779696958594,0.536382194046788,0
3.33999633789063,-2.38747501373291,1.93862974643707,2.60201573371887,-2.38875555478454,1.93800159931817,2.60260037727124,2063.048,2063.852,2063.617,2064.371,3.19870400428772,44.9960861206055,358.725646972656,-0.870699942111969,-0.374668329954147,0.53173953294754,-0.867618167158097,-0.373311858882592,0.530014399402376,0
3.36000061035156,-2.4046790599823,1.93122637271881,2.61252379417419,-2.406005803634,1.93057929915441,2.61313828510855,2066.406,2064.134,2059.192,2061.051,3.2569591999054,44.9960021972656,358.702880859375,-0.860205888748169,-0.370155841112137,0.525408446788788,-0.857007552155826,-0.36874640767338,0.523532540272868,0
3.37998962402344,-2.42166948318481,1.92391514778137,2.62290120124817,-2.42302905329872,1.92325467039821,2.62353752268616,2063.784,2062.72,2058.457,2061.147,3.31319665908813,44.9960174560547,358.680755615234,-0.849532783031464,-0.365564942359924,0.518872320652008,-0.846223126656603,-0.364106170663035,0.516944503023036,0
3.39999389648438,-2.43844318389893,1.91669702529907,2.63314485549927,-2.43984769972619,1.91601807669906,2.63381177133889,2060.666,2060.674,2059.485,2061.107,3.36846780776978,44.9961967468262,358.658477783203,-0.83868408203125,-0.360897690057755,0.512187302112579,-0.835253140422974,-0.35938609205264,0.510243109616171,0
3.41999816894531,-2.45499658584595,1.90957379341125,2.64325499534607,-2.45644516534361,1.90887665092339,2.64395090408624,2063.309,2061.004,2055.9,2057.949,3.42205214500427,44.9961395263672,358.637481689453,-0.827652871608734,-0.356152951717377,0.505509316921234,-0.824110582941664,-0.354591760855451,0.503436295127018,0
3.44000244140625,-2.47132563591003,1.90254735946655,2.65322804450989,-2.47281804716281,1.90183185728196,2.6539528420958,2060.721,2059.5,2055.568,2058.155,3.47351717948914,44.9961853027344,358.617065429688,-0.816457390785217,-0.351336479187012,0.498647272586823,-0.812800388649434,-0.349725300221754,0.496527073925997,0
3.45999145507813,-2.48742771148682,1.89561808109283,2.66306185722351,-2.48895081463434,1.8948903781363,2.66380809799729,2059.666,2058.38,2055.055,2057.147,3.52318215370178,44.9962730407715,358.597198486328,-0.80509877204895,-0.346449643373489,0.491692572832108,-0.80133641229185,-0.344792671461508,0.489523909660973,0
3.47999572753906,-2.50329947471619,1.88878834247589,2.67275404930115,-2.50486489870395,1.88804299234919,2.67352976362102,2056.566,2056.969,2056.194,2056.852,3.57218337059021,44.996509552002,358.577362060547,-0.793585121631622,-0.341496765613556,0.484604030847549,-0.789706299681989,-0.339788558913217,0.482419255351936,0
3.5,-2.51893758773804,1.88205885887146,2.68230485916138,-2.5205447997813,1.88129636896134,2.68310837050915,2059.615,2057.157,2052.426,2054.101,3.61967325210571,44.996467590332,358.558807373047,-0.781908512115479,-0.336474925279617,0.47754117846489,-0.777924000354857,-0.334718964672089,0.475221632552147,0
3.51998901367188,-2.53433918952942,1.87543106079102,2.69171094894409,-2.53597583877076,1.87465682397749,2.69253495143119,2057.438,2055.988,2051.823,2054.299,3.664959192276,44.9964828491211,358.540985107422,-0.770087718963623,-0.331389933824539,0.470307946205139,-0.766004036374581,-0.329590137176618,0.467939912563966,0
3.53999328613281,-2.54950165748596,1.86890602111816,2.7009699344635,-2.55117869390181,1.86811546013321,2.70182213839487,2054.758,2054.419,2052.822,2054.26,3.70895743370056,44.9966659545898,358.523254394531,-0.758126854896545,-0.326244115829468,0.462951302528381,-0.753933682518821,-0.324396601119134,0.46056632174764,0
3.55999755859375,-2.5644223690033,1.86248540878296,2.71008205413818,-2.56613872308604,1.86167857751006,2.71096098677687,2057.205,2054.719,2049.803,2051.626,3.75102090835571,44.9966316223145,358.5068359375,-0.746020495891571,-0.321036577224731,0.455609411001205,-0.741727567798258,-0.319144650954242,0.45310979673751,0
3.58000183105469,-2.57909798622131,1.85616981983185,2.71904444694519,-2.58085326729328,1.85534732021446,2.71994987221714,2055.07,2053.461,2049.586,2051.969,3.79077172279358,44.9967002868652,358.491027832031,-0.733786821365356,-0.315773338079453,0.448117554187775,-0.729391385793765,-0.313836736470737,0.44557381565329,0
3.59999084472656,-2.59352660179138,1.8499608039856,2.72785544395447,-2.59530884290342,1.84912748987145,2.72878055778257,2054.156,2052.758,2049.334,2051.05,3.82851266860962,44.9968070983887,358.475982666016,-0.721427917480469,-0.310456186532974,0.44055238366127,-0.716940488958392,-0.308479463400265,0.437967757068975,0
3.6199951171875,-2.60770559310913,1.84385895729065,2.73651313781738,-2.60952509409627,1.84301063413925,2.73746504379605,2051.814,2051.447,2050.248,2051.073,3.86517000198364,44.9970169067383,358.461090087891,-0.708951950073242,-0.305088967084885,0.432888448238373,-0.704361775018033,-0.303067194200314,0.43028361700977,0
3.63999938964844,-2.62163257598877,1.83786582946777,2.74501800537109,-2.6234885835008,1.83700253474321,2.74599512157732,2054.354,2051.897,2047.277,2048.667,3.90001320838928,44.997013092041,358.447540283203,-0.696353673934937,-0.299670279026031,0.425249516963959,-0.691670720740692,-0.297606588091786,0.422530849991739,0
3.65998840332031,-2.63530564308167,1.83198165893555,2.75336766242981,-2.63718676607487,1.8311085894645,2.7543631275559,2052.73,2050.853,2046.811,2049.081,3.93245887756348,44.9970474243164,358.434783935547,-0.68365091085434,-0.294205605983734,0.417481511831284,-0.678883253871145,-0.292104498338286,0.414719186025619,0
3.67999267578125,-2.64872241020203,1.82620763778687,2.76155996322632,-2.65063849381582,1.82532068681534,2.76258057812278,2050.479,2049.766,2047.831,2049.081,3.963294506073,44.9972267150879,358.422302246094,-0.670848906040192,-0.288697898387909,0.40961766242981,-0.665986083416798,-0.286555206197011,0.406840505851433,0
3.69999694824219,-2.66188144683838,1.82054471969604,2.76959562301636,-2.66383127580226,1.81964420129024,2.77063984276899,2052.769,2050.115,2045.37,2046.955,3.99195194244385,44.9972152709961,358.411163330078,-0.657943844795227,-0.283146560192108,0.401780903339386,-0.65299527533123,-0.280965624398954,0.398904623909523,0
