t,x_s1,x_s2,x_s3,x_s_d1,x_s_d2,x_s_d3,propellers_rpms1,propellers_rpms2,propellers_rpms3,propellers_rpms4,rollRad,pitchRad,yawRad,v_s1,v_s2,v_s3,v_s_d1,v_s_d2,v_s_d3,insideCount
0,-0.0599999986588955,2.94000005722046,1.17999994754791,-0.0599999986588955,2.94000005722046,1.17999994754791,0,0,0,0,0,45.0048027038574,0,0,0,0,-1.06581410364015E-15,4.44089209850063E-16,-7.105427357601E-16,0
0.019989013671875,-0.0599999986588955,2.94000005722046,1.17705690860748,-0.0600018659130177,2.93999925379318,1.18000108822432,0,0,0,0,0.937003672122955,44.8630027770996,-0.00115976633969694,3.71994488546079E-08,3.50004931704007E-08,-0.147149950265884,-0.000279680311988734,-0.000120338624884473,0.000170852338267345,5
0.0399932861328125,-0.0599999986588955,2.94000005722046,1.17018985748291,-0.060014863945674,2.93999366110285,1.18000902851964,0,0,0,0,1.87400352954865,44.7211418151855,-0.00311126722954214,3.70364325874561E-08,3.5142885934647E-08,-0.343349903821945,-0.00111059898697896,-0.000477859717552347,0.000678447590588643,6
0.05999755859375,-0.0599062219262123,2.94009447097778,1.16346514225006,-0.0600498857373401,2.93997859220429,1.18003042278566,3197.548,2848.816,1517.007,2782.242,1.40356075763702,44.741340637207,0.028959833085537,0.0046887663193047,0.00471893884241581,-0.336234629154205,-0.00247936261166862,-0.00106680046642749,0.00151460392977639,6
0.0800018310546875,-0.0597377866506577,2.94026732444763,1.15723752975464,-0.0601175574246769,2.93994947496775,1.18007176236346,2865.569,2651.698,2344.584,2562.293,0.339458614587784,44.8158149719238,0.0998864769935608,0.00842183083295822,0.00864457525312901,-0.311381936073303,-0.00437268608126799,-0.00188144466206175,0.00267120569262453,6
0.0999908447265625,-0.059556320309639,2.94046425819397,1.15151953697205,-0.0602281370710988,2.93990189563514,1.1801393137439,2239.838,2528.093,3138.061,2508.591,359.321350097656,44.9191131591797,0.178631111979485,0.00907337944954634,0.00984862074255943,-0.285901695489883,-0.00677536694902951,-0.00291525111632684,0.00413896594164447,5
0.1199951171875,-0.0594244487583637,2.94063210487366,1.146568775177,-0.0603918861403606,2.93983143898525,1.18023934549506,2123.527,2454.647,3352.138,2464.553,358.749847412109,44.9999008178711,0.253327608108521,0.00659362785518169,0.00839763507246971,-0.247538939118385,-0.00967801353495435,-0.00416417885169243,0.00591214744607921,5
0.139999389648438,-0.059383075684309,2.94074010848999,1.14257049560547,-0.0606185767455666,2.93973390035084,1.18037782724834,2312.496,2456.743,3068.972,2463.2,358.636169433594,45.0326614379883,0.326423346996307,0.00206869840621948,0.00539760151877999,-0.199915066361427,-0.0130660253322238,-0.00562194567796536,0.00798183098414958,5
0.160003662109375,-0.059443473815918,2.9407856464386,1.13952434062958,-0.0609177895434042,2.93960515744296,1.18056061167741,2536.712,2486.771,2635.259,2491.944,358.757019042969,45.0249786376953,0.398274898529053,-0.00301992753520608,0.00227848067879677,-0.15230792760849,-0.0169265510445065,-0.00728302204135792,0.0103401658994673,5
0.17999267578125,-0.0596002265810966,2.94078159332275,1.13730919361115,-0.0612985250199726,2.93944133760391,1.18079319703879,2666.572,2506.07,2302.418,2513.254,358.864227294922,44.99853515625,0.46744379401207,-0.00783766899257898,-0.000198294874280691,-0.110755003988743,-0.0212433804254414,-0.00914043312572283,0.0129772496054864,5
0.199996948242188,-0.0598478242754936,2.94073987007141,1.13576090335846,-0.0617704296168641,2.93923829023936,1.1810814761931,2653.153,2499.974,2183.674,2508.723,358.817016601563,44.9744033813477,0.532848596572876,-0.01237996481359,-0.00209184410050511,-0.0774163752794266,-0.0260104776919234,-0.0111915819022102,0.0158893949364944,5
0.220001220703125,-0.0601897984743118,2.94066214561462,1.13474535942078,-0.0623420644491781,2.93899233174064,1.18143067899198,2540.702,2470.662,2245.429,2478.74,358.612548828125,44.9636688232422,0.594542384147644,-0.0170987732708454,-0.00388211314566433,-0.0507754050195217,-0.03121219533433,-0.0134297356845702,0.0190670430730375,5
0.239990234375,-0.0606390945613384,2.9405415058136,1.13419342041016,-0.0630214373585105,2.93870001655724,1.18184569730089,2411.861,2429.789,2373.974,2437.323,358.334686279297,44.9659004211426,0.652697443962097,-0.0224648080766201,-0.00603249948471785,-0.0275953393429518,-0.0368316683029241,-0.015847637913056,0.0224998914194052,5
0.259994506835938,-0.0612134970724583,2.94036602973938,1.13409042358398,-0.0638179029240226,2.93835731967507,1.18233224568626,2329.226,2391.766,2462.96,2398.768,358.076446533203,44.9739074707031,0.70768791437149,-0.0287200473248959,-0.0087690856307745,-0.00515229254961014,-0.0428651747123285,-0.0184436871643672,0.0261856663338995,4
0.279998779296875,-0.0619300752878189,2.94012498855591,1.13444066047668,-0.0647390625194898,2.93796097043536,1.18289496770872,2306.129,2365.28,2469.761,2370.453,357.887268066406,44.9803085327148,0.760526180267334,-0.0358288772404194,-0.0120572559535503,0.0175126791000366,-0.0492963837173861,-0.0212108567320638,0.0301143915580518,4
0.300003051757813,-0.0628016516566277,2.93981075286865,1.13523638248444,-0.0657927507678135,2.93750759781875,1.18353864941714,2317.581,2348.29,2415.502,2353.497,357.76513671875,44.9817733764648,0.81132972240448,-0.0435789190232754,-0.0157070029526949,0.0397883541882038,-0.0561132031658829,-0.0241439437008635,0.0342786801847687,4
0.319992065429688,-0.063836507499218,2.93942022323608,1.13644933700562,-0.0669855955880233,2.93699435001684,1.18426733970383,2334.815,2336.507,2342.633,2341.673,357.678558349609,44.9788246154785,0.860104143619537,-0.0517427399754524,-0.0195242427289486,0.0606477931141853,-0.0632980253096114,-0.0272353719486164,0.0386677759154339,4
0.339996337890625,-0.065040186047554,2.93895220756531,1.13803589344025,-0.068326768706371,2.93641728069206,1.18508664143323,2337.252,2324.448,2287.4,2330.265,357.594421386719,44.9741706848145,0.906466960906982,-0.060183934867382,-0.0234040319919586,0.0793299600481987,-0.0708499516420146,-0.0304847548730522,0.0432811298664125,4
0.360000610351563,-0.0664177611470222,2.93840527534485,1.1399507522583,-0.0698225328270578,2.93577369517774,1.18600038039362,2322.734,2310.85,2261.334,2315.632,357.494689941406,44.9702911376953,0.950758516788483,-0.0688786804676056,-0.0273429062217474,0.095741018652916,-0.0787518717320621,-0.0338847303337087,0.0481082895423912,4
0.379989624023438,-0.0679750964045525,2.93777751922607,1.14215397834778,-0.0714784451857985,2.93506120235061,1.18701195141357,2295.617,2294.433,2260.668,2299.564,357.379852294922,44.9685325622559,0.992767453193665,-0.077866792678833,-0.0313900075852871,0.110161855816841,-0.0869857157641562,-0.0374275233937465,0.0531382163749952,4
0.399993896484375,-0.0697190761566162,2.93706560134888,1.1446168422699,-0.0733036822025899,2.9342758538535,1.18812696022487,2267.988,2277.477,2269.119,2283.138,357.261749267578,44.9687728881836,1.03226959705353,-0.0871990919113159,-0.0355981439352036,0.123141705989838,-0.0955525119207663,-0.0411135764513579,0.0583715384648505,4
0.419998168945313,-0.0716569796204567,2.93626570701599,1.14732038974762,-0.0753034649285836,2.93341540321397,1.18934859628618,2249.573,2263.219,2270.507,2267.365,357.152221679688,44.9698753356934,1.06996095180511,-0.0968953296542168,-0.0399897694587708,0.135178506374359,-0.104434660908044,-0.0449353170220673,0.0637975046779765,4
0.44000244140625,-0.0737955942749977,2.93537473678589,1.15024816989899,-0.077483988232608,2.93247718495301,1.19068064394622,2237.992,2250.605,2263.221,2255.088,357.057006835938,44.971004486084,1.10573840141296,-0.106930829584599,-0.0445480421185493,0.146386116743088,-0.113620829717891,-0.048887868829098,0.0694091918565748,4
0.459991455078125,-0.076140858232975,2.93438982963562,1.1533842086792,-0.0798493430620752,2.93145943885026,1.1921256023009,2232.225,2240.393,2248.641,2244.884,356.975463867188,44.9716567993164,1.13962340354919,-0.117263153195381,-0.0492406785488129,0.156803756952286,-0.123092454730403,-0.0529632444654124,0.0751952597749251,4
0.479995727539063,-0.0786977857351303,2.93330907821655,1.15671122074127,-0.0824088828700873,2.93035814037613,1.19368918522879,2227.069,2231.457,2233.426,2236.431,356.903411865234,44.9719390869141,1.17140507698059,-0.127845898270607,-0.0540347807109356,0.166349649429321,-0.132852887402757,-0.0571628859694044,0.0811577557859174,4
0.5,-0.0814707800745964,2.93213081359863,1.16021287441254,-0.085166398670376,2.92917165836334,1.195373708601,2223.092,2224.497,2218.951,2227.853,356.835906982422,44.9719924926758,1.20176637172699,-0.138650119304657,-0.0589120350778103,0.175080552697182,-0.142884000065179,-0.0614789935111996,0.0872856059789651,5
0.519989013671875,-0.0844639018177986,2.93085360527039,1.16387188434601,-0.0881248588203387,2.92789871561062,1.19718098574075,2215.316,2216.906,2211.02,2220.858,356.77001953125,44.972282409668,1.23042833805084,-0.149656161665916,-0.0638625249266624,0.182948723435402,-0.153166947611899,-0.0659034585682559,0.0935672981730243,5
0.539993286132813,-0.0876811146736145,2.92947578430176,1.16767358779907,-0.091293865515634,2.92653518056143,1.19911688247953,2206.219,2209.431,2208.105,2214.191,356.706237792969,44.9730110168457,1.25703227519989,-0.160860851407051,-0.0688890069723129,0.190084725618362,-0.163706645289342,-0.0704383960337938,0.100005835015435,5
0.55999755859375,-0.091126412153244,2.92799592018127,1.17160797119141,-0.094676112580471,2.92507989413848,1.20118304443252,2200.47,2204.081,2204.125,2206.936,356.645782470703,44.973949432373,1.28240585327148,-0.172264903783798,-0.0739961862564087,0.196716621518135,-0.17448465888317,-0.0750758741803766,0.106589955332319,5
0.580001831054688,-0.0948035418987274,2.92641234397888,1.1756649017334,-0.0982762614093182,2.92353085067394,1.20338231917284,2194.153,2198.318,2201.709,2201.907,356.589721679688,44.9750747680664,1.30623531341553,-0.183856040239334,-0.0791784450411797,0.202849105000496,-0.185490414529404,-0.0798113433697334,0.113313199715174,5
0.599990844726563,-0.0987160429358482,2.92472362518311,1.1798369884491,-0.102095761416081,2.92188742652551,1.20571559212485,2189.911,2193.744,2198.543,2197.3,356.538879394531,44.9762802124023,1.32854235172272,-0.195625513792038,-0.0844313427805901,0.208603754639626,-0.19670480600515,-0.0846365827279185,0.120163896470579,5
0.6199951171875,-0.102867186069489,2.92292881011963,1.18411707878113,-0.106144683970236,2.92014528826426,1.208189015731,2185.981,2189.573,2195.916,2193.836,356.493530273438,44.9775085449219,1.34902667999268,-0.207557395100594,-0.0897461101412773,0.214007094502449,-0.208134604141382,-0.0895545055543457,0.127146181793521,5
0.639999389648438,-0.107260018587112,2.92102646827698,1.18850111961365,-0.110424235525481,2.91830391678686,1.21080332699501,2185.862,2187.645,2190.201,2189.903,356.45263671875,44.9785499572754,1.36855888366699,-0.219641283154488,-0.0951170474290848,0.21920120716095,-0.219761081350814,-0.0945570538913933,0.134248615293163,5
0.660003662109375,-0.111897155642509,2.91901588439941,1.1929829120636,-0.114938248900541,2.91636166293851,1.21356086732604,2183.332,2184.938,2187.499,2187.961,356.414764404297,44.9795913696289,1.386798620224,-0.231857419013977,-0.100532859563828,0.224088370800018,-0.231574097577923,-0.0996398647564507,0.141465002567821,5
0.67999267578125,-0.116781167685986,2.91689610481262,1.19755828380585,-0.119686638739014,2.91431856344567,1.2164615845812,2181.403,2182.874,2185.964,2185.991,356.379577636719,44.9807052612305,1.40370404720306,-0.244200706481934,-0.105991631746292,0.228766515851021,-0.243554411173546,-0.104794659005432,0.14878358919428,5
0.699996948242188,-0.12191441655159,2.91466641426086,1.20222342014313,-0.124680083855354,2.91217002351282,1.2195120022816,2178.562,2180.748,2186.61,2184.716,356.347625732422,44.98193359375,1.41890680789948,-0.256662160158157,-0.111490473151207,0.233256608247757,-0.255710395848158,-0.11002503961202,0.1562094905416,5
0.720001220703125,-0.127299204468727,2.91232585906982,1.20697796344757,-0.129918284978346,2.90991617190799,1.22271193760712,2179.669,2180.828,2184.043,2182.488,356.318756103516,44.9830436706543,1.43340885639191,-0.269239902496338,-0.117030151188374,0.237729266285896,-0.268023157655716,-0.11532287703907,0.163731164592979,5
0.739990234375,-0.132937550544739,2.90987372398376,1.21181952953339,-0.135400001298574,2.90755754251682,1.22606063256665,2178.351,2179.739,2184.089,2182.344,356.292388916016,44.9841842651367,1.44679582118988,-0.281917750835419,-0.122601859271526,0.242076486349106,-0.280473432677602,-0.12067988256057,0.171336843321139,5
0.759994506835938,-0.138831362128258,2.90730953216553,1.2167466878891,-0.14113644597991,2.90508931062815,1.22956493710703,2176.764,2178.645,2185.768,2182.423,356.269226074219,44.985424041748,1.45856380462646,-0.294690400362015,-0.128203719854355,0.246357887983322,-0.293070637251543,-0.126100107763583,0.179032279019858,5
0.779998779296875,-0.144982472062111,2.90463280677795,1.22176134586334,-0.147126184485884,2.90251209348295,1.2332239748923,2179.313,2179.928,2183.641,2181.259,356.248931884766,44.9864654541016,1.46977508068085,-0.307555943727493,-0.133836135268211,0.250732868909836,-0.305795832832518,-0.131575403921268,0.186805902427515,5
0.800003051757813,-0.151392415165901,2.90184307098389,1.22686266899109,-0.153371683173492,2.89982482987671,1.23703925258147,2179.012,2179.772,2184.276,2182.208,356.230651855469,44.9875068664551,1.4799462556839,-0.320497214794159,-0.139489725232124,0.255064606666565,-0.318639638509124,-0.13710173468952,0.194651982891718,5
0.819992065429688,-0.158062651753426,2.89893984794617,1.23205137252808,-0.159870162197751,2.89702871589906,1.24100907201063,2179.47,2180.198,2185.255,2182.73,356.214508056641,44.9885520935059,1.48903584480286,-0.333512037992477,-0.145164355635643,0.259438157081604,-0.33158286215529,-0.142670842232658,0.202558796242139,5
0.839996337890625,-0.164994478225708,2.89592266082764,1.23732817173004,-0.166633637018892,2.89411858163313,1.24514077323692,2178.784,2180.243,2187.951,2183.811,356.201202392578,44.9896659851074,1.49659657478333,-0.346591532230377,-0.150857076048851,0.263839721679688,-0.344636106234817,-0.148287288494656,0.210532819358465,5
0.860000610351563,-0.172189190983772,2.89279127120972,1.24269676208496,-0.173659158941841,2.89109569582005,1.24943255494854,2182.461,2182.638,2186.346,2183.441,356.190338134766,44.9905662536621,1.50382995605469,-0.359735429286957,-0.156569227576256,0.268430531024933,-0.357780475378537,-0.153942943326036,0.218562509354528,5
0.879989624023438,-0.179647713899612,2.88954544067383,1.24815762042999,-0.18094280014554,2.88796174849148,1.2538820177009,2182.811,2183.197,2187.717,2185.3,356.180999755859,44.9914436340332,1.51016557216644,-0.372926086187363,-0.162290930747986,0.273044914007187,-0.370996904517929,-0.159629603560431,0.226636219677473,5
0.899993896484375,-0.187370926141739,2.88618493080139,1.25371217727661,-0.18849723509595,2.8847112861788,1.25849690412748,2182.406,2183.493,2190.979,2187.026,356.174011230469,44.9924049377441,1.51498639583588,-0.386160165071487,-0.168021634221077,0.277725130319595,-0.384296738353309,-0.165352150505452,0.234760880627692,5
0.919998168945313,-0.195359706878662,2.88270974159241,1.25936484336853,-0.196318384305134,2.8813460641717,1.26327472213274,2186.454,2186.325,2189.732,2186.956,356.169036865234,44.9931526184082,1.51955235004425,-0.399438887834549,-0.173764124512672,0.282634824514389,-0.397661187980262,-0.171102499820431,0.242925014356675,5
0.94000244140625,-0.203614592552185,2.8791196346283,1.26511669158936,-0.204407453948074,2.87786556348678,1.26821620855017,2186.898,2187.141,2191.59,2189.129,356.165283203125,44.9939079284668,1.52326822280884,-0.412744760513306,-0.179508820176125,0.287593126296997,-0.411081631631503,-0.176876941799768,0.251123353961324,5
0.959991455078125,-0.212136149406433,2.87541460990906,1.27097034454346,-0.212759000778906,2.87427212620069,1.27331803818581,2188.098,2188.436,2193.535,2190.561,356.1630859375,44.9946517944336,1.52607619762421,-0.426077991724014,-0.185257166624069,0.292683124542236,-0.424539267042903,-0.182667386354485,0.259344413431889,5
0.979995727539063,-0.220924735069275,2.87159442901611,1.27692770957947,-0.22138664033507,2.87055989392801,1.27858852855901,2187.846,2189.073,2197.151,2192.462,356.163391113281,44.9954795837402,1.5274316072464,-0.439430266618729,-0.191006645560265,0.297869652509689,-0.438046240701377,-0.188479059778567,0.267595612867683,5
1,-0.229980796575546,2.86765933036804,1.28299415111542,-0.230284798736574,2.86673126495361,1.28402427467346,2192.471,2192.274,2195.551,2192.489,356.165740966797,44.9960327148438,1.52871286869049,-0.452802687883377,-0.196759268641472,0.303319692611694,-0.451584000205995,-0.194303979492187,0.275865618896484,5
1.01998901367188,-0.239304319024086,2.86360931396484,1.28917062282562,-0.239446912293295,2.86278906344998,1.2896212668733,2193.108,2193.146,2197.195,2194.944,356.169189453125,44.9965896606445,1.5292272567749,-0.466176062822342,-0.202504247426987,0.308824449777603,-0.46513400752272,-0.200134169097193,0.284143106922576,5
1.03999328613281,-0.248895257711411,2.85944437980652,1.29545891284943,-0.248887339851819,2.85872711120656,1.29538827675384,2192.701,2193.611,2200.898,2197.029,356.174621582031,44.9972305297852,1.52827525138855,-0.479548007249832,-0.208241730928421,0.314417034387589,-0.478708875293167,-0.205975055460915,0.292435781811908,5
1.05999755859375,-0.258753687143326,2.85516476631165,1.30186438560486,-0.258599401509697,2.85454828239877,1.3013212236669,2197.206,2196.825,2199.371,2196.921,356.181671142578,44.9976387023926,1.52729856967926,-0.492921322584152,-0.2139752805233,0.320270985364914,-0.492290296490434,-0.211818761581115,0.30073246008742,5
1.08000183105469,-0.268879234790802,2.85077095031738,1.30838775634766,-0.268583149539609,2.85025255453512,1.30742013954506,2197.459,2197.568,2201.313,2199.265,356.189575195313,44.9980697631836,1.52559614181519,-0.50627738237381,-0.219694837927818,0.326168388128281,-0.50587040849135,-0.217661904390701,0.309028338595312,5
1.09999084472656,-0.279271602630615,2.84626293182373,1.31503164768219,-0.278830554044452,2.84584338265603,1.31368011904947,2198.534,2198.723,2203.177,2200.685,356.198669433594,44.9985008239746,1.52305543422699,-0.519618034362793,-0.225402444601059,0.332196265459061,-0.519431110871131,-0.223496695782555,0.317312360068532,5
1.1199951171875,-0.289930313825607,2.84164094924927,1.32179772853851,-0.289357002179081,2.84131414609862,1.32011056195293,2197.813,2199.116,2206.885,2202.457,356.210144042969,44.9990272521973,1.51908040046692,-0.532934606075287,-0.231095716357231,0.338302582502365,-0.532985466132485,-0.229328756186667,0.32559250418615,5
1.13999938964844,-0.30085489153862,2.83690547943115,1.32869112491608,-0.300154365346813,2.83666834237095,1.32670650262257,2202.577,2202.261,2204.574,2202.075,356.223541259766,44.999267578125,1.51520550251007,-0.546229660511017,-0.236777409911156,0.34467014670372,-0.546515580872639,-0.235150386571708,0.333857840147634,5
1.16000366210938,-0.312044501304626,2.83205676078796,1.33571219444275,-0.311222084148811,2.83190621216671,1.33346759933036,2202.721,2202.737,2205.896,2204.323,356.237731933594,44.9995079040527,1.51065242290497,-0.559482455253601,-0.242435723543167,0.351054102182388,-0.560014026276883,-0.240958390526247,0.342103829805999,6
1.17999267578125,-0.323498398065567,2.82709527015686,1.34286296367645,-0.322550701230474,2.8270318247214,1.34038807472597,2203.533,2203.671,2207.333,2205.468,356.252960205078,44.9997596740723,1.50533139705658,-0.572694659233093,-0.248072519898415,0.357538521289825,-0.573463232144024,-0.246745208083563,0.350319739799517,6
1.19999694824219,-0.33521556854248,2.822021484375,1.3501443862915,-0.334156660511822,2.8220381046756,1.34747797414352,2202.357,2203.656,2210.85,2207.027,356.270385742188,45.000129699707,1.49856281280518,-0.585858166217804,-0.253685683012009,0.364068448543549,-0.58687652428584,-0.252516572968185,0.358513710658656,6
1.22000122070313,-0.347195088863373,2.81683588027954,1.3575611114502,-0.346030421585499,2.81692915700008,1.35473146949704,2206.92,2206.565,2208.095,2206.213,356.28955078125,45.0002098083496,1.49196362495422,-0.598976254463196,-0.259278655052185,0.370836943387985,-0.600236516861372,-0.258265004538453,0.366675121644476,6
1.239990234375,-0.359435677528381,2.81153917312622,1.36511278152466,-0.358161486344149,2.81170949873715,1.36214214765657,2206.534,2206.66,2209.239,2208.133,356.309417724609,45.000316619873,1.48473310470581,-0.612028181552887,-0.264839500188828,0.377584606409073,-0.613526094901141,-0.263983138701136,0.374793517489195,6
1.25999450683594,-0.371935904026031,2.8061318397522,1.37279975414276,-0.3705671011502,2.80637170925886,1.36972054415578,2204.972,2206.122,2212.611,2209.628,356.331146240234,45.0005798339844,1.47599494457245,-0.625013053417206,-0.270369112491608,0.384349852800369,-0.626758665639206,-0.269676744214496,0.382877088462885,6
1.27999877929688,-0.384694635868073,2.80061435699463,1.38062632083893,-0.383236695417198,2.80092033679326,1.37746020158837,2209.213,2208.824,2209.678,2208.398,356.354370117188,45.000560760498,1.46745669841766,-0.637934923171997,-0.275871872901917,0.391329675912857,-0.639917282339435,-0.275338529371412,0.39091548206889,6
1.30000305175781,-0.397710114717484,2.79498767852783,1.38859152793884,-0.396168722856641,2.79535604666509,1.38536017535082,2208.3,2208.578,2210.837,2210.021,356.378204345703,45.0005989074707,1.45829820632935,-0.650773525238037,-0.281336307525635,0.398258775472641,-0.652995275331231,-0.280965624398954,0.398904623909522,6
1.31999206542969,-0.410980761051178,2.78925228118896,1.39669632911682,-0.409351342777246,2.78968393359302,1.39341323214959,2208.396,2208.761,2211.805,2210.52,356.403106689453,45.000659942627,1.44838607311249,-0.663532197475433,-0.286765187978745,0.405238598585129,-0.665976209205206,-0.286550957599616,0.406834473849655,6
1.33999633789063,-0.42450475692749,2.78340911865234,1.404940366745,-0.422802873722428,2.78389611561957,1.401630562497,2206.345,2208.031,2214.889,2211.415,356.430419921875,45.0008697509766,1.43702042102814,-0.676202237606049,-0.292156010866165,0.412203788757324,-0.678873453515705,-0.29210028151913,0.41471319914141,6
1.36000061035156,-0.438280522823334,2.77745890617371,1.41332769393921,-0.436511415158101,2.77799771321212,1.41000489654248,2210.714,2210.428,2210.951,2209.784,356.459564208984,45.0007591247559,1.42594957351685,-0.68878698348999,-0.29751193523407,0.419365048408508,-0.691670720740693,-0.297606588091785,0.422530849991739,6
1.37998962402344,-0.452305823564529,2.77140259742737,1.42185640335083,-0.450464156928423,2.77199423822282,1.41852840876173,2209.568,2209.772,2211.331,2211.164,356.489318847656,45.0006866455078,1.41428172588348,-0.701264619827271,-0.302819937467575,0.426433444023132,-0.704352136620515,-0.303063047067127,0.430277729063129,6
1.39999389648438,-0.466578513383865,2.76524090766907,1.43052542209625,-0.464680216184654,2.76587746507559,1.42721277752413,2207.134,2208.476,2214.184,2212.027,356.520935058594,45.0007820129395,1.40108704566956,-0.713634788990021,-0.308081239461899,0.433452159166336,-0.716930938559026,-0.308475354130225,0.437961922879032,6
1.41999816894531,-0.481096535921097,2.75897479057312,1.43933808803558,-0.47914673136562,2.75965292774086,1.43605014590267,2210.98,2210.656,2210.304,2209.928,356.553955078125,45.0006141662598,1.38821983337402,-0.725902080535889,-0.313300430774689,0.44063475728035,-0.729391385793766,-0.313836736470737,0.445573815653291,6
1.44000244140625,-0.495857417583466,2.75260543823242,1.44829201698303,-0.493861275572861,2.75332167044526,1.44503903134294,2209.234,2209.634,2210.874,2210.984,356.587463378906,45.0004997253418,1.37477207183838,-0.73804646730423,-0.318465888500214,0.447697013616562,-0.741727567798258,-0.319144650954242,0.453109796737511,6
1.45999145507813,-0.510858833789825,2.74613380432129,1.45738697052002,-0.508809800712713,2.74688973769103,1.45417085208374,2208.581,2209.114,2211.285,2210.797,356.621948242188,45.0004539489746,1.36060225963593,-0.750071942806244,-0.323580741882324,0.454749405384064,-0.753924423002454,-0.324392617007921,0.460560665253582,6
1.47999572753906,-0.526098251342773,2.73956084251404,1.46662151813507,-0.524012471663969,2.74034845309416,1.46345792653486,2205.668,2207.612,2213.937,2211.098,356.658935546875,45.000560760498,1.34493386745453,-0.761970341205597,-0.328642606735229,0.461725145578384,-0.765994882555672,-0.329586198544069,0.467934320638836,6
1.5,-0.541573166847229,2.73288774490356,1.47599852085114,-0.539455198877605,2.73370387899399,1.47289164761066,2209.704,2209.537,2209.074,2208.602,356.697784423828,45.0003356933594,1.32968461513519,-0.773744881153107,-0.333654552698135,0.468850463628769,-0.777924000354858,-0.334718964672088,0.475221632552146,6
1.51998901367188,-0.557280659675598,2.72611570358276,1.48551487922668,-0.555123050061237,2.72696244033876,1.48246289340675,2207.844,2208.17,2208.805,2209.455,356.737152099609,45.0001640319824,1.31388318538666,-0.785374164581299,-0.338603436946869,0.475818663835526,-0.789697369743256,-0.339784716610053,0.482413800191712,6
1.53999328613281,-0.573217809200287,2.71924591064453,1.49516844749451,-0.571036956668503,2.72011513090874,1.49218445062151,2204.584,2206.163,2211.24,2209.758,356.778411865234,45.0001907348633,1.29653525352478,-0.796858191490173,-0.343490391969681,0.482675731182098,-0.801327600455846,-0.344788879974649,0.489518526647862,6
1.55999755859375,-0.589381814002991,2.71227955818176,1.5049614906311,-0.587181951496087,2.71316839067337,1.50204717602401,2208.173,2207.848,2206.453,2206.9,356.820983886719,44.9999122619629,1.2796094417572,-0.808201611042023,-0.34832027554512,0.489654093980789,-0.812800388649436,-0.349725300221754,0.496527073925997,6
1.58000183105469,-0.605769574642181,2.70521783828735,1.51489043235779,-0.60355483331529,2.70612359703193,1.51204911403357,2205.682,2206.193,2206.51,2207.437,356.863922119141,44.9997406005859,1.26214683055878,-0.81938511133194,-0.353081464767456,0.496449202299118,-0.824110582941666,-0.354591760855452,0.503436295127019,6
1.59999084472656,-0.622377812862396,2.69806218147278,1.52495408058167,-0.620139554045575,2.69898765502515,1.52218046112824,2204.36,2205.09,2206.487,2206.646,356.907806396484,44.9996299743652,1.24401640892029,-0.830413341522217,-0.357777237892151,0.503181338310242,-0.835244706287931,-0.359382463079953,0.510237957334684,5
1.6199951171875,-0.639203369617462,2.69081401824951,1.53514981269836,-0.636958033083316,2.69175113334911,1.53245460752521,2200.748,2202.954,2208.756,2206.447,356.954193115234,44.9997024536133,1.22438406944275,-0.841278910636902,-0.362405627965927,0.509786009788513,-0.846214826007804,-0.364102599125749,0.516939432286212,5
1.63999938964844,-0.656243026256561,2.68347454071045,1.54547989368439,-0.653994195024907,2.68442094880091,1.54286173301126,2204.602,2204.441,2203.065,2203.274,357.00244140625,44.9994201660156,1.20526993274689,-0.851984560489655,-0.366969436407089,0.516503095626831,-0.857007552155828,-0.368746407673381,0.523532540272869,5
1.65998840332031,-0.673493206501007,2.67604541778564,1.55594003200531,-0.67123120513297,2.67700434489773,1.55339155350804,2202.088,2202.546,2202.332,2203.667,357.051086425781,44.9992065429688,1.1856734752655,-0.862509965896606,-0.371455460786819,0.523007273674011,-0.867610144209785,-0.373308406832068,0.530009498308446,5
1.67999267578125,-0.690950334072113,2.66852807998657,1.5665271282196,-0.688691692550512,2.66949158495151,1.56405789280588,2198.175,2199.924,2204.441,2203.576,357.101593017578,44.9992141723633,1.16450607776642,-0.87285590171814,-0.375865310430527,0.52935254573822,-0.878034183119987,-0.377793579561193,0.536377381014768,5
1.69999694824219,-0.708610773086548,2.66092395782471,1.57724285125732,-0.706358800111611,2.66188992212981,1.57485045312518,2201.568,2201.255,2198.98,2200.056,357.153350830078,44.9989051818848,1.14386689662933,-0.883026480674744,-0.380203574895859,0.535784661769867,-0.888267004546665,-0.382196476749158,0.542628451944297,5
1.72000122070313,-0.72647088766098,2.6532347202301,1.58808255195618,-0.724228658537036,2.6542010212754,1.58576687078363,2198.51,2199.118,2198.627,2200.203,357.205322265625,44.9987030029297,1.12275838851929,-0.893004059791565,-0.384459048509598,0.541985690593719,-0.898304216251578,-0.386515208538549,0.548760027947228,5
1.739990234375,-0.74452668428421,2.64546203613281,1.59904420375824,-0.74228345468553,2.64643254688532,1.59679626401121,2196.736,2197.513,2198.213,2199.018,357.258117675781,44.9985847473145,1.10100388526917,-0.90279358625412,-0.388635337352753,0.548084080219269,-0.908134108040217,-0.390744736359816,0.554764955448471,5
1.75999450683594,-0.762774527072906,2.63760733604431,1.61012446880341,-0.760546715064628,2.63857437616062,1.60795300478424,2192.539,2194.939,2200.236,2198.425,357.313415527344,44.998664855957,1.07775187492371,-0.912388503551483,-0.392730623483658,0.554014027118683,-0.917767514700581,-0.394889722119545,0.560649853250941,4
1.77999877929688,-0.781210362911224,2.62967228889465,1.62132501602173,-0.779000609654483,2.63063418086074,1.61922620102184,2196.255,2196.126,2193.986,2194.685,357.370452880859,44.9983749389648,1.05513322353363,-0.921790838241577,-0.396747559309006,0.560028076171875,-0.927192788821983,-0.398945154262308,0.566407606133204,4
1.80000305175781,-0.79983001947403,2.62165880203247,1.63264083862305,-0.797640935141499,2.62261376955408,1.63061328498531,2193.301,2193.813,2192.878,2194.784,357.427825927734,44.9981460571289,1.03209757804871,-0.930982351303101,-0.400673538446426,0.565790235996246,-0.936405971974637,-0.402909329586356,0.572035795952272,4
1.81999206542969,-0.818629324436188,2.61356854438782,1.64406931400299,-0.816448984455027,2.61452119137054,1.64210282881713,2191.516,2192.059,2191.931,2193.469,357.485778808594,44.997989654541,1.00845742225647,-0.939967393875122,-0.404511541128159,0.57142585515976,-0.945396434568188,-0.406777674475912,0.57752792925727,3
1.83999633789063,-0.837604105472565,2.60540342330933,1.65560662746429,-0.835449117627072,2.60634596486888,1.6537097136807,2186.964,2189.288,2193.875,2192.752,357.5458984375,44.9980697631836,0.983327507972717,-0.948740184307098,-0.40826028585434,0.576865136623383,-0.954174163352093,-0.410554485950274,0.582890106797601,3
1.86000061035156,-0.856750190258026,2.59716486930847,1.66725409030914,-0.854622615239374,2.59809614449182,1.66542250417552,2190.577,2190.311,2187.5,2188.748,357.607482910156,44.9977645874023,0.958882033824921,-0.957303285598755,-0.411923199892044,0.582374453544617,-0.962728579444532,-0.414235212212131,0.588115866099442,0
1.87998962402344,-0.876063048839569,2.58885502815247,1.67900633811951,-0.873950157556149,2.58978004298193,1.67722939817649,2187.195,2187.824,2186.54,2188.678,357.669219970703,44.99755859375,0.934067666530609,-0.965640485286713,-0.415488719940186,0.587610960006714,-0.971049893464309,-0.417815641164241,0.593199226982579,0
1.89999389648438,-0.895538151264191,2.58047580718994,1.69085919857025,-0.893456683142228,2.58138692997148,1.6891456302637,2182.509,2184.584,2188.472,2188.165,357.732727050781,44.997615814209,0.907713890075684,-0.973753750324249,-0.418958783149719,0.592641472816467,-0.979147395688901,-0.421299770153459,0.598145864732551,0
1.91999816894531,-0.915170967578888,2.57202911376953,1.70281374454498,-0.913122862707269,2.57292512231409,1.7011593924753,2185.893,2185.529,2182.245,2183.938,357.79736328125,44.9973258972168,0.882052898406982,-0.981645703315735,-0.422337502241135,0.59772926568985,-0.987011339258123,-0.424683405378145,0.60294982514457,0
1.94000244140625,-0.934957087039948,2.56351685523987,1.71486449241638,-0.932943991899774,2.5643966441608,1.71326781099638,2182.268,2182.898,2181.429,2183.772,357.861968994141,44.9971466064453,0.856014788150787,-0.989302217960358,-0.425614833831787,0.602536141872406,-0.994638524886308,-0.427965170275055,0.607609153824943,0
1.95999145507813,-0.954891562461853,2.55494093894958,1.72700846195221,-0.952900013794853,2.55581012544606,1.7254586333645,2180.063,2180.87,2180.612,2182.151,357.927215576172,44.9970588684082,0.829426944255829,-0.996728181838989,-0.428794056177139,0.607199430465698,-1.00202031904361,-0.431141350077486,0.612118576685011,0
1.97999572753906,-0.974969863891602,2.54630351066589,1.73924148082733,-0.973016570682103,2.54715453300902,1.73774752405424,2175.275,2177.878,2182.384,2181.225,357.994781494141,44.9971771240234,0.801402390003204,-1.00391864776611,-0.431874126195908,0.611653208732605,-1.00916501115878,-0.434215511495054,0.616483157607448,0
2,-0.99518746137619,2.53760623931885,1.75156474113464,-0.993273599084619,2.53843849960327,1.75012222660065,2179.065,2178.744,2175.478,2176.918,358.063812255859,44.9969024658203,0.774171829223633,-1.01087403297424,-0.434857070446014,0.616165637969971,-1.01606400046349,-0.437183953857422,0.620697642517089,0
2.01998901367188,-1.01553893089294,2.52885174751282,1.76397240161896,-1.01365055070775,2.52967086658596,1.76257018837116,2175.507,2176.047,2174.166,2176.783,358.132843017578,44.9967079162598,0.746624767780304,-1.01758074760437,-0.4377321600914,0.620381534099579,-1.02270954399163,-0.440043345582587,0.624757301356767,0
2.03999328613281,-1.03601968288422,2.52004170417786,1.77645981311798,-1.03417354141348,2.52084039703127,1.77510736313833,2170.65,2172.654,2175.833,2176.133,358.203430175781,44.9967727661133,0.71758359670639,-1.02404093742371,-0.440501481294632,0.624371588230133,-1.02910913225408,-0.442796909628122,0.628666709962695,0
2.05999755859375,-1.05662477016449,2.51117825508118,1.78902781009674,-1.05482201812353,2.5119559343546,1.78772119534738,2173.952,2173.475,2169.452,2171.602,358.274841308594,44.9964904785156,0.689353764057159,-1.03025591373444,-0.443168640136719,0.628399789333344,-1.03525504859546,-0.445441325732794,0.632421154350513,0
2.08000183105469,-1.0773491859436,2.50226378440857,1.80167043209076,-1.07559088172821,2.50301967256038,1.80040857003175,2170.01,2170.648,2168.63,2171.355,358.345977783203,44.9963455200195,0.660817801952362,-1.03621542453766,-0.445725232362747,0.632128417491913,-1.04114485287423,-0.447975543971863,0.636019143875825,0
2.09999084472656,-1.09818768501282,2.49330019950867,1.81438446044922,-1.09645901288412,2.49404069871208,1.81315658571413,2167.678,2168.445,2167.714,2169.596,358.417572021484,44.996280670166,0.631788074970245,-1.04192423820496,-0.448174715042114,0.635701656341553,-1.04677201701582,-0.450396755497224,0.639456690639761,0
2.1199951171875,-1.11913514137268,2.48428988456726,1.82716548442841,-1.11745308225396,2.48500753716864,1.82598153508617,2162.639,2165.348,2169.447,2168.566,358.491363525391,44.9964408874512,0.601377964019775,-1.04737877845764,-0.450516551733017,0.639050841331482,-1.0521429102862,-0.45270770082608,0.642737685527497,0
2.13999938964844,-1.14018678665161,2.47523474693298,1.84001445770264,-1.138551967509,2.47592927627801,1.83887051484687,2166.545,2166.111,2162.32,2164.015,358.566467285156,44.9961853027344,0.571874380111694,-1.05257773399353,-0.45275205373764,0.642450749874115,-1.05725102347782,-0.454905579228273,0.645858152165725,0
2.15998840332031,-1.161337018013,2.46613740921021,1.85292530059814,-1.15973418543027,2.46681515966915,1.85181040123298,2162.816,2163.284,2160.894,2163.864,358.641326904297,44.9960174560547,0.542121410369873,-1.0575110912323,-0.4548719227314,0.645539820194244,-1.06209075728,-0.456987981476842,0.64881467002292,0
2.17999267578125,-1.18258047103882,2.45699977874756,1.86589312553406,-1.18102676265167,2.45765355853653,1.86481770439342,2157.761,2159.799,2162.529,2163.159,358.717559814453,44.9961013793945,0.510927379131317,-1.06218135356903,-0.456878423690796,0.648390471935272,-1.06666760390386,-0.458957270716794,0.65161059420515,0
2.19999694824219,-1.20391225814819,2.44782423973083,1.87891852855682,-1.20240821395574,2.44845371736898,1.8778792993441,2161.187,2160.57,2155.98,2158.394,358.794403076172,44.9958457946777,0.480670630931854,-1.06658816337585,-0.458774447441101,0.651272714138031,-1.07097597819164,-0.460811043810786,0.654242512826705,0
2.22000122070313,-1.22532689571381,2.43861317634583,1.89199542999268,-1.22387315175433,2.43921795429519,1.89099189489151,2157.064,2157.604,2155.123,2158.193,358.870788574219,44.9957237243652,0.450160473585129,-1.07072532176971,-0.460553258657455,0.653842926025391,-1.07501419914593,-0.462548577472581,0.656709398992482,0
2.239990234375,-1.24681878089905,2.42936849594116,1.90512037277222,-1.24539969505118,2.42995568409656,1.90414212427648,2154.642,2155.365,2154.187,2156.324,358.947357177734,44.9956932067871,0.419238924980164,-1.07459688186646,-0.462218075990677,0.656249225139618,-1.07877792518082,-0.464168003639063,0.659008600495412,0
2.25999450683594,-1.26838278770447,2.42009329795837,1.91828882694244,-1.26701526177039,2.4206551096063,1.91734673668097,2149.494,2152.259,2155.873,2155.239,359.026000976563,44.9958877563477,0.387041121721268,-1.07820069789886,-0.463769197463989,0.658424735069275,-1.08227143928024,-0.465671165158559,0.661142733743536,0
2.27999877929688,-1.29001343250275,2.41078925132751,1.93150174617767,-1.28869796983554,2.41132564607061,1.93059236468599,2153.518,2152.833,2148.655,2150.656,359.105682373047,44.9956512451172,0.355780184268951,-1.08153390884399,-0.465206891298294,0.660645008087158,-1.08549040888332,-0.467056197851165,0.663109152043028,0
2.30000305175781,-1.31170511245728,2.40145874023438,1.94475269317627,-1.31044231452835,2.40196966201596,1.94387564554502,2149.694,2150.076,2147.176,2150.415,359.184906005859,44.9955062866211,0.324372291564941,-1.08459043502808,-0.466523855924606,0.662546992301941,-1.08843358680109,-0.468322565086307,0.664907093505606,0
2.31999206542969,-1.33345258235931,2.39210438728333,1.95803821086884,-1.33222611841886,2.3925966997709,1.95718303141218,2147.41,2147.871,2145.908,2148.579,359.264007568359,44.9954414367676,0.292660921812057,-1.0873738527298,-0.467722862958908,0.664273917675018,-1.09109790637238,-0.469468947365361,0.666534684755819,0
2.33999633789063,-1.35525035858154,2.38272833824158,1.9713534116745,-1.35407709248145,2.38319483607731,1.97053145048929,2142.165,2144.613,2147.591,2147.677,359.344787597656,44.9956207275391,0.259637326002121,-1.08988344669342,-0.468804717063904,0.665759265422821,-1.09348640563071,-0.470496651869278,0.667993781680938,0
2.36000061035156,-1.37709259986877,2.37333297729492,1.984699010849,-1.37597305876702,2.37377361348711,1.98390735461333,2145.971,2145.291,2140.703,2142.862,359.42626953125,44.9953880310059,0.227655217051506,-1.09211587905884,-0.469770222902298,0.667279660701752,-1.09559602313537,-0.471404361345641,0.669282514094601,0
2.37998962402344,-1.39897394180298,2.36392068862915,1.99806869029999,-1.39789168475144,2.36434264106153,1.9972971011938,2142.085,2142.458,2139.365,2142.656,359.507141113281,44.9952735900879,0.19558721780777,-1.0940682888031,-0.470613539218903,0.668485283851624,-1.09742465646102,-0.47219117117957,0.670399597657984,0
2.39999389648438,-1.42088890075684,2.35449385643005,2.01145768165588,-1.41986083522252,2.35488992936084,2.01071771239474,2136.813,2138.946,2141.122,2141.977,359.589141845703,44.9954299926758,0.162221610546112,-1.09574341773987,-0.471337020397186,0.669445037841797,-1.09897439291323,-0.472857979480329,0.671346307473475,0
2.41999816894531,-1.44283163547516,2.345055103302,2.02486634254456,-1.44185817738692,2.34542508756209,2.02415554546122,2140.39,2139.53,2134.614,2137.143,359.671478271484,44.9952163696289,0.129877150058746,-1.09713804721832,-0.471942275762558,0.670432388782501,-1.10024313330221,-0.473403883025206,0.672121361178802,0
2.44000244140625,-1.46479666233063,2.33560657501221,2.03828859329224,-1.46387808506052,2.33595053645515,2.03760716344514,2136.324,2136.682,2133.585,2136.909,359.753021240234,44.9951248168945,0.097434863448143,-1.0982518196106,-0.472425132989883,0.671107232570648,-1.10123038958312,-0.473828671822132,0.672724460634977,0
2.45999145507813,-1.48677825927734,2.32615089416504,2.05172085762024,-1.48589810917879,2.32647593524532,2.05105885256329,2133.91,2134.48,2132.597,2135.031,359.83447265625,44.9951248168945,0.064755953848362,-1.09908783435822,-0.472788274288177,0.671610355377197,-1.10193535162022,-0.474131997292339,0.673155110942729,0
2.47999572753906,-1.50877118110657,2.31669020652771,2.06515836715698,-1.50794623031618,2.31698924467309,2.06452770571198,2128.808,2131.341,2134.153,2134.107,359.917541503906,44.9953384399414,0.0308955311775208,-1.09964621067047,-0.473032712936401,0.671880722045898,-1.10235882472314,-0.474314205938057,0.673413804053135,0
2.5,-1.5307697057724,2.30722713470459,2.07860207557678,-1.52999999932945,2.30750012397766,2.0780000090599,2132.776,2131.942,2127.218,2129.336,0.00125926651526242,44.9951400756836,-0.00185208523180336,-1.09992110729218,-0.473157793283463,0.67218291759491,-1.10250000050292,-0.474374949932098,0.673500046133994,0
2.51998901367188,-1.55276799201965,2.29776382446289,2.092045545578,-1.5520369476803,2.29801824074336,2.09146203692764,2128.994,2129.141,2125.745,2129.243,0.084181435406208,44.9950294494629,359.965362548828,-1.09991359710693,-0.473159223794937,0.672171711921692,-1.10235904000526,-0.474314298567936,0.67341393556562,0
2.53999328613281,-1.57476055622101,2.28830337524414,2.10548377037048,-1.57408507527774,2.28853154739156,2.10493089402267,2123.831,2125.831,2127.355,2128.527,0.167945504188538,44.995189666748,359.931427001953,-1.09962630271912,-0.473039448261261,0.671914637088776,-1.10193578218388,-0.474132182551855,0.673155373967352,0
2.55999755859375,-1.59674167633057,2.27884721755981,2.11891746520996,-1.59612191359838,2.27904971150017,2.11839285467467,2127.502,2126.26,2120.939,2123.806,0.251645624637604,44.9949798583984,359.898529052734,-1.09905433654785,-0.472799122333527,0.671679615974426,-1.10123038958312,-0.473828671822132,0.672724460634977,0
2.58000183105469,-1.61870586872101,2.26939868927002,2.13233995437622,-1.61814182127198,2.26957516039323,2.13184447265859,2123.243,2123.63,2120.161,2123.487,0.334333091974258,44.9949264526367,359.865692138672,-1.09820175170898,-0.47243657708168,0.671129524707794,-1.10024313330221,-0.473403883025206,0.672121361178803,0
2.59999084472656,-1.64064717292786,2.25995969772339,2.14574813842773,-1.64012239440973,2.26011753383818,2.14527206178836,2120.974,2121.305,2119.199,2121.79,0.416663855314255,44.9949417114258,359.832641601563,-1.09707117080688,-0.471953988075256,0.670414865016937,-1.09897546783438,-0.47285844198887,0.671346964126033,0
2.6199951171875,-1.66256046295166,2.25053262710571,2.1591374874115,-1.66209156852628,2.2506648119635,2.15869268743396,2115.926,2118.412,2120.739,2120.813,0.500437021255493,44.9951782226563,359.798553466797,-1.09566378593445,-0.47135317325592,0.669470429420471,-1.09742594550583,-0.472191725819537,0.67040038511534,0
2.63999938964844,-1.68443989753723,2.24112010002136,2.17250847816467,-1.68402693989188,2.24122663446822,2.17209266350648,2119.933,2118.918,2114.001,2116.13,0.584564626216888,44.9950103759766,359.765686035156,-1.09397220611572,-0.470632433891296,0.668554842472076,-1.09559602313537,-0.471404361345641,0.669282514094601,0
2.65998840332031,-1.70627987384796,2.23172426223755,2.18585515022278,-1.70590622088595,2.23181259109281,2.18545837484632,2116.246,2116.224,2112.543,2116.095,0.66770601272583,44.9949150085449,359.732849121094,-1.09200179576874,-0.469789415597916,0.667333006858826,-1.09348812118877,-0.470497390025984,0.667994829688588,0
2.67999267578125,-1.72807490825653,2.22234773635864,2.19917249679565,-1.72775723139253,2.2224107117184,2.19880681618649,2111.201,2113.027,2114.102,2115.476,0.751440227031708,44.9950828552246,359.698974609375,-1.08975505828857,-0.468826562166214,0.665869891643524,-1.09109983431736,-0.469469776906228,0.666535862507326,0
2.69999694824219,-1.74981939792633,2.21299290657043,2.21246099472046,-1.74955768413056,2.21303058593937,2.21212437257479,2114.823,2113.48,2107.982,2110.764,0.834856688976288,44.9948997497559,359.666259765625,-1.08722531795502,-0.467743754386902,0.664423942565918,-1.08843358680109,-0.468322565086308,0.664907093505606,0
2.72000122070313,-1.77150774002075,2.20366215705872,2.22571444511414,-1.77130202882336,2.20367460188472,2.22540765343382,2110.773,2110.834,2107.153,2110.639,0.917047142982483,44.9948501586914,359.633636474609,-1.08442080020905,-0.46654087305069,0.662675261497498,-1.08549040888332,-0.467056197851165,0.663109152043028,0
2.739990234375,-1.79313468933105,2.19435787200928,2.23892974853516,-1.79296822271738,2.1943522439355,2.23864319318939,2108.528,2108.751,2106.294,2108.885,0.998633980751038,44.9948959350586,359.600952148438,-1.08134329319,-0.465220123529434,0.660762429237366,-1.08227399942825,-0.465672266718727,0.661144297698006,0
2.75999450683594,-1.81469464302063,2.18508219718933,2.25210237503052,-1.81458384274179,2.18505164650952,2.2518478381572,2103.622,2105.876,2107.816,2108.117,1.08139991760254,44.9951553344727,359.567291259766,-1.07799553871155,-0.463783800601959,0.658627569675446,-1.07878069424208,-0.464169195088763,0.659010292071722,0
2.77999877929688,-1.83618187904358,2.17583751678467,2.26523280143738,-1.83612684690458,2.17578229366013,2.2650081232283,2107.63,2106.425,2101.362,2103.452,1.16424751281738,44.994987487793,359.534912109375,-1.07436835765839,-0.462229520082474,0.656519293785095,-1.07501419914593,-0.462548577472581,0.656709398992482,0
2.80000305175781,-1.85759150981903,2.16662645339966,2.27831506729126,-1.85759178470316,2.16654653058634,2.2781207187757,2104.061,2103.913,2099.97,2103.447,1.24590885639191,44.9949150085449,359.502746582031,-1.0704710483551,-0.460556864738464,0.654115796089172,-1.07097597819164,-0.460811043810786,0.654242512826704,0
2.81999206542969,-1.87891745567322,2.15745115280151,2.29134583473206,-1.87895695992541,2.1573536925621,2.29117237092199,2101.991,2101.797,2098.882,2101.937,1.32668316364288,44.9949226379395,359.470489501953,-1.06630492210388,-0.45876744389534,0.651542365550995,-1.06667099276523,-0.458958728849171,0.651612664407684,0
2.83999633789063,-1.90015482902527,2.14831376075745,2.30432081222534,-1.90024960698239,2.14819206138118,2.30417971674389,2097.251,2099.195,2100.289,2101.064,1.40817880630493,44.9951515197754,359.437469482422,-1.0618736743927,-0.45686411857605,0.648747444152832,-1.06209435025759,-0.456989527434725,0.648816864916866,0
2.86000061035156,-1.92129826545715,2.13921666145325,2.3172402381897,-1.9214480311499,2.13907097167731,2.31712950327294,2100.987,2099.597,2094.29,2096.598,1.48936474323273,44.9949989318848,359.405700683594,-1.05716836452484,-0.454844892024994,0.645969808101654,-1.05725102347782,-0.454905579228273,0.645858152165725,0
2.87998962402344,-1.94234228134155,2.13016271591187,2.33009839057922,-1.94253086194772,2.12999961857111,2.33000867561624,2097.334,2097.124,2093.22,2096.63,1.56921327114105,44.9949607849121,359.374145507813,-1.05220067501068,-0.452710807323456,0.642905592918396,-1.05214690704168,-0.452709420518306,0.642740127083052,0
2.89999389648438,-1.96328163146973,2.12115335464478,2.34289073944092,-1.96352501326936,2.1209664217661,2.34283367505136,2092.733,2094.129,2094.66,2096.19,1.64928197860718,44.9951629638672,359.341705322266,-1.0469731092453,-0.450464069843292,0.63962334394455,-1.04677621342161,-0.450398561093403,0.639459254158576,0
2.91999816894531,-1.9841114282608,2.11219120025635,2.35561776161194,-1.98440911693069,2.11198057539494,2.35559144808806,2096.165,2094.665,2089.153,2091.622,1.72868573665619,44.9950256347656,359.310577392578,-1.04147708415985,-0.448103785514832,0.636351704597473,-1.04114485287423,-0.447975543971863,0.636019143875825,0
2.94000244140625,-2.00482559204102,2.10327863693237,2.36827373504639,-2.00517798053537,2.10304431360073,2.36827882277243,2092.418,2092.193,2088.411,2091.695,1.80665552616119,44.9950103759766,359.279632568359,-1.03572595119476,-0.445632010698318,0.632802546024323,-1.03525504859546,-0.445441325732794,0.632421154350513,0
2.95999145507813,-2.02541995048523,2.09441757202148,2.38085579872131,-2.02581075424974,2.0941666074844,2.38088306226645,2090.585,2090.4,2087.475,2090.037,1.88367009162903,44.995059967041,359.248870849609,-1.02972030639648,-0.443050295114517,0.629105269908905,-1.02911391720548,-0.442798968459032,0.628669633014836,0
2.97999572753906,-2.04588937759399,2.08561038970947,2.39335966110229,-2.04633384260397,2.08533609591429,2.39342029668558,2086.004,2087.817,2088.901,2089.489,1.96133601665497,44.9953193664551,359.217376708984,-1.02346503734589,-0.440361559391022,0.625199139118195,-1.02271452148052,-0.440045487257004,0.624760342027062,0
3,-2.06622838973999,2.07685899734497,2.40578603744507,-2.06672639957428,2.07656174835205,2.40587779151916,2089.856,2088.209,2083.104,2085.229,2.03857684135437,44.995189666748,359.187164306641,-1.01694965362549,-0.437562853097916,0.621315360069275,-1.01606400046349,-0.437183953857422,0.620697642517089,0
3.01998901367188,-2.08643221855164,2.06816577911377,2.41812920570374,-2.0869680292999,2.06785234056679,2.41824308725414,2086.536,2086.082,2081.933,2085.229,2.11430883407593,44.9951438903809,359.157318115234,-1.01018834114075,-0.4346564412117,0.617162227630615,-1.00917036754089,-0.434217816196637,0.616486429737696,0
3.03999328613281,-2.10649561882019,2.05953311920166,2.43038511276245,-2.10708469520508,2.05919670122237,2.43053204454123,2082.221,2083.337,2083.263,2084.901,2.18991994857788,44.9953346252441,359.126800537109,-1.00318396091461,-0.43164449930191,0.612801432609558,-1.00202586176059,-0.431143734953757,0.612121962644322,0
3.05999755859375,-2.12641406059265,2.05096244812012,2.44255423545837,-2.12705600675913,2.05060360379452,2.44273220712343,2085.659,2083.701,2078.079,2080.714,2.2644727230072,44.9951934814453,359.097534179688,-0.995927512645721,-0.428525507450104,0.608451306819916,-0.994638524886308,-0.427965170275055,0.607609153824944,0
3.08000183105469,-2.14618301391602,2.04245638847351,2.45463109016418,-2.14687713595163,2.04207512564123,2.45484062564451,2081.978,2081.592,2077.575,2080.728,2.33731174468994,44.9951972961426,359.068664550781,-0.98843514919281,-0.425303518772125,0.603837609291077,-0.987011339258122,-0.424683405378145,0.60294982514457,0
3.09999084472656,-2.16579699516296,2.03401708602905,2.46661281585693,-2.16652837486666,2.03361974652815,2.46684526084616,2080.167,2079.755,2076.941,2079.393,2.40901255607605,44.9952850341797,359.039947509766,-0.980707466602325,-0.421979904174805,0.599086284637451,-0.979153483542501,-0.421302389586788,0.598149583707317,0
3.1199951171875,-2.18525218963623,2.0256462097168,2.47849583625793,-2.18603502400946,2.02522658035469,2.47876156841225,2076.204,2077.587,2078.082,2078.738,2.48104023933411,44.995532989502,359.0107421875,-0.972749531269073,-0.41855788230896,0.594152629375458,-0.971056158224178,-0.417818336715394,0.593203054026623,0
3.13999938964844,-2.2045431137085,2.01734519004822,2.49028038978577,-2.20537738341953,2.01690410346351,2.49057751394429,2079.718,2077.917,2072.871,2074.861,2.55234503746033,44.9954299926758,358.982818603516,-0.964551568031311,-0.415034472942352,0.589232623577118,-0.962728579444533,-0.414235212212131,0.588115866099442,0
3.15998840332031,-2.22366571426392,2.00911688804626,2.50196170806885,-2.22453632143911,2.00866054767245,2.50228141021112,2076.678,2076.092,2071.845,2074.828,2.6219756603241,44.9954071044922,358.955444335938,-0.956129610538483,-0.411413133144379,0.584067821502686,-0.954180774018563,-0.410557330335374,0.582894145150591,0
3.17999267578125,-2.24261522293091,2.00096273422241,2.51353597640991,-2.24353658854737,2.00048526354177,2.51388837689424,2072.808,2073.488,2073.025,2074.722,2.69118928909302,44.9956016540527,358.927520751953,-0.947486877441406,-0.407695740461349,0.578715920448303,-0.945403214201559,-0.406780591562751,0.577532070829503,0
3.19999694824219,-2.26138782501221,1.99288523197174,2.52500343322754,-2.2623590635174,1.99238647840124,2.5253867331345,2075.968,2073.919,2068.417,2070.796,2.75910425186157,44.9955024719238,358.900939941406,-0.93861448764801,-0.403880774974823,0.57337099313736,-0.936405971974636,-0.402909329586355,0.572035795952272,0
3.22000122070313,-2.27997827529907,1.98488581180573,2.53635931015015,-2.28099938900442,1.98436606709459,2.53677381709797,2072.737,2071.85,2067.907,2071.052,2.82512283325195,44.9955253601074,358.874725341797,-0.929530084133148,-0.399973094463348,0.567791521549225,-0.927192788821982,-0.398945154262308,0.566407606133204,0
3.239990234375,-2.2983832359314,1.97696661949158,2.54760098457336,-2.2994392795179,1.97643189735754,2.54803845846384,2071.177,2070.532,2067.312,2069.58,2.88970446586609,44.9956016540527,358.848876953125,-0.920234084129333,-0.395974308252335,0.562087833881378,-0.917774783907129,-0.394892849856044,0.560654293895788,0
3.25999450683594,-2.31659817695618,1.96912860870361,2.55872535705566,-2.31770268688992,1.96857366338589,2.55919528903255,2067.432,2068.396,2068.528,2069.301,2.9542396068573,44.9958610534668,358.822662353516,-0.910733342170715,-0.391887873411179,0.556216299533844,-0.90814153446928,-0.390747931744771,0.554769492138098,0
3.27999877929688,-2.33461809158325,1.96137452125549,2.56973266601563,-2.33577134012187,1.96079922667992,2.57023314733618,2070.745,2068.893,2063.905,2065.575,3.01779198646545,44.9957809448242,358.797882080078,-0.901017904281616,-0.387710869312286,0.550361931324005,-0.898304216251578,-0.386515208538549,0.548760027947228,0
3.29998779296875,-2.35244035720825,1.95370531082153,2.58061861991882,-2.35362764460945,1.95311615770631,2.58114128510551,2068.27,2067.112,2062.804,2065.785,3.07942724227905,44.9957618713379,358.773620605469,-0.891105234622955,-0.383447527885437,0.544295430183411,-0.888274735793772,-0.382199803288803,0.542633174842512,0
3.31999206542969,-2.37006044387817,1.94612348079681,2.59137964248657,-2.37129490830989,1.94551442770222,2.59193394080789,2064.507,2064.972,2064.123,2065.691,3.14032006263733,44.9959678649902,358.749084472656,-0.880999803543091,-0.379100263118744,0.538053095340729,-0.878042061913513,-0.37779696958594,0.536382194046788,0
3.33999633789063,-2.38747453689575,1.93863010406494,2.60201621055603,-2.38875555478454,1.93800159931817,2.60260037727124,2067.623,2065.214,2059.986,2062.276,3.19966769218445,44.9958915710449,358.725799560547,-0.870692431926727,-0.374667227268219,0.531827032566071,-0.867618167158097,-0.373311858882592,0.530014399402376,0
3.36000061035156,-2.40467834472656,1.93122696876526,2.61252403259277,-2.406005803634,1.93057929915441,2.61313828510855,2064.693,2063.691,2059.614,2062.352,3.25694632530212,44.9959182739258,358.703063964844,-0.860202193260193,-0.370154500007629,0.525392532348633,-0.857007552155826,-0.36874640767338,0.523532540272868,0
3.37998962402344,-2.42166900634766,1.92391574382782,2.62290096282959,-2.42302905329872,1.92325467039821,2.62353752268616,2063.398,2062.438,2059.124,2061.22,3.31256127357483,44.9960060119629,358.680877685547,-0.84952986240387,-0.365563243627548,0.518852472305298,-0.846223126656603,-0.364106170663035,0.516944503023036,0
3.39999389648438,-2.43844270706177,1.91669797897339,2.63314437866211,-2.43984769972619,1.91601807669906,2.63381177133889,2060.124,2060.629,2060.243,2061.035,3.36774277687073,44.9962539672852,358.658508300781,-0.838682889938354,-0.360897183418274,0.512167692184448,-0.835253140422974,-0.35938609205264,0.510243109616171,0
3.41999816894531,-2.45499563217163,1.90957498550415,2.64325451850891,-2.45644516534361,1.90887665092339,2.64395090408624,2063.256,2060.99,2056.156,2057.861,3.42159008979797,44.9961929321289,358.637451171875,-0.82765257358551,-0.356153786182404,0.505503714084625,-0.824110582941664,-0.354591760855451,0.503436295127018,0
3.44000244140625,-2.4713249206543,1.90254807472229,2.65322756767273,-2.47281804716281,1.90183185728196,2.6539528420958,2060.897,2059.616,2055.422,2058.042,3.47335410118103,44.9962043762207,358.617095947266,-0.816457509994507,-0.351338267326355,0.498651802539825,-0.812800388649434,-0.349725300221754,0.496527073925997,0
3.45999145507813,-2.4874267578125,1.89561891555786,2.66306138038635,-2.48895081463434,1.8948903781363,2.66380809799729,2059.67,2058.414,2054.952,2057.195,3.52325010299683,44.9962844848633,358.597229003906,-0.805099368095398,-0.346451938152313,0.491695821285248,-0.80133641229185,-0.344792671461508,0.489523909660973,0
3.47999572753906,-2.50329875946045,1.88878893852234,2.67275357246399,-2.50486489870395,1.88804299234919,2.67352976362102,2056.848,2056.942,2055.894,2056.887,3.57231450080872,44.9964942932129,358.577423095703,-0.793585419654846,-0.341498613357544,0.484611570835114,-0.789706299681989,-0.339788558913217,0.482419255351936,0
3.5,-2.51893663406372,1.8820595741272,2.68230438232422,-2.5205447997813,1.88129636896134,2.68310837050915,2059.577,2057.154,2052.378,2054.162,3.61975574493408,44.9964485168457,358.558837890625,-0.781908988952637,-0.336476594209671,0.477542281150818,-0.777924000354857,-0.334718964672089,0.475221632552147,0
3.51998901367188,-2.53433847427368,1.87543177604675,2.69171047210693,-2.53597583877076,1.87465682397749,2.69253495143119,2057.518,2056.01,2051.763,2054.258,3.66493654251099,44.9964752197266,358.541046142578,-0.770088076591492,-0.331391334533691,0.470309287309647,-0.766004036374581,-0.329590137176618,0.467939912563966,0
3.53999328613281,-2.5495011806488,1.86890661716461,2.70096945762634,-2.55117869390181,1.86811546013321,2.70182213839487,2054.624,2054.375,2052.945,2054.315,3.70886492729187,44.9966659545898,358.523254394531,-0.758127629756927,-0.32624551653862,0.462948441505432,-0.753933682518821,-0.324396601119134,0.46056632174764,0
3.55999755859375,-2.56442165374756,1.86248624324799,2.71008157730103,-2.56613872308604,1.86167857751006,2.71096098677687,2057.135,2054.729,2049.914,2051.595,3.75094318389893,44.9966468811035,358.506805419922,-0.746021389961243,-0.32103818655014,0.455607265233994,-0.741727567798258,-0.319144650954242,0.45310979673751,0
3.58000183105469,-2.57909727096558,1.85617065429688,2.71904397010803,-2.58085326729328,1.85534732021446,2.71994987221714,2055.171,2053.48,2049.528,2051.924,3.79070925712585,44.996696472168,358.491027832031,-0.733787596225739,-0.315775007009506,0.448119670152664,-0.729391385793765,-0.313836736470737,0.44557381565329,0
3.59999084472656,-2.59352588653564,1.84996140003204,2.72785496711731,-2.59530884290342,1.84912748987145,2.72878055778257,2054.11,2052.763,2049.349,2051.072,3.82846236228943,44.9968070983887,358.475982666016,-0.72142893075943,-0.310458064079285,0.440552741289139,-0.716940488958392,-0.308479463400265,0.437967757068975,0
3.6199951171875,-2.60770511627197,1.84385943412781,2.73651266098022,-2.60952509409627,1.84301063413925,2.73746504379605,2051.786,2051.479,2050.275,2051.046,3.86514687538147,44.997013092041,358.461120605469,-0.708953082561493,-0.305090963840485,0.43288865685463,-0.704361775018033,-0.303067194200314,0.43028361700977,0
3.63999938964844,-2.62163209915161,1.83786606788635,2.74501776695251,-2.6234885835008,1.83700253474321,2.74599512157732,2054.345,2051.842,2047.29,2048.723,3.9000358581543,44.9970054626465,358.447570800781,-0.696354985237122,-0.299672245979309,0.425250172615051,-0.691670720740692,-0.297606588091786,0.422530849991739,0
3.65998840332031,-2.63530492782593,1.83198189735413,2.75336742401123,-2.63718676607487,1.8311085894645,2.7543631275559,2052.756,2050.895,2046.787,2049.037,3.93252110481262,44.9970359802246,358.434814453125,-0.68365216255188,-0.2942074239254,0.417483001947403,-0.678883253871145,-0.292104498338286,0.414719186025619,0
3.67999267578125,-2.64872217178345,1.82620787620544,2.76155972480774,-2.65063849381582,1.82532068681534,2.76258057812278,2050.573,2049.763,2047.74,2049.076,3.96334719657898,44.9972114562988,358.42236328125,-0.670850038528442,-0.288699418306351,0.409620553255081,-0.665986083416798,-0.286555206197011,0.406840505851433,0
3.69999694824219,-2.66188097000122,1.82054495811462,2.76959538459778,-2.66383127580226,1.81964420129024,2.77063984276899,2052.674,2050.024,2045.429,2047.072,3.99199628829956,44.9972076416016,358.411163330078,-0.657945215702057,-0.283147931098938,0.401780128479004,-0.65299527533123,-0.280965624398954,0.398904623909523,0
