t,x_s1,x_s2,x_s3,x_s_d1,x_s_d2,x_s_d3,propellers_rpms1,propellers_rpms2,propellers_rpms3,propellers_rpms4,rollRad,pitchRad,yawRad,v_s1,v_s2,v_s3,v_s_d1,v_s_d2,v_s_d3,insideCount
0,-0.0599999986588955,2.94000005722046,1.17999994754791,-0.0599999986588955,2.94000005722046,1.17999994754791,0,0,0,0,0,0,0,0,0,0,-1.06581410364015E-15,4.44089209850063E-16,4.44089209850063E-16,0
0.0200042724609375,-0.0599999986588955,2.94000005722046,1.1771354675293,-0.0600018701838461,2.93999925195556,1.18000110611101,0,0,0,0,0.0163538,-0.002474609,-2.024222E-05,3.71994488546079E-08,3.50004931704007E-08,-0.143225952982903,-0.000280105751305916,-0.000120521679537258,0.00017339880334547,5
0.040008544921875,-0.0599999986588955,2.94000005722046,1.17048275470734,-0.060014880898484,2.93999365380853,1.18000916036316,0,0,0,0,0.03270752,-0.004950816,-5.430172E-05,3.62924410524101E-08,3.44428769949445E-08,-0.332637369632721,-0.00111143977225461,-0.000478221483967637,0.00068803416424398,6
0.05999755859375,-0.0600004345178604,2.94013261795044,1.16416549682617,-0.0600498857373401,2.93997859220429,1.18003083002592,3185.406,2835.785,1501.1,2767.662,0.03127991,-0.00494336,-0.01646952,-2.17784399865195E-05,0.0066222520545125,-0.315860867500305,-0.00247936261166862,-0.00106680046642749,0.00153484356504269,6
0.0800018310546875,-0.0599162206053734,2.94038772583008,1.15857696533203,-0.0601175574246769,2.93994947496775,1.18007272202403,3065.603,3067.191,2155.165,2024.121,0.01897616,-0.004310593,-0.04351445,0.00421066209673882,0.0127498498186469,-0.279423803091049,-0.00437268608126799,-0.00188144466206175,0.00270690098422899,6
0.100006103515625,-0.0596375502645969,2.94068765640259,1.15374839305878,-0.0602282404704493,2.93990185114529,1.18014124010193,2640.55,3831.823,2620.117,1134.666,-0.00585203,-0.002888465,-0.070145,0.0139334313571453,0.0149977942928672,-0.241429135203362,-0.00677739276378709,-0.00291612276782231,0.00419552897277328,6
0.120010375976563,-0.0590848885476589,2.94089889526367,1.14957022666931,-0.0603920338334453,2.93983137543704,1.18024263599618,2092.257,4101.995,3169.267,755.9441,-0.04011946,-0.0004511395,-0.08993602,0.0276331827044487,0.010561915114522,-0.208908408880234,-0.00968041450003567,-0.00416521191989172,0.00599263771761404,5
0.139999389648438,-0.0582314617931843,2.94085621833801,1.14596676826477,-0.0606185767455666,2.93973390035084,1.18038287685052,1510.274,4074.836,3735.818,701.9628,-0.07649504,0.002388302,-0.09949889,0.0426713563501835,-0.00212969444692135,-0.180173456668854,-0.0130660253322238,-0.00562194567796536,0.00808849210174802,4
0.160003662109375,-0.0570994354784489,2.94039487838745,1.14297795295715,-0.0609177895434042,2.93960515744296,1.18056810382587,1134.647,3846.994,4070.114,880.1874,-0.1062798,0.00433567,-0.09869941,0.0566012784838676,-0.023067956790328,-0.149439349770546,-0.0169265510445065,-0.00728302204135792,0.0104783414199936,4
0.180007934570313,-0.0557377189397812,2.93938803672791,1.14071118831635,-0.0612988491946875,2.93944119812059,1.1808039979024,1101.343,3565.175,4009.854,1148.824,-0.1236287,0.004492098,-0.09000047,0.0680859312415123,-0.0503411144018173,-0.113338589668274,-0.0212468478482708,-0.00914192506089775,0.0131528109458008,3
0.20001220703125,-0.0541964657604694,2.9377772808075,1.13924860954285,-0.0617708265342762,2.93923811945689,1.181096174359,1373.443,3339.828,3594.73,1386.127,-0.127877,0.00302261,-0.07724925,0.0770627707242966,-0.0805368423461914,-0.0731290802359581,-0.0260142813927851,-0.0111932185284278,0.0161040794142088,3
0.220001220703125,-0.0525142177939415,2.93557620048523,1.1385840177536,-0.0623420644491781,2.93899233174064,1.18144979784016,1790.836,3212.873,3016.895,1527.149,-0.1229795,0.0008609959,-0.06426048,0.0841123983263969,-0.11005200445652,-0.0332291014492512,-0.03121219533433,-0.0134297356845702,0.019321835755004,3
0.240005493164063,-0.0507195666432381,2.93284702301025,1.13860690593719,-0.0630219993990999,2.93869977472688,1.18187070996396,2158.653,3168.503,2517.684,1558.72,-0.1149676,-0.0009875001,-0.05362009,0.0897325575351715,-0.136453405022621,0.00114330649375916,-0.0368361158647881,-0.0158495515746756,0.0228033104678445,3
0.260009765625,-0.0488372668623924,2.92966485023499,1.13913786411285,-0.0638185570309634,2.93835703823113,1.18236381708338,2352.387,3158.938,2273.661,1495.787,-0.1090501,-0.001904693,-0.04623621,0.0941150858998299,-0.159109830856323,0.0265476312488317,-0.0428699302682246,-0.0184457333472145,0.0265385290140116,3
0.279998779296875,-0.0468917526304722,2.92608761787415,1.13999617099762,-0.0647390625194898,2.93796097043536,1.18293365383054,2352.779,3152.551,2324.076,1363.33,-0.107817,-0.001745436,-0.04152081,0.0972757115960121,-0.178863614797592,0.0429181531071663,-0.0492963837173861,-0.0212108567320638,0.030516809833474,3
0.300003051757813,-0.0449087582528591,2.92214369773865,1.14106202125549,-0.0657927507678135,2.93750759781875,1.18358593705038,2228.619,3143.838,2573.125,1194.885,-0.1110874,-0.0007366303,-0.0379836,0.0991497486829758,-0.197191879153252,0.0532900057733059,-0.0561132031658829,-0.0241439437008635,0.0347367458022363,3
0.32000732421875,-0.0429169610142708,2.91783547401428,1.14229416847229,-0.0669865614821475,2.93699393441958,1.18432496275165,2074.606,3132.416,2872.878,1032.567,-0.1169272,0.0006857957,-0.03398087,0.0995898842811584,-0.215408861637115,0.0616089701652527,-0.0633036493784043,-0.0272377918282996,0.0391879745362408,3
0.340011596679688,-0.0409489795565605,2.91315102577209,1.14370763301849,-0.0683278498358171,2.93641681551226,1.18515528413699,1955.46,3107.795,3109.118,921.0856,-0.1228436,0.002069366,-0.02837438,0.0983990207314491,-0.234225392341614,0.0706736370921135,-0.0708558471483356,-0.0304872915447207,0.0438631447168985,3
0.360000610351563,-0.0390402190387249,2.90807723999023,1.14534366130829,-0.0698225328270578,2.93577369517774,1.1860805641102,1904.577,3065.525,3222.277,881.0488,-0.1267132,0.00309271,-0.02087173,0.0954378545284271,-0.253693699836731,0.0818036645650864,-0.0787518717320621,-0.0338847303337087,0.0487511600740379,3
0.3800048828125,-0.0372257605195045,2.90261030197144,1.14724349975586,-0.0714797725314022,2.93506063123087,1.18710647443246,1923.025,3021.186,3207.85,896.1646,-0.1274232,0.003643051,-0.01188303,0.0907229632139206,-0.273342281579971,0.0949891954660416,-0.0869921272359981,-0.0374302820709642,0.0538522707687797,3
0.400009155273438,-0.0355373844504356,2.89676117897034,1.14943182468414,-0.0733051402689975,2.93427522648826,1.18823646401636,1991.84,2988.845,3098.372,939.4365,-0.125037,0.003791132,-0.002210956,0.084418997168541,-0.292454481124878,0.1094154343009,-0.0955591682828665,-0.0411164404980124,0.0591556772815509,3
0.419998168945313,-0.0340021103620529,2.89055466651917,1.15190625190735,-0.0753034649285836,2.93341540321397,1.18947352217404,2072.579,2975.201,2953.341,985.7322,-0.120508,0.003707545,0.007339607,0.0767634958028793,-0.310327053070068,0.123719997704029,-0.104434660908044,-0.0449353170220673,0.0646500300148815,3
0.44000244140625,-0.0326427072286606,2.88402438163757,1.15464186668396,-0.077483988232608,2.93247718495301,1.19082336997196,2135.546,2972.311,2825.858,1023.91,-0.1150768,0.003564644,0.01615288,0.0679701194167137,-0.326508849859238,0.136780112981796,-0.113620829717891,-0.048887868829098,0.0703367061060819,4
0.460006713867188,-0.0314786285161972,2.87720727920532,1.15760207176208,-0.0798512213598696,2.93145863067119,1.19228880004469,2169.011,2977.513,2748.24,1039.345,-0.1098607,0.003474865,0.02394292,0.0582041405141354,-0.340854346752167,0.148011729121208,-0.123099793815011,-0.0529664022684887,0.0762046364278779,4
0.480010986328125,-0.0305270161479712,2.87013816833496,1.1607483625412,-0.0824109101018722,2.93035726811493,1.19387336931088,2168.574,2984.897,2732.436,1031.729,-0.1055432,0.003481307,0.03074939,0.0475804395973682,-0.353460878133774,0.157315567135811,-0.132860437136906,-0.0571661344090936,0.082246939608052,4
0.5,-0.0298039149492979,2.86284637451172,1.16405284404755,-0.085166398670376,2.92917165836334,1.1955791479969,2146.556,2989.061,2762.764,1009.974,-0.1022728,0.003568507,0.03679615,0.0361551754176617,-0.36458432674408,0.165221616625786,-0.142884000065179,-0.0614789935111996,0.0884520025491718,4
0.520004272460938,-0.0293246526271105,2.85535645484924,1.16749942302704,-0.088127196023106,2.92789770997757,1.19741202260058,2115.784,2992.539,2818.171,977.6374,-0.09984351,0.003686934,0.04241435,0.023963201791048,-0.374494820833206,0.172326147556305,-0.153174893518032,-0.065906877469682,0.0948225558197254,4
0.540008544921875,-0.029104471206665,2.84768795967102,1.17108643054962,-0.0912963635428427,2.92653410573011,1.19937388826368,2089.816,2991.343,2870.064,951.968,-0.09781791,0.003777498,0.04785473,0.011009193956852,-0.383428245782852,0.179352402687073,-0.163714777034477,-0.0704418948965508,0.101347245800684,4
0.55999755859375,-0.0291579812765121,2.83985781669617,1.17481684684753,-0.094676112580471,2.92507989413848,1.20146611391775,2071.299,2990.389,2908.909,932.286,-0.09579497,0.003794885,0.05329913,-0.00267589092254639,-0.391505718231201,0.186520785093307,-0.17448465888317,-0.0750758741803766,0.108014315705644,5
0.580001831054688,-0.029499426484108,2.83188223838806,1.17869889736176,-0.0982762614093182,2.92353085067394,1.20369477754168,2062.479,2984.385,2922.746,933.2131,-0.09338747,0.003717689,0.05874064,-0.0170722119510174,-0.398782938718796,0.194101169705391,-0.185490414529404,-0.0798113433697334,0.11482740272751,5
0.600006103515625,-0.03014175593853,2.82377743721008,1.18274021148682,-0.102098762959148,2.92188613504538,1.20606108809202,2067.69,2984.761,2911.572,937.9957,-0.09049208,0.003538318,0.06411018,-0.0321164913475513,-0.405236124992371,0.202068656682968,-0.196713446836865,-0.0846403006364086,0.121774994352997,5
0.620010375976563,-0.0310960821807384,2.81556129455566,1.18694281578064,-0.106147859919355,2.92014392174208,1.20856767199563,2074.951,2987.365,2887.04,950.9418,-0.08718017,0.003271315,0.06929366,-0.0477166250348091,-0.410807520151138,0.210130348801613,-0.20814339888717,-0.0895582896877615,0.128850679156259,5
0.639999389648438,-0.0323718674480915,2.8072521686554,1.1913058757782,-0.110424235525481,2.91830391678686,1.21121495220784,2082.501,2991.057,2854.921,970.1261,-0.08360089,0.002940356,0.07414705,-0.0637889057397842,-0.415459871292114,0.21815536916256,-0.219761081350814,-0.0945570538913933,0.136042578028218,5
0.660003662109375,-0.0339763835072517,2.79886889457703,1.19582271575928,-0.114938248900541,2.91636166293851,1.21400934151928,2086.961,2999.246,2828.527,982.1326,-0.08001148,0.00256699,0.07860513,-0.0802258029580116,-0.419169515371323,0.225840330123901,-0.231574097577923,-0.0996398647564507,0.143355397804799,5
0.680007934570313,-0.03591563180089,2.79042935371399,1.20048844814301,-0.119690355154666,2.91431696437584,1.21695112166479,2088.584,3006.439,2804.831,996.3769,-0.07658985,0.002169702,0.08260187,-0.096962071955204,-0.421975135803223,0.233285710215569,-0.243563621239988,-0.104798621839723,0.150777484091833,6
0.70001220703125,-0.0381934680044651,2.78195095062256,1.20529162883759,-0.124683985757554,2.91216834463331,1.22004241688759,2084.087,3017.17,2798.597,995.863,-0.0735613,0.001757573,0.0862027,-0.113891832530499,-0.423921048641205,0.240159496665001,-0.255719729227087,-0.11002905550423,0.158302694011575,6
0.720001220703125,-0.0408134125173092,2.77344870567322,1.21022808551788,-0.129918284978346,2.90991617190799,1.22328269744952,2074.163,3019.626,2796.214,1006.962,-0.0708763,0.001345333,0.08939747,-0.130997940897942,-0.425113767385483,0.246820494532585,-0.268023157655716,-0.11532287703907,0.16591910230247,6
0.740005493164063,-0.0437774322926998,2.76493620872498,1.21528911590576,-0.13540428105644,2.90755570105657,1.22667879035609,2065.557,3027.753,2807.227,997.6008,-0.06860516,0.0009276653,0.09231151,-0.148200452327728,-0.425629317760468,0.253050774335861,-0.280482990349159,-0.120683994959631,0.173632332283853,6
0.760009765625,-0.0470878519117832,2.75642442703247,1.22047734260559,-0.141140917956636,2.9050873864615,1.23023004187122,2057.32,3028.016,2808.949,1006.531,-0.06657264,0.0005106995,0.09492992,-0.165521308779716,-0.425584524869919,0.259408742189407,-0.293080296154222,-0.126104263719567,0.181430664670081,6
0.779998779296875,-0.0507451258599758,2.74792385101318,1.22578513622284,-0.147126184485884,2.90251209348295,1.23393520697061,2052.066,3036.352,2821.949,991.879,-0.06486449,8.042398E-05,0.09739363,-0.182863235473633,-0.425032436847687,0.265392005443573,-0.305795832832518,-0.131575403921268,0.189302187598958,6
0.800003051757813,-0.0547506101429462,2.7394425868988,1.23121738433838,-0.153371683173492,2.89982482987671,1.2378014681726,2042.399,3031.017,2821.208,1010.585,-0.06319841,-0.0003424825,0.09961477,-0.200274854898453,-0.424068361520767,0.2716124355793,-0.318639638509124,-0.13710173468952,0.197253115148089,6
0.82000732421875,-0.0591039322316647,2.73098826408386,1.23677039146423,-0.159875221826383,2.89702653888221,1.24182746840525,2045.876,3040.676,2823.483,996.7719,-0.06172834,-0.0007797736,0.1016938,-0.217666447162628,-0.422719776630402,0.277653008699417,-0.331592781842754,-0.14267511039705,0.205271727915392,6
0.840011596679688,-0.0638049989938736,2.72256731987,1.24244678020477,-0.166638895824778,2.89411631891588,1.24601450480873,2040.764,3038.837,2816.398,1013.163,-0.06031154,-0.001210673,0.1035514,-0.235052794218063,-0.421050399541855,0.28381672501564,-0.344646098867604,-0.148291588045382,0.213352352969496,6
0.860000610351563,-0.0688520669937134,2.71418571472168,1.24824130535126,-0.173659158941841,2.89109569582005,1.2503603820997,2042.116,3045.633,2815.647,1007.236,-0.05908116,-0.00164317,0.1052419,-0.252354472875595,-0.419082850217819,0.289724588394165,-0.357780475378537,-0.153942943326036,0.221483157706883,6
0.8800048828125,-0.0742437839508057,2.7058482170105,1.25415503978729,-0.180948461186242,2.88795931270381,1.25487280742661,2038.003,3044.562,2808.727,1021.757,-0.05793707,-0.002058091,0.1066965,-0.269585132598877,-0.416871041059494,0.295689553022385,-0.371007022483504,-0.159633957038354,0.229671020432672,6
0.900009155273438,-0.0799773931503296,2.69755935668945,1.26018452644348,-0.188503099076414,2.88470876307182,1.25954948815793,2042.007,3052.703,2805.639,1014.564,-0.05704012,-0.00246662,0.1079713,-0.286680042743683,-0.414445459842682,0.301472306251526,-0.384306908919572,-0.165356526615982,0.237904283698049,7
0.919998168945313,-0.0860499739646912,2.68932223320007,1.26632761955261,-0.196318384305134,2.8813460641717,1.26438752200817,2037.786,3053.706,2803.51,1022.333,-0.05635568,-0.002853843,0.1090466,-0.303629547357559,-0.411860972642899,0.30715537071228,-0.397661187980262,-0.171102499820431,0.246171218589148,7
0.94000244140625,-0.0924578458070755,2.68113899230957,1.2725795507431,-0.204407453948074,2.87786556348678,1.26939504145298,2035.08,3056.457,2808.879,1019.385,-0.05591626,-0.003219229,0.1099631,-0.320393443107605,-0.40915858745575,0.312593728303909,-0.411081631631503,-0.176876941799768,0.254479112513653,7
0.960006713867188,-0.0991978645324707,2.67301106452942,1.2789431810379,-0.212765478812529,2.87426933888379,1.27456905699201,2035.07,3057.75,2805.854,1024.693,-0.055659,-0.003556385,0.1106963,-0.337001264095306,-0.406398892402649,0.318181306123734,-0.424549556012544,-0.182671813410681,0.262816399271726,7
0.980010986328125,-0.106265231966972,2.66493892669678,1.28541052341461,-0.221393324468958,2.87055701793193,1.27991010445463,2034.835,3063.4,2817.412,1010.304,-0.05571386,-0.003878095,0.111353,-0.353368610143661,-0.403611928224564,0.323369145393372,-0.438056556301695,-0.188483498293199,0.271177875878363,7
1,-0.11365681886673,2.65692162513733,1.29198753833771,-0.230284798736574,2.86673126495361,1.28541435058594,2029.713,3058.322,2815.42,1027.092,-0.05584489,-0.00415826,0.1118403,-0.369579166173935,-0.400866270065308,0.328852534294128,-0.451584000205995,-0.194303979492187,0.279552008056641,7
1.02000427246094,-0.121367186307907,2.64895820617676,1.29866445064545,-0.239454009753966,2.86278600961093,1.2910905289958,2032.976,3065.293,2832.533,1002.726,-0.05625342,-0.004424576,0.1123099,-0.38551864027977,-0.39816752076149,0.333845019340515,-0.465144357597929,-0.200138622445408,0.287946515251652,7
1.04000854492188,-0.129393860697746,2.64104652404785,1.30545449256897,-0.248894644448595,2.85872396824263,1.29693473159157,2030.885,3058.766,2821.239,1028.456,-0.05661881,-0.004645618,0.1125978,-0.401334077119827,-0.395589828491211,0.339504599571228,-0.47871923339115,-0.205979512261105,0.296350010028666,7
1.05999755859375,-0.137730225920677,2.6331844329834,1.31234097480774,-0.258599401509697,2.85454828239877,1.30294243851408,2039.045,3071.445,2843.701,987.6863,-0.05736076,-0.004868791,0.1129508,-0.416819423437119,-0.39310759305954,0.344326287508011,-0.492290296490434,-0.211818761581115,0.30475114456651,7
1.08000183105469,-0.146374419331551,2.62536835670471,1.3193416595459,-0.268583149539609,2.85025255453512,1.30912285413647,2028.209,3055.838,2829.519,1035.35,-0.05790138,-0.005025918,0.1130832,-0.432209581136703,-0.390809416770935,0.35003325343132,-0.50587040849135,-0.217661904390701,0.313157880805523,7
1.10000610351563,-0.155319362878799,2.61759567260742,1.32643795013428,-0.278838480013141,2.84583997233313,1.31547139222872,2046.383,3075.123,2853.147,977.087,-0.05886704,-0.005196893,0.1133212,-0.447246670722961,-0.388640284538269,0.354817003011703,-0.519441457145546,-0.223501147495394,0.321559006401169,7
1.12001037597656,-0.164563477039337,2.60986161231995,1.33365106582642,-0.289365134970699,2.84131064678559,1.32198789310157,2033.902,3057.875,2833.72,1034.17,-0.05960208,-0.005297028,0.1133281,-0.462206602096558,-0.386703133583069,0.360653162002563,-0.532995796775449,-0.22933320117373,0.329949788314817,8
1.13999938964844,-0.174098774790764,2.60216331481934,1.34095501899719,-0.300154365346813,2.83666834237095,1.3286669406667,2051.113,3078.294,2868.112,964.8743,-0.06083299,-0.00541687,0.1135016,-0.476764261722565,-0.384916812181473,0.365195840597153,-0.546515580872639,-0.235150386571708,0.338319178707607,8
1.16000366210938,-0.183924898505211,2.59449505805969,1.34837937355042,-0.311222084148811,2.83190621216671,1.33551838583369,2034.682,3054.436,2842.522,1040.434,-0.0616623,-0.00544723,0.1133904,-0.491306602954865,-0.38340961933136,0.371220380067825,-0.560014026276883,-0.240958390526247,0.34667535943296,8
1.18000793457031,-0.194032907485962,2.58685398101807,1.35589218139648,-0.322559451663168,2.82702805965467,1.34253675639879,2062.035,3083.802,2883.975,944.7089,-0.06311159,-0.005519135,0.1135321,-0.505400538444519,-0.382059037685394,0.375640541315079,-0.573473482003304,-0.246749618311663,0.355007403690405,8
1.19999694824219,-0.204423844814301,2.57923316955566,1.36353194713593,-0.334156660511822,2.8220381046756,1.34971598112778,2040.032,3053.628,2847.407,1044.636,-0.06403144,-0.005489307,0.113338,-0.519546806812286,-0.38103523850441,0.381988644599915,-0.58687652428584,-0.252516572968185,0.36330452533874,8
1.22000122070313,-0.2150868922472,2.57163023948669,1.37125134468079,-0.346030421585499,2.81692915700008,1.35706640485806,2068.669,3087.889,2909.983,920.5429,-0.06571563,-0.005519135,0.1135201,-0.533151566982269,-0.380150884389877,0.385968655347824,-0.600236516861372,-0.258265004538453,0.371574997167698,8
1.24000549316406,-0.22602641582489,2.56403708457947,1.37911188602448,-0.358170848086624,2.8117054706409,1.36458190719098,2042.792,3046.606,2847.376,1064.612,-0.06653003,-0.005414207,0.1132107,-0.54697585105896,-0.379656881093979,0.393028944730759,-0.613536214864368,-0.263987493038594,0.379808143784027,8
1.260009765625,-0.237228035926819,2.55645227432251,1.38704025745392,-0.37057666480527,2.80636759428526,1.37226169871082,2087.337,3101.03,2937.644,874.0122,-0.06852526,-0.005425924,0.1135095,-0.560083091259003,-0.379243969917297,0.396420806646347,-0.626768731761373,-0.26968107538565,0.387999702095469,8
1.27999877929688,-0.24870066344738,2.54886627197266,1.39512658119202,-0.383236695417198,2.80092033679326,1.3800988607405,2038.63,3034.317,2844.439,1100.824,-0.06914418,-0.005241633,0.1130804,-0.573629796504974,-0.379305392503738,0.404316246509552,-0.639917282339435,-0.275338529371412,0.396139281255613,8
1.30000305175781,-0.260425090789795,2.54127931594849,1.40326249599457,-0.396168722856641,2.79535604666509,1.38810440176341,2105.537,3114.358,2976.529,816.7465,-0.07143982,-0.005240568,0.1135541,-0.586223423480988,-0.379345238208771,0.406794339418411,-0.652995275331231,-0.280965624398954,0.404235181908735,8
1.32000732421875,-0.272417068481445,2.53367972373962,1.41158485412598,-0.409361504843077,2.78967956113998,1.39627136227237,2035.351,3018.072,2828.471,1155.071,-0.07164862,-0.004966795,0.1129398,-0.599599778652191,-0.379978656768799,0.416119575500488,-0.6659860834168,-0.286555206197011,0.41227711095171,8
1.34001159667969,-0.284649670124054,2.52607131004333,1.41992914676666,-0.422813232584026,2.78389165849082,1.40459862253867,2135.651,3139.892,3021.57,728.2707,-0.07443269,-0.004989166,0.1136968,-0.611630141735077,-0.380422234535217,0.417214661836624,-0.678883253871146,-0.292104498338286,0.420261073840379,8
1.36000061035156,-0.29714822769165,2.51843857765198,1.42849671840668,-0.436511415158101,2.77799771321212,1.41307845008695,2019.5,2991.457,2801.787,1244.337,-0.07405771,-0.004606203,0.1128234,-0.624928116798401,-0.381641536951065,0.428378850221634,-0.691670720740693,-0.297606588091785,0.42817712498415,9
1.3800048828125,-0.309874594211578,2.51079034805298,1.43704342842102,-0.450474904562636,2.77198961381608,1.4217225152016,2169.46,3171.537,3087.264,608.1241,-0.07746337,-0.004671184,0.1139765,-0.636319041252136,-0.382412761449814,0.427338004112244,-0.704361775018035,-0.303067194200314,0.436033492140578,9
1.40000915527344,-0.322869062423706,2.5031054019928,1.44587206840515,-0.464691155755482,2.76587275808388,1.43052305190393,1997.548,2953.984,2750.68,1377.633,-0.07614776,-0.004147607,0.11269,-0.64972198009491,-0.384244740009308,0.44142946600914,-0.716940488958393,-0.308479463400265,0.443820315276901,9
1.41999816894531,-0.336075723171234,2.49540066719055,1.45461535453796,-0.47914673136562,2.75965292774086,1.43947174182117,2222.107,3224.822,3172.772,424.827,-0.08056968,-0.004313256,0.1144477,-0.660333096981049,-0.385232329368591,0.437166273593903,-0.729391385793766,-0.313836736470737,0.451528013536465,9
1.44000244140625,-0.349556446075439,2.48764634132385,1.46372056007385,-0.493861275572861,2.75332167044526,1.4485807456364,1950.071,2894.6,2674.545,1585.869,-0.07789,-0.003594202,0.1125603,-0.674039661884308,-0.387720018625259,0.455260694026947,-0.741727567798258,-0.319144650954242,0.459164697851088,9
1.46000671386719,-0.363230347633362,2.47987079620361,1.47264778614044,-0.508821304757097,2.74688478782212,1.45784171634646,2292.138,3298.626,3291.22,167.2575,-0.08370741,-0.00390739,0.1151607,-0.68369323015213,-0.388780981302261,0.446363300085068,-0.753933682518823,-0.324396601119133,0.466720864320996,9
1.48001098632813,-0.377191007137299,2.47203063964844,1.48205733299255,-0.524024159888143,2.74034342397783,1.467253007885,1885.122,2814.541,2547.104,1887.712,-0.07907192,-0.00292202,0.1123766,-0.69803261756897,-0.392012625932693,0.470478028059006,-0.766004036374583,-0.329590137176618,0.474192988348404,9
1.5,-0.391327440738678,2.46416568756104,1.49122178554535,-0.539455198877605,2.73370387899399,1.4768055561018,2218.768,3533.537,3299.34,0,-0.08568028,-0.00278034,0.1165636,-0.706819832324982,-0.393245220184326,0.458223104476929,-0.777924000354858,-0.334718964672088,0.481572013878822,9
1.52000427246094,-0.405756652355194,2.45622706413269,1.50092375278473,-0.555135099954955,2.72695725560613,1.48651216180595,1886.743,2660.596,2439.745,2166.744,-0.07943784,-0.00111906,0.1130378,-0.721463739871979,-0.39692547917366,0.485100328922272,-0.789706299681991,-0.339788558913217,0.48886581843107,9
1.54000854492188,-0.420353323221207,2.44826149940491,1.51036715507507,-0.571049184024557,2.72010986981902,1.49636373793799,2139.025,3704.749,3217.109,0,-0.08574952,3.71636E-05,0.1177499,-0.729830026626587,-0.398279190063477,0.472170680761337,-0.801336412291853,-0.344792671461508,0.496065412155667,9
1.55999755859375,-0.43523433804512,2.44022560119629,1.52030920982361,-0.587181951496087,2.71316839067337,1.50635068951315,1998.701,2536.159,2438.71,2189.92,-0.07967272,0.002458507,0.1134268,-0.744052469730377,-0.401790708303452,0.497104942798615,-0.812800388649436,-0.349725300221754,0.503162159625937,9
1.58000183105469,-0.450276434421539,2.4321653842926,1.52999234199524,-0.60355483331529,2.70612359703193,1.51648628330776,2185.732,3669.368,3221.894,0,-0.08622357,0.004261854,0.1169245,-0.752102971076965,-0.403011053800583,0.484158158302307,-0.824110582941666,-0.354591760855452,0.510163708672098,9
1.60000610351563,-0.465587258338928,2.42404007911682,1.54012846946716,-0.620152298932711,2.69898217125626,1.52676090517188,2083.75,2521.343,2544.088,2024.659,-0.08162908,0.006953076,0.1118004,-0.765543341636658,-0.406259924173355,0.506808042526245,-0.835253140422976,-0.35938609205264,0.51706148254665,9
1.62001037597656,-0.48105326294899,2.4158878326416,1.55004394054413,-0.636970945360177,2.69174557755711,1.53717244849371,2195.332,3646.47,3252.005,0,-0.08877274,0.008988469,0.1143377,-0.773299515247345,-0.407614976167679,0.495773404836655,-0.846223126656604,-0.364106170663034,0.523852426598179,9
1.63999938964844,-0.496765911579132,2.40766882896423,1.56034481525421,-0.653994195024907,2.68442094880091,1.54771065096602,2122.938,2546.536,2715.417,1791.499,-0.08614527,0.01156305,0.1094778,-0.78563380241394,-0.410946279764175,0.51504647731781,-0.857007552155828,-0.368746407673381,0.530528499715628,9
1.66000366210938,-0.512628614902496,2.3994140625,1.57045865058899,-0.671244443874359,2.67699864863716,1.55838937674714,2243.65,3508.688,3356.675,0,-0.09344766,0.01327275,0.1113518,-0.793137431144714,-0.412744253873825,0.505691826343536,-0.867618167158098,-0.373311858882592,0.53709697585572,9
1.68000793457031,-0.528724730014801,2.39108109474182,1.58094382286072,-0.688705090349012,2.66948582025311,1.56919834868089,2117.581,2613.982,2847.688,1603.334,-0.09150888,0.01534174,0.1072485,-0.804807126522064,-0.416654378175735,0.524258852005005,-0.878042061913515,-0.377796969585941,0.543549863268291,9
1.69999694824219,-0.544967651367188,2.38269782066345,1.59127855300903,-0.706358800111611,2.66188992212981,1.58012683598675,2254.943,3455.572,3408.58,0,-0.09824188,0.01649679,0.1095725,-0.812146544456482,-0.419165998697281,0.516737997531891,-0.888267004546665,-0.382196476749158,0.549879589839776,9
1.72000122070313,-0.561436891555786,2.37422180175781,1.60198271274567,-0.724228658537036,2.6542010212754,1.5911891296115,2095.184,2655.344,2895.258,1540.49,-0.09575821,0.01801664,0.1065983,-0.823460698127747,-0.42380279302597,0.535208761692047,-0.898304216251578,-0.386515208538549,0.556093102023817,9
1.74000549316406,-0.578050136566162,2.3656849861145,1.61254501342773,-0.742297311768984,2.64642658456943,1.60237448669139,2301.41,3392.722,3431.303,0,-0.1014877,0.01851651,0.1095136,-0.830665528774261,-0.42684018611908,0.52811586856842,-0.908141534469281,-0.390747931744771,0.562182870617028,9
1.760009765625,-0.59489107131958,2.3570442199707,1.62350845336914,-0.760560719141003,2.63856835059778,1.61368040586141,2072.112,2692.844,2843.627,1585.958,-0.09763947,0.01953389,0.1071891,-0.842045187950134,-0.432043164968491,0.54817122220993,-0.91777478390713,-0.394892849856044,0.568146310914365,9
1.77999877929688,-0.611871480941772,2.34833860397339,1.63431811332703,-0.779000609654483,2.63063418086074,1.62509557650306,2299.29,3433.917,3395.23,0,-0.1026052,0.01961713,0.1109797,-0.849020719528198,-0.435276538133621,0.540484607219696,-0.927192788821983,-0.398945154262308,0.57397650459845,9
1.80000305175781,-0.629082083702087,2.33952569961548,1.6455500125885,-0.797640935141499,2.62261376955408,1.63663482594136,2050.952,2684.168,2755.785,1711.806,-0.09742216,0.0204374,0.1088919,-0.860531151294708,-0.440639644861221,0.561596214771271,-0.936405971974637,-0.402909329586356,0.579679903854719,9
1.82000732421875,-0.64642733335495,2.3306519985199,1.65660429000854,-0.816463410111527,2.61451498441355,1.64828683458664,2302.042,3479.671,3350.764,0,-0.1019879,0.02039092,0.1131356,-0.867266535758972,-0.443682342767715,0.552712440490723,-0.94540321420156,-0.406780591562751,0.585249625391268,9
1.84001159667969,-0.664005279541016,2.3216757774353,1.66809415817261,-0.835463677219795,2.60633970028288,1.66004890503489,2048.992,2664.486,2679.136,1819.931,-0.09604903,0.02123129,0.1108048,-0.878893613815308,-0.448807924985886,0.574496269226074,-0.954180774018563,-0.410557330335375,0.590683353051152,9
1.86000061035156,-0.681712865829468,2.31264710426331,1.67938268184662,-0.854622615239374,2.59809614449182,1.6719092003358,2281.449,3536.932,3319.567,0,-0.1006441,0.02130088,0.1151936,-0.885379314422607,-0.451434522867203,0.56442803144455,-0.962728579444532,-0.414235212212131,0.595974851798267,9
1.8800048828125,-0.699652314186096,2.30352568626404,1.69110310077667,-0.873964974649439,2.58977366760063,1.68388304221498,2054.303,2631.533,2653.575,1881.644,-0.09449907,0.02231088,0.1124652,-0.896976947784424,-0.456068903207779,0.586020708084106,-0.971056158224177,-0.417818336715394,0.601130019760457,9
1.90000915527344,-0.717718243598938,2.29436135292053,1.7026139497757,-0.893471623792247,2.58138050142717,1.69595858726494,2271.971,3564.348,3308.561,0,-0.09918091,0.02257868,0.1166376,-0.903292834758759,-0.458219021558762,0.575540840625763,-0.979153483542501,-0.421302389586788,0.606142649861596,9
1.91999816894531,-0.736012160778046,2.28511571884155,1.71454334259033,-0.913122862707269,2.57292512231409,1.70812364027167,2076.072,2614.985,2666.888,1868.388,-0.09331663,0.02372192,0.1135679,-0.914696216583252,-0.462283909320831,0.59647274017334,-0.987011339258123,-0.424683405378145,0.611007036871143,9
1.94000244140625,-0.754428505897522,2.27583599090576,1.72625911235809,-0.932943991899774,2.5643966441608,1.72039386345315,2264.883,3558.387,3326.508,0,-0.09810712,0.02410764,0.1174002,-0.920820951461792,-0.463982343673706,0.585787236690521,-0.994638524886308,-0.427965170275055,0.615728628108227,9
1.96000671386719,-0.773067951202393,2.26648473739624,1.73838555812836,-0.952915303453826,2.55580354673295,1.73275705667061,2090.469,2610.842,2695.559,1831.59,-0.09247135,0.02528773,0.1140985,-0.931974709033966,-0.467559158802032,0.606322169303894,-1.00202586176059,-0.431143734953757,0.620301741541062,9
1.98001098632813,-0.791826188564301,2.2571063041687,1.75030517578125,-0.973031969359004,2.54714790738853,1.74521023115561,2259.359,3558.761,3332.875,0,-0.09724107,0.02570058,0.1177263,-0.937905609607697,-0.468916743993759,0.595979273319244,-1.00917036754089,-0.434217816196637,0.624724530959079,9
2,-0.810799717903137,2.24766492843628,1.76261794567108,-0.993273599084619,2.53843849960327,1.7577407641983,2098.54,2611.521,2728.103,1786.613,-0.09183005,0.02683229,0.11443,-0.948674917221069,-0.47207310795784,0.615640699863434,-1.01606400046349,-0.437183953857422,0.628992018127441,9
2.02000427246094,-0.829886734485626,2.23820281028748,1.77472364902496,-1.01366615605493,2.52966415204104,1.77036472839513,2271.636,3521.346,3355.476,0,-0.09644158,0.02712051,0.1178109,-0.95435643196106,-0.473107486963272,0.605284333229065,-1.02271452148052,-0.440045487257004,0.633109007445237,9
2.04000854492188,-0.849183320999146,2.22868418693542,1.78722369670868,-1.03418924440916,2.52083364047092,1.78306949773667,2097.426,2627.195,2735.742,1759.522,-0.09092352,0.02810006,0.1145015,-0.964827716350555,-0.475936055183411,0.625004231929779,-1.02911391720548,-0.442798968459032,0.637070538244476,9
2.05999755859375,-0.868587255477905,2.21915030479431,1.79951727390289,-1.05482201812353,2.5119559343546,1.79584216754118,2263.451,3530.804,3347.052,0,-0.09537578,0.02824632,0.1179568,-0.97019636631012,-0.476698726415634,0.61467832326889,-1.03525504859546,-0.445441325732794,0.640872191117535,9
2.08000183105469,-0.88819283246994,2.20956659317017,1.81219494342804,-1.07559088172821,2.50301967256038,1.80869908347065,2085.917,2627.387,2732.994,1764.119,-0.08968035,0.02910393,0.1147529,-0.980282604694366,-0.479189723730087,0.633884489536285,-1.04114485287423,-0.447975543971863,0.644518260536375,9
2.10000610351563,-0.907898962497711,2.19997406005859,1.82465767860413,-1.09647498538954,2.49403382618922,1.82162733848484,2276.88,3508.805,3346.462,0,-0.09393661,0.02906894,0.1181322,-0.985303103923798,-0.479616850614548,0.623139142990112,-1.04677621342161,-0.450398561093403,0.648004340974112,9
2.12001037597656,-0.927800714969635,2.19033908843994,1.83750867843628,-1.11746913671118,2.48500062938421,1.83462371824305,2075.777,2638.209,2708.242,1779.302,-0.08797327,0.02978324,0.1148719,-0.995088219642639,-0.481759756803513,0.642549932003021,-1.05214690704168,-0.452709420518306,0.651329056166548,9
2.13999938964844,-0.947794377803802,2.18070244789124,1.85013139247894,-1.138551967509,2.47592927627801,1.8476749948214,2257.939,3529.535,3332.707,0,-0.09216348,0.02964319,0.1183907,-0.999679863452911,-0.481831520795822,0.631134629249573,-1.05725102347782,-0.454905579228273,0.654488747383304,8
2.16000366210938,-0.967976808547974,2.1710307598114,1.86314082145691,-1.15975039167652,2.46680818657414,1.86079782920208,2059.888,2627.334,2681.193,1822.168,-0.08586936,0.03031453,0.1150549,-1.0091278553009,-0.483582317829132,0.650469243526459,-1.0620943502576,-0.456989527434725,0.657486997379635,8
2.18000793457031,-0.988242745399475,2.1613655090332,1.87590885162354,-1.18104303873349,2.45764655539322,1.87397899203979,2251.492,3539.93,3316.104,0,-0.08996478,0.03013369,0.1185781,-1.01329565048218,-0.483251839876175,0.638400137424469,-1.06667099276523,-0.458958728849171,0.660320157107579,7
2.19999694824219,-1.00869023799896,2.15167474746704,1.88906228542328,-1.20240821395574,2.44845371736898,1.88720505326679,2055.968,2619.463,2650.871,1852.486,-0.08348211,0.0307901,0.1150567,-1.0223788022995,-0.484553694725037,0.657673299312592,-1.07097597819164,-0.460811043810786,0.662985148161421,7
2.22000122070313,-1.02921140193939,2.14199900627136,1.90195620059967,-1.22387315175433,2.43921795429519,1.90049287228091,2233.1,3553.463,3306.729,0,-0.08760308,0.03061783,0.1185492,-1.02606010437012,-0.483787000179291,0.644696772098541,-1.07501419914593,-0.462548577472581,0.665484999299265,7
2.24000549316406,-1.04990649223328,2.13230657577515,1.9152364730835,-1.24541615591711,2.42994860144581,1.91382901809327,2050.837,2604.969,2623.488,1886.842,-0.08093453,0.03130326,0.1147584,-1.03475654125214,-0.484626352787018,0.664013981819153,-1.07878069424208,-0.464169195088763,0.667816639186824,5
2.260009765625,-1.07066559791565,2.12263751029968,1.92824637889862,-1.26703177594152,2.42064800401982,1.92721011658316,2214.21,3579.496,3284.327,0,-0.08512528,0.0311949,0.1182024,-1.03795313835144,-0.483449727296829,0.650495946407318,-1.08227399942825,-0.465672266718726,0.669979161506271,4
2.27999877929688,-1.09158778190613,2.11296153068542,1.94162786006927,-1.28869796983554,2.41132564607061,1.9406225227075,2048.865,2586.736,2615.02,1899.643,-0.07853076,0.03192753,0.1142093,-1.04610657691956,-0.483804017305374,0.669075131416321,-1.08549040888332,-0.467056197851165,0.67197027217779,4
2.30000305175781,-1.11256372928619,2.10331726074219,1.95472633838654,-1.31044231452835,2.40196966201596,1.95408330789913,2211.743,3565.01,3285.67,0,-0.08277797,0.03182966,0.1173842,-1.04879951477051,-0.482216835021973,0.654924750328064,-1.08843358680109,-0.468322565086307,0.673792239511894,0
2.32000732421875,-1.13369190692902,2.09367418289185,1.9681921005249,-1.33224276726637,2.39258953623693,1.96757882664355,2047.103,2584.178,2609.002,1894.222,-0.07624257,0.03253879,0.113149,-1.05641663074493,-0.482139378786087,0.673289716243744,-1.09109983431736,-0.469469776906228,0.675442773735451,0
2.34001159667969,-1.15486371517181,2.08406972885132,1.98137032985687,-1.35409377777295,2.38318765686251,1.9811056430551,2195.423,3578.542,3271.05,0,-0.08058832,0.03243489,0.1162281,-1.05858993530273,-0.480228334665298,0.658911168575287,-1.09348812118877,-0.470497390025984,0.676921237078733,0
2.36000061035156,-1.17617475986481,2.0744743347168,1.99489879608154,-1.37597305876702,2.37377361348711,1.99464996024512,2039.485,2576.196,2612.117,1887.422,-0.0742239,0.0331084,0.1119338,-1.06554782390594,-0.479777425527573,0.676422357559204,-1.09559602313537,-0.471404361345641,0.678226128796969,0
2.3800048828125,-1.19751811027527,2.06492304801941,2.00812888145447,-1.39790843013262,2.36433543599182,2.00822900004707,2197.401,3550.295,3279.135,0,-0.07858456,0.03291479,0.1147965,-1.06717693805695,-0.477567702531815,0.661507844924927,-1.09742594550583,-0.472191725819537,0.679358937915576,0
2.40000915527344,-1.218989610672,2.05538654327393,2.02170920372009,-1.41987760424917,2.35488271411715,2.02182896536211,2028.648,2581.458,2603.135,1883.993,-0.07216581,0.03348531,0.110389,-1.07356405258179,-0.476824015378952,0.67901885509491,-1.09897546783438,-0.472858441988871,0.680318166050934,0
2.41999816894531,-1.24048244953156,2.04589867591858,2.0349862575531,-1.44185817738692,2.34542508756209,2.03543598721428,2179.578,3565.701,3261.567,0,-0.07653605,0.03321508,0.113303,-1.07463848590851,-0.474390089511871,0.663853764533997,-1.10024313330221,-0.473403883025206,0.681102911362803,0
2.44000244140625,-1.26208961009979,2.03643107414246,2.04859972000122,-1.46387808506052,2.33595053645515,2.04906735901791,2011.951,2572.978,2595.82,1895.474,-0.07007097,0.03371745,0.1089269,-1.08036911487579,-0.473374962806702,0.680677831172943,-1.10123038958312,-0.473828671822132,0.681714070030222,0
2.46000671386719,-1.28370761871338,2.02701687812805,2.0618999004364,-1.48591492338117,2.32646870056377,2.06270921169857,2189.463,3540.01,3257.454,0,-0.0743773,0.03331681,0.1116884,-1.0808961391449,-0.470698475837708,0.665010511875153,-1.10193578218388,-0.474132182551855,0.682150741652607,0
2.48001098632813,-1.30542874336243,2.01762819290161,2.07553720474243,-1.5079630509786,2.31698200721197,2.07635805297935,1998.55,2580.655,2573.634,1904.165,-0.06780781,0.03369825,0.1072218,-1.08604884147644,-0.469431847333908,0.68186217546463,-1.10235904000526,-0.474314298567936,0.682412758406602,0
2.5,-1.32714819908142,2.00829768180847,2.08884859085083,-1.52999999932945,2.30750012397766,2.08999997377396,2169.194,3553.053,3243.264,0,-0.07215036,0.03320763,0.1100573,-1.08598101139069,-0.466536372900009,0.665563762187958,-1.10250000050292,-0.474374949932098,0.682500019669533,0
2.52000427246094,-1.34895896911621,1.99899697303772,2.10249304771423,-1.55205376834272,2.29801100328223,2.10365230735988,1977.71,2570.799,2550.285,1937.933,-0.0653854,0.03353795,0.1055374,-1.09054112434387,-0.465027838945389,0.682227075099945,-1.10235882472314,-0.474314205938057,0.682412625136718,0
2.54000854492188,-1.37075710296631,1.98975896835327,2.11579990386963,-1.57410188948011,2.28852431271001,2.11730114464159,2162.675,3554.816,3226.831,0,-0.06969865,0.03299132,0.1083574,-1.08990371227264,-0.461902737617493,0.665343523025513,-1.10193535162022,-0.474131997292339,0.682150475113189,0
2.55999755859375,-1.39263439178467,1.98055636882782,2.12943816184998,-1.59612191359838,2.27904971150017,2.13093258853001,1967.087,2565.079,2521.588,1962.931,-0.06281491,0.03327871,0.1037129,-1.09387612342834,-0.460133463144302,0.681913733482361,-1.10123038958312,-0.473828671822132,0.681714070030222,0
2.58000183105469,-1.41448712348938,1.97142100334167,2.1427218914032,-1.61814182127198,2.26957516039323,2.14456396033363,2145.071,3561.134,3216.298,0,-0.06718037,0.03270848,0.1065248,-1.0926342010498,-0.456767797470093,0.664189398288727,-1.10024313330221,-0.473403883025206,0.681102911362804,0
2.60000610351563,-1.43640792369843,1.96232604980469,2.15633893013,-1.64013916343638,2.26011031859448,2.15818136301212,1954.627,2553.029,2492.123,1997.233,-0.06012086,0.03299018,0.1016901,-1.09603273868561,-0.45474049448967,0.680848062038422,-1.09897439291323,-0.472857979480329,0.680317500623536,0
2.62001037597656,-1.458291888237,1.95330309867859,2.16959095001221,-1.66210831390746,2.25065760689379,2.17178131368948,2127.052,3581.892,3191.71,0,-0.06456461,0.03244881,0.1045046,-1.09420704841614,-0.451153337955475,0.662603914737701,-1.09742465646102,-0.47219117117957,0.679358139935436,0
2.63999938964844,-1.48023068904877,1.94432592391968,2.18316411972046,-1.68402693989188,2.24122663446822,2.18534998730279,1944.925,2536.64,2477.487,2016.4,-0.0575376,0.03275102,0.0995377,-1.09693348407745,-0.448854386806488,0.678659558296204,-1.09559602313537,-0.471404361345641,0.67822612879697,0
2.66000366210938,-1.50212121009827,1.93542516231537,2.19635987281799,-1.70592290617745,2.23180541187802,2.19890463348308,2124.281,3566.709,3188.485,0,-0.0620426,0.03220006,0.1021525,-1.09452605247498,-0.44504189491272,0.659782528877258,-1.09348640563071,-0.470496651869278,0.67692017506657,0
2.68000793457031,-1.52405333518982,1.92657518386841,2.20987462997437,-1.72777388024004,2.22240354818443,2.21243142733407,1936.561,2534.032,2464.525,2020.037,-0.05503103,0.03246667,0.09700131,-1.09660494327545,-0.442503064870834,0.675742506980896,-1.09109790637238,-0.469468947365361,0.675441580245664,0
2.69999694824219,-1.5459258556366,1.917804479599,2.22300696372986,-1.74955768413056,2.21303058593937,2.22591663964878,2108.5,3579.108,3170.048,0,-0.05964522,0.03190141,0.0995722,-1.09362018108368,-0.43852373957634,0.65662282705307,-1.08843358680109,-0.468322565086308,0.673792239511893,0
2.72000122070313,-1.56782495975494,1.90908885002136,2.23644280433655,-1.77130202882336,2.20367460188472,2.23937742484041,1920.838,2525.351,2464.444,2021.672,-0.05275296,0.03213537,0.09440991,-1.09496426582336,-0.435784012079239,0.671793103218079,-1.08549040888332,-0.467056197851165,0.671970272177789,0
2.74000549316406,-1.58965349197388,1.90045571327209,2.24948978424072,-1.79298473688851,2.19434513834902,2.25280005402337,2117.691,3549.451,3169.269,0,-0.05738899,0.03147322,0.09676904,-1.09142446517944,-0.431657463312149,0.652351081371307,-1.08227143928024,-0.465671165158559,0.669977576652695,0
2.760009765625,-1.61149549484253,1.89188027381897,2.26283812522888,-1.81460030360772,2.18504456385877,2.26618111951479,1906.72,2535.333,2454.551,2014.51,-0.05054893,0.03158942,0.09156425,-1.09209835529327,-0.428770422935486,0.667420387268066,-1.07877792518082,-0.464168003639063,0.667814925005998,0
2.77999877929688,-1.6332551240921,1.88338947296143,2.27578949928284,-1.83612684690458,2.17578229366013,2.27950707526701,2101.385,3550.776,3161.701,0,-0.05524408,0.03082389,0.09396878,-1.08797955513,-0.424545288085938,0.647566497325897,-1.07501419914593,-0.462548577472581,0.665484999299265,0
2.80000305175781,-1.65501523017883,1.87495839595795,2.28903937339783,-1.85759178470316,2.16654653058634,2.29279489428112,1882.592,2531.588,2439.323,2035.749,-0.04826234,0.03085763,0.08880449,-1.08800947666168,-0.421552807092667,0.662491858005524,-1.07097597819164,-0.460811043810786,0.662985148161422,0
2.82000732421875,-1.67668223381042,1.86661386489868,2.30188417434692,-1.87897323600723,2.1573466894188,2.30603103117811,2097.512,3545.091,3148.745,0,-0.05289411,0.02999813,0.09123821,-1.08334922790527,-0.417228370904922,0.642235696315765,-1.06666760390385,-0.458957270716794,0.660318059240952,0
2.83999633789063,-1.69833767414093,1.85833144187927,2.31502842903137,-1.90024960698239,2.14819206138118,2.31920211834584,1867.237,2530.504,2410.955,2059.151,-0.04574299,0.02995126,0.08605555,-1.08277893066406,-0.414112716913223,0.657214224338531,-1.06209435025759,-0.456989527434725,0.657486997379635,0
2.86000061035156,-1.71988916397095,1.85013830661774,2.32775235176086,-1.9214480311499,2.13907097167731,2.33232495272651,2083.435,3547.067,3137.59,0,-0.05037156,0.02902813,0.08855026,-1.07756185531616,-0.409663319587708,0.636202216148376,-1.05725102347782,-0.454905579228273,0.654488747383304,0
2.8800048828125,-1.74141776561737,1.8420102596283,2.34078168869019,-1.94254691640495,2.12999271078668,2.34538616777867,1850.193,2521.308,2375.441,2100.294,-0.04294667,0.02894622,0.08325192,-1.07643401622772,-0.406400561332703,0.651469349861145,-1.0521429102862,-0.45270770082608,0.651326581984514,0
2.90000915527344,-1.76283168792725,1.83397388458252,2.35338020324707,-1.96354098577478,2.12095954924324,2.35838249680481,2067.092,3568.002,3109.807,0,-0.04761466,0.0280287,0.08581893,-1.070685505867,-0.401809692382813,0.629929602146149,-1.04677201701582,-0.450396755497224,0.648001743199023,0
2.91999816894531,-1.78421020507813,1.82600700855255,2.36627626419067,-1.98440911693069,2.11198057539494,2.37130086407726,1836.46,2505.642,2351.811,2131.22,-0.04012851,0.02796256,0.0804221,-1.06893801689148,-0.39835661649704,0.644802510738373,-1.04114485287423,-0.447975543971863,0.644518260536375,0
2.94000244140625,-1.80546379089355,1.81813478469849,2.37872815132141,-2.00517798053537,2.10304431360073,2.38415778000673,2064.337,3556.463,3101.87,0,-0.04485349,0.02704239,0.08284259,-1.06266975402832,-0.393600761890411,0.622590005397797,-1.03525504859546,-0.445441325732794,0.640872191117535,0
2.96000671386719,-1.82667005062103,1.8103358745575,2.39147782325745,-2.02582645724542,2.09415985092405,2.3969401707136,1825.663,2501.629,2332.583,2144.677,-0.03734338,0.02695626,0.07726952,-1.06031727790833,-0.389958649873734,0.637479901313782,-1.02910913225408,-0.442796909628122,0.637067576131623,0
2.98001098632813,-1.84774076938629,1.80263435840607,2.40377759933472,-2.04634944795115,2.08532938136936,2.40964487960608,2048.762,3569.93,3081.635,0,-0.04219619,0.02604382,0.07966083,-1.0535364151001,-0.385071396827698,0.614989399909973,-1.02270954399162,-0.440043345582586,0.633105926142498,0
3,-1.86875104904175,1.79500889778137,2.41636347770691,-2.06672639957428,2.07656174835205,2.42225918334961,1810.837,2493.36,2325.39,2152.304,-0.03481391,0.02594846,0.07405987,-1.05051827430725,-0.381272226572037,0.629294395446777,-1.01606400046349,-0.437183953857422,0.628992018127441,0
3.02000427246094,-1.88961577415466,1.7874835729599,2.42848968505859,-2.0869834279768,2.06784571494631,2.43479924890685,2049.076,3545.571,3083.779,0,-0.03973277,0.02498758,0.0762952,-1.04323744773865,-0.376277476549149,0.606311321258545,-1.00916501115878,-0.434215511495054,0.624721215103391,0
3.04000854492188,-1.91040825843811,1.78003597259521,2.44090414047241,-2.10709998486405,2.05919012250926,2.44725235590455,1795.224,2496.828,2313.165,2155.936,-0.03232492,0.02482245,0.07062677,-1.03961205482483,-0.372366666793823,0.620723247528076,-1.00202031904361,-0.431141350077486,0.620298310335216,0
3.05999755859375,-1.93104493618011,1.77269005775452,2.45285558700562,-2.12705600675913,2.05060360379452,2.45960608409476,2034.144,3555.15,3066.58,0,-0.03729704,0.02381568,0.0729202,-1.03184568881989,-0.367303848266602,0.597568273544312,-0.994638524886308,-0.427965170275055,0.615728628108227,0
3.08000183105469,-1.95159685611725,1.76542389392853,2.46508646011353,-2.14687713595163,2.04207512564123,2.47187630727625,1774.368,2491.024,2303.225,2169.672,-0.02986682,0.02360531,0.06732284,-1.0275936126709,-0.363300323486328,0.611539125442505,-0.987011339258122,-0.424683405378145,0.611007036871143,0
3.10000610351563,-1.97198438644409,1.758260846138,2.47684645652771,-2.16654331551667,2.03361331798384,2.48405060925705,2042.537,3529.71,3061.434,0,-0.03481391,0.02250397,0.06951248,-1.01937508583069,-0.358162671327591,0.588003098964691,-0.979147395688901,-0.421299770153459,0.606138881190213,0
3.12001037597656,-1.99227547645569,1.75117945671082,2.48888921737671,-2.18604984110275,2.02522020497339,2.49612607781951,1757.214,2498.195,2281.43,2180.445,-0.02729687,0.02219615,0.06388864,-1.01455652713776,-0.354066073894501,0.602137804031372,-0.971049893464309,-0.41781564116424,0.601126141575667,0
3.13999938964844,-2.01239323616028,1.7442022562027,2.50045204162598,-2.20537738341953,2.01690410346351,2.50809074721212,2027.513,3535.831,3047.21,0,-0.03229029,0.02102401,0.06616047,-1.00587952136993,-0.348858058452606,0.57813823223114,-0.962728579444533,-0.414235212212131,0.595974851798267,0
3.16000366210938,-2.03240323066711,1.73730909824371,2.5122971534729,-2.22455088103183,2.00865428308644,2.51996005559448,1733.917,2492.002,2257.912,2211.761,-0.02461134,0.02066891,0.06054822,-1.00051188468933,-0.344666570425034,0.592253565788269,-0.954174163352092,-0.410554485950274,0.590679260733698,0
3.18000793457031,-2.05223178863525,1.73052155971527,2.52365303039551,-2.24355101420387,2.00047905658478,2.53172204312984,2024.146,3532.042,3031.608,0,-0.0295989,0.01944838,0.06282883,-0.991413474082947,-0.339370101690292,0.567796528339386,-0.945396434568188,-0.406777674475913,0.585245428475253,0
3.19999694824219,-2.07194185256958,1.72382044792175,2.53529262542725,-2.2623590635174,1.99238647840124,2.54336512160655,1719,2488.992,2230.005,2236.416,-0.02181555,0.01905109,0.05716428,-0.985519111156464,-0.335055202245712,0.581979691982269,-0.936405971974636,-0.402909329586355,0.579679903854719,0
3.22000122070313,-2.09146213531494,1.71722722053528,2.54642987251282,-2.28099938900442,1.98436606709459,2.55490437104486,2011.643,3532.843,3020.329,0,-0.0268649,0.01780879,0.05946074,-0.976001381874084,-0.329657644033432,0.556864619255066,-0.927192788821982,-0.398945154262308,0.573976504598449,0
3.24000549316406,-2.11085391044617,1.71072292327881,2.55785465240479,-2.29945328359428,1.9764258717947,2.56632821087688,1703.127,2481.044,2202.249,2267.388,-0.01894573,0.01739612,0.05369707,-0.969599187374115,-0.325212061405182,0.57123327255249,-0.91776751470058,-0.394889722119544,0.568141810929231,0
3.260009765625,-2.13004779815674,1.7043285369873,2.56876873970032,-2.31771654397337,1.96856770107001,2.57763403905129,1999.29,3543.715,2999.179,0,-0.0240787,0.01616936,0.0560144,-0.959685444831848,-0.319711983203888,0.545705497264862,-0.908134108040216,-0.390744736359816,0.562178273303667,0
3.27999877929688,-2.14910244941711,1.69802618026733,2.57996416091919,-2.33577134012187,1.96079922667992,2.58881081793642,1688.185,2470.949,2184.848,2288.15,-0.01617231,0.01576894,0.05019617,-0.952749669551849,-0.315129548311234,0.559771478176117,-0.898304216251578,-0.386515208538549,0.556093102023818,0
3.30000305175781,-2.1679515838623,1.69183552265167,2.5906388759613,-2.35364119854729,1.95311032582551,2.59987311156116,1997.249,3529.346,2993.749,0,-0.02137666,0.01453923,0.05239512,-0.94245719909668,-0.309534221887589,0.533736050128937,-0.888267004546666,-0.382196476749158,0.549879589839776,0
3.32000732421875,-2.18665170669556,1.68573880195618,2.60159635543823,-2.37130830610839,1.94550866300381,2.61080989274252,1674.998,2470.437,2168.718,2297.664,-0.01347027,0.01411303,0.04648514,-0.935001313686371,-0.304833382368088,0.547876179218292,-0.878034183119985,-0.377793579561194,0.543544985919778,0
3.33999633789063,-2.20513844490051,1.67975544929504,2.6120285987854,-2.38875555478454,1.93800159931817,2.62161057080077,1986.055,3534.7,2977.69,0,-0.01878061,0.0128777,0.04867926,-0.924336552619934,-0.299168258905411,0.521611988544464,-0.867618167158097,-0.373311858882592,0.53709697585572,0
3.36000061035156,-2.22346544265747,1.67386782169342,2.62273621559143,-2.406005803634,1.93057929915441,2.6322892965819,1655.836,2466.149,2159.596,2308.469,-0.01093228,0.01243728,0.0427961,-0.916346490383148,-0.294378072023392,0.535386323928833,-0.857007552155826,-0.36874640767338,0.530528499715627,0
3.3800048828125,-2.24157238006592,1.66809451580048,2.63291239738464,-2.42304196557559,1.92324911460621,2.64283549236868,1990.925,3513.116,2973.076,0,-0.01629215,0.01115352,0.04488089,-0.905337691307068,-0.288663476705551,0.508811950683594,-0.846214826007803,-0.364102599125748,0.523847288101157,0
3.40000915527344,-2.25950908660889,1.66241848468781,2.64336585998535,-2.43986044461333,1.91601259293018,2.6532469320683,1639.378,2472.695,2144.247,2313.426,-0.008461928,0.01064746,0.03899417,-0.896845817565918,-0.283807516098022,0.522669970989227,-0.835244706287931,-0.359382463079953,0.517056261415284,0
3.41999816894531,-2.27721929550171,1.65685713291168,2.65328049659729,-2.45644516534361,1.90887665092339,2.66351366424015,1980.145,3511.288,2963.843,0,-0.01390277,0.009313689,0.0411241,-0.885498523712158,-0.278064429759979,0.495737880468369,-0.824110582941664,-0.354591760855451,0.510163708672097,0
3.44000244140625,-2.29474973678589,1.65139389038086,2.66347289085388,-2.47281804716281,1.90183185728196,2.67364925803476,1617.047,2470.498,2126.447,2335.226,-0.005985188,0.008764478,0.03528359,-0.876535177230835,-0.273162633180618,0.509624779224396,-0.812800388649434,-0.349725300221754,0.503162159625937,0
3.46000671386719,-2.31204771995544,1.64604640007019,2.67312002182007,-2.4889630419904,1.89488511704659,2.68364377892579,1977.802,3504.075,2951.885,0,-0.01143721,0.007387673,0.03743638,-0.864887058734894,-0.267388314008713,0.482351034879684,-0.801327600455845,-0.344788879974649,0.496059957209413,0
3.48001098632813,-2.32915735244751,1.64079761505127,2.6830472946167,-2.50487694859767,1.88803780761656,2.69349524520019,1601.61,2469.982,2102.181,2355.436,-0.003440804,0.006794426,0.03160131,-0.855484545230865,-0.262424141168594,0.49636647105217,-0.789697369743255,-0.339784716610052,0.488860290373601,0
3.5,-2.34602832794189,1.63566565513611,2.69241905212402,-2.5205447997813,1.88129636896134,2.70319439144611,1971.078,3500.729,2940.384,0,-0.008957276,0.005390039,0.0337793,-0.843554615974426,-0.256609618663788,0.468590825796127,-0.777924000354857,-0.334718964672089,0.481572013878822,0
3.52000427246094,-2.36270308494568,1.63063406944275,2.70207333564758,-2.53598752699493,1.87465179486116,2.71275417523047,1582.519,2465.579,2079.885,2381.75,-0.0008586031,0.004776166,0.02791858,-0.833734452724457,-0.251576483249664,0.482715129852295,-0.765994882555673,-0.32958619854407,0.474187321698442,0
3.54000854492188,-2.37913393974304,1.62571978569031,2.71116518974304,-2.55119019794619,1.86811051026429,2.72216535275294,1965.925,3500.66,2924.759,0,-0.006428871,0.003367936,0.03009981,-0.821546971797943,-0.245714724063873,0.454598784446716,-0.753924423002452,-0.324392617007921,0.466715132239272,0
3.55999755859375,-2.39535999298096,1.6209077835083,2.72053956985474,-2.56613872308604,1.86167857751006,2.73141920191151,1569.853,2462.839,2058.569,2398.982,0.001659038,0.00274291,0.02421544,-0.811315596103668,-0.240603744983673,0.468714714050293,-0.741727567798258,-0.319144650954242,0.459164697851087,0
3.58000183105469,-2.41133785247803,1.61621356010437,2.72934126853943,-2.58085326729328,1.85534732021446,2.74052820572674,1960.023,3492.772,2917.999,0,-0.004022439,0.001333614,0.02636537,-0.798884928226471,-0.234705120325089,0.440086334943771,-0.729391385793765,-0.313836736470737,0.451528013536464,0
3.60000610351563,-2.42710304260254,1.61162281036377,2.73842859268188,-2.59531978247425,1.84912278287974,2.74948366775945,1554.462,2460.533,2039.946,2416.95,0.004080106,0.0006970213,0.02043612,-0.788257896900177,-0.229537561535835,0.454368442296982,-0.716930938559024,-0.308475354130224,0.443814403124743,0
3.62001037597656,-2.44261503219604,1.60715043544769,2.74693822860718,-2.60953584173048,1.8430060097325,2.75828408564387,1951.1,3496.308,2903.521,0,-0.00171188,-0.0006972156,0.02260973,-0.775600254535675,-0.223617866635323,0.425487279891968,-0.704352136620513,-0.303063047067126,0.436027525513372,0
3.63999938964844,-2.45790672302246,1.6027820110321,2.75573039054871,-2.6234885835008,1.83700253474321,2.76692149746096,1538.92,2456.718,2026.976,2430.342,0.006332197,-0.001328917,0.01670828,-0.764586508274078,-0.218413457274437,0.43961176276207,-0.691670720740692,-0.297606588091786,0.428177124984152,0
3.66000366210938,-2.47294139862061,1.59853196144104,2.76394152641296,-2.63719712493647,1.83110413233575,2.77540773763803,1943.169,3485.947,2892.54,10.40872,0.0005268168,-0.002698315,0.01884546,-0.751733541488647,-0.212494045495987,0.410555273294449,-0.678873453515702,-0.29210028151913,0.420255006953505,0
3.68000793457031,-2.48774814605713,1.59438705444336,2.77243328094482,-2.65064865588166,1.82531631436231,2.78373487607838,1529.519,2457.761,2015.64,2431.858,0.00851261,-0.00333481,0.01296819,-0.740351915359497,-0.20726315677166,0.424584835767746,-0.665976209205203,-0.286550957599616,0.412270998344358,0
3.69999694824219,-2.50229501724243,1.59036004543304,2.78035092353821,-2.66383127580226,1.81964420129024,2.79189554578451,1922.365,3489.766,2861.132,40.98865,0.002808476,-0.004633368,0.01510131,-0.727326452732086,-0.201348945498466,0.395887672901154,-0.65299527533123,-0.280965624398954,0.404235181908735,0
3.72000122070313,-2.51660680770874,1.58643817901611,2.7885320186615,-2.6767633032417,1.81407991116207,2.79990108680742,1525.57,2458.343,2014.886,2415.961,0.01057134,-0.005233111,0.00934196,-0.71558541059494,-0.19608598947525,0.409055978059769,-0.639917282339434,-0.275338529371411,0.396139281255611,0
3.74000549316406,-2.53065514564514,1.58263444900513,2.79615616798401,-2.6894328975087,1.80862853869646,2.80774416919516,1902.238,3472.521,2821.586,102.1499,0.005162533,-0.006418218,0.01128932,-0.702422618865967,-0.190182596445084,0.381203681230545,-0.626758665639204,-0.269676744214497,0.387993470686332,0
3.760009765625,-2.54446148872375,1.57893681526184,2.80401706695557,-2.70183851231475,1.80329074921818,2.81542383572149,1536.228,2472.529,2025.385,2360.129,0.012464,-0.006978547,0.005672086,-0.690322041511536,-0.184877589344978,0.393049299716949,-0.613526094901139,-0.263983138701136,0.379801879044709,0
3.77999877929688,-2.55800199508667,1.57535696029663,2.81134510040283,-2.7139695770734,1.79807109095524,2.82293354268985,1877.728,3444.835,2779.459,182.4081,0.007382751,-0.008040616,0.007326353,-0.677026152610779,-0.179004222154617,0.366406559944153,-0.60023651686137,-0.258265004538452,0.371574997167698,0
3.80000305175781,-2.57129311561584,1.57188308238983,2.81887531280518,-2.72584333814708,1.79296214327972,2.83028396642013,1545.554,2497.201,2050.838,2279.82,0.01405315,-0.008562596,0.00193555,-0.664564251899719,-0.17369119822979,0.376515358686447,-0.586876524285838,-0.252516572968186,0.363304525338741,0
3.82000732421875,-2.58431601524353,1.56852519512177,2.82590627670288,-2.73744929742843,1.78796842323393,2.8374686080838,1852.824,3407.167,2734.504,277.7279,0.009383345,-0.009510681,0.003252547,-0.651134967803955,-0.167888849973679,0.351543009281158,-0.573463232144022,-0.246745208083563,0.355001058539243,0
3.83999633789063,-2.59708261489868,1.56527304649353,2.83309960365295,-2.74877791451009,1.78309403578861,2.84448156171422,1557.938,2533.221,2084.001,2177.158,0.01528634,-0.01001189,-0.001794438,-0.638327062129974,-0.162614896893501,0.35966420173645,-0.560014026276881,-0.240958390526246,0.346675359432959,0
3.86000061035156,-2.60957813262939,1.56213414669037,2.83983087539673,-2.75984563331209,1.77833190558438,2.85133300688122,1821.966,3360.307,2689.791,389.1846,0.01112135,-0.01085824,-0.0007978831,-0.624774515628815,-0.156934306025505,0.336567133665085,-0.546515580872635,-0.235150386571708,0.338319178707605,0
3.8800048828125,-2.6218113899231,1.5590991973877,2.84668397903442,-2.77064299647982,1.77368610185671,2.85801708903178,1570.578,2574.122,2119.955,2067.021,0.01628496,-0.0113472,-0.005421663,-0.611664593219757,-0.151744738221169,0.342650979757309,-0.532985466132484,-0.229328756186666,0.329943393154704,0
3.90000915527344,-2.63377141952515,1.55617499351501,2.85311627388,-2.78116944461445,1.76915686529929,2.86453346187138,1795.86,3309.773,2641.18,504.5768,0.01269046,-0.01211259,-0.004730307,-0.598008990287781,-0.146213442087173,0.32161009311676,-0.519431110871129,-0.223496695782554,0.321552601564443,0
3.91999816894531,-2.64546465873718,1.55335235595703,2.85962820053101,-2.79141684911929,1.7647476934202,2.87087709341145,1581.874,2618.588,2155.096,1955.893,0.01713398,-0.01259462,-0.008884305,-0.584654152393341,-0.141129612922668,0.325591444969177,-0.505870408491346,-0.2176619043907,0.313157880805522,0
3.94000244140625,-2.65688300132751,1.55063724517822,2.8657603263855,-2.8014005971492,1.76045196555656,2.87705750903383,1769.64,3255.662,2592.686,624.4067,0.01416756,-0.01328651,-0.008493354,-0.570922911167145,-0.13576140999794,0.306604355573654,-0.492290296490434,-0.211818761581115,0.30475114456651,0
