t,x_s1,x_s2,x_s3,x_s_d1,x_s_d2,x_s_d3,propellers_rpms1,propellers_rpms2,propellers_rpms3,propellers_rpms4,rollRad,pitchRad,yawRad,v_s1,v_s2,v_s3,v_s_d1,v_s_d2,v_s_d3,insideCount
0,-0.0599999986588955,2.94000005722046,1.17999994754791,-0.0599999986588955,2.94000005722046,1.17999994754791,0,0,0,0,0,0,0,0,0,0,-1.06581410364015E-15,4.44089209850063E-16,4.44089209850063E-16,0
0.0200042724609375,-0.0599999986588955,2.94000005722046,1.1771354675293,-0.0600018701838461,2.93999925195556,1.18000110611101,0,0,0,0,0.0163538,-0.002474609,-2.024222E-05,3.71994488546079E-08,3.50004931704007E-08,-0.143225952982903,-0.000280105751305916,-0.000120521679537258,0.00017339880334547,5
0.040008544921875,-0.0599999986588955,2.94000005722046,1.17048275470734,-0.060014880898484,2.93999365380853,1.18000916036316,0,0,0,0,0.03270752,-0.004950816,-5.430172E-05,3.62924410524101E-08,3.44428769949445E-08,-0.332637369632721,-0.00111143977225461,-0.000478221483967637,0.00068803416424398,6
0.0600128173828125,-0.0600004345178604,2.94013261795044,1.16416549682617,-0.0600499235789167,2.93997857592211,1.18003085345166,3185.406,2835.785,1501.1,2767.662,0.03127991,-0.00494336,-0.01646952,-2.17784399865195E-05,0.0066222520545125,-0.315860867500305,-0.00248060856799822,-0.00106733656662813,0.00153561487136384,6
0.0800018310546875,-0.0599162206053734,2.94038772583008,1.15857708454132,-0.0601175574246769,2.93994947496775,1.18007272202403,3065.867,3067.289,2154.926,2024.011,0.01897359,-0.004311125,-0.04351499,0.00421075755730271,0.0127500332891941,-0.279417961835861,-0.00437268608126799,-0.00188144466206175,0.00270690098422899,6
0.100006103515625,-0.0596375651657581,2.94068765640259,1.15374827384949,-0.0602282404704493,2.93990185114529,1.18014124010193,2639.975,3831.739,2620.523,1134.889,-0.005854161,-0.002888465,-0.07014393,0.013932827860117,0.0149973286315799,-0.241438910365105,-0.00677739276378709,-0.00291612276782231,0.00419552897277328,6
0.120010375976563,-0.0590849071741104,2.94089889526367,1.14957010746002,-0.0603920338334453,2.93983137543704,1.18024263599618,2092.432,4101.934,3169.28,755.8676,-0.04011893,-0.0004511395,-0.08993442,0.0276328176259995,0.010560616850853,-0.208907812833786,-0.00968041450003567,-0.00416521191989172,0.00599263771761404,5
0.139999389648438,-0.0582314841449261,2.94085621833801,1.14596676826477,-0.0606185767455666,2.93973390035084,1.18038287685052,1510.421,4074.854,3735.698,701.9178,-0.07649344,0.002388238,-0.09949782,0.0426710844039917,-0.00213099643588066,-0.1801697909832,-0.0130660253322238,-0.00562194567796536,0.00808849210174802,4
0.160003662109375,-0.057099461555481,2.94039487838745,1.14297807216644,-0.0609177895434042,2.93960515744296,1.18056810382587,1134.704,3846.992,4070.02,880.2095,-0.1062777,0.004335666,-0.09869941,0.0566010773181915,-0.0230685900896788,-0.14943665266037,-0.0169265510445065,-0.00728302204135792,0.0104783414199936,4
0.180007934570313,-0.0557377450168133,2.93938803672791,1.14071130752563,-0.0612988491946875,2.93944119812059,1.1808039979024,1101.369,3565.178,4009.805,1148.83,-0.1236271,0.004491996,-0.09000099,0.0680858865380287,-0.0503411740064621,-0.113337203860283,-0.0212468478482708,-0.00914192506089775,0.0131528109458008,3
0.20001220703125,-0.0541964881122112,2.9377772808075,1.13924872875214,-0.0617708265342762,2.93923811945689,1.181096174359,1373.433,3339.853,3594.74,1386.094,-0.1278765,0.003023011,-0.07724978,0.0770629048347473,-0.0805363655090332,-0.0731291696429253,-0.0260142813927851,-0.0111932185284278,0.0161040794142088,3
0.220001220703125,-0.052514236420393,2.93557620048523,1.13858413696289,-0.0623420644491781,2.93899233174064,1.18144979784016,1790.81,3212.872,3016.944,1527.125,-0.12298,0.0008615057,-0.06426154,0.0841125845909119,-0.110051393508911,-0.0332301445305347,-0.03121219533433,-0.0134297356845702,0.019321835755004,3
0.240005493164063,-0.0507195815443993,2.93284702301025,1.13860702514648,-0.0630219993990999,2.93869977472688,1.18187070996396,2158.609,3168.505,2517.75,1558.698,-0.1149692,-0.0009869675,-0.05362115,0.08973278850317,-0.136453002691269,0.00114187225699425,-0.0368361158647881,-0.0158495515746756,0.0228033104678445,3
0.260009765625,-0.0488372780382633,2.92966485023499,1.13913798332214,-0.0638185570309634,2.93835703823113,1.18236381708338,2352.36,3158.934,2273.711,1495.771,-0.1090517,-0.00190416,-0.04623674,0.094115287065506,-0.159109771251678,0.0265465974807739,-0.0428699302682246,-0.0184457333472145,0.0265385290140116,3
0.279998779296875,-0.0468917600810528,2.92608761787415,1.13999629020691,-0.0647390625194898,2.93796097043536,1.18293365383054,2352.767,3152.545,2324.093,1363.333,-0.1078181,-0.001744903,-0.04152081,0.0972758904099464,-0.178863987326622,0.042917899787426,-0.0492963837173861,-0.0212108567320638,0.030516809833474,3
0.300003051757813,-0.0449087619781494,2.92214369773865,1.14106214046478,-0.0657927507678135,2.93750759781875,1.18358593705038,2228.624,3143.838,2573.113,1194.891,-0.1110874,-0.0007366303,-0.03798307,0.0991498455405235,-0.197192519903183,0.0532903857529163,-0.0561132031658829,-0.0241439437008635,0.0347367458022363,3
0.32000732421875,-0.0429169610142708,2.91783547401428,1.14229428768158,-0.0669865614821475,2.93699393441958,1.18432496275165,2074.617,3132.407,2872.85,1032.589,-0.1169266,0.0006859419,-0.03398034,0.0995899140834808,-0.215409621596336,0.0616096034646034,-0.0633036493784043,-0.0272377918282996,0.0391879745362408,3
0.340011596679688,-0.0409489832818508,2.91315102577209,1.14370775222778,-0.0683278498358171,2.93641681551226,1.18515528413699,1955.479,3107.79,3109.085,921.0994,-0.1228431,0.00206963,-0.02837385,0.0983990728855133,-0.234226062893867,0.0706742256879807,-0.0708558471483356,-0.0304872915447207,0.0438631447168985,3
0.360000610351563,-0.0390402227640152,2.90807723999023,1.14534378051758,-0.0698225328270578,2.93577369517774,1.1860805641102,1904.595,3065.525,3222.246,881.0573,-0.1267127,0.003092807,-0.02087119,0.0954378992319107,-0.253694236278534,0.0818041488528252,-0.0787518717320621,-0.0338847303337087,0.0487511600740379,3
0.3800048828125,-0.0372257679700851,2.90261030197144,1.14724361896515,-0.0714797725314022,2.93506063123087,1.18710647443246,1923.027,3021.193,3207.839,896.1625,-0.1274227,0.003643283,-0.01188303,0.0907230451703072,-0.273342579603195,0.094989150762558,-0.0869921272359981,-0.0374302820709642,0.0538522707687797,3
0.400009155273438,-0.0355373844504356,2.89676117897034,1.14943194389343,-0.0733051402689975,2.93427522648826,1.18823646401636,1991.839,2988.842,3098.373,939.4394,-0.125037,0.00379138,-0.002210956,0.0844191089272499,-0.29245463013649,0.109415151178837,-0.0955591682828665,-0.0411164404980124,0.0591556772815509,3
0.419998168945313,-0.0340021178126335,2.89055466651917,1.15190637111664,-0.0753034649285836,2.93341540321397,1.18947352217404,2072.576,2975.207,2953.354,985.7162,-0.120508,0.003707796,0.007339394,0.0767636224627495,-0.310327172279358,0.123719446361065,-0.104434660908044,-0.0449353170220673,0.0646500300148815,3
0.44000244140625,-0.0326427109539509,2.88402438163757,1.15464198589325,-0.077483988232608,2.93247718495301,1.19082336997196,2135.532,2972.308,2825.882,1023.903,-0.1150773,0.003565009,0.01615273,0.0679702535271645,-0.326508969068527,0.136779338121414,-0.113620829717891,-0.048887868829098,0.0703367061060819,4
0.460006713867188,-0.0314786322414875,2.87720727920532,1.15760219097137,-0.0798512213598696,2.93145863067119,1.19228880004469,2169.007,2977.508,2748.253,1039.342,-0.1098607,0.003475045,0.02394281,0.0582042261958122,-0.340854495763779,0.148011207580566,-0.123099793815011,-0.0529664022684887,0.0762046364278779,4
0.480010986328125,-0.0305270254611969,2.87013816833496,1.16074848175049,-0.0824109101018722,2.93035726811493,1.19387336931088,2168.573,2984.898,2732.442,1031.723,-0.1055437,0.003481603,0.03074938,0.0475804582238197,-0.353461056947708,0.15731517970562,-0.132860437136906,-0.0571661344090936,0.082246939608052,4
0.5,-0.0298039205372334,2.86284637451172,1.16405296325684,-0.085166398670376,2.92917165836334,1.1955791479969,2146.557,2989.055,2762.763,1009.98,-0.1022728,0.003568862,0.03679617,0.036155141890049,-0.364584624767303,0.165221393108368,-0.142884000065179,-0.0614789935111996,0.0884520025491718,4
0.520004272460938,-0.0293246563524008,2.85535645484924,1.16749942302704,-0.088127196023106,2.92789770997757,1.19741202260058,2115.789,2992.543,2818.166,977.6335,-0.09984297,0.003687171,0.04241444,0.0239631664007902,-0.374495178461075,0.172326028347015,-0.153174893518032,-0.065906877469682,0.0948225558197254,4
0.540008544921875,-0.029104471206665,2.84768795967102,1.17108643054962,-0.0912963635428427,2.92653410573011,1.19937388826368,2089.82,2991.339,2870.052,951.9817,-0.09781791,0.0037778,0.04785479,0.0110091269016266,-0.383428543806076,0.179352462291718,-0.163714777034477,-0.0704418948965508,0.101347245800684,4
0.560012817382813,-0.029157992452383,2.83985781669617,1.17481684684753,-0.0946787750684717,2.92507874854427,1.20146776212465,2071.308,2990.394,2908.896,932.2855,-0.09579497,0.003795071,0.05329917,-0.00267596542835236,-0.391506016254425,0.186520889401436,-0.174492968360474,-0.0750794495163205,0.10801945966793,5
0.580001831054688,-0.0294994600117207,2.83188199996948,1.17869937419891,-0.0982762614093182,2.92353085067394,1.20369477754168,2063.444,2984.681,2921.572,933.1885,-0.0933944,0.003717046,0.05873734,-0.0170737821608782,-0.398785829544067,0.194129258394241,-0.185490414529404,-0.0798113433697334,0.11482740272751,5
0.600006103515625,-0.0301416888833046,2.82377743721008,1.18273949623108,-0.102098762959148,2.92188613504538,1.20606108809202,2065.819,2984.87,2914.187,936.9825,-0.09051073,0.003539044,0.06411915,-0.0321109965443611,-0.405233830213547,0.202005669474602,-0.196713446836865,-0.0846403006364086,0.121774994352997,5
0.620010375976563,-0.0310961529612541,2.81556105613708,1.18694293498993,-0.106147859919355,2.92014392174208,1.20856767199563,2075.229,2985.497,2885.354,954.5413,-0.08716206,0.003273523,0.06928447,-0.0477233380079269,-0.410813599824905,0.210174113512039,-0.20814339888717,-0.0895582896877615,0.128850679156259,5
0.639999389648438,-0.0323718748986721,2.80725193023682,1.19130539894104,-0.110424235525481,2.91830391678686,1.21121495220784,2083.724,2993.763,2856.199,964.695,-0.083611,0.002939944,0.07415683,-0.0637862458825111,-0.41545957326889,0.218125715851784,-0.219761081350814,-0.0945570538913933,0.136042578028218,5
0.660003662109375,-0.0339765176177025,2.79886841773987,1.19582307338715,-0.114938248900541,2.91636166293851,1.21400934151928,2086.05,2997.012,2826.893,987.0823,-0.07999443,0.00256826,0.07860016,-0.0802318528294563,-0.419174164533615,0.225881487131119,-0.231574097577923,-0.0996398647564507,0.143355397804799,5
0.680007934570313,-0.0359156914055347,2.79042887687683,1.20048820972443,-0.119690355154666,2.91431696437584,1.21695112166479,2089.376,3008.339,2806.021,992.2908,-0.07659624,0.002169066,0.08261001,-0.0969595685601234,-0.421974152326584,0.233257040381432,-0.243563621239988,-0.104798621839723,0.150777484091833,6
0.70001220703125,-0.0381936468183994,2.7819504737854,1.20529210567474,-0.124683985757554,2.91216834463331,1.22004241688759,2083.339,3015.415,2797.194,999.93,-0.07354586,0.001758577,0.08619671,-0.113897204399109,-0.423923492431641,0.24019418656826,-0.255719729227087,-0.11002905550423,0.158302694011575,6
0.720001220703125,-0.0408135391771793,2.77344822883606,1.2102278470993,-0.129918284978346,2.90991617190799,1.22328269744952,2074.917,3021.313,2797.47,1003.087,-0.07088429,0.001344537,0.08940319,-0.130994886159897,-0.425111532211304,0.246789902448654,-0.268023157655716,-0.11532287703907,0.16591910230247,6
0.740005493164063,-0.0437776334583759,2.76493573188782,1.21528947353363,-0.13540428105644,2.90755570105657,1.22667879035609,2064.764,3026.184,2805.993,1001.358,-0.06859344,0.0009288634,0.09230445,-0.148205041885376,-0.425630211830139,0.253081321716309,-0.280482990349159,-0.120683994959631,0.173632332283853,6
0.760009765625,-0.0470879785716534,2.75642418861389,1.22047698497772,-0.141140917956636,2.9050873864615,1.23023004187122,2058.044,3029.538,2810.322,1002.748,-0.06658382,0.0005098923,0.09493488,-0.165517464280128,-0.425581634044647,0.259375482797623,-0.293080296154222,-0.126104263719567,0.181430664670081,6
0.779998779296875,-0.0507453419268131,2.7479236125946,1.22578549385071,-0.147126184485884,2.90251209348295,1.23393520697061,2051.27,3034.841,2820.638,995.6678,-0.06485436,8.175176E-05,0.09738623,-0.182867705821991,-0.425033032894135,0.265424489974976,-0.305795832832518,-0.131575403921268,0.189302187598958,6
0.800003051757813,-0.054750744253397,2.73944234848022,1.23121702671051,-0.153371683173492,2.89982482987671,1.2378014681726,2043.184,3032.534,2822.728,1006.587,-0.06321172,-0.0003435478,0.09962063,-0.200270175933838,-0.424065560102463,0.271575719118118,-0.318639638509124,-0.13710173468952,0.197253115148089,6
0.82000732421875,-0.059104185551405,2.73098802566528,1.23677086830139,-0.159875221826383,2.89702653888221,1.24182746840525,2044.992,3039.094,2821.974,1000.935,-0.06171716,-0.0007781757,0.1016866,-0.217671468853951,-0.422720789909363,0.277690410614014,-0.331592781842754,-0.14267511039705,0.205271727915392,6
0.840011596679688,-0.0638051182031631,2.72256708145142,1.2424464225769,-0.166638895824778,2.89411631891588,1.24601450480873,2041.694,3040.456,2818.094,1008.718,-0.06032539,-0.001211738,0.1035588,-0.235047414898872,-0.421047955751419,0.283775866031647,-0.344646098867604,-0.148291588045382,0.213352352969496,6
0.860000610351563,-0.0688523352146149,2.7141854763031,1.24824178218842,-0.173659158941841,2.89109569582005,1.2503603820997,2041.127,3043.916,2813.779,1012.023,-0.05906625,-0.001641572,0.1052343,-0.252360701560974,-0.419084340333939,0.289770573377609,-0.357780475378537,-0.153942943326036,0.221483157706883,6
0.8800048828125,-0.0742439031600952,2.7058482170105,1.25415456295013,-0.180948461186242,2.88795931270381,1.25487280742661,2039.11,3046.386,2810.735,1016.578,-0.05795252,-0.002059689,0.1067057,-0.269578754901886,-0.416868478059769,0.295640826225281,-0.371007022483504,-0.159633957038354,0.229671020432672,6
0.900009155273438,-0.0799776464700699,2.69755935668945,1.26018512248993,-0.188503099076414,2.88470876307182,1.25954948815793,2040.82,3050.724,2803.262,1020.365,-0.05702094,-0.002464489,0.1079616,-0.286688089370728,-0.41444718837738,0.301530331373215,-0.384306908919572,-0.165356526615982,0.237904283698049,7
0.919998168945313,-0.0860500931739807,2.68932223320007,1.26632702350616,-0.196318384305134,2.8813460641717,1.26438752200817,2039.159,3055.91,2806.094,1015.869,-0.05637486,-0.002856507,0.1090575,-0.303621232509613,-0.411857694387436,0.307092279195786,-0.397661187980262,-0.171102499820431,0.246171218589148,7
0.94000244140625,-0.0924581587314606,2.68113899230957,1.27258038520813,-0.204407453948074,2.87786556348678,1.26939504145298,2033.507,3054.026,2805.899,1026.7,-0.05589229,-0.003216566,0.1099502,-0.320403397083282,-0.409160614013672,0.312666237354279,-0.411081631631503,-0.176876941799768,0.254479112513653,7
0.960006713867188,-0.0991979390382767,2.67301106452942,1.27894234657288,-0.212765478812529,2.87426933888379,1.27456905699201,2036.852,3060.479,2809.268,1016.387,-0.0556851,-0.003559581,0.11071,-0.336989969015121,-0.406394779682159,0.31809800863266,-0.424549556012544,-0.182671813410681,0.262816399271726,7
0.980010986328125,-0.10626557469368,2.6649386882782,1.28541159629822,-0.221393324468958,2.87055701793193,1.27991010445463,2032.773,3060.332,2813.505,1019.775,-0.05568403,-0.003874367,0.1113363,-0.353381454944611,-0.403614640235901,0.323464155197144,-0.438056556301695,-0.188483498293199,0.271177875878363,7
1,-0.113656848669052,2.65692138671875,1.29198634624481,-0.230284798736574,2.86673126495361,1.28541435058594,2032.066,3061.803,2820.046,1016.131,-0.05588058,-0.004162521,0.1118589,-0.369563639163971,-0.400861024856567,0.328739792108536,-0.451584000205995,-0.194303979492187,0.279552008056641,7
1.02000427246094,-0.121367573738098,2.64895796775818,1.29866588115692,-0.239454009753966,2.86278600961093,1.2910905289958,2030.203,3061.277,2827.192,1015.443,-0.05621294,-0.004419782,0.1122878,-0.385536283254623,-0.398171752691269,0.333974987268448,-0.465144357597929,-0.200138622445408,0.287946515251652,7
1.04000854492188,-0.129393815994263,2.64104628562927,1.30545294284821,-0.248894644448595,2.85872396824263,1.29693473159157,2034.147,3063.39,2827.531,1013.596,-0.05666674,-0.004651477,0.1126235,-0.40131288766861,-0.395583063364029,0.339351415634155,-0.47871923339115,-0.205979512261105,0.296350010028666,7
1.06001281738281,-0.137730717658997,2.63318395614624,1.31234312057495,-0.258606913342529,2.85454505026695,1.30294708869644,2035.224,3066.073,2836.286,1005.093,-0.0573043,-0.004862399,0.1129208,-0.416844069957733,-0.393113851547241,0.344506621360779,-0.492300656572427,-0.21182321923497,0.304757557950783,7
1.08000183105469,-0.146374419331551,2.62536787986755,1.31934070587158,-0.268583149539609,2.85025255453512,1.30912285413647,2034.231,3062.916,2835.71,1015.225,-0.05797808,-0.005035505,0.1131134,-0.432186931371689,-0.390803664922714,0.349881291389465,-0.50587040849135,-0.217661904390701,0.313157880805523,7
1.10000610351563,-0.155319675803185,2.61759495735168,1.32643914222717,-0.278838480013141,2.84583997233313,1.31547139222872,2038.256,3067.266,2848.911,998.0721,-0.0588287,-0.005188903,0.1132977,-0.4472636282444,-0.388648867607117,0.354922235012054,-0.519441457145546,-0.223501147495394,0.321559006401169,7
1.12001037597656,-0.164563432335854,2.60986089706421,1.33364915847778,-0.289365134970699,2.84131064678559,1.32198789310157,2039.907,3063.644,2840.202,1015.351,-0.05964682,-0.005301288,0.113353,-0.462186992168427,-0.386699378490448,0.360499531030655,-0.532995796775449,-0.22933320117373,0.329949788314817,8
1.13999938964844,-0.174099296331406,2.60216236114502,1.34095704555511,-0.300154365346813,2.83666834237095,1.3286669406667,2047.452,3073.354,2860.109,982.2859,-0.06076961,-0.005409413,0.1134729,-0.476792812347412,-0.384926944971085,0.365393668413162,-0.546515580872639,-0.235150386571708,0.338319178707607,8
1.16000366210938,-0.183924853801727,2.59449434280396,1.3483772277832,-0.311222084148811,2.83190621216671,1.33551838583369,2039.309,3060.698,2851.327,1019.726,-0.06172462,-0.005456285,0.1134301,-0.491278260946274,-0.383401960134506,0.371008455753326,-0.560014026276883,-0.240958390526247,0.34667535943296,8
1.18000793457031,-0.194033622741699,2.58685302734375,1.35589551925659,-0.322559451663168,2.82702805965467,1.34253675639879,2056.314,3076.28,2872.628,970.4235,-0.06301998,-0.00551008,0.1134899,-0.505440413951874,-0.382071882486343,0.375917285680771,-0.573473482003304,-0.246749618311663,0.355007403690405,8
1.20001220703125,-0.204423725605011,2.57923269271851,1.36352896690369,-0.334165615614823,2.82203425154496,1.34972152476313,2046.95,3062.608,2860.519,1014.196,-0.06412519,-0.005502624,0.1133915,-0.519503474235535,-0.381020486354828,0.381670504808426,-0.586886736182789,-0.252520966862155,0.363310846989412,8
1.22000122070313,-0.215087994933128,2.57162928581238,1.37125754356384,-0.346030421585499,2.81692915700008,1.35706640485806,2062.008,3078.053,2891.005,957.8048,-0.06560111,-0.005506352,0.1134485,-0.533214867115021,-0.380171984434128,0.386428385972977,-0.600236516861372,-0.258265004538453,0.371574997167698,8
1.24000549316406,-0.22602578997612,2.56403660774231,1.37910532951355,-0.358170848086624,2.8117054706409,1.36458190719098,2049.856,3058.975,2873.798,1016.316,-0.0667223,-0.005435512,0.1133061,-0.546889007091522,-0.37963005900383,0.392389833927155,-0.613536214864368,-0.263987493038594,0.379808143784027,8
1.260009765625,-0.237229540944099,2.55645108222961,1.38704836368561,-0.37057666480527,2.80636759428526,1.37226169871082,2074.472,3082.169,2907.646,939.0385,-0.06829517,-0.00539663,0.1133843,-0.560187876224518,-0.379280835390091,0.397153913974762,-0.626768731761373,-0.26968107538565,0.387999702095469,8
1.27999877929688,-0.248699650168419,2.5488657951355,1.39511704444885,-0.383236695417198,2.80092033679326,1.3800988607405,2058.261,3058.897,2880.983,1016.228,-0.06942115,-0.005276788,0.1132248,-0.57350492477417,-0.379261314868927,0.403433382511139,-0.639917282339435,-0.275338529371412,0.396139281255613,8
1.30000305175781,-0.260427117347717,2.54127788543701,1.4032746553421,-0.396168722856641,2.79535604666509,1.38810440176341,2082.111,3084.872,2931.947,918.8425,-0.07110161,-0.005202219,0.1133759,-0.586375832557678,-0.379400372505188,0.407879829406738,-0.652995275331231,-0.280965624398954,0.404235181908735,8
1.32000732421875,-0.272415310144424,2.53367972373962,1.41157102584839,-0.409361504843077,2.78967956113998,1.39627136227237,2064.025,3053.332,2882.268,1031.67,-0.07205608,-0.005021656,0.1131513,-0.599411487579346,-0.379908800125122,0.414816647768021,-0.6659860834168,-0.286555206197011,0.41227711095171,8
1.34001159667969,-0.284652352333069,2.52606964111328,1.4199470281601,-0.422813232584026,2.78389165849082,1.40459862253867,2101.316,3096.67,2956.274,877.9095,-0.07393681,-0.00493537,0.1134295,-0.611850917339325,-0.380504161119461,0.418801486492157,-0.678883253871146,-0.292104498338286,0.420261073840379,8
1.36000061035156,-0.297145187854767,2.51843905448914,1.42847585678101,-0.436511415158101,2.77799771321212,1.41307845008695,2062.312,3043.171,2881.682,1061.604,-0.07466917,-0.004690892,0.1131284,-0.624641895294189,-0.381529718637466,0.426443576812744,-0.691670720740693,-0.297606588091785,0.42817712498415,9
1.3800048828125,-0.309877961874008,2.51078844070435,1.43706929683685,-0.450474904562636,2.77198961381608,1.4217225152016,2118.47,3107.744,2991.231,828.9879,-0.07674218,-0.004597149,0.113573,-0.636638998985291,-0.382535070180893,0.429671317338943,-0.704361775018035,-0.303067194200314,0.436033492140578,9
1.40000915527344,-0.322863638401031,2.50310707092285,1.44584035873413,-0.464691155755482,2.76587275808388,1.43052305190393,2061.763,3029.939,2869.558,1106.321,-0.07707082,-0.004281298,0.1131318,-0.649284243583679,-0.384068012237549,0.438552618026733,-0.716940488958393,-0.308479463400265,0.443820315276901,9
1.41999816894531,-0.3360795378685,2.49539875984192,1.45465266704559,-0.47914673136562,2.75965292774086,1.43947174182117,2146.462,3130.023,3030.932,752.0082,-0.07951666,-0.004213654,0.113836,-0.66079580783844,-0.385416150093079,0.440614402294159,-0.729391385793766,-0.313836736470737,0.451528013536465,9
1.44000244140625,-0.349546849727631,2.48764991760254,1.46367204189301,-0.493861275572861,2.75332167044526,1.4485807456364,2047.042,3006.344,2852.03,1181.488,-0.0792871,-0.003809386,0.1131984,-0.673363983631134,-0.387441188097,0.450971841812134,-0.741727567798258,-0.319144650954242,0.459164697851088,9
1.46000671386719,-0.363233983516693,2.47986888885498,1.47270154953003,-0.508821304757097,2.74688478782212,1.45784171634646,2179.838,3157.128,3081.139,653.28,-0.08216704,-0.003784352,0.1142229,-0.684357523918152,-0.389054983854294,0.451475530862808,-0.753933682518823,-0.324396601119133,0.466720864320996,9
1.48001098632813,-0.377173483371735,2.47203755378723,1.48198270797729,-0.524024159888143,2.74034342397783,1.467253007885,2032.443,2979.186,2813.341,1282.434,-0.08120032,-0.003281547,0.1132886,-0.696975469589233,-0.391569763422012,0.464056789875031,-0.766004036374583,-0.329590137176618,0.474192988348404,9
1.5,-0.391319781541824,2.46417093276978,1.49122130870819,-0.539455198877605,2.73370387899399,1.4768055561018,2218.564,3195.874,3153.866,512.0684,-0.08482381,-0.003336941,0.1147992,-0.707317411899567,-0.393334925174713,0.461928397417068,-0.777924000354858,-0.334718964672088,0.481572013878822,9
1.52000427246094,-0.405723333358765,2.45624375343323,1.50077700614929,-0.555135099954955,2.72695725560613,1.48651216180595,1996.826,2931.852,2753.152,1448.207,-0.0826789,-0.002682336,0.1133789,-0.72017627954483,-0.396362841129303,0.47778657078743,-0.789706299681991,-0.339788558913217,0.48886581843107,9
1.54000854492188,-0.420317590236664,2.44828104972839,1.51021468639374,-0.571049184024557,2.72010986981902,1.49636373793799,2278.812,3256.354,3251.438,299.2648,-0.08739376,-0.002872485,0.1155829,-0.729711651802063,-0.398135811090469,0.47188338637352,-0.801336412291853,-0.344792671461508,0.496065412155667,9
1.55999755859375,-0.435179173946381,2.44024634361267,1.52006816864014,-0.587181951496087,2.71316839067337,1.50635068951315,1944.589,2867.053,2648.043,1695.65,-0.08359929,-0.002011219,0.1134278,-0.743078112602234,-0.401735812425613,0.49267253279686,-0.812800388649436,-0.349725300221754,0.503162159625937,9
1.58000183105469,-0.450209438800812,2.43217968940735,1.52968657016754,-0.60355483331529,2.70612359703193,1.51648628330776,2343.491,3353.339,3388.436,0,-0.08997276,-0.002361691,0.1167154,-0.751516878604889,-0.403333842754364,0.48091846704483,-0.824110582941666,-0.354591760855452,0.510163708672098,9
1.60000610351563,-0.465525329113007,2.42402744293213,1.53986656665802,-0.620152298932711,2.69898217125626,1.52676090517188,1861.093,2762.206,2483.3,2078.439,-0.08366907,-0.001144627,0.1134211,-0.765794932842255,-0.407613605260849,0.509000778198242,-0.835253140422976,-0.35938609205264,0.51706148254665,9
1.62001037597656,-0.480999171733856,2.41583776473999,1.54980492591858,-0.636970945360177,2.69174557755711,1.53717244849371,2096.852,3764.566,3224.61,0,-0.08965266,-0.0002636529,0.1188913,-0.773691594600677,-0.409481972455978,0.49691566824913,-0.846223126656604,-0.364106170663034,0.523852426598179,9
1.63999938964844,-0.496750742197037,2.40756630897522,1.56024706363678,-0.653994195024907,2.68442094880091,1.54771065096602,1975.388,2546.517,2430.705,2233.102,-0.08287118,0.002027386,0.1152531,-0.787577927112579,-0.413575232028961,0.522106230258942,-0.857007552155828,-0.368746407673381,0.530528499715628,9
1.66000366210938,-0.51265412569046,2.39926528930664,1.57041501998901,-0.671244443874359,2.67699864863716,1.55838937674714,2215.307,3640.269,3243.141,0,-0.08877274,0.003655883,0.1191469,-0.795172512531281,-0.415052175521851,0.508398652076721,-0.867618167158098,-0.373311858882592,0.53709697585572,9
1.68000793457031,-0.528826534748077,2.39089298248291,1.58106958866119,-0.688705090349012,2.66948582025311,1.56919834868089,2073.847,2526.248,2492.037,2108.105,-0.08287597,0.006336805,0.1140284,-0.808617234230042,-0.418619722127914,0.532726109027863,-0.878042061913515,-0.377796969585941,0.543549863268291,9
1.70001220703125,-0.545145094394684,2.382493019104,1.59149408340454,-0.706372354049449,2.66188409024902,1.58013522651994,2173.896,3725.246,3213.146,0,-0.0894151,0.008498773,0.1170806,-0.815931856632233,-0.419996529817581,0.521225810050964,-0.888274735793774,-0.382199803288802,0.549884375850026,9
1.72000122070313,-0.561706244945526,2.37402844429016,1.60230767726898,-0.724228658537036,2.6542010212754,1.5911891296115,2142.083,2517.696,2662.126,1873.886,-0.08598601,0.01128274,0.1120319,-0.828056752681732,-0.423232853412628,0.540677607059479,-0.898304216251578,-0.386515208538549,0.556093102023817,9
1.74000549316406,-0.57840758562088,2.36553382873535,1.6129138469696,-0.742297311768984,2.64642658456943,1.60237448669139,2258.163,3527.822,3339.322,0,-0.09307694,0.01320677,0.1137381,-0.835064709186554,-0.42473229765892,0.530309975147247,-0.908141534469281,-0.390747931744771,0.562182870617028,9
1.760009765625,-0.595335245132446,2.35696840286255,1.62388944625854,-0.760560719141003,2.63856835059778,1.61368040586141,2138.718,2597.78,2828.059,1635.48,-0.09091552,0.0155042,0.1090949,-0.846386551856995,-0.428274631500244,0.548782408237457,-0.91777478390713,-0.394892849856044,0.568146310914365,9
1.77999877929688,-0.612399220466614,2.34836006164551,1.63470768928528,-0.779000609654483,2.63063418086074,1.62509557650306,2241.174,3496.441,3395.507,0,-0.09771777,0.01695162,0.1111515,-0.853196978569031,-0.430414795875549,0.540912926197052,-0.927192788821983,-0.398945154262308,0.57397650459845,9
1.80000305175781,-0.629677176475525,2.33966827392578,1.64587247371674,-0.797640935141499,2.62261376955408,1.63663482594136,2119.951,2639.142,2920.51,1517.194,-0.09558192,0.01869273,0.1078269,-0.863895177841187,-0.4345862865448,0.558239281177521,-0.936405971974637,-0.402909329586356,0.579679903854719,9
1.82000732421875,-0.647088289260864,2.33092284202576,1.65689218044281,-0.816463410111527,2.61451498441355,1.64828683458664,2308.451,3374.478,3453.808,0,-0.1014031,0.01937393,0.1102625,-0.870561420917511,-0.43726634979248,0.550983548164368,-0.94540321420156,-0.406780591562751,0.585249625391268,9
1.84001159667969,-0.664713740348816,2.32208132743835,1.66829514503479,-0.835463677219795,2.60633970028288,1.66004890503489,2088.19,2696.137,2891.266,1525.912,-0.09790419,0.02047537,0.1077242,-0.881271302700043,-0.442076474428177,0.570151031017303,-0.954180774018563,-0.410557330335375,0.590683353051152,9
1.86000061035156,-0.682467699050903,2.31318020820618,1.67955017089844,-0.854622615239374,2.59809614449182,1.6719092003358,2297.215,3420.818,3417.285,0,-0.1027666,0.02061962,0.111246,-0.887701153755188,-0.445061177015305,0.562748610973358,-0.962728579444532,-0.414235212212131,0.595974851798267,9
1.8800048828125,-0.700437486171722,2.30417776107788,1.69121015071869,-0.873964974649439,2.58977366760063,1.68388304221498,2061.299,2692.241,2796.81,1653.593,-0.09772576,0.02141706,0.1091999,-0.89848780632019,-0.450119912624359,0.583000540733337,-0.971056158224177,-0.417818336715394,0.601130019760457,9
1.90000915527344,-0.718530178070068,2.29511904716492,1.70269346237183,-0.893471623792247,2.58138050142717,1.69595858726494,2313.396,3448.825,3371.827,0,-0.1020124,0.0212878,0.1132731,-0.904631972312927,-0.452933758497238,0.574167191982269,-0.979153483542501,-0.421302389586788,0.606142649861596,9
1.91999816894531,-0.73684173822403,2.28596305847168,1.71460592746735,-0.913122862707269,2.57292512231409,1.70812364027167,2048.479,2678.801,2693.563,1789.652,-0.09586794,0.02201933,0.1110141,-0.915583074092865,-0.457801759243011,0.595622301101685,-0.987011339258123,-0.424683405378145,0.611007036871143,9
1.94000244140625,-0.755269706249237,2.27675986289978,1.72631120681763,-0.932943991899774,2.5643966441608,1.72039386345315,2279.63,3530.196,3324.211,0,-0.1001002,0.02196937,0.1154497,-0.921398341655731,-0.460164666175842,0.585264265537262,-0.994638524886308,-0.427965170275055,0.615728628108227,9
1.96000671386719,-0.773917078971863,2.26746964454651,1.73844957351685,-0.952915303453826,2.55580354673295,1.73275705667061,2052.022,2638.093,2632.201,1893.45,-0.09351584,0.02288306,0.1127461,-0.932364761829376,-0.464513897895813,0.606917917728424,-1.00202586176059,-0.431143734953757,0.620301741541062,9
1.98001098632813,-0.792675375938416,2.25814342498779,1.7503616809845,-0.973031969359004,2.54714790738853,1.74521023115561,2261.011,3577.942,3297.238,0,-0.09793935,0.02307977,0.1170649,-0.937918186187744,-0.46630984544754,0.595604777336121,-1.00917036754089,-0.434217816196637,0.624724530959079,9
2,-0.811648964881897,2.24874377250671,1.762690782547,-0.993273599084619,2.53843849960327,1.7577407641983,2067.601,2604.502,2634.215,1912.123,-0.091568,0.02420861,0.1138866,-0.948678493499756,-0.469980597496033,0.616458237171173,-1.01606400046349,-0.437183953857422,0.628992018127441,9
2.02000427246094,-0.830729424953461,2.23931932449341,1.77478790283203,-1.01366615605493,2.52966415204104,1.77036472839513,2253.062,3579.057,3306.706,0,-0.09615396,0.02460705,0.11777,-0.954017102718353,-0.471224784851074,0.604854226112366,-1.02271452148052,-0.440045487257004,0.633109007445237,9
2.04000854492188,-0.850018501281738,2.22983360290527,1.78728771209717,-1.03418924440916,2.52083364047092,1.78306949773667,2088.644,2595.458,2667.32,1866.495,-0.09019221,0.02582426,0.1142547,-0.964453816413879,-0.474273443222046,0.624992728233337,-1.02911391720548,-0.442798968459032,0.637070538244476,9
2.05999755859375,-0.86940997838974,2.22033190727234,1.79956245422363,-1.05482201812353,2.5119559343546,1.79584216754118,2249.542,3571.634,3317,0,-0.09487618,0.02628259,0.1177777,-0.969573795795441,-0.475096970796585,0.613739311695099,-1.03525504859546,-0.445441325732794,0.640872191117535,9
2.08000183105469,-0.889000415802002,2.21077919006348,1.81221640110016,-1.07559088172821,2.50301967256038,1.80869908347065,2095.512,2597.254,2716.27,1802.385,-0.08933148,0.02745544,0.11423,-0.979529082775116,-0.477640390396118,0.632698893547058,-1.04114485287423,-0.447975543971863,0.644518260536375,9
2.10000610351563,-0.908688545227051,2.20121669769287,1.82465219497681,-1.09647498538954,2.49403382618922,1.82162733848484,2268.298,3525.122,3340.516,0,-0.09391052,0.027767,0.1173893,-0.984405398368835,-0.478128373622894,0.621790111064911,-1.04677621342161,-0.450398561093403,0.648004340974112,9
2.12001037597656,-0.928567469120026,2.19161033630371,1.83746123313904,-1.11746913671118,2.48500062938421,1.83462371824305,2093.955,2622.232,2738.624,1748.054,-0.08850004,0.02873457,0.1139129,-0.993942320346832,-0.480323076248169,0.640451014041901,-1.05214690704168,-0.452709420518306,0.651329056166548,9
2.13999938964844,-0.948536813259125,2.18199920654297,1.85005068778992,-1.138551967509,2.47592927627801,1.8476749948214,2262.701,3511.25,3350.333,0,-0.09293846,0.0288202,0.1171001,-0.998468160629272,-0.480547696352005,0.629474401473999,-1.05725102347782,-0.454905579228273,0.654488747383304,8
2.16000366210938,-0.968689501285553,2.17234992980957,1.86301267147064,-1.15975039167652,2.46680818657414,1.86079782920208,2074.313,2631.287,2733.333,1752.762,-0.08722918,0.02959695,0.1137691,-1.00763761997223,-0.482470333576202,0.6480992436409,-1.0620943502576,-0.456989527434725,0.657486997379635,8
2.18000793457031,-0.988925099372864,2.16270160675049,1.87574851512909,-1.18104303873349,2.45764655539322,1.87397899203979,2262.317,3508.032,3341.302,0,-0.09139383,0.02947564,0.1170852,-1.01178336143494,-0.482412576675415,0.636791825294495,-1.06667099276523,-0.458958728849171,0.660320157107579,7
2.20001220703125,-1.00933790206909,2.15302109718323,1.88886165618896,-1.20242455577657,2.44844668594002,1.88721516963236,2061.144,2635.771,2696.49,1786.073,-0.08525684,0.03010432,0.1137859,-1.02063584327698,-0.484025895595551,0.655658006668091,-1.07097916161324,-0.460812413548163,0.662987118851036,7
2.22000122070313,-1.02982425689697,2.14334893226624,1.90173017978668,-1.22387315175433,2.43921795429519,1.90049287228091,2250.305,3521.491,3324.734,0,-0.08929046,0.02985495,0.1172575,-1.02431762218475,-0.483603775501251,0.64342474937439,-1.07501419914593,-0.462548577472581,0.665484999299265,7
2.24000549316406,-1.05048155784607,2.1336522102356,1.91498017311096,-1.24541615591711,2.42994860144581,1.91382901809327,2042.472,2623.93,2653.954,1846.545,-0.08266452,0.03044129,0.113811,-1.0328596830368,-0.484819024801254,0.662501513957977,-1.07878069424208,-0.464169195088763,0.667816639186824,5
2.260009765625,-1.07120311260223,2.12397289276123,1.92797029018402,-1.26703177594152,2.42064800401982,1.92721011658316,2235.696,3549.393,3295.89,0,-0.08661452,0.03018233,0.1173441,-1.03607857227325,-0.483971178531647,0.649505794048309,-1.08227399942825,-0.465672266718726,0.669979161506271,4
2.27999877929688,-1.09208750724792,2.11427927017212,1.94133877754211,-1.28869796983554,2.41132564607061,1.9406225227075,2039.324,2609.142,2614.689,1889.452,-0.07980801,0.03079115,0.1136608,-1.04422056674957,-0.484693080186844,0.668423354625702,-1.08549040888332,-0.467056197851165,0.67197027217779,3
2.30000305175781,-1.11302578449249,2.10461187362671,1.954425573349,-1.31044231452835,2.40196966201596,1.95408330789913,2218.624,3561.051,3284.82,0,-0.08385975,0.03057129,0.1170947,-1.04691469669342,-0.483367800712585,0.654337763786316,-1.08843358680109,-0.468322565086307,0.673792239511894,0
2.32000732421875,-1.13411843776703,2.09494018554688,1.96789073944092,-1.33224276726637,2.39258953623693,1.96757882664355,2034.044,2592.365,2587.373,1924.474,-0.07694086,0.03123373,0.1130601,-1.05463051795959,-0.483584642410278,0.673261225223541,-1.09109983431736,-0.469469776906228,0.675442773735451,0
2.34001159667969,-1.15525472164154,2.08530330657959,1.98106408119202,-1.35409377777295,2.38318765686251,1.9811056430551,2194.745,3591.652,3261.071,0,-0.08113533,0.03111253,0.1164114,-1.0568140745163,-0.481835752725601,0.658665001392365,-1.09348812118877,-0.470497390025984,0.676921237078733,0
2.36000061035156,-1.17653298377991,2.07567262649536,1.99459731578827,-1.37597305876702,2.37377361348711,1.99464996024512,2033.251,2571.796,2585.322,1929.799,-0.07440765,0.03183832,0.1121648,-1.0639191865921,-0.481550753116608,0.676662921905518,-1.09559602313537,-0.471404361345641,0.678226128796969,0
2.3800048828125,-1.19784462451935,2.06608438491821,2.00782704353333,-1.39790843013262,2.36433543599182,2.00822900004707,2194.69,3568.873,3266.791,0,-0.07869694,0.03172929,0.1151831,-1.06558120250702,-0.479399889707565,0.661486506462097,-1.09742594550583,-0.472191725819537,0.679358937915576,0
2.40000915527344,-1.21928679943085,2.05651044845581,2.02141141891479,-1.41987760424917,2.35488271411715,2.02182896536211,2030.889,2571.638,2586.094,1913.951,-0.07209976,0.03241743,0.1107044,-1.07209539413452,-0.478698253631592,0.679214954376221,-1.09897546783438,-0.472858441988871,0.680318166050934,0
2.41999816894531,-1.2407511472702,2.0469856262207,2.03468990325928,-1.44185817738692,2.34542508756209,2.03543598721428,2178.129,3578.967,3254.257,0,-0.07648598,0.03228404,0.1136211,-1.07322323322296,-0.476254999637604,0.663920879364014,-1.10024313330221,-0.473403883025206,0.681102911362803,0
2.44000244140625,-1.26233160495758,2.0374813079834,2.04830360412598,-1.46387808506052,2.33595053645515,2.04906735901791,2019.476,2565.106,2595.684,1900.871,-0.07006351,0.03291393,0.1091397,-1.07902562618256,-0.475212246179581,0.680684804916382,-1.10123038958312,-0.473828671822132,0.681714070030222,0
2.46000671386719,-1.28392398357391,2.02803111076355,2.06160545349121,-1.48591492338117,2.32646870056377,2.06270921169857,2190.12,3542.974,3258.735,0,-0.07443269,0.0326422,0.111807,-1.07961905002594,-0.472510695457458,0.665092527866364,-1.10193578218388,-0.474132182551855,0.682150741652607,0
2.48001098632813,-1.30561983585358,2.01860666275024,2.07524013519287,-1.5079630509786,2.31698200721197,2.07635805297935,2006.546,2578.507,2588.035,1887.932,-0.06803631,0.0331171,0.1072845,-1.08479523658752,-0.471212059259415,0.6817307472229,-1.10235904000526,-0.474314298567936,0.682412758406602,0
2.5,-1.32731580734253,2.00924062728882,2.08855366706848,-1.52999999932945,2.30750012397766,2.08999997377396,2172.372,3546.329,3251.419,0,-0.07242094,0.03270596,0.1100141,-1.08480191230774,-0.468313813209534,0.665678918361664,-1.10250000050292,-0.474374949932098,0.682500019669533,0
2.52000427246094,-1.34910321235657,1.99990439414978,2.10219645500183,-1.55205376834272,2.29801100328223,2.10365230735988,1982.975,2574.573,2570.012,1912.221,-0.06582163,0.03307649,0.1055226,-1.08936989307404,-0.466807246208191,0.68214213848114,-1.10235882472314,-0.474314205938057,0.682412625136718,0
2.54000854492188,-1.37087941169739,1.99063038825989,2.11550760269165,-1.57410188948011,2.28852431271001,2.11730114464159,2167.763,3543.285,3237.033,0,-0.07011251,0.03254903,0.1082878,-1.08880949020386,-0.463707625865936,0.665558874607086,-1.10193535162022,-0.474131997292339,0.682150475113189,0
2.55999755859375,-1.39273548126221,1.98139095306396,2.12914896011353,-1.59612191359838,2.27904971150017,2.13093258853001,1968.558,2572.394,2536.269,1941.794,-0.06328736,0.03283238,0.1037347,-1.09280872344971,-0.461973994970322,0.682070910930634,-1.10123038958312,-0.473828671822132,0.681714070030222,0
2.58000183105469,-1.41456842422485,1.9722181558609,2.14244031906128,-1.61814182127198,2.26957516039323,2.14456396033363,2149.924,3551.809,3223.403,0,-0.06757345,0.03224128,0.1065673,-1.09163975715637,-0.458642840385437,0.664570868015289,-1.10024313330221,-0.473403883025206,0.681102911362804,0
2.60000610351563,-1.43647038936615,1.96308505535126,2.15606689453125,-1.64013916343638,2.26011031859448,2.15818136301212,1953.04,2559.807,2496.19,1989.87,-0.06044523,0.03250326,0.1018363,-1.0951007604599,-0.456657081842422,0.681327700614929,-1.09897439291323,-0.472857979480329,0.680317500623536,0
2.62001037597656,-1.45833718776703,1.95402336120605,2.16933012008667,-1.66210831390746,2.25065760689379,2.17178131368948,2130.198,3578.84,3193.255,0,-0.06478832,0.0319359,0.1047236,-1.09334146976471,-0.45308655500412,0.663162708282471,-1.09742465646102,-0.47219117117957,0.679358139935436,0
2.63999938964844,-1.48026037216187,1.94500720500946,2.18291807174683,-1.68402693989188,2.24122663446822,2.18534998730279,1942.385,2539.99,2472.13,2022.623,-0.05761802,0.03223127,0.09982485,-1.09615957736969,-0.45080155134201,0.679395020008087,-1.09559602313537,-0.471404361345641,0.67822612879697,0
2.66000366210938,-1.50213658809662,1.93606770038605,2.19612741470337,-1.70592290617745,2.23180541187802,2.19890463348308,2125.225,3569.705,3185.581,0,-0.06204206,0.03167724,0.1025183,-1.0938127040863,-0.446969538927078,0.660464704036713,-1.09348640563071,-0.470496651869278,0.67692017506657,0
2.68000793457031,-1.52405643463135,1.9271799325943,2.20965909957886,-1.72777388024004,2.22240354818443,2.21243142733407,1935.143,2533.449,2455.231,2032.869,-0.05489148,0.03196358,0.09737856,-1.09599339962006,-0.444399684667587,0.67658406496048,-1.09109790637238,-0.469468947365361,0.675441580245664,0
2.70001220703125,-1.54591763019562,1.918372631073,2.22280621528625,-1.74957429229274,2.21302343991116,2.22592692089233,2107.678,3585.249,3165.547,0,-0.05946679,0.03142657,0.09999569,-1.09306502342224,-0.440364420413971,0.657351076602936,-1.08843144721369,-0.468321644481621,0.673790915005369,0
2.72000122070313,-1.56780779361725,1.90962147712708,2.2362596988678,-1.77130202882336,2.20367460188472,2.23937742484041,1923.671,2523.157,2453.724,2033.209,-0.05251168,0.03170127,0.09478975,-1.09450769424438,-0.43755778670311,0.672675430774689,-1.08549040888332,-0.467056197851165,0.671970272177789,0
2.74000549316406,-1.5896281003952,1.900954246521,2.24931859970093,-1.79298473688851,2.19434513834902,2.25280005402337,2108.491,3557.519,3170.809,0,-0.05716209,0.03110359,0.09719207,-1.09100008010864,-0.433352589607239,0.652939915657043,-1.08227143928024,-0.465671165158559,0.669977576652695,0
2.760009765625,-1.61146330833435,1.89234697818756,2.26268362998962,-1.81460030360772,2.18504456385877,2.26618111951479,1910.09,2527.431,2446.276,2028.934,-0.05022189,0.03129092,0.09189311,-1.09177720546722,-0.430381387472153,0.668252885341644,-1.07877792518082,-0.464168003639063,0.667814925005998,0
2.77999877929688,-1.63321757316589,1.88382530212402,2.27565097808838,-1.83612684690458,2.17578229366013,2.27950707526701,2092.41,3567.579,3154.239,0,-0.0549229,0.03062686,0.09433389,-1.08770191669464,-0.426074028015137,0.648369550704956,-1.07501419914593,-0.462548577472581,0.665484999299265,0
2.80000305175781,-1.65497267246246,1.87536597251892,2.28891229629517,-1.85759178470316,2.16654653058634,2.29279489428112,1889.963,2521.471,2441.052,2036.781,-0.04798643,0.03074557,0.08910971,-1.08776831626892,-0.422974020242691,0.663065016269684,-1.07097597819164,-0.460811043810786,0.662985148161422,0
2.82000732421875,-1.6766357421875,1.86699485778809,2.3017680644989,-1.87897323600723,2.1573466894188,2.30603103117811,2102.771,3538.009,3151.221,0,-0.05264058,0.02995048,0.09141941,-1.08315122127533,-0.418559789657593,0.642792701721191,-1.06666760390385,-0.458957270716794,0.660318059240952,0
2.84001159667969,-1.69828772544861,1.85868787765503,2.31492042541504,-1.90026581322863,2.14818508828617,2.31921215078427,1872.833,2530.967,2419.747,2044.409,-0.04560557,0.02993981,0.08616626,-1.08259296417236,-0.415346175432205,0.657617151737213,-1.06209075728,-0.456987981476842,0.657484773155346,0
2.86000061035156,-1.71983587741852,1.85047125816345,2.32765698432922,-1.9214480311499,2.13907097167731,2.33232495272651,2084.799,3546.84,3136.917,0,-0.050289,0.02904405,0.08858199,-1.07741284370422,-0.410839080810547,0.636824190616608,-1.05725102347782,-0.454905579228273,0.654488747383304,0
2.8800048828125,-1.74136090278625,1.84232091903687,2.34068894386292,-1.94254691640495,2.12999271078668,2.34538616777867,1848.423,2523.548,2394.29,2079.691,-0.04303828,0.02896905,0.08333698,-1.07624650001526,-0.407512784004211,0.651602268218994,-1.0521429102862,-0.45270770082608,0.651326581984514,0
2.90000915527344,-1.7627717256546,1.83426308631897,2.35329461097717,-1.96354098577478,2.12095954924324,2.35838249680481,2079.967,3545.964,3119.572,0,-0.0476855,0.02800728,0.08577872,-1.07054042816162,-0.402888834476471,0.630280077457428,-1.04677201701582,-0.450396755497224,0.648001743199023,0
2.91999816894531,-1.78414750099182,1.82627487182617,2.36619687080383,-1.98440911693069,2.11198057539494,2.37130086407726,1834.029,2518.888,2362.481,2109.157,-0.04027978,0.02788171,0.08045685,-1.06879019737244,-0.399412482976913,0.645111918449402,-1.04114485287423,-0.447975543971863,0.644518260536375,0
2.94000244140625,-1.8053982257843,1.81838190555573,2.37865710258484,-2.00517798053537,2.10304431360073,2.38415778000673,2064.475,3551.114,3106.573,0,-0.04497493,0.02689291,0.08292468,-1.06254780292511,-0.394648283720016,0.623016834259033,-1.03525504859546,-0.445441325732794,0.640872191117535,0
2.96000671386719,-1.82660293579102,1.8105616569519,2.39141774177551,-2.02582645724542,2.09415985092405,2.3969401707136,1818.922,2507.824,2330.788,2146.226,-0.03738599,0.02675655,0.0774565,-1.06023180484772,-0.391005128622055,0.638026416301727,-1.02910913225408,-0.442796909628122,0.637067576131623,0
2.98001098632813,-1.84767258167267,1.80283963680267,2.40372657775879,-2.04634944795115,2.08532938136936,2.40964487960608,2048.874,3568.377,3081.917,0,-0.04216477,0.02579266,0.07994418,-1.05347895622253,-0.386098980903625,0.615447759628296,-1.02270954399162,-0.440043345582586,0.633105926142498,0
3,-1.86868333816528,1.79519414901733,2.41632676124573,-2.06672639957428,2.07656174835205,2.42225918334961,1805.878,2493.549,2313.515,2168.614,-0.03459286,0.02567732,0.07437643,-1.050537109375,-0.382272183895111,0.63001012802124,-1.01606400046349,-0.437183953857422,0.628992018127441,0
3.02000427246094,-1.88954901695251,1.78764963150024,2.42846417427063,-2.0869834279768,2.06784571494631,2.43479924890685,2046.347,3553.91,3076.829,0,-0.03944408,0.02471202,0.07670104,-1.0432870388031,-0.377223700284958,0.606866002082825,-1.00916501115878,-0.434215511495054,0.624721215103391,0
3.04000854492188,-1.91034340858459,1.78018510341644,2.44089245796204,-2.10709998486405,2.05919012250926,2.44725235590455,1794.756,2491.766,2299.226,2174.958,-0.03189029,0.02456825,0.0709936,-1.03973472118378,-0.373235523700714,0.621412813663483,-1.00202031904361,-0.431141350077486,0.620298310335216,0
3.05999755859375,-1.930983543396,1.77282333374023,2.45285367965698,-2.12705600675913,2.05060360379452,2.45960608409476,2032.913,3562.311,3059.509,0,-0.03685655,0.02359383,0.0732898,-1.03199434280396,-0.368084996938705,0.598057866096497,-0.994638524886308,-0.427965170275055,0.615728628108227,0
3.08000183105469,-1.9515392780304,1.76554369926453,2.46509408950806,-2.14687713595163,2.04207512564123,2.47187630727625,1776.182,2485.732,2295.379,2180.546,-0.02939864,0.0234263,0.06759825,-1.02778708934784,-0.363973051309586,0.612024009227753,-0.987011339258122,-0.424683405378145,0.611007036871143,0
3.10000610351563,-1.97193086147308,1.75836896896362,2.47686171531677,-2.16654331551667,2.03361331798384,2.48405060925705,2040.057,3535.608,3057.272,0,-0.03439792,0.02237621,0.06973545,-1.01958346366882,-0.358742922544479,0.588375627994537,-0.979147395688901,-0.421299770153459,0.606138881190213,0
3.12001037597656,-1.99222636222839,1.75127816200256,2.48890900611877,-2.18604984110275,2.02522020497339,2.49612607781951,1759.922,2494.706,2282.532,2179.41,-0.02696824,0.02211311,0.06403182,-1.0147716999054,-0.354544043540955,0.602365374565125,-0.971049893464309,-0.41781564116424,0.601126141575667,0
3.13999938964844,-2.01234817504883,1.74429297447205,2.50047588348389,-2.20537738341953,2.01690410346351,2.50809074721212,2026.267,3535.228,3048.626,0,-0.03203144,0.02098159,0.06622623,-1.00609922409058,-0.349265813827515,0.57834404706955,-0.962728579444533,-0.414235212212131,0.595974851798267,0
3.16000366210938,-2.03236269950867,1.7373925447464,2.51232218742371,-2.22455088103183,2.00865428308644,2.51996005559448,1735.46,2491.841,2264.732,2202.77,-0.02446753,0.02065209,0.0605759,-1.00071656703949,-0.345006108283997,0.592313766479492,-0.954174163352092,-0.410554485950274,0.590679260733698,0
3.18000793457031,-2.05219507217407,1.73059916496277,2.5236804485321,-2.24355101420387,2.00047905658478,2.53172204312984,2023.025,3528.926,3035.449,0,-0.02949557,0.01944912,0.0628078,-0.991616129875183,-0.339671969413757,0.567915260791779,-0.945396434568188,-0.406777674475913,0.585245428475253,0
3.19999694824219,-2.07190895080566,1.72389280796051,2.53532075881958,-2.2623590635174,1.99238647840124,2.54336512160655,1719.267,2490.592,2236.616,2227.017,-0.02178412,0.01905588,0.05715205,-0.985702872276306,-0.335324734449387,0.582012236118317,-0.936405971974636,-0.402909329586355,0.579679903854719,0
3.22000122070313,-2.09143257141113,1.71729445457458,2.54645991325378,-2.28099938900442,1.98436606709459,2.55490437104486,2011.971,3528.528,3023.686,0,-0.02683241,0.01780748,0.05943326,-0.976181387901306,-0.329911202192307,0.556957125663757,-0.927192788821982,-0.398945154262308,0.573976504598449,0
3.24000549316406,-2.11082816123962,1.71078538894653,2.55788636207581,-2.29945328359428,1.9764258717947,2.56632821087688,1702.312,2483.114,2204.658,2262.784,-0.01891856,0.01738376,0.05369408,-0.969768524169922,-0.325451850891113,0.571324706077576,-0.91776751470058,-0.394889722119544,0.568141810929231,0
3.260009765625,-2.13002514839172,1.70438647270203,2.56880259513855,-2.31771654397337,1.96856770107001,2.57763403905129,1999.713,3541.582,2999.962,0,-0.02402917,0.01614107,0.05602266,-0.959850549697876,-0.319940716028214,0.545811295509338,-0.908134108040216,-0.390744736359816,0.562178273303667,0
3.27999877929688,-2.14908313751221,1.69807982444763,2.58000111579895,-2.33577134012187,1.96079922667992,2.58881081793642,1687.153,2471.94,2182.65,2289.471,-0.01608656,0.0157281,0.05021891,-0.952913165092468,-0.315344095230103,0.559922814369202,-0.898304216251578,-0.386515208538549,0.556093102023818,0
3.30000305175781,-2.1679356098175,1.69188523292542,2.59067797660828,-2.35364119854729,1.95311032582551,2.59987311156116,1997.176,3529.906,2992.162,0,-0.0212744,0.01448685,0.05243551,-0.942616045475006,-0.309731543064117,0.533845067024231,-0.888267004546666,-0.382196476749158,0.549879589839776,0
3.32000732421875,-2.18663883209229,1.68578505516052,2.60163831710815,-2.37130830610839,1.94550866300381,2.61080989274252,1674.166,2469.849,2164.653,2302.31,-0.01333178,0.01405669,0.04651919,-0.935161650180817,-0.305007606744766,0.548020720481873,-0.878034183119985,-0.377793579561194,0.543544985919778,0
3.34001159667969,-2.20512866973877,1.67979848384857,2.61207222938538,-2.38876879352593,1.93799590305759,2.62161876621234,1985.468,3536.634,2975.336,0,-0.01864479,0.01282153,0.04871982,-0.92449152469635,-0.299318492412567,0.521691143512726,-0.867610144209785,-0.373308406832067,0.537092009268528,0
3.36000061035156,-2.22345852851868,1.67390882968903,2.62278246879578,-2.406005803634,1.93057929915441,2.6322892965819,1657.4,2465.243,2154.658,2312.12,-0.01080125,0.01238414,0.04281042,-0.916501581668854,-0.294500172138214,0.535508930683136,-0.857007552155826,-0.36874640767338,0.530528499715627,0
3.3800048828125,-2.24156808853149,1.66813325881958,2.63295745849609,-2.42304196557559,1.92324911460621,2.64283549236868,1985.338,3515.81,2974.966,0,-0.01618989,0.01111658,0.0449118,-0.905479967594147,-0.288763850927353,0.508751928806305,-0.846214826007803,-0.364102599125748,0.523847288101157,0
3.40000915527344,-2.25950813293457,1.66245555877686,2.64341235160828,-2.43986044461333,1.91601259293018,2.6532469320683,1640.665,2468.703,2140.408,2319.832,-0.008323444,0.01062666,0.03897984,-0.896991729736328,-0.283884942531586,0.522739887237549,-0.835244706287931,-0.359382463079953,0.517056261415284,0
3.41999816894531,-2.27722072601318,1.65689337253571,2.65332818031311,-2.45644516534361,1.90887665092339,2.66351366424015,1974.569,3520.111,2959.896,0,-0.013776,0.009327693,0.04113921,-0.885634183883667,-0.278121203184128,0.495793104171753,-0.824110582941664,-0.354591760855451,0.510163708672097,0
3.44000244140625,-2.29475378990173,1.65142941474915,2.66351962089539,-2.47281804716281,1.90183185728196,2.67364925803476,1620.08,2465.266,2126.615,2336.503,-0.005882923,0.008807434,0.03527826,-0.876660346984863,-0.273194134235382,0.509567022323608,-0.812800388649434,-0.349725300221754,0.503162159625937,0
3.46000671386719,-2.31205415725708,1.64608120918274,2.67316484451294,-2.4889630419904,1.89488511704659,2.68364377892579,1980.121,3500.299,2953.041,0,-0.01134933,0.007451158,0.03737856,-0.865004122257233,-0.267402440309525,0.482264965772629,-0.801327600455845,-0.344788879974649,0.496059957209413,0
3.48001098632813,-2.3291654586792,1.64083290100098,2.6830894947052,-2.50487694859767,1.88803780761656,2.69349524520019,1603.522,2470.194,2105.314,2349.873,-0.003401389,0.006867385,0.03151202,-0.85558158159256,-0.262421876192093,0.496230274438858,-0.789697369743255,-0.339784716610052,0.488860290373601,0
3.5,-2.34603810310364,1.63570070266724,2.69246006011963,-2.5205447997813,1.88129636896134,2.70319439144611,1970.046,3501.545,2940.448,0,-0.008941297,0.005471818,0.03366827,-0.843635618686676,-0.256602376699448,0.468525022268295,-0.777924000354857,-0.334718964672089,0.481572013878822,0
3.52000427246094,-2.36271381378174,1.63066935539246,2.7021107673645,-2.53598752699493,1.87465179486116,2.71275417523047,1582.932,2466.512,2084.138,2375.552,-0.00090654,0.00485858,0.02782199,-0.833787560462952,-0.251570105552673,0.482541233301163,-0.765994882555673,-0.32958619854407,0.474187321698442,0
3.54000854492188,-2.379145860672,1.62575507164001,2.71119999885559,-2.55119019794619,1.86811051026429,2.72216535275294,1967.684,3495.838,2927.693,0,-0.006490656,0.003440405,0.02998349,-0.821585237979889,-0.245717078447342,0.454456210136414,-0.753924423002452,-0.324392617007921,0.466715132239272,0
3.55999755859375,-2.39537239074707,1.62094283103943,2.72057151794434,-2.56613872308604,1.86167857751006,2.73141920191151,1568.479,2465.244,2061.369,2394.91,0.001578052,0.002801404,0.02412128,-0.811333000659943,-0.240621730685234,0.468573212623596,-0.741727567798258,-0.319144650954242,0.459164697851087,0
3.58000183105469,-2.41135025024414,1.61624789237976,2.7293713092804,-2.58085326729328,1.85534732021446,2.74052820572674,1959.583,3492.254,2918.78,0,-0.004095942,0.001376965,0.02629329,-0.798890173435211,-0.234737485647202,0.439990550279617,-0.729391385793765,-0.313836736470737,0.451528013536464,0
3.60000610351563,-2.42711520195007,1.61165595054626,2.7384569644928,-2.59531978247425,1.84912278287974,2.74948366775945,1553.336,2461.406,2039.934,2416.946,0.004021951,0.0007265096,0.02039694,-0.788252651691437,-0.229586556553841,0.454287022352219,-0.716930938559024,-0.308475354130224,0.443814403124743,0
3.62001037597656,-2.442626953125,1.60718274116516,2.74696493148804,-2.60953584173048,1.8430060097325,2.75828408564387,1952.13,3494.779,2903.786,0,-0.00175236,-0.0006838997,0.02259026,-0.775590598583221,-0.22367636859417,0.425395905971527,-0.704352136620513,-0.303063047067126,0.436027525513372,0
3.63999938964844,-2.45791864395142,1.6028128862381,2.75575661659241,-2.6234885835008,1.83700253474321,2.76692149746096,1538.123,2456.947,2024.737,2433.111,0.006330137,-0.001327319,0.01669927,-0.764576375484467,-0.218479514122009,0.439579099416733,-0.691670720740692,-0.297606588091786,0.428177124984152,0
3.66000366210938,-2.4729528427124,1.59856188297272,2.76396656036377,-2.63719712493647,1.83110413233575,2.77540773763803,1943.271,3487.296,2891.358,9.902293,0.0005350296,-0.002705772,0.01885617,-0.75172221660614,-0.21256011724472,0.410493463277817,-0.678873453515702,-0.29210028151913,0.420255006953505,0
3.68000793457031,-2.4877598285675,1.59441518783569,2.77245783805847,-2.65064865588166,1.82531631436231,2.78373487607838,1529.38,2456.921,2012.871,2435.597,0.008547563,-0.003345463,0.01297508,-0.740343391895294,-0.207326143980026,0.424560546875,-0.665976209205203,-0.286550957599616,0.412270998344358,0
3.69999694824219,-2.50230598449707,1.59038710594177,2.78037405014038,-2.66383127580226,1.81964420129024,2.79189554578451,1922.625,3490.857,2860.594,40.01321,0.002836205,-0.004645618,0.01511383,-0.727318048477173,-0.201405853033066,0.395808666944504,-0.65299527533123,-0.280965624398954,0.404235181908735,0
3.72000122070313,-2.51661777496338,1.58646440505981,2.78855419158936,-2.6767633032417,1.81407991116207,2.79990108680742,1525.55,2457.411,2013.122,2418.807,0.01060822,-0.005244829,0.009340189,-0.71557891368866,-0.19613578915596,0.409009695053101,-0.639917282339434,-0.275338529371411,0.396139281255611,0
3.74000549316406,-2.5306658744812,1.58265972137451,2.79617619514465,-2.6894328975087,1.80862853869646,2.80774416919516,1902.441,3473.737,2822.098,100.1716,0.005176433,-0.006427805,0.01128899,-0.702414751052856,-0.190226346254349,0.381104737520218,-0.626758665639204,-0.269676744214497,0.387993470686332,0
3.760009765625,-2.54447245597839,1.57896161079407,2.80403590202332,-2.70183851231475,1.80329074921818,2.81542383572149,1535.702,2471.661,2024.909,2362.215,0.01247768,-0.006986004,0.005660371,-0.690313875675201,-0.184917598962784,0.392980068922043,-0.613526094901139,-0.263983138701136,0.379801879044709,0
3.77999877929688,-2.55801272392273,1.57538056373596,2.81136202812195,-2.7139695770734,1.79807109095524,2.82293354268985,1877.738,3445.803,2780.624,180.3197,0.00737586,-0.008046475,0.00731933,-0.677015781402588,-0.179042100906372,0.366302132606506,-0.60023651686137,-0.258265004538452,0.371574997167698,0
3.80000305175781,-2.5713038444519,1.57190632820129,2.81889081001282,-2.72584333814708,1.79296214327972,2.83028396642013,1545.026,2496.486,2050.93,2281.214,0.01404897,-0.008566324,0.001924879,-0.664553105831146,-0.173729613423347,0.376443356275558,-0.586876524285838,-0.252516572968186,0.363304525338741,0
3.82000732421875,-2.58432626724243,1.56854748725891,2.82591986656189,-2.73744929742843,1.78796842323393,2.8374686080838,1852.89,3407.792,2735.439,276.2006,0.009370552,-0.009513876,0.003249252,-0.651122391223907,-0.167927742004395,0.351455301046371,-0.573463232144022,-0.246745208083563,0.355001058539243,0
3.84001159667969,-2.597092628479,1.56529438495636,2.83311200141907,-2.74878645956754,1.78309035908911,2.84448685151184,1557.74,2532.642,2083.854,2178.295,0.01528252,-0.01001455,-0.001798699,-0.638314604759216,-0.162655308842659,0.359608083963394,-0.560003743914976,-0.240953966313175,0.346668994161123,0
3.86000061035156,-2.60958790779114,1.56215476989746,2.83984231948853,-2.75984563331209,1.77833190558438,2.85133300688122,1823.145,3360.954,2689.372,387.905,0.01110856,-0.0108625,-0.0007989483,-0.624761760234833,-0.156974494457245,0.336521297693253,-0.546515580872635,-0.235150386571708,0.338319178707605,0
3.8800048828125,-2.62182092666626,1.55911922454834,2.84669351577759,-2.77064299647982,1.77368610185671,2.85801708903178,1568.472,2573.844,2121.347,2068.059,0.01627859,-0.01134933,-0.005414739,-0.611652612686157,-0.151787027716637,0.342565476894379,-0.532985466132484,-0.229328756186666,0.329943393154704,0
3.90000915527344,-2.63378095626831,1.55619406700134,2.85312533378601,-2.78116944461445,1.76915686529929,2.86453346187138,1797.015,3308.798,2640.03,505.842,0.01270711,-0.01211472,-0.004734035,-0.597997903823853,-0.146254926919937,0.321591764688492,-0.519431110871129,-0.223496695782554,0.321552601564443,0
3.91999816894531,-2.64547348022461,1.55337071418762,2.85963606834412,-2.79141684911929,1.7647476934202,2.87087709341145,1582.633,2619.972,2155.711,1953.109,0.01713803,-0.01259835,-0.008880577,-0.584642350673676,-0.141167670488358,0.325532227754593,-0.505870408491346,-0.2176619043907,0.313157880805522,0
3.94000244140625,-2.65689158439636,1.55065488815308,2.86576795578003,-2.8014005971492,1.76045196555656,2.87705750903383,1769.521,3254.556,2591.449,627.0641,0.01418476,-0.01329024,-0.00850081,-0.570911347866058,-0.135797262191772,0.306593507528305,-0.492290296490434,-0.211818761581115,0.30475114456651,0
