t,x_s1,x_s2,x_s3,x_s_d1,x_s_d2,x_s_d3,propellers_rpms1,propellers_rpms2,propellers_rpms3,propellers_rpms4,rollRad,pitchRad,yawRad,v_s1,v_s2,v_s3,v_s_d1,v_s_d2,v_s_d3,insideCount
0,-0.0599999986588955,2.94000005722046,1.17999994754791,-0.0599999986588955,2.94000005722046,1.17999994754791,0,0,0,0,0,0,0,0,0,0,-1.06581410364015E-15,4.44089209850063E-16,4.44089209850063E-16,0
0.0200042724609375,-0.0599999986588955,2.94000005722046,1.1771354675293,-0.0600018701838461,2.93999925195556,1.18000110611101,0,0,0,0,0.0163538,-0.002474609,-2.024222E-05,3.71994488546079E-08,3.50004931704007E-08,-0.143225952982903,-0.000280105751305916,-0.000120521679537258,0.00017339880334547,5
0.040008544921875,-0.0599999986588955,2.94000005722046,1.17048275470734,-0.060014880898484,2.93999365380853,1.18000916036316,0,0,0,0,0.03270752,-0.004950816,-5.430172E-05,3.62924410524101E-08,3.44428769949445E-08,-0.332637369632721,-0.00111143977225461,-0.000478221483967637,0.00068803416424398,6
0.05999755859375,-0.0600004345178604,2.94013261795044,1.16416549682617,-0.0600498857373401,2.93997859220429,1.18003083002592,3185.406,2835.785,1501.1,2767.662,0.03127991,-0.00494336,-0.01646952,-2.17784399865195E-05,0.0066222520545125,-0.315860867500305,-0.00247936261166862,-0.00106680046642749,0.00153484356504269,6
0.0800018310546875,-0.0599162206053734,2.94038772583008,1.15857696533203,-0.0601175574246769,2.93994947496775,1.18007272202403,3065.603,3067.191,2155.165,2024.121,0.01897616,-0.004310593,-0.04351445,0.00421066209673882,0.0127498498186469,-0.279423803091049,-0.00437268608126799,-0.00188144466206175,0.00270690098422899,6
0.100006103515625,-0.0596375502645969,2.94068765640259,1.15374839305878,-0.0602282404704493,2.93990185114529,1.18014124010193,2640.55,3831.823,2620.117,1134.666,-0.00585203,-0.002888465,-0.070145,0.0139334313571453,0.0149977942928672,-0.241429135203362,-0.00677739276378709,-0.00291612276782231,0.00419552897277328,6
0.120010375976563,-0.0590848885476589,2.94089889526367,1.14957022666931,-0.0603920338334453,2.93983137543704,1.18024263599618,2092.257,4101.995,3169.267,755.9441,-0.04011946,-0.0004511395,-0.08993602,0.0276331827044487,0.010561915114522,-0.208908408880234,-0.00968041450003567,-0.00416521191989172,0.00599263771761404,5
0.139999389648438,-0.0582314617931843,2.94085621833801,1.14596676826477,-0.0606185767455666,2.93973390035084,1.18038287685052,1510.274,4074.836,3735.818,701.9628,-0.07649504,0.002388302,-0.09949889,0.0426713563501835,-0.00212969444692135,-0.180173456668854,-0.0130660253322238,-0.00562194567796536,0.00808849210174802,4
0.160003662109375,-0.0570994354784489,2.94039487838745,1.14297795295715,-0.0609177895434042,2.93960515744296,1.18056810382587,1134.647,3846.994,4070.114,880.1874,-0.1062798,0.00433567,-0.09869941,0.0566012784838676,-0.023067956790328,-0.149439349770546,-0.0169265510445065,-0.00728302204135792,0.0104783414199936,4
0.180007934570313,-0.0557377189397812,2.93938803672791,1.14071118831635,-0.0612988491946875,2.93944119812059,1.1808039979024,1101.343,3565.175,4009.854,1148.824,-0.1236287,0.004492098,-0.09000047,0.0680859312415123,-0.0503411144018173,-0.113338589668274,-0.0212468478482708,-0.00914192506089775,0.0131528109458008,3
0.199996948242188,-0.0541964657604694,2.9377772808075,1.13924860954285,-0.0617704296168641,2.93923829023936,1.18109592864822,1373.443,3339.828,3594.73,1386.127,-0.127877,0.00302261,-0.07724925,0.0770627707242966,-0.0805368423461914,-0.0731290802359581,-0.0260104776919234,-0.0111915819022102,0.0161017247421801,3
0.220001220703125,-0.0525142289698124,2.93557620048523,1.13858389854431,-0.0623420644491781,2.93899233174064,1.18144979784016,1790.29,3212.833,3017.192,1527.411,-0.1229747,0.0008612399,-0.06425888,0.084111824631691,-0.110051058232784,-0.033236488699913,-0.03121219533433,-0.0134297356845702,0.019321835755004,3
0.240005493164063,-0.0507195740938187,2.93284702301025,1.13860702514648,-0.0630219993990999,2.93869977472688,1.18187070996396,2159.743,3168.378,2517.042,1558.441,-0.1149628,-0.0009880328,-0.05362222,0.0897327065467834,-0.136454343795776,0.00115860626101494,-0.0368361158647881,-0.0158495515746756,0.0228033104678445,3
0.260009765625,-0.0488372482359409,2.92966485023499,1.13913786411285,-0.0638185570309634,2.93835703823113,1.18236381708338,2352.013,3159.412,2273.765,1495.506,-0.1090522,-0.001904693,-0.04623621,0.0941163077950478,-0.159107685089111,0.0265439357608557,-0.0428699302682246,-0.0184457333472145,0.0265385290140116,3
0.279998779296875,-0.0468917116522789,2.92608761787415,1.13999617099762,-0.0647390625194898,2.93796097043536,1.18293365383054,2352.616,3152.114,2324.222,1363.801,-0.1078197,-0.001744903,-0.04152241,0.0972766205668449,-0.178861856460571,0.0429139509797096,-0.0492963837173861,-0.0212108567320638,0.030516809833474,3
0.300003051757813,-0.0449087023735046,2.92214369773865,1.1410619020462,-0.0657927507678135,2.93750759781875,1.18358593705038,2228.539,3144.003,2573.283,1194.658,-0.1110906,-0.0007360977,-0.03798413,0.0991505533456802,-0.197190672159195,0.0532859116792679,-0.0561132031658829,-0.0241439437008635,0.0347367458022363,3
0.32000732421875,-0.0429168939590454,2.91783547401428,1.142294049263,-0.0669865614821475,2.93699393441958,1.18432496275165,2074.583,3132.379,2872.953,1032.57,-0.1169293,0.0006862616,-0.03398087,0.0995904207229614,-0.21540854871273,0.0616071633994579,-0.0633036493784043,-0.0272377918282996,0.0391879745362408,3
0.340011596679688,-0.0409489125013351,2.91315102577209,1.1437075138092,-0.0683278498358171,2.93641681551226,1.18515528413699,1955.467,3107.796,3109.127,921.0769,-0.1228452,0.002069636,-0.02837385,0.0983994007110596,-0.234225735068321,0.070673480629921,-0.0708558471483356,-0.0304872915447207,0.0438631447168985,3
0.360000610351563,-0.0390401482582092,2.90807723999023,1.14534366130829,-0.0698225328270578,2.93577369517774,1.1860805641102,1904.611,3065.507,3222.228,881.0847,-0.1267132,0.003092695,-0.02087066,0.0954379588365555,-0.253694385290146,0.0818048417568207,-0.0787518717320621,-0.0338847303337087,0.0487511600740379,3
0.3800048828125,-0.0372256934642792,2.90261030197144,1.14724349975586,-0.0714797725314022,2.93506063123087,1.18710647443246,1923.062,3021.184,3207.783,896.1934,-0.1274221,0.003642849,-0.01188196,0.09072295576334,-0.273342996835709,0.0949907153844833,-0.0869921272359981,-0.0374302820709642,0.0538522707687797,3
0.400009155273438,-0.0355373099446297,2.89676117897034,1.14943182468414,-0.0733051402689975,2.93427522648826,1.18823646401636,1991.875,2988.844,3098.308,939.4634,-0.1250354,0.003790898,-0.002209891,0.084418959915638,-0.292454898357391,0.109416835010052,-0.0955591682828665,-0.0411164404980124,0.0591556772815509,3
0.419998168945313,-0.0340020433068275,2.89055466651917,1.15190625190735,-0.0753034649285836,2.93341540321397,1.18947352217404,2072.605,2975.21,2953.294,985.7416,-0.1205064,0.003707409,0.007339961,0.0767635107040405,-0.310327142477036,0.123720958828926,-0.104434660908044,-0.0449353170220673,0.0646500300148815,3
0.44000244140625,-0.0326426364481449,2.88402438163757,1.15464186668396,-0.077483988232608,2.93247718495301,1.19082336997196,2135.547,2972.322,2825.853,1023.901,-0.1150763,0.00356459,0.01615286,0.0679702684283257,-0.326508581638336,0.136780083179474,-0.113620829717891,-0.048887868829098,0.0703367061060819,4
0.460006713867188,-0.0314785540103912,2.87720727920532,1.15760207176208,-0.0798512213598696,2.93145863067119,1.19228880004469,2169.002,2977.513,2748.257,1039.339,-0.1098607,0.003474823,0.02394258,0.058204248547554,-0.340853899717331,0.148011237382889,-0.123099793815011,-0.0529664022684887,0.0762046364278779,4
0.480010986328125,-0.0305269416421652,2.87013816833496,1.1607483625412,-0.0824109101018722,2.93035726811493,1.19387336931088,2168.551,2984.899,2732.479,1031.708,-0.1055437,0.003481618,0.03074898,0.0475805550813675,-0.353460431098938,0.157314524054527,-0.132860437136906,-0.0571661344090936,0.082246939608052,4
0.5,-0.0298038404434919,2.86284637451172,1.16405272483826,-0.085166398670376,2.92917165836334,1.1955791479969,2146.542,2989.053,2762.802,1009.962,-0.1022734,0.00356875,0.03679579,0.0361552275717258,-0.364584028720856,0.165220782160759,-0.142884000065179,-0.0614789935111996,0.0884520025491718,4
0.520004272460938,-0.0293245743960142,2.85535645484924,1.16749918460846,-0.088127196023106,2.92789770997757,1.19741202260058,2115.778,2992.535,2818.197,977.6258,-0.09984404,0.003687232,0.04241411,0.0239631999284029,-0.374494761228561,0.172325804829597,-0.153174893518032,-0.065906877469682,0.0948225558197254,4
0.540008544921875,-0.0291043911129236,2.84768795967102,1.17108619213104,-0.0912963635428427,2.92653410573011,1.19937388826368,2089.821,2991.341,2870.073,951.9592,-0.09781844,0.003777731,0.04785468,0.0110091436654329,-0.383428305387497,0.17935249209404,-0.163714777034477,-0.0704418948965508,0.101347245800684,4
0.55999755859375,-0.0291579067707062,2.83985781669617,1.17481660842896,-0.094676112580471,2.92507989413848,1.20146611391775,2071.309,2990.388,2908.899,932.2896,-0.09579497,0.003795121,0.05329917,-0.00267601571977139,-0.391505897045135,0.186521381139755,-0.17448465888317,-0.0750758741803766,0.108014315705644,5
0.580001831054688,-0.0294993594288826,2.83188223838806,1.17869865894318,-0.0982762614093182,2.92353085067394,1.20369477754168,2062.485,2984.388,2922.736,933.2153,-0.09338694,0.003717926,0.05874077,-0.0170723125338554,-0.39878311753273,0.194101765751839,-0.185490414529404,-0.0798113433697334,0.11482740272751,5
0.600006103515625,-0.0301416888833046,2.82377743721008,1.18274009227753,-0.102098762959148,2.92188613504538,1.20606108809202,2067.698,2984.759,2911.55,938.0132,-0.09049155,0.003538567,0.06411025,-0.032116562128067,-0.405236333608627,0.202069565653801,-0.196713446836865,-0.0846403006364086,0.121774994352997,5
0.620010375976563,-0.0310960151255131,2.81556129455566,1.18694269657135,-0.106147859919355,2.92014392174208,1.20856767199563,2074.962,2987.38,2887.033,950.9209,-0.08717965,0.003271435,0.06929384,-0.0477166399359703,-0.41080766916275,0.210130870342255,-0.20814339888717,-0.0895582896877615,0.128850679156259,5
0.639999389648438,-0.0323717966675758,2.8072521686554,1.19130575656891,-0.110424235525481,2.91830391678686,1.21121495220784,2082.492,2991.044,2854.914,970.1559,-0.08360089,0.00294048,0.07414714,-0.0637889429926872,-0.415460050106049,0.218155920505524,-0.219761081350814,-0.0945570538913933,0.136042578028218,5
0.660003662109375,-0.0339763090014458,2.79886889457703,1.19582259654999,-0.114938248900541,2.91636166293851,1.21400934151928,2086.962,2999.252,2828.534,982.1177,-0.08001094,0.002567288,0.07860523,-0.0802258402109146,-0.419169574975967,0.225840494036674,-0.231574097577923,-0.0996398647564507,0.143355397804799,5
0.680007934570313,-0.035915557295084,2.79042935371399,1.20048832893372,-0.119690355154666,2.91431696437584,1.21695112166479,2088.582,3006.432,2804.824,996.3957,-0.07658985,0.00216995,0.08260183,-0.09696214646101,-0.4219751060009,0.233286216855049,-0.243563621239988,-0.104798621839723,0.150777484091833,6
0.699996948242188,-0.0381933860480785,2.78195095062256,1.2052915096283,-0.124680083855354,2.91217002351282,1.22004000142426,2084.094,3017.18,2798.601,995.842,-0.0735613,0.001757752,0.08620271,-0.113891869783401,-0.423921018838882,0.240159749984741,-0.255710395848158,-0.11002503961202,0.158296916205407,6
0.720001220703125,-0.0408132784068584,2.77344870567322,1.21022713184357,-0.129918284978346,2.90991617190799,1.22328269744952,2073.061,3019.157,2797.843,1006.829,-0.07086885,0.001346731,0.08940139,-0.130994588136673,-0.425110906362534,0.246781826019287,-0.268023157655716,-0.11532287703907,0.16591910230247,6
0.740005493164063,-0.043777484446764,2.76493620872498,1.21528995037079,-0.13540428105644,2.90755570105657,1.22667879035609,2067.636,3027.835,2803.53,999.3597,-0.06857959,0.0009284815,0.09229966,-0.148209899663925,-0.42563071846962,0.253139942884445,-0.280482990349159,-0.120683994959631,0.173632332283853,6
0.760009765625,-0.0470876879990101,2.75642466545105,1.22047662734985,-0.141140917956636,2.9050873864615,1.23023004187122,2057.251,3030.254,2811.845,1001.01,-0.06659926,0.0005072277,0.09494421,-0.165510416030884,-0.425577819347382,0.259335249662399,-0.293080296154222,-0.126104263719567,0.181430664670081,6
0.779998779296875,-0.050745103508234,2.74792408943176,1.22578573226929,-0.147126184485884,2.90251209348295,1.23393520697061,2050.085,3032.739,2819.161,1000.646,-0.06484318,8.275896E-05,0.0973777,-0.182870969176292,-0.425033658742905,0.265458285808563,-0.305795832832518,-0.131575403921268,0.189302187598958,6
0.800003051757813,-0.0547503493726254,2.73944282531738,1.23121631145477,-0.153371683173492,2.89982482987671,1.2378014681726,2044.284,3034.459,2824.694,1001.413,-0.0632293,-0.000344613,0.09962674,-0.200262576341629,-0.424062103033066,0.27152618765831,-0.318639638509124,-0.13710173468952,0.197253115148089,6
0.82000732421875,-0.0591038577258587,2.73098850250244,1.23677098751068,-0.159875221826383,2.89702653888221,1.24182746840525,2043.971,3037.252,2820.272,1005.752,-0.06170704,-0.0007760451,0.1016768,-0.217675656080246,-0.422722041606903,0.27773118019104,-0.331592781842754,-0.14267511039705,0.205271727915392,6
0.840011596679688,-0.0638046413660049,2.72256755828857,1.24244546890259,-0.166638895824778,2.89411631891588,1.24601450480873,2042.789,3042.405,2820.239,1003.309,-0.06034616,-0.001213336,0.1035673,-0.235039204359055,-0.421045392751694,0.283723026514053,-0.344646098867604,-0.148291588045382,0.213352352969496,6
0.860000610351563,-0.0688519775867462,2.71418571472168,1.24824190139771,-0.173659158941841,2.89109569582005,1.2503603820997,2039.904,3041.822,2811.611,1017.783,-0.0590524,-0.001639442,0.1052248,-0.252366662025452,-0.419087260961533,0.289823412895203,-0.357780475378537,-0.153942943326036,0.221483157706883,6
0.8800048828125,-0.0742433667182922,2.70584845542908,1.25415349006653,-0.180948461186242,2.88795931270381,1.25487280742661,2040.45,3048.591,2813.246,1010.248,-0.05797382,-0.002061819,0.1067175,-0.26956969499588,-0.416866928339005,0.295579671859741,-0.371007022483504,-0.159633957038354,0.229671020432672,6
0.900009155273438,-0.0799773037433624,2.69755935668945,1.2601854801178,-0.188503099076414,2.88470876307182,1.25954948815793,2039.379,3048.3,2800.402,1027.418,-0.05699963,-0.002461826,0.1079509,-0.286696881055832,-0.414451420307159,0.301600247621536,-0.384306908919572,-0.165356526615982,0.237904283698049,7
0.919998168945313,-0.0860495120286942,2.68932223320007,1.26632583141327,-0.196318384305134,2.8813460641717,1.26438752200817,2040.859,3058.587,2809.229,1008.002,-0.05639883,-0.00285917,0.1090726,-0.303610682487488,-0.411856085062027,0.307016104459763,-0.397661187980262,-0.171102499820431,0.246171218589148,7
0.94000244140625,-0.0924578011035919,2.68113899230957,1.27258098125458,-0.204407453948074,2.87786556348678,1.26939504145298,2031.633,3051.061,2802.171,1035.678,-0.05586247,-0.00321337,0.1099362,-0.320415735244751,-0.409165531396866,0.31275737285614,-0.411081631631503,-0.176876941799768,0.254479112513653,7
0.960006713867188,-0.0991973429918289,2.67301106452942,1.2789409160614,-0.212765478812529,2.87426933888379,1.27456905699201,2039.063,3063.835,2813.379,1006.245,-0.05571546,-0.00356331,0.1107283,-0.336976587772369,-0.4063920378685,0.317998141050339,-0.424549556012544,-0.182671813410681,0.262816399271726,7
0.980010986328125,-0.10626532137394,2.6649386882782,1.28541254997253,-0.221393324468958,2.87055701793193,1.27991010445463,2030.251,3056.577,2808.662,1031.429,-0.05564622,-0.003869573,0.1113168,-0.353397876024246,-0.403620213270187,0.32358255982399,-0.438056556301695,-0.188483498293199,0.271177875878363,7
1,-0.11365619301796,2.65692162513733,1.29198467731476,-0.230284798736574,2.86673126495361,1.28541435058594,2034.975,3066.09,2825.642,1002.73,-0.05592265,-0.004167315,0.1118821,-0.369545429944992,-0.400856584310532,0.328604072332382,-0.451584000205995,-0.194303979492187,0.279552008056641,7
1.02000427246094,-0.121367380023003,2.64895796775818,1.29866743087769,-0.239454009753966,2.86278600961093,1.2910905289958,2026.817,3056.396,2820.639,1030.977,-0.0561634,-0.004413391,0.1122607,-0.385558515787125,-0.398178577423096,0.334135055541992,-0.465144357597929,-0.200138622445408,0.287946515251652,7
1.04000854492188,-0.129393100738525,2.64104652404785,1.3054506778717,-0.248894644448595,2.85872396824263,1.29693473159157,2038.08,3069.045,2835.326,995.3801,-0.0567264,-0.004658401,0.112655,-0.401287287473679,-0.395576417446136,0.339162439107895,-0.47871923339115,-0.205979512261105,0.296350010028666,7
1.05999755859375,-0.137730628252029,2.63318395614624,1.31234526634216,-0.258599401509697,2.85454828239877,1.30294243851408,2030.524,3059.46,2827.167,1026.514,-0.05723612,-0.004853345,0.1128836,-0.416875034570694,-0.39312332868576,0.344729274511337,-0.492290296490434,-0.211818761581115,0.30475114456651,7
1.08000183105469,-0.146373495459557,2.62536811828613,1.31933641433716,-0.268583149539609,2.85025255453512,1.30912285413647,2038.302,3069.822,2849.218,989.4714,-0.05805105,-0.005043495,0.1131631,-0.432143837213516,-0.390790432691574,0.34955495595932,-0.50587040849135,-0.217661904390701,0.313157880805523,7
1.10000610351563,-0.15531998872757,2.61759495735168,1.32644414901733,-0.278838480013141,2.84583997233313,1.31547139222872,2034.378,3058.671,2829.772,1031.419,-0.05869021,-0.005175055,0.1132275,-0.447325587272644,-0.38866338133812,0.355386286973953,-0.519441457145546,-0.223501147495394,0.321559006401169,7
1.12001037597656,-0.164562255144119,2.60986137390137,1.33364367485046,-0.289365134970699,2.84131064678559,1.32198789310157,2048.264,3077.304,2861.575,969.5541,-0.05981247,-0.005323126,0.1134411,-0.462113261222839,-0.386675238609314,0.359976708889008,-0.532995796775449,-0.22933320117373,0.329949788314817,8
1.13999938964844,-0.174099832773209,2.60216236114502,1.34096384048462,-0.300154365346813,2.83666834237095,1.3286669406667,2033.925,3055.288,2834.733,1041.984,-0.06057946,-0.005385977,0.1133685,-0.476877510547638,-0.384950876235962,0.366007894277573,-0.546515580872639,-0.235150386571708,0.338319178707607,8
1.16000366210938,-0.18392325937748,2.59449505805969,1.34836888313293,-0.311222084148811,2.83190621216671,1.33551838583369,2055.315,3081.784,2882.467,948.2752,-0.06196324,-0.005484514,0.1135514,-0.491172224283218,-0.38336768746376,0.370250135660172,-0.560014026276883,-0.240958390526247,0.34667535943296,8
1.18000793457031,-0.194034546613693,2.58685278892517,1.35590505599976,-0.322559451663168,2.82702805965467,1.34253675639879,2037.215,3051.215,2835.873,1055.285,-0.06274674,-0.005474926,0.1133404,-0.505564332008362,-0.382110148668289,0.376809775829315,-0.573473482003304,-0.246749618311663,0.355007403690405,8
1.19999694824219,-0.204421579837799,2.57923340797424,1.36351668834686,-0.334156660511822,2.8220381046756,1.34971598112778,2069.946,3092.679,2905.244,911.7353,-0.06446768,-0.005543103,0.1135701,-0.519351363182068,-0.380971401929855,0.380583792924881,-0.58687652428584,-0.252516572968185,0.36330452533874,8
1.22000122070313,-0.215089350938797,2.57162880897522,1.37126994132996,-0.346030421585499,2.81692915700008,1.35706640485806,2032.388,3041.11,2840.15,1080.77,-0.0651862,-0.005453621,0.1132422,-0.533390402793884,-0.380228966474533,0.387665033340454,-0.600236516861372,-0.258265004538453,0.371574997167698,8
1.24000549316406,-0.226023137569427,2.56403756141663,1.37908959388733,-0.358170848086624,2.8117054706409,1.36458190719098,2086.674,3102.898,2931.626,871.3417,-0.06716652,-0.005491971,0.1135481,-0.546689689159393,-0.379559278488159,0.390982955694199,-0.613536214864368,-0.263987493038594,0.379808143784027,8
1.260009765625,-0.237231850624084,2.55645036697388,1.38706755638123,-0.37057666480527,2.80636759428526,1.37226169871082,2034.019,3033.294,2835.734,1107.657,-0.06775241,-0.00533005,0.1131047,-0.560433447360992,-0.37936407327652,0.398895382881165,-0.626768731761373,-0.26968107538565,0.387999702095469,8
1.27999877929688,-0.248696014285088,2.54886722564697,1.39509403705597,-0.383236695417198,2.80092033679326,1.3800988607405,2103.29,3116.05,2967.745,818.2174,-0.07007629,-0.005354552,0.1135738,-0.573209047317505,-0.379155397415161,0.401322692632675,-0.639917282339435,-0.275338529371412,0.396139281255613,8
1.30000305175781,-0.260430753231049,2.54127669334412,1.40330255031586,-0.396168722856641,2.79535604666509,1.38810440176341,2026.749,3015.742,2826.978,1159.328,-0.07030372,-0.005098888,0.112961,-0.586740732192993,-0.379530698060989,0.410424083471298,-0.652995275331231,-0.280965624398954,0.404235181908735,8
1.32000732421875,-0.272410333156586,2.53368163108826,1.41153693199158,-0.409361504843077,2.78967956113998,1.39627136227237,2131.107,3137.524,3009.664,739.7365,-0.07302068,-0.005132444,0.1136651,-0.598978221416473,-0.379747688770294,0.411721795797348,-0.6659860834168,-0.286555206197011,0.41227711095171,8
1.34001159667969,-0.284658253192902,2.52606749534607,1.41998815536499,-0.422813232584026,2.78389165849082,1.40459862253867,2018.767,2995.363,2801.305,1232.91,-0.07275543,-0.004779841,0.1128237,-0.612396776676178,-0.38070872426033,0.422558426856995,-0.678883253871146,-0.292104498338286,0.420261073840379,8
1.36000061035156,-0.297138392925262,2.51844167709351,1.42842602729797,-0.436511415158101,2.77799771321212,1.41307845008695,2161.815,3166.911,3069.16,631.3176,-0.07608545,-0.004850149,0.1138937,-0.624005973339081,-0.381285309791565,0.421891540288925,-0.691670720740693,-0.297606588091785,0.42817712498415,9
1.3800048828125,-0.309887617826462,2.51078462600708,1.43713080883026,-0.450474904562636,2.77198961381608,1.4217225152016,1995.237,2958.972,2761.56,1354.492,-0.07497917,-0.004360127,0.1126868,-0.637460768222809,-0.382855832576752,0.435236424207687,-0.704361775018035,-0.303067194200314,0.436033492140578,9
1.40000915527344,-0.322854578495026,2.50311064720154,1.44576728343964,-0.464691155755482,2.76587275808388,1.43052305190393,2209.775,3212.76,3146.602,469.4978,-0.07915501,-0.004507666,0.1142771,-0.648349225521088,-0.383695960044861,0.431825935840607,-0.716940488958393,-0.308479463400265,0.443820315276901,9
1.41999816894531,-0.33609539270401,2.49539232254028,1.45474493503571,-0.47914673136562,2.75965292774086,1.43947174182117,1961.816,2910.688,2689.446,1532.75,-0.07687481,-0.003848268,0.112536,-0.662040054798126,-0.385916829109192,0.448882102966309,-0.729391385793766,-0.313836736470737,0.451528013536465,9
1.44000244140625,-0.349535137414932,2.4876549243927,1.4635648727417,-0.493861275572861,2.75332167044526,1.4485807456364,2267.647,3277.826,3262.874,235.6056,-0.08236411,-0.004126834,0.1149217,-0.671989321708679,-0.386875599622726,0.440994471311569,-0.741727567798258,-0.319144650954242,0.459164697851088,9
1.46000671386719,-0.363260328769684,2.47985816001892,1.4728410243988,-0.508821304757097,2.74688478782212,1.45784171634646,1901.219,2833.344,2571.179,1818.062,-0.07819095,-0.003208576,0.1123205,-0.686259090900421,-0.389839977025986,0.463808685541153,-0.753933682518823,-0.324396601119133,0.466720864320996,9
1.48001098632813,-0.377164900302887,2.4720401763916,1.48187184333801,-0.524024159888143,2.74034342397783,1.467253007885,2261.88,3459.328,3324.79,0,-0.08491702,-0.003299124,0.1160954,-0.695228040218353,-0.390903681516647,0.451541215181351,-0.766004036374583,-0.329590137176618,0.474192988348404,9
1.5,-0.3913654088974,2.46415042877197,1.49145197868347,-0.539455198877605,2.73370387899399,1.4768055561018,1864.563,2699.603,2441.339,2143.102,-0.07881305,-0.001838646,0.1125984,-0.71002584695816,-0.394487738609314,0.479004472494125,-0.777924000354858,-0.334718964672088,0.481572013878822,9
1.52000427246094,-0.405735373497009,2.45623445510864,1.5007735490799,-0.555135099954955,2.72695725560613,1.48651216180595,2107.743,3728.394,3216.757,0,-0.08520837,-0.000813862,0.1176161,-0.718498945236206,-0.395801842212677,0.466077566146851,-0.789706299681991,-0.339788558913217,0.48886581843107,9
1.54000854492188,-0.420393794775009,2.44824814796448,1.51060342788696,-0.571049184024557,2.72010986981902,1.49636373793799,1978.673,2535.052,2416.392,2226.488,-0.07890467,0.001550402,0.1134918,-0.732923269271851,-0.399313718080521,0.491491615772247,-0.801336412291853,-0.344792671461508,0.496065412155667,9
1.55999755859375,-0.435215771198273,2.44023847579956,1.52016651630402,-0.587181951496087,2.71316839067337,1.50635068951315,2183.753,3671.197,3214.173,0,-0.08540438,0.003298218,0.1172059,-0.741098761558533,-0.400481462478638,0.478154391050339,-0.812800388649436,-0.349725300221754,0.503162159625937,9
1.58000183105469,-0.450311779975891,2.43216490745544,1.53019213676453,-0.60355483331529,2.70612359703193,1.51648628330776,2069.27,2512.306,2516.206,2071.152,-0.08044078,0.00600704,0.1120674,-0.754799067974091,-0.403675407171249,0.50128048658371,-0.824110582941666,-0.354591760855452,0.510163708672098,9
1.60000610351563,-0.465565890073776,2.42406630516052,1.53999316692352,-0.620152298932711,2.69898217125626,1.52676090517188,2192.327,3663.357,3231.844,0,-0.08750881,0.008074424,0.1146883,-0.762706577777863,-0.404925793409348,0.490049660205841,-0.835253140422976,-0.35938609205264,0.51706148254665,9
1.62001037597656,-0.481070637702942,2.41590404510498,1.55018329620361,-0.636970945360177,2.69174557755711,1.53717244849371,2123.622,2539.359,2687.948,1820.634,-0.08477215,0.01070787,0.1097092,-0.775237798690796,-0.4081189930439,0.509509563446045,-0.846223126656604,-0.364106170663034,0.523852426598179,9
1.63999938964844,-0.496727764606476,2.40770864486694,1.56018102169037,-0.653994195024907,2.68442094880091,1.54771065096602,2245.012,3517.318,3341.28,0,-0.09223592,0.01247501,0.1114968,-0.782857358455658,-0.409774094820023,0.499884694814682,-0.857007552155828,-0.368746407673381,0.530528499715628,9
1.66000366210938,-0.512620508670807,2.39943814277649,1.57054615020752,-0.671244443874359,2.67699864863716,1.55838937674714,2111.876,2608.112,2842.549,1615.65,-0.09045161,0.01461656,0.107236,-0.794634282588959,-0.41352441906929,0.518255054950714,-0.867618167158098,-0.373311858882592,0.53709697585572,9
1.68000793457031,-0.528662443161011,2.39111948013306,1.58076119422913,-0.688705090349012,2.66948582025311,1.56919834868089,2254.95,3455.44,3405.079,0,-0.09738114,0.01583381,0.1093987,-0.802099049091339,-0.415932148694992,0.510753273963928,-0.878042061913515,-0.377796969585941,0.543549863268291,9
1.69999694824219,-0.544932246208191,2.38270998001099,1.59134364128113,-0.706358800111611,2.66188992212981,1.58012683598675,2096.309,2658.565,2898.721,1528.902,-0.09521014,0.01739509,0.1063373,-0.813490986824036,-0.420477598905563,0.529121816158295,-0.888267004546665,-0.382196476749158,0.549879589839776,9
1.72000122070313,-0.561348021030426,2.37424039840698,1.60178184509277,-0.724228658537036,2.6542010212754,1.5911891296115,2291.506,3387.965,3442.479,0,-0.1011474,0.01793969,0.1091895,-0.820789813995361,-0.423481225967407,0.521910965442657,-0.898304216251578,-0.386515208538549,0.556093102023817,9
1.74000549316406,-0.577993988990784,2.36566638946533,1.6126264333725,-0.742297311768984,2.64642658456943,1.60237448669139,2068.699,2691.357,2846.837,1585.058,-0.09740032,0.01899486,0.1068175,-0.832297682762146,-0.428704380989075,0.542228519916534,-0.908141534469281,-0.390747931744771,0.562182870617028,9
1.760009765625,-0.594781875610352,2.35702657699585,1.62332081794739,-0.760560719141003,2.63856835059778,1.61368040586141,2288.368,3443.762,3393.173,0,-0.1024353,0.01913954,0.1106648,-0.839392602443695,-0.431991308927536,0.534721851348877,-0.91777478390713,-0.394892849856044,0.568146310914365,9
1.77999877929688,-0.611801862716675,2.34827828407288,1.63443827629089,-0.779000609654483,2.63063418086074,1.62509557650306,2054.976,2679.352,2754.346,1710.874,-0.0973396,0.02000427,0.1085956,-0.851004123687744,-0.437415480613708,0.555874347686768,-0.927192788821983,-0.398945154262308,0.57397650459845,9
1.80000305175781,-0.628958702087402,2.33946800231934,1.6453754901886,-0.797640935141499,2.62261376955408,1.63663482594136,2300.425,3471.615,3357.646,0,-0.1019538,0.01999609,0.1128245,-0.857839584350586,-0.440512776374817,0.546859562397003,-0.936405971974637,-0.402909329586356,0.579679903854719,9
1.82000732421875,-0.646351158618927,2.33055329322815,1.6567565202713,-0.816463410111527,2.61451498441355,1.64828683458664,2050.734,2661.931,2672.385,1826.194,-0.0959718,0.02087137,0.1104242,-0.869623124599457,-0.445735841989517,0.569050073623657,-0.94540321420156,-0.406780591562751,0.585249625391268,9
1.83999633789063,-0.663875460624695,2.32158422470093,1.66793918609619,-0.835449117627072,2.60634596486888,1.66003989195343,2271.505,3555.17,3309.008,0,-0.100619,0.02101302,0.1148857,-0.876218616962433,-0.448457539081573,0.559135556221008,-0.954174163352093,-0.410554485950274,0.590679260733698,9
1.86000061035156,-0.681633353233337,2.31252074241638,1.67955052852631,-0.854622615239374,2.59809614449182,1.6719092003358,2059.469,2623.676,2652.818,1882.817,-0.09458909,0.02207904,0.1121589,-0.887890994548798,-0.453173398971558,0.580567538738251,-0.962728579444532,-0.414235212212131,0.595974851798267,9
1.8800048828125,-0.699519753456116,2.30341243743896,1.69095253944397,-0.873964974649439,2.58977366760063,1.68388304221498,2279.946,3552.583,3311.521,0,-0.09937373,0.02237955,0.1162332,-0.894324064254761,-0.455410033464432,0.570098102092743,-0.971056158224177,-0.417818336715394,0.601130019760457,9
1.90000915527344,-0.717636346817017,2.29422068595886,1.70277392864227,-0.893471623792247,2.58138050142717,1.69595858726494,2077.698,2617.106,2673.018,1858.299,-0.09366391,0.02353896,0.1131255,-0.905826807022095,-0.459585100412369,0.591068148612976,-0.979153483542501,-0.421302389586788,0.606142649861596,9
1.91999816894531,-0.735878169536591,2.28499221801758,1.71438813209534,-0.913122862707269,2.57292512231409,1.70812364027167,2264.174,3562.426,3323.696,0,-0.09857851,0.02394948,0.116945,-0.912095189094543,-0.461428761482239,0.580709755420685,-0.987011339258123,-0.424683405378145,0.611007036871143,9
1.94000244140625,-0.754344046115875,2.27568936347961,1.72640442848206,-0.932943991899774,2.5643966441608,1.72039386345315,2088.367,2610.95,2715.545,1813.121,-0.09317655,0.02513456,0.113745,-0.923291444778442,-0.46514019370079,0.600817799568176,-0.994638524886308,-0.427965170275055,0.615728628108227,9
1.96000671386719,-0.772932112216949,2.26635599136353,1.7382208108902,-0.952915303453826,2.55580354673295,1.73275705667061,2275.928,3532.811,3344.615,0,-0.09797716,0.02550202,0.1172622,-0.929408073425293,-0.466662973165512,0.590821802616119,-1.00202586176059,-0.431143734953757,0.620301741541062,9
1.98001098632813,-0.791738152503967,2.25695562362671,1.75043225288391,-0.973031969359004,2.54714790738853,1.74521023115561,2097.069,2625.782,2742.071,1761.685,-0.09270677,0.0265727,0.1140746,-0.940302550792694,-0.470014959573746,0.610573470592499,-1.00917036754089,-0.434217816196637,0.624724530959079,9
2,-0.810661733150482,2.24753046035767,1.76244485378265,-0.993273599084619,2.53843849960327,1.7577407641983,2276.045,3516.894,3358.224,0,-0.09734919,0.02679569,0.1175222,-0.946175813674927,-0.471261918544769,0.600628018379211,-1.01606400046349,-0.437183953857422,0.628992018127441,9
2.02000427246094,-0.829797267913818,2.23804426193237,1.77484977245331,-1.01366615605493,2.52966415204104,1.77036472839513,2088.633,2634.088,2748.589,1750.648,-0.09187479,0.02772438,0.1144088,-0.956782639026642,-0.474312216043472,0.620246052742004,-1.02271452148052,-0.440045487257004,0.633109007445237,9
2.04000854492188,-0.849044919013977,2.22853851318359,1.78705418109894,-1.03418924440916,2.52083364047092,1.78306949773667,2278.879,3512.101,3354.272,0,-0.0962541,0.02778345,0.1178907,-0.962372720241547,-0.475275069475174,0.610218584537506,-1.02911391720548,-0.442798968459032,0.637070538244476,9
2.05999755859375,-0.868498921394348,2.21897864341736,1.79965174198151,-1.05482201812353,2.5119559343546,1.79584216754118,2083.31,2641.646,2728.036,1761.886,-0.09050061,0.02857568,0.1148119,-0.97269994020462,-0.478004485368729,0.629875779151917,-1.03525504859546,-0.445441325732794,0.640872191117535,9
2.08000183105469,-0.888056874275208,2.20940637588501,1.81203329563141,-1.07559088172821,2.50301967256038,1.80869908347065,2270.097,3515.308,3350.433,0,-0.0947313,0.02850434,0.1183851,-0.977900147438049,-0.478610426187515,0.61907559633255,-1.04114485287423,-0.447975543971863,0.644518260536375,9
2.10000610351563,-0.90781706571579,2.19978666305542,1.8248165845871,-1.09647498538954,2.49403382618922,1.82162733848484,2071.865,2636.893,2690.892,1807.754,-0.08852667,0.02923192,0.1151743,-0.988003015518188,-0.480980008840561,0.639163553714752,-1.04677621342161,-0.450398561093403,0.648004340974112,9
2.12001037597656,-0.927672922611237,2.19016265869141,1.83737134933472,-1.11746913671118,2.48500062938421,1.83462371824305,2250.536,3551.554,3322.552,0,-0.09268493,0.02915085,0.1188925,-0.992793202400208,-0.481199711561203,0.627737402915955,-1.05214690704168,-0.452709420518306,0.651329056166548,9
2.13999938964844,-0.947723567485809,2.18050050735474,1.85031962394714,-1.138551967509,2.47592927627801,1.8476749948214,2066.452,2617.878,2664.108,1848.325,-0.08627896,0.02990587,0.1155298,-1.00253534317017,-0.483103632926941,0.647414326667786,-1.05725102347782,-0.454905579228273,0.654488747383304,9
2.16000366210938,-0.967861473560333,2.17084312438965,1.86302185058594,-1.15975039167652,2.46680818657414,1.86079782920208,2246.972,3549.44,3316.767,0,-0.09041911,0.02983465,0.1190972,-1.00689160823822,-0.482859432697296,0.635113120079041,-1.0620943502576,-0.456989527434725,0.657486997379635,8
2.18000793457031,-0.988186895847321,2.16115808486938,1.87611794471741,-1.18104303873349,2.45764655539322,1.87397899203979,2065.497,2609.556,2642.669,1868.788,-0.08388638,0.03060354,0.1154314,-1.016277551651,-0.484268188476563,0.654806852340698,-1.06667099276523,-0.458958728849171,0.660320157107579,8
2.19999694824219,-1.0085905790329,2.15148615837097,1.88896000385284,-1.20240821395574,2.44845371736898,1.88720505326679,2227.055,3577.847,3295.315,0,-0.08811548,0.03058462,0.1189339,-1.02018702030182,-0.483601689338684,0.642103970050812,-1.07097597819164,-0.460811043810786,0.662985148161421,7
2.22000122070313,-1.02917110919952,2.14179611206055,1.90217685699463,-1.22387315175433,2.43921795429519,1.90049287228091,2061.768,2593.115,2644.603,1872.439,-0.08171697,0.03138488,0.115117,-1.02902734279633,-0.484502106904984,0.660843193531036,-1.07501419914593,-0.462548577472581,0.665484999299265,7
2.24000549316406,-1.04982089996338,2.13212776184082,1.91513168811798,-1.24541615591711,2.42994860144581,1.91382901809327,2236.269,3552.722,3297.987,0,-0.08598868,0.03133014,0.1182899,-1.03249287605286,-0.483421444892883,0.647742450237274,-1.07878069424208,-0.464169195088763,0.667816639186824,5
2.260009765625,-1.07063710689545,2.12244987487793,1.92845463752747,-1.26703177594152,2.42064800401982,1.92721011658316,2059.335,2600.115,2645.222,1852.85,-0.07974835,0.03205635,0.1142996,-1.04080677032471,-0.483887910842896,0.666146099567413,-1.08227399942825,-0.465672266718726,0.669979161506271,5
2.27999877929688,-1.09151232242584,2.11280059814453,1.94150817394257,-1.28869796983554,2.41132564607061,1.9406225227075,2218.695,3555.951,3296.56,0,-0.08410262,0.03193786,0.1173994,-1.04376924037933,-0.482477843761444,0.652674853801727,-1.08549040888332,-0.467056197851165,0.67197027217779,2
2.30000305175781,-1.11254274845123,2.10314869880676,1.95492053031921,-1.31044231452835,2.40196966201596,1.95408330789913,2045.298,2595.557,2645.391,1854.469,-0.07785165,0.032598,0.1133756,-1.05152177810669,-0.482593536376953,0.670619785785675,-1.08843358680109,-0.468322565086307,0.673792239511894,1
2.32000732421875,-1.13362264633179,2.09353089332581,1.96805715560913,-1.33224276726637,2.39258953623693,1.96757882664355,2216.784,3545.535,3291.921,0,-0.08213455,0.03238491,0.116395,-1.053990483284,-0.480893611907959,0.656830668449402,-1.09109983431736,-0.469469776906228,0.675442773735451,0
2.33999633789063,-1.15484666824341,2.08391690254211,1.98154938220978,-1.35407709248145,2.38319483607731,1.98109531406483,2036.801,2598.041,2629.675,1858.737,-0.07579836,0.03294818,0.1123239,-1.06120550632477,-0.48069766163826,0.674609839916229,-1.09348640563071,-0.470496651869278,0.67692017506657,0
2.36000061035156,-1.17610907554626,2.07434272766113,1.99475133419037,-1.37597305876702,2.37377361348711,1.99464996024512,2202.473,3545.007,3287.694,0,-0.08004504,0.03264349,0.115361,-1.06311535835266,-0.478711992502213,0.660096526145935,-1.09559602313537,-0.471404361345641,0.678226128796969,0
2.3800048828125,-1.19750571250916,2.06477832794189,2.00831270217896,-1.39790843013262,2.36433543599182,2.00822900004707,2023.064,2591.847,2599.411,1891.444,-0.07342602,0.03314805,0.1111667,-1.06984078884125,-0.478224724531174,0.678070247173309,-1.09742594550583,-0.472191725819537,0.679358937915576,0
2.40000915527344,-1.21892964839935,2.05525898933411,2.02157235145569,-1.41987760424917,2.35488271411715,2.02182896536211,2184.923,3568.06,3262.069,0,-0.07766151,0.03282009,0.1142815,-1.07119023799896,-0.47596350312233,0.662981033325195,-1.09897546783438,-0.472858441988871,0.680318166050934,0
2.41999816894531,-1.2404762506485,2.04575610160828,2.03518199920654,-1.44185817738692,2.34542508756209,2.03543598721428,2012.035,2576.11,2575.522,1922.555,-0.07092477,0.03332117,0.1099705,-1.07733047008514,-0.475142329931259,0.680481314659119,-1.10024313330221,-0.473403883025206,0.681102911362803,0
2.44000244140625,-1.26203835010529,2.03630471229553,2.0484733581543,-1.46387808506052,2.33595053645515,2.04906735901791,2180.671,3559.886,3254.67,0,-0.07516985,0.03296816,0.1129434,-1.07810461521149,-0.472566276788712,0.664574086666107,-1.10123038958312,-0.473828671822132,0.681714070030222,0
2.46000671386719,-1.28371202945709,2.02687644958496,2.06211495399475,-1.48591492338117,2.32646870056377,2.06270921169857,2004.311,2570.284,2551.524,1941.81,-0.06833085,0.03344501,0.1083965,-1.08368599414825,-0.471408694982529,0.682080447673798,-1.10193578218388,-0.474132182551855,0.682150741652607,0
2.48001098632813,-1.30538952350616,2.01750516891479,2.07542967796326,-1.5079630509786,2.31698200721197,2.07635805297935,2161.128,3582.635,3230.949,0,-0.07268619,0.03310343,0.111343,-1.08388113975525,-0.468559890985489,0.665733277797699,-1.10235904000526,-0.474314298567936,0.682412758406602,0
2.5,-1.32716512680054,2.00816369056702,2.08907914161682,-1.52999999932945,2.30750012397766,2.08999997377396,1994.437,2556.479,2542.672,1953.332,-0.06595798,0.0335803,0.1066891,-1.08877956867218,-0.467079043388367,0.682478308677673,-1.10250000050292,-0.474374949932098,0.682500019669533,0
2.52000427246094,-1.34893298149109,1.99888443946838,2.10238862037659,-1.55205376834272,2.29801100328223,2.10365230735988,2160.209,3561.171,3233.189,0,-0.07038362,0.03319757,0.1094197,-1.08838951587677,-0.463965445756912,0.665474355220795,-1.10235882472314,-0.474314205938057,0.682412625136718,0
2.54000854492188,-1.37078630924225,1.9896399974823,2.11603188514709,-1.57410188948011,2.28852431271001,2.11730114464159,1984.277,2556.645,2531.772,1954.915,-0.06365275,0.03361455,0.1045979,-1.09266531467438,-0.462218016386032,0.682167649269104,-1.10193535162022,-0.474131997292339,0.682150475113189,0
2.55999755859375,-1.39262020587921,1.98046183586121,2.12933039665222,-1.59612191359838,2.27904971150017,2.13093258853001,2141.584,3576.944,3214.975,0,-0.06815455,0.03319998,0.1073317,-1.09169661998749,-0.458913028240204,0.664925575256348,-1.10123038958312,-0.473828671822132,0.681714070030222,0
2.58000183105469,-1.41452538967133,1.97132301330566,2.14294695854187,-1.61814182127198,2.26957516039323,2.14456396033363,1968.884,2546.788,2529.948,1959.798,-0.06148493,0.03357487,0.1025185,-1.0952570438385,-0.45693302154541,0.680832982063293,-1.10024313330221,-0.473403883025206,0.681102911362804,0
2.60000610351563,-1.43639993667603,1.96225416660309,2.15621089935303,-1.64013916343638,2.26011031859448,2.15818136301212,2152.056,3546.907,3213.901,0,-0.0659681,0.03305046,0.1050518,-1.09372913837433,-0.453440368175507,0.66319465637207,-1.09897439291323,-0.472857979480329,0.680317500623536,0
2.62001037597656,-1.45833277702332,1.95322895050049,2.16979193687439,-1.66210831390746,2.25065760689379,2.17178131368948,1955.705,2556.051,2515.768,1957.535,-0.05928569,0.03330478,0.1001698,-1.09664976596832,-0.451269298791885,0.6790571808815,-1.09742465646102,-0.47219117117957,0.679358139935436,0
2.63999938964844,-1.48022329807281,1.94427633285522,2.1830108165741,-1.68402693989188,2.24122663446822,2.18534998730279,2133.862,3553.706,3203.199,0,-0.0638152,0.03268194,0.1027584,-1.09452772140503,-0.447630107402802,0.660939037799835,-1.09559602313537,-0.471404361345641,0.67822612879697,0
2.66000366210938,-1.5021595954895,1.93537032604218,2.19654297828674,-1.70592290617745,2.23180541187802,2.19890463348308,1933.254,2549.754,2497.929,1982.754,-0.0569762,0.03286472,0.09788055,-1.09681236743927,-0.445298224687576,0.676605105400085,-1.09348640563071,-0.470496651869278,0.67692017506657,0
2.68000793457031,-1.52404224872589,1.92654013633728,2.20970320701599,-1.72777388024004,2.22240354818443,2.21243142733407,2129.824,3549.564,3189.384,0,-0.06145404,0.03215845,0.1004697,-1.09412658214569,-0.441507548093796,0.658008337020874,-1.09109790637238,-0.469468947365361,0.675441580245664,0
2.69999694824219,-1.54595828056335,1.91776013374329,2.22317671775818,-1.74955768413056,2.21303058593937,2.22591663964878,1919.723,2547.51,2469.588,2005.989,-0.0544675,0.03227137,0.09552812,-1.09580671787262,-0.438999682664871,0.673671960830688,-1.08843358680109,-0.468322565086308,0.673792239511893,0
2.72000122070313,-1.56780886650085,1.90905928611755,2.23626255989075,-1.77130202882336,2.20367460188472,2.23937742484041,2113.584,3554.177,3178.282,0,-0.05896558,0.03151451,0.09815595,-1.0925304889679,-0.435040086507797,0.654287397861481,-1.08549040888332,-0.467056197851165,0.671970272177789,0
2.74000549316406,-1.58968162536621,1.9004123210907,2.24966549873352,-1.79298473688851,2.19434513834902,2.25280005402337,1904.269,2537.119,2436.385,2044.728,-0.05174362,0.0316027,0.09307284,-1.09363770484924,-0.432345420122147,0.670150637626648,-1.08227143928024,-0.465671165158559,0.669977576652695,0
2.760009765625,-1.61147737503052,1.89184808731079,2.26267004013062,-1.81460030360772,2.18504456385877,2.26618111951479,2096.565,3574.84,3151.963,0,-0.0562955,0.03085871,0.09574769,-1.08979499340057,-0.428215056657791,0.650229513645172,-1.07877792518082,-0.464168003639063,0.667814925005998,0
2.77999877929688,-1.63328266143799,1.88334178924561,2.27598237991333,-1.83612684690458,2.17578229366013,2.27950707526701,1891.918,2521.038,2416.05,2071.646,-0.04904104,0.03096379,0.09055141,-1.09025382995605,-0.425301283597946,0.665622472763062,-1.07501419914593,-0.462548577472581,0.665484999299265,0
2.80000305175781,-1.65499973297119,1.87492227554321,2.28888320922852,-1.85759178470316,2.16654653058634,2.29279489428112,2093.193,3562.71,3145.661,0,-0.05364725,0.03021459,0.09306476,-1.08585250377655,-0.420982599258423,0.645039081573486,-1.07097597819164,-0.460811043810786,0.662985148161422,0
2.82000732421875,-1.67671322822571,1.86656498908997,2.30209136009216,-1.87897323600723,2.1573466894188,2.30603103117811,1882.314,2517.116,2398.759,2082.012,-0.04637576,0.03029463,0.08768679,-1.08568263053894,-0.41786053776741,0.660407245159149,-1.06666760390385,-0.458957270716794,0.660318059240952,0
2.83999633789063,-1.6983277797699,1.85829734802246,2.31488251686096,-1.90024960698239,2.14819206138118,2.31920211834584,2077.443,3576.35,3125.636,0,-0.05109967,0.02954536,0.09016595,-1.08073043823242,-0.413395315408707,0.63955420255661,-1.06209435025759,-0.456989527434725,0.657486997379635,0
2.86000061035156,-1.71992492675781,1.85009527206421,2.3279664516449,-1.9214480311499,2.13907097167731,2.33232495272651,1866.077,2507.75,2396.189,2087.352,-0.04394322,0.02960953,0.08476724,-1.07985270023346,-0.410094648599625,0.654196977615356,-1.05725102347782,-0.454905579228273,0.654488747383304,0
2.8800048828125,-1.74141252040863,1.84198522567749,2.34062695503235,-1.94254691640495,2.12999271078668,2.34538616777867,2085.547,3548.423,3124.047,0,-0.04870762,0.02878518,0.08703928,-1.07437467575073,-0.405502378940582,0.633021354675293,-1.0521429102862,-0.45270770082608,0.651326581984514,0
2.90000915527344,-1.76286923885345,1.83394384384155,2.35357856750488,-1.96354098577478,2.12095954924324,2.35838249680481,1851.825,2516.7,2386.706,2080.922,-0.04161882,0.02874911,0.0815958,-1.07284152507782,-0.402071475982666,0.647576689720154,-1.04677201701582,-0.450396755497224,0.648001743199023,0
2.91999816894531,-1.78420567512512,1.82599568367004,2.36609935760498,-1.98440911693069,2.11198057539494,2.37130086407726,2070.158,3548.679,3116.63,0,-0.04645512,0.02783766,0.08390187,-1.06682205200195,-0.39739927649498,0.626035809516907,-1.04114485287423,-0.447975543971863,0.644518260536375,0
2.94000244140625,-1.80549883842468,1.81811833381653,2.37890839576721,-2.00517798053537,2.10304431360073,2.38415778000673,1827.873,2513.641,2373.159,2099.533,-0.03925712,0.02772761,0.078507,-1.06465864181519,-0.393880903720856,0.640450596809387,-1.03525504859546,-0.445441325732794,0.640872191117535,0
2.96000671386719,-1.82666158676147,1.81033575534821,2.39127945899963,-2.02582645724542,2.09415985092405,2.3969401707136,2067.328,3540.518,3105.07,0,-0.04404176,0.02672789,0.08083303,-1.05813670158386,-0.389130681753159,0.618552029132843,-1.02910913225408,-0.442796909628122,0.637067576131623,0
2.98001098632813,-1.84776926040649,1.80262553691864,2.40394043922424,-2.04634944795115,2.08532938136936,2.40964487960608,1811.882,2513.734,2346.57,2120.521,-0.03669143,0.02653784,0.07543533,-1.05538952350616,-0.385510146617889,0.633047640323639,-1.02270954399162,-0.440043345582586,0.633105926142498,0
3,-1.86873662471771,1.79501211643219,2.41615080833435,-2.06672639957428,2.07656174835205,2.42225918334961,2056.63,3541.411,3091.633,0,-0.04148939,0.02547114,0.07781633,-1.04836332798004,-0.380662351846695,0.61052280664444,-1.01606400046349,-0.437183953857422,0.628992018127441,0
3.02000427246094,-1.88963770866394,1.78747391700745,2.42865252494812,-2.0869834279768,2.06784571494631,2.43479924890685,1790.158,2505.839,2319.254,2156.254,-0.03391163,0.02524155,0.07235949,-1.04505598545074,-0.376915067434311,0.625087380409241,-1.00916501115878,-0.434215511495054,0.624721215103391,0
3.04000854492188,-1.91038882732391,1.78003489971161,2.44069480895996,-2.10709998486405,2.05919012250926,2.44725235590455,2048.434,3548.052,3070.364,0,-0.03869893,0.02414946,0.07475577,-1.03755629062653,-0.371945708990097,0.602118074893951,-1.00202031904361,-0.431141350077486,0.620298310335216,0
3.05999755859375,-1.93106234073639,1.77267408370972,2.45302653312683,-2.12705600675913,2.05060360379452,2.45960608409476,1778.551,2499.367,2291.026,2180.881,-0.03105512,0.02389723,0.06921611,-1.03367602825165,-0.368035435676575,0.616588473320007,-0.994638524886308,-0.427965170275055,0.615728628108227,0
3.08000183105469,-1.95157623291016,1.76541566848755,2.46488404273987,-2.14687713595163,2.04207512564123,2.47187630727625,2037.696,3544.893,3061.228,0,-0.03593243,0.02279109,0.0715666,-1.02569401264191,-0.362930953502655,0.592878699302673,-0.987011339258122,-0.424683405378145,0.611007036871143,0
3.10000610351563,-1.97200131416321,1.75823831558228,2.47703409194946,-2.16654331551667,2.03361331798384,2.48405060925705,1763.305,2491.73,2265.762,2208.386,-0.02818849,0.02252671,0.0658814,-1.02125954627991,-0.358863472938538,0.6075040102005,-0.979147395688901,-0.421299770153459,0.606138881190213,0
3.12001037597656,-1.99225783348083,1.75116562843323,2.48870277404785,-2.18604984110275,2.02522020497339,2.49612607781951,2021.301,3560.566,3039.218,0,-0.0331702,0.02144519,0.06825038,-1.01281702518463,-0.35364156961441,0.58343493938446,-0.971049893464309,-0.41781564116424,0.601126141575667,0
3.13999938964844,-2.01241326332092,1.74417734146118,2.50065469741821,-2.20537738341953,2.01690410346351,2.50809074721212,1749.094,2480.213,2252.991,2224.523,-0.02548645,0.02119493,0.06252051,-1.00778198242188,-0.349424332380295,0.597594797611237,-0.962728579444533,-0.414235212212131,0.595974851798267,0
3.16000366210938,-2.03239130973816,1.73729515075684,2.51211500167847,-2.22455088103183,2.00865428308644,2.51996005559448,2021.377,3540.256,3037.479,0,-0.03053101,0.02009711,0.06473882,-0.998897731304169,-0.344096571207047,0.573017239570618,-0.954174163352092,-0.410554485950274,0.590679260733698,0
3.18000793457031,-2.05225729942322,1.73049998283386,2.52386021614075,-2.24355101420387,2.00047905658478,2.53172204312984,1735.676,2481.391,2239.256,2229.857,-0.02283927,0.01980423,0.05891598,-0.99329274892807,-0.339756935834885,0.587256133556366,-0.945396434568188,-0.406777674475913,0.585245428475253,0
3.19999694824219,-2.07193660736084,1.72381293773651,2.53511023521423,-2.2623590635174,1.99238647840124,2.54336512160655,2008.343,3547.994,3020.435,0,-0.02796692,0.01868481,0.06114879,-0.983974933624268,-0.33435520529747,0.562498569488525,-0.936405971974636,-0.402909329586355,0.579679903854719,0
3.22000122070313,-2.09149241447449,1.7172144651413,2.54663610458374,-2.28099938900442,1.98436606709459,2.55490437104486,1716.086,2476.545,2230.707,2240.24,-0.02031353,0.01836321,0.05537196,-0.977778553962708,-0.32991948723793,0.576298594474792,-0.927192788821982,-0.398945154262308,0.573976504598449,0
3.24000549316406,-2.11085319519043,1.71072554588318,2.55766010284424,-2.29945328359428,1.9764258717947,2.56632821087688,2015.369,3523.121,3016.339,0,-0.02546142,0.01717091,0.05748609,-0.968056619167328,-0.324454367160797,0.55119913816452,-0.91776751470058,-0.394889722119544,0.568141810929231,0
3.260009765625,-2.13007974624634,1.70432651042938,2.56896233558655,-2.31771654397337,1.96856770107001,2.57763403905129,1699.02,2484.084,2213.085,2246.498,-0.01778672,0.01676412,0.05169594,-0.961315453052521,-0.319939494132996,0.565117597579956,-0.908134108040216,-0.390744736359816,0.562178273303667,0
3.27999877929688,-2.14910364151001,1.69803810119629,2.57975459098816,-2.33577134012187,1.96079922667992,2.58881081793642,2001.894,3525.152,3005.067,0,-0.02300012,0.01550811,0.05387796,-0.951189517974854,-0.314427316188812,0.539616823196411,-0.898304216251578,-0.386515208538549,0.556093102023818,0
3.30000305175781,-2.16798210144043,1.69184136390686,2.59082531929016,-2.35364119854729,1.95311032582551,2.59987311156116,1675.694,2479.96,2192.777,2272.878,-0.01519759,0.01505233,0.0481251,-0.94393116235733,-0.309845477342606,0.55353969335556,-0.888267004546666,-0.382196476749158,0.549879589839776,0
3.32000732421875,-2.18665099143982,1.68575572967529,2.60137820243835,-2.37130830610839,1.94550866300381,2.61080989274252,1999.254,3519.178,2991.286,0,-0.02040674,0.01374601,0.05032792,-0.933440744876862,-0.304275989532471,0.527644395828247,-0.878034183119985,-0.377793579561194,0.543544985919778,0
3.33999633789063,-2.20516514778137,1.67976379394531,2.61221170425415,-2.38875555478454,1.93800159931817,2.62161057080077,1660.187,2478.318,2166.39,2295.563,-0.01250301,0.01324357,0.04455779,-0.925695180892944,-0.299602836370468,0.541669368743896,-0.867618167158097,-0.373311858882592,0.53709697585572,0
3.36000061035156,-2.22346210479736,1.67388439178467,2.62251496315002,-2.406005803634,1.93057929915441,2.6322892965819,1989.173,3517.271,2980.686,0,-0.01776222,0.01190885,0.04678648,-0.914851129055023,-0.293962478637695,0.515164136886597,-0.857007552155826,-0.36874640767338,0.530528499715627,0
3.3800048828125,-2.24159479141235,1.66810083389282,2.6331033706665,-2.42304196557559,1.92324911460621,2.64283549236868,1644.029,2472.088,2138.468,2325.741,-0.009719472,0.01138337,0.04094395,-0.90664267539978,-0.28918668627739,0.529422402381897,-0.846214826007803,-0.364102599125748,0.523847288101157,0
3.40000915527344,-2.25950407981873,1.66243147850037,2.64315366744995,-2.43986044461333,1.91601259293018,2.6532469320683,1978.373,3526.624,2959.946,0,-0.01506018,0.01005876,0.04320614,-0.895467519760132,-0.283467710018158,0.502518832683563,-0.835244706287931,-0.359382463079953,0.517056261415284,0
3.41999816894531,-2.27724003791809,1.65685975551605,2.653484582901,-2.45644516534361,1.90887665092339,2.66351366424015,1628.574,2463.313,2119.5,2347.945,-0.007021158,0.009543431,0.0373252,-0.886784017086029,-0.278580516576767,0.516550481319427,-0.824110582941664,-0.354591760855451,0.510163708672097,0
3.44000244140625,-2.29474568367004,1.65140414237976,2.6632673740387,-2.47281804716281,1.90183185728196,2.67364925803476,1976.622,3513.116,2953.92,0,-0.01244176,0.008219354,0.03948902,-0.875297665596008,-0.272790342569351,0.48914510011673,-0.812800388649434,-0.349725300221754,0.503162159625937,0
3.46000671386719,-2.31206893920898,1.64604759216309,2.67333316802979,-2.4889630419904,1.89488511704659,2.68364377892579,1615.191,2462.932,2102.588,2359.116,-0.004407532,0.007684178,0.0335306,-0.866149663925171,-0.267807811498642,0.503286957740784,-0.801327600455845,-0.344788879974649,0.496059957209413,0
3.47999572753906,-2.32915592193604,1.64080834388733,2.68284630775452,-2.50486489870395,1.88804299234919,2.69348778574196,1966.341,3517.714,2938.539,0,-0.009944776,0.006363439,0.03569676,-0.854358553886414,-0.261968106031418,0.475652754306793,-0.789706299681989,-0.339788558913217,0.488865818431069,0
3.5,-2.34605073928833,1.63566994667053,2.69263625144958,-2.5205447997813,1.88129636896134,2.70319439144611,1596.509,2459.25,2092.824,2370.579,-0.001976598,0.00582286,0.02977094,-0.844741642475128,-0.256919741630554,0.489496111869812,-0.777924000354857,-0.334718964672089,0.481572013878822,0
3.52000427246094,-2.36270451545715,1.63064861297607,2.70186758041382,-2.53598752699493,1.87465179486116,2.71275417523047,1970.841,3497.334,2934.087,0,-0.007580422,0.004468938,0.03184228,-0.832675397396088,-0.251054495573044,0.46156919002533,-0.765994882555673,-0.32958619854407,0.474187321698442,0
3.54000854492188,-2.37915682792664,1.62572956085205,2.7113778591156,-2.55119019794619,1.86811051026429,2.72216535275294,1580.397,2465.444,2078.635,2375.518,0.0003531433,0.003877002,0.0259254,-0.822616159915924,-0.245965123176575,0.475509643554688,-0.753924423002452,-0.324392617007921,0.466715132239272,0
3.55999755859375,-2.39536261558533,1.62092757225037,2.72032332420349,-2.56613872308604,1.86167857751006,2.73141920191151,1961.997,3493.829,2925.879,0,-0.005338573,0.002486149,0.02803681,-0.810284852981567,-0.240095555782318,0.44727024435997,-0.741727567798258,-0.319144650954242,0.459164697851087,0
3.58000183105469,-2.41135883331299,1.6162281036377,2.72954869270325,-2.58085326729328,1.85534732021446,2.74052820572674,1559.511,2464.573,2062.216,2394.474,0.002650777,0.001858239,0.0221774,-0.799814939498901,-0.23498660326004,0.461270809173584,-0.729391385793765,-0.313836736470737,0.451528013536464,0
3.60000610351563,-2.42710399627686,1.61164569854736,2.73820328712463,-2.59531978247425,1.84912278287974,2.74948366775945,1960.497,3485.599,2915.444,0,-0.003069559,0.0004337103,0.02431436,-0.787255227565765,-0.229113832116127,0.432728856801987,-0.716930938559024,-0.308475354130224,0.443814403124743,0
3.62001037597656,-2.44263219833374,1.6071662902832,2.74714088439941,-2.60953584173048,1.8430060097325,2.75828408564387,1544.404,2465.01,2040.222,2412.529,0.004974368,-0.0002311624,0.01847939,-0.776407837867737,-0.223974376916885,0.44688081741333,-0.704352136620513,-0.303063047067126,0.436027525513372,0
3.63999938964844,-2.45790481567383,1.60280418395996,2.75550007820129,-2.6234885835008,1.83700253474321,2.76692149746096,1953.078,3482.603,2902.837,3.040158,-0.0007989483,-0.001667671,0.02065128,-0.763644516468048,-0.218092665076256,0.41796150803566,-0.691670720740692,-0.297606588091786,0.428177124984152,0
3.66000366210938,-2.4729540348053,1.59854578971863,2.76414346694946,-2.63719712493647,1.83110413233575,2.77540773763803,1527.861,2461.855,2020.69,2433.525,0.007302064,-0.002344647,0.01482343,-0.752443492412567,-0.212916851043701,0.432166963815689,-0.678873453515702,-0.29210028151913,0.420255006953505,0
3.68000793457031,-2.48774385452271,1.59440565109253,2.77221131324768,-2.65064865588166,1.82531631436231,2.78373487607838,1933.021,3490.776,2871.667,27.44096,0.001620869,-0.003714577,0.01702507,-0.739507913589478,-0.207018077373505,0.403388410806656,-0.665976209205203,-0.286550957599616,0.412270998344358,0
3.69999694824219,-2.5023033618927,1.59036982059479,2.78055119514465,-2.66383127580226,1.81964420129024,2.79189554578451,1527.039,2458.67,2009.023,2429.566,0.009559222,-0.004354801,0.01124896,-0.727958917617798,-0.201777815818787,0.416998207569122,-0.65299527533123,-0.280965624398954,0.404235181908735,0
3.72000122070313,-2.51660060882568,1.58645284175873,2.78832411766052,-2.6767633032417,1.81407991116207,2.79990108680742,1910.038,3480.307,2837.74,77.86457,0.004069754,-0.005602226,0.01330537,-0.714880526065826,-0.195863306522369,0.388649970293045,-0.639917282339434,-0.275338529371411,0.396139281255611,0
3.74000549316406,-2.53066039085388,1.58264148235321,2.79634881019592,-2.6894328975087,1.80862853869646,2.80774416919516,1534.342,2464.375,2013.289,2392.559,0.01165234,-0.006184925,0.007585212,-0.702976942062378,-0.190556809306145,0.401230484247208,-0.626758665639204,-0.269676744214497,0.387993470686332,0
3.760009765625,-2.54445552825928,1.5789487361908,2.80382561683655,-2.70183851231475,1.80329074921818,2.81542383572149,1890.409,3461.369,2799.245,140.0398,0.006375818,-0.007305051,0.009377471,-0.689756810665131,-0.184645444154739,0.373841881752014,-0.613526094901139,-0.263983138701136,0.379801879044709,0
3.77999877929688,-2.55800485610962,1.57536244392395,2.81152296066284,-2.7139695770734,1.79807109095524,2.82293354268985,1541.016,2482.942,2034.797,2325.315,0.01335875,-0.007838216,0.003825636,-0.677482426166534,-0.179312452673912,0.384870827198029,-0.60023651686137,-0.258265004538452,0.371574997167698,0
3.80000305175781,-2.57128739356995,1.57189321517944,2.81870102882385,-2.72584333814708,1.79296214327972,2.83028396642013,1863.693,3428.749,2760.313,225.3286,0.0084225,-0.00883264,0.005311021,-0.66412091255188,-0.173459634184837,0.358902931213379,-0.586876524285838,-0.252516572968186,0.363304525338741,0
3.82000732421875,-2.58431696891785,1.56853032112122,2.82606387138367,-2.73744929742843,1.78796842323393,2.8374686080838,1551.889,2512.731,2065.998,2232.748,0.01470974,-0.009335977,5.550317E-05,-0.651485323905945,-0.168156445026398,0.368140876293182,-0.573463232144022,-0.246745208083563,0.355001058539243,0
3.83999633789063,-2.59707689285278,1.56528198719025,2.83294343948364,-2.74877791451009,1.78309403578861,2.84448156171422,1837.257,3387.349,2715.882,326.0476,0.01022284,-0.0102276,0.001234298,-0.637991666793823,-0.162410750985146,0.343981951475143,-0.560014026276881,-0.240958390526246,0.346675359432959,0
3.86000061035156,-2.60957741737366,1.56213843822479,2.83996653556824,-2.75984563331209,1.77833190558438,2.85133300688122,1560.766,2550.36,2102.973,2128.252,0.01578576,-0.01071443,-0.003610181,-0.625031709671021,-0.15718387067318,0.351157814264297,-0.546515580872635,-0.235150386571708,0.338319178707605,0
3.8800048828125,-2.62180614471436,1.55910658836365,2.84654808044434,-2.77064299647982,1.77368610185671,2.85801708903178,1810.797,3336.747,2666.824,441.9778,0.01189724,-0.0115187,-0.002751045,-0.611427903175354,-0.151578187942505,0.329081863164902,-0.532985466132484,-0.229328756186666,0.329943393154704,0
3.90000915527344,-2.63376998901367,1.55617761611938,2.85323095321655,-2.78116944461445,1.76915686529929,2.86453346187138,1575.608,2595.06,2137.46,2013.522,0.01672391,-0.01200287,-0.00713887,-0.598195016384125,-0.146442338824272,0.334149390459061,-0.519431110871129,-0.223496695782554,0.321552601564443,0
3.91999816894531,-2.64546012878418,1.55335795879364,2.85951399803162,-2.79141684911929,1.7647476934202,2.87087709341145,1783.577,3283.042,2616.27,563.9574,0.01345693,-0.01273098,-0.00659665,-0.584504127502441,-0.140989392995834,0.314147770404816,-0.505870408491346,-0.2176619043907,0.313157880805522,0
3.94000244140625,-2.65688133239746,1.55063915252686,2.86585640907288,-2.8014005971492,1.76045196555656,2.87705750903383,1588.191,2640.963,2170.697,1901.872,0.01758236,-0.01320768,-0.01052428,-0.57105541229248,-0.135953783988953,0.317116767168045,-0.492290296490434,-0.211818761581115,0.30475114456651,0
