t,x_s1,x_s2,x_s3,x_s_d1,x_s_d2,x_s_d3,propellers_rpms1,propellers_rpms2,propellers_rpms3,propellers_rpms4,rollRad,pitchRad,yawRad,v_s1,v_s2,v_s3,v_s_d1,v_s_d2,v_s_d3,insideCount
0,-0.0599999986588955,2.94000005722046,1.17999994754791,-0.0599999986588955,2.94000005722046,1.17999994754791,0,0,0,0,0,0,0,0,0,0,-1.06581410364015E-15,4.44089209850063E-16,4.44089209850063E-16,0
0.019989013671875,-0.0599999986588955,2.94000005722046,1.1771354675293,-0.0600018659130177,2.93999925379318,1.18000110346716,0,0,0,0,0.0163538,-0.002474609,-2.024222E-05,3.71994488546079E-08,3.50004931704007E-08,-0.143225952982903,-0.000279680311988734,-0.000120338624884473,0.000173135436141649,5
0.0399932861328125,-0.0599999986588955,2.94000005722046,1.17048275470734,-0.060014863945674,2.93999366110285,1.18000914986856,0,0,0,0,0.03270752,-0.004950816,-5.430172E-05,3.62924410524101E-08,3.44428769949445E-08,-0.332637369632721,-0.00111059898697896,-0.000477859717552347,0.000687513678106196,6
0.05999755859375,-0.0600004345178604,2.94013261795044,1.16416561603546,-0.0600498857373401,2.93997859220429,1.18003083002592,3185.54,2835.848,1500.947,2767.605,0.03127853,-0.00494336,-0.01646952,-2.17787910514744E-05,0.00662235822528601,-0.315857589244843,-0.00247936261166862,-0.00106680046642749,0.00153484356504269,6
0.0800018310546875,-0.0599162243306637,2.94038772583008,1.15857720375061,-0.0601175574246769,2.93994947496775,1.18007272202403,3065.763,3067.285,2154.983,2024.031,0.01897039,-0.004311125,-0.04351445,0.00421055313199759,0.0127496924251318,-0.27942031621933,-0.00437268608126799,-0.00188144466206175,0.00270690098422899,6
0.0999908447265625,-0.0596375726163387,2.94068765640259,1.15374851226807,-0.0602281370710988,2.93990189563514,1.18014117609281,2640.165,3831.798,2620.431,1134.745,-0.005860552,-0.002887932,-0.0701434,0.0139326369389892,0.0149964122101665,-0.241437554359436,-0.00677536694902951,-0.00291525111632684,0.0041942748969354,6
0.1199951171875,-0.0590849481523037,2.94089889526367,1.14957010746002,-0.0603918861403606,2.93983143898525,1.18024254456713,2091.71,4101.854,3169.767,756.1571,-0.04012425,-0.0004500742,-0.08993176,0.0276312939822674,0.0105585027486086,-0.208920389413834,-0.00967801353495435,-0.00416417885169243,0.00599115140585487,5
0.139999389648438,-0.0582315661013126,2.94085621833801,1.14596664905548,-0.0606185767455666,2.93973390035084,1.18038287685052,1510.634,4074.678,3735.735,701.8884,-0.07649344,0.00238876,-0.0994941,0.0426691547036171,-0.00213498901575804,-0.180170744657516,-0.0130660253322238,-0.00562194567796536,0.00808849210174802,4
0.159988403320313,-0.0570995770394802,2.94039463996887,1.14297807216644,-0.0609175312885481,2.93960526856281,1.18056794395381,1135.377,3847.018,4069.646,879.8931,-0.1062777,0.004335389,-0.09869728,0.0565994158387184,-0.0230731517076492,-0.149427935481071,-0.0169234294955564,-0.00728167892605071,0.0104764090324936,4
0.17999267578125,-0.055737916380167,2.93938779830933,1.14071118831635,-0.0612985250199726,2.93944133760391,1.18080379722281,1100.552,3565.298,4010.078,1149.189,-0.1236245,0.004492426,-0.08999727,0.0680831149220467,-0.0503433868288994,-0.113344892859459,-0.0212433804254414,-0.00914043312572283,0.0131506644458931,3
0.199996948242188,-0.0541967190802097,2.93777704238892,1.13924872875214,-0.0617704296168641,2.93923829023936,1.18109592864822,1373.855,3339.517,3594.55,1386.217,-0.127869,0.003022853,-0.07724925,0.0770598277449608,-0.0805392414331436,-0.0731256753206253,-0.0260104776919234,-0.0111915819022102,0.0161017247421801,3
0.220001220703125,-0.0525145120918751,2.93557596206665,1.13858413696289,-0.0623420644491781,2.93899233174064,1.18144979784016,1790.985,3213.121,3016.779,1526.825,-0.1229731,0.000861302,-0.06426154,0.0841102972626686,-0.110052272677422,-0.0332280099391937,-0.03121219533433,-0.0134297356845702,0.019321835755004,3
0.239990234375,-0.0507198758423328,2.93284678459167,1.13860714435577,-0.0630214373585105,2.93870001655724,1.18187036203406,2159.246,3168.509,2517.321,1558.48,-0.1149681,-0.0009875001,-0.05362488,0.0897317603230476,-0.136453092098236,0.00115000829100609,-0.0368316683029241,-0.015847637913056,0.022800557215184,3
0.259994506835938,-0.0488375872373581,2.92966461181641,1.13913762569427,-0.0638179029240226,2.93835731967507,1.18236341216003,2351.167,3159.097,2274.471,1495.962,-0.1090538,-0.001903095,-0.0462378,0.0941144600510597,-0.159106522798538,0.0265255644917488,-0.0428651747123285,-0.0184436871643672,0.0265355850983733,3
0.279998779296875,-0.0468920990824699,2.92608737945557,1.13999593257904,-0.0647390625194898,2.93796097043536,1.18293365383054,2353.066,3152.011,2324.095,1363.639,-0.1078149,-0.001744371,-0.04152507,0.09727443754673,-0.178863346576691,0.0429162234067917,-0.0492963837173861,-0.0212108567320638,0.030516809833474,3
0.29998779296875,-0.0449091047048569,2.92214345932007,1.1410619020462,-0.0657918945890516,2.93750796620855,1.18358540703494,2229.389,3144.436,2572.632,1194.016,-0.1110906,-0.0007366303,-0.0379868,0.0991498008370399,-0.197192564606667,0.0532999709248543,-0.0561078595514081,-0.0241416444928383,0.0347334378503248,3
0.319992065429688,-0.0429173037409782,2.9178352355957,1.14229369163513,-0.0669855955880233,2.93699435001684,1.18432436481717,2073.306,3132.383,2873.669,1033.018,-0.1169304,0.0006868042,-0.03397874,0.0995901674032211,-0.215406849980354,0.0615871176123619,-0.0632980253096114,-0.0272353719486164,0.0391844929697465,3
0.339996337890625,-0.0409493446350098,2.91315078735352,1.14370727539063,-0.068326768706371,2.93641728069206,1.18515461486636,1955.863,3107.082,3108.836,921.7548,-0.1228356,0.002069549,-0.02837651,0.0983980372548103,-0.234226852655411,0.0706784650683403,-0.0708499516420146,-0.0304847548730522,0.0438594951176439,3
0.360000610351563,-0.0390405803918839,2.90807700157166,1.14534342288971,-0.0698225328270578,2.93577369517774,1.1860805641102,1904.917,3066.238,3222.071,880.1442,-0.1267063,0.003092174,-0.02087066,0.0954381823539734,-0.253693461418152,0.0818055048584938,-0.0787518717320621,-0.0338847303337087,0.0487511600740379,3
0.379989624023438,-0.0372260957956314,2.90261006355286,1.14724349975586,-0.0714784451857985,2.93506120235061,1.1871056527423,1923.812,3020.995,3207.009,896.4102,-0.1274216,0.003641866,-0.01188622,0.0907242745161057,-0.273342698812485,0.0950057432055473,-0.0869857157641562,-0.0374275233937465,0.0538483017622888,3
0.399993896484375,-0.0355376526713371,2.89676117897034,1.14943110942841,-0.0733036822025899,2.9342758538535,1.18823556140379,1990.328,2989.15,3099.552,939.3334,-0.1250402,0.003791251,-0.00220776,0.0844222158193588,-0.292448997497559,0.109382562339306,-0.0955525119207663,-0.0411135764513579,0.0591515566763244,3
0.419998168945313,-0.0340023823082447,2.89055466651917,1.1519056558609,-0.0753034649285836,2.93341540321397,1.18947352217404,2072.961,2974.094,2952.843,987.0854,-0.1204963,0.003707579,0.007333783,0.0767635479569435,-0.310326427221298,0.123729020357132,-0.104434660908044,-0.0449353170220673,0.0646500300148815,3
0.44000244140625,-0.0326429270207882,2.88402462005615,1.15464150905609,-0.077483988232608,2.93247718495301,1.19082336997196,2136.776,2973.748,2825.224,1021.838,-0.11508,0.003563445,0.01615047,0.0679728239774704,-0.326507031917572,0.136791452765465,-0.113620829717891,-0.048887868829098,0.0703367061060819,4
0.459991455078125,-0.0314787551760674,2.8772075176239,1.15760147571564,-0.0798493430620752,2.93145943885026,1.19228763728888,2168.115,2977.137,2748.724,1040.075,-0.1098719,0.003474267,0.02394259,0.0582086518406868,-0.340850800275803,0.147995844483376,-0.123092454730403,-0.0529632444654124,0.0762000931848968,4
0.479995727539063,-0.0305270757526159,2.87013840675354,1.1607471704483,-0.0824088828700873,2.93035814037613,1.19387211435783,2167.337,2984.183,2733.612,1032.527,-0.1055448,0.003482349,0.03074962,0.0475839674472809,-0.35345733165741,0.157284423708916,-0.132852887402757,-0.0571628859694044,0.0822422659629699,4
0.5,-0.0298039671033621,2.8628466129303,1.16405189037323,-0.085166398670376,2.92917165836334,1.1955791479969,2147.453,2988.986,2762.117,1009.914,-0.1022595,0.003568761,0.03679236,0.0361553318798542,-0.364584416151047,0.165235504508018,-0.142884000065179,-0.0614789935111996,0.0884520025491718,4
0.519989013671875,-0.0293246619403362,2.85535669326782,1.16749882698059,-0.0881248588203387,2.92789871561062,1.19741057576073,2117.17,2993.735,2817.059,976.1174,-0.09984297,0.003685296,0.04241373,0.0239652208983898,-0.374494552612305,0.172349601984024,-0.153166947611899,-0.0659034585682559,0.0948176369253132,4
0.539993286132813,-0.0291043519973755,2.8476881980896,1.17108500003815,-0.091293865515634,2.92653518056143,1.19937234186584,2087.849,2990.819,2871.693,952.6658,-0.09782164,0.003777165,0.04786085,0.0110156517475843,-0.383422762155533,0.17930880188942,-0.163706645289342,-0.0704383960337938,0.101342211863077,4
0.55999755859375,-0.0291578769683838,2.83985805511475,1.17481589317322,-0.094676112580471,2.92507989413848,1.20146611391775,2071.727,2989.138,2907.743,934.463,-0.0957742,0.003795021,0.05329169,-0.00267626903951168,-0.391505122184753,0.186546266078949,-0.17448465888317,-0.0750758741803766,0.108014315705644,5
0.580001831054688,-0.029499240219593,2.83188247680664,1.17869818210602,-0.0982762614093182,2.92353085067394,1.20369477754168,2064.279,2986.613,2922.07,929.7526,-0.09339173,0.003715721,0.05874055,-0.0170681066811085,-0.398779273033142,0.194112882018089,-0.185490414529404,-0.0798113433697334,0.11482740272751,5
0.599990844726563,-0.030141431838274,2.82377791404724,1.1827392578125,-0.102095761416081,2.92188742652551,1.20605922999388,2066.271,2983.823,2912.076,939.8,-0.0905038,0.003537234,0.06411005,-0.032110158354044,-0.405231773853302,0.202051877975464,-0.19670480600515,-0.0846365827279185,0.121769645266545,5
0.6199951171875,-0.0310956351459026,2.81556177139282,1.1869410276413,-0.106144683970236,2.92014528826426,1.20856570593183,2073.644,2986.623,2888.656,951.3937,-0.08718178,0.003272265,0.06929389,-0.0477098040282726,-0.410802364349365,0.210088670253754,-0.208134604141382,-0.0895545055543457,0.128845234789665,5
0.639999389648438,-0.0323714055120945,2.80725264549255,1.19130456447601,-0.110424235525481,2.91830391678686,1.21121495220784,2083.55,2990.947,2853.876,970.3953,-0.08358384,0.002941273,0.07414041,-0.0637884140014648,-0.415457993745804,0.218179136514664,-0.219761081350814,-0.0945570538913933,0.136042578028218,5
0.659988403320313,-0.0339758470654488,2.79886937141418,1.19582176208496,-0.114934715429503,2.91636318329238,1.21400715413238,2088.662,3000.997,2827.466,979.6442,-0.08001574,0.002564896,0.07860545,-0.0802222564816475,-0.419166445732117,0.225862145423889,-0.231565018351745,-0.0996359582190702,0.143349777331291,5
0.67999267578125,-0.0359148867428303,2.79043006896973,1.20048630237579,-0.119686638739014,2.91431856344567,1.21694882102647,2086.039,3005.272,2807.016,997.738,-0.07659624,0.002169178,0.08260859,-0.0969518274068832,-0.42196860909462,0.233228892087936,-0.243554411173546,-0.104794659005432,0.150771782621969,6
0.699996948242188,-0.0381927527487278,2.7819516658783,1.2052903175354,-0.124680083855354,2.91217002351282,1.22004000142426,2084.645,3016.004,2796.731,998.587,-0.07353467,0.001758734,0.08619229,-0.113892994821072,-0.423919022083282,0.240202069282532,-0.255710395848158,-0.11002503961202,0.158296916205407,6
0.720001220703125,-0.040812510997057,2.77344965934753,1.21022593975067,-0.129918284978346,2.90991617190799,1.22328269744952,2075.378,3022.017,2797.516,1001.787,-0.0708795,0.00134347,0.08940411,-0.130987972021103,-0.425105154514313,0.246784165501595,-0.268023157655716,-0.11532287703907,0.16591910230247,6
0.739990234375,-0.0437765680253506,2.76493716239929,1.2152886390686,-0.135400001298574,2.90755754251682,1.2266761409821,2065.601,3026.172,2803.636,1002.957,-0.06858971,0.0009269843,0.09229774,-0.148203328251839,-0.425626993179321,0.253132253885269,-0.280473432677602,-0.12067988256057,0.173626415629864,6
0.759994506835938,-0.0470865331590176,2.75642561912537,1.22047400474548,-0.14113644597991,2.90508931062815,1.2302272735046,2056.094,3029.854,2814.435,999.9391,-0.06660672,0.0005078704,0.09494723,-0.16549876332283,-0.425572097301483,0.259269922971725,-0.293070637251543,-0.126100107763583,0.181424685349205,6
0.779998779296875,-0.0507439859211445,2.74792504310608,1.22578418254852,-0.147126184485884,2.90251209348295,1.23393520697061,2051.049,3032.103,2817.068,1002.691,-0.06481708,8.48027E-05,0.09736656,-0.182872384786606,-0.425031632184982,0.265507727861404,-0.305795832832518,-0.131575403921268,0.189302187598958,6
0.79998779296875,-0.0547490976750851,2.73944401741028,1.23121476173401,-0.153366821193532,2.89982692185086,1.2377984583754,2046.693,3037.3,2824.322,996.3126,-0.06324315,-0.0003483415,0.09963159,-0.200255572795868,-0.424057155847549,0.271530777215958,-0.318629798715703,-0.137097500901303,0.197247023847227,6
0.819992065429688,-0.0591023825109005,2.73098969459534,1.2367684841156,-0.159870162197751,2.89702871589906,1.2418243362541,2040.417,3034.823,2822.095,1009.83,-0.0617081,-0.0007765777,0.1016809,-0.217664867639542,-0.422716945409775,0.277683287858963,-0.33158286215529,-0.142670842232658,0.205265587156312,6
0.839996337890625,-0.0638031512498856,2.72256875038147,1.24244368076324,-0.166633637018892,2.89411858163313,1.24601124935738,2043.953,3042.196,2818.622,1004.168,-0.06032166,-0.001212271,0.1035589,-0.235038548707962,-0.421041816473007,0.28375917673111,-0.344636106234817,-0.148287288494656,0.213346167053785,6
0.860000610351563,-0.0688502639532089,2.71418714523315,1.24823951721191,-0.173659158941841,2.89109569582005,1.2503603820997,2040.982,3043.561,2812.778,1013.563,-0.0590524,-0.001641572,0.1052305,-0.252355694770813,-0.419078707695007,0.289790153503418,-0.357780475378537,-0.153942943326036,0.221483157706883,6
0.879989624023438,-0.0742417424917221,2.70584988594055,1.25415301322937,-0.18094280014554,2.88796174849148,1.25486930297274,2040.662,3047.675,2809.104,1015.312,-0.05795891,-0.002062885,0.1067038,-0.269573628902435,-0.416863441467285,0.295673400163651,-0.370996904517929,-0.159629603560431,0.229664756929996,6
0.899993896484375,-0.0799751132726669,2.69756102561951,1.26018154621124,-0.18849723509595,2.8847112861788,1.25954585807468,2037.935,3049.646,2807.198,1020.152,-0.05704012,-0.002466087,0.1079717,-0.286668360233307,-0.414439409971237,0.301429480314255,-0.384296738353309,-0.165352150505452,0.237897987633041,7
0.919998168945313,-0.0860476046800613,2.68932390213013,1.26632499694824,-0.196318384305134,2.8813460641717,1.26438752200817,2039.474,3054.158,2802.55,1021.315,-0.05633811,-0.002852778,0.1090395,-0.303625166416168,-0.411855190992355,0.307174742221832,-0.397661187980262,-0.171102499820431,0.246171218589148,7
0.939987182617188,-0.0924553722143173,2.6811408996582,1.27257752418518,-0.204401181418416,2.87786826238106,1.26939115845832,2037.184,3058.337,2807.338,1016.885,-0.05592478,-0.003221892,0.1099611,-0.32038825750351,-0.409152835607529,0.312625080347061,-0.411071375662203,-0.176872528942697,0.254472763580097,7
0.959991455078125,-0.0991950035095215,2.67301297187805,1.27893912792206,-0.212759000778906,2.87427212620069,1.27456504678061,2031.807,3056.385,2809.748,1025.191,-0.05567711,-0.003557983,0.1107061,-0.336981624364853,-0.406391024589539,0.318082302808762,-0.424539267042903,-0.182667386354485,0.262810029909387,7
0.979995727539063,-0.10626246035099,2.66494083404541,1.28540825843811,-0.22138664033507,2.87055989392801,1.27990596665734,2035.221,3061.779,2813.726,1015.682,-0.05567658,-0.003873834,0.1113352,-0.353373020887375,-0.403609037399292,0.323455452919006,-0.438046240701377,-0.188479059778567,0.271171490030365,7
1,-0.113653600215912,2.65692377090454,1.29198336601257,-0.230284798736574,2.86673126495361,1.28541435058594,2032.136,3061.844,2819.246,1016.819,-0.05586779,-0.004162521,0.1118567,-0.369557499885559,-0.400854974985123,0.328754782676697,-0.451584000205995,-0.194303979492187,0.279552008056641,7
1.01998901367188,-0.121364250779152,2.64896035194397,1.298663854599,-0.239446912293295,2.86278906344998,1.29108613532954,2031.72,3062.38,2824.838,1015.16,-0.05621667,-0.004422445,0.1122839,-0.385533064603806,-0.398167252540588,0.334025025367737,-0.46513400752272,-0.200134169097193,0.287940108062054,7
1.03999328613281,-0.129390031099319,2.64104890823364,1.30544829368591,-0.248887339851819,2.85872711120656,1.2969302096982,2031.132,3062.503,2832.695,1012.001,-0.05669337,-0.004653607,0.1126374,-0.401288568973541,-0.395574688911438,0.339221030473709,-0.478708875293167,-0.205975055460915,0.29634359787259,7
1.05999755859375,-0.137727066874504,2.63318657875061,1.31234085559845,-0.258599401509697,2.85454828239877,1.30294243851408,2035.169,3063.714,2831.249,1013.159,-0.0572569,-0.00485654,0.1128966,-0.416852802038193,-0.393112748861313,0.344625443220139,-0.492290296490434,-0.211818761581115,0.30475114456651,7
1.08000183105469,-0.146370247006416,2.6253707408905,1.31933557987213,-0.268583149539609,2.85025255453512,1.30912285413647,2037.549,3067.529,2841.379,1000.95,-0.0580159,-0.005041364,0.113136,-0.432158529758453,-0.39079087972641,0.34973868727684,-0.50587040849135,-0.217661904390701,0.313157880805523,7
1.09999084472656,-0.155315965414047,2.61759781837463,1.3264387845993,-0.278830554044452,2.84584338265603,1.31546648567654,2035.927,3063.067,2838.895,1015.424,-0.05877863,-0.005184642,0.1132625,-0.447285532951355,-0.388651877641678,0.355158478021622,-0.519431110871131,-0.223496695782555,0.321552601564445,7
1.1199951171875,-0.164558544754982,2.60986423492432,1.33364152908325,-0.289357002179081,2.84131414609862,1.32198285851614,2041.38,3068.982,2854.834,992.5935,-0.05974589,-0.005312474,0.1134044,-0.462130218744278,-0.386681586503983,0.360139101743698,-0.532985466132485,-0.229328756186667,0.329943393154705,8
1.13999938964844,-0.174095347523689,2.60216546058655,1.34095728397369,-0.300154365346813,2.83666834237095,1.3286669406667,2041.779,3063.407,2843.759,1016.069,-0.06063752,-0.005393434,0.1134037,-0.476839482784271,-0.384938269853592,0.365787476301193,-0.546515580872639,-0.235150386571708,0.338319178707607,8
1.15998840332031,-0.183919534087181,2.59449791908264,1.34836935997009,-0.31121353909136,2.83190988886621,1.33551309603608,2051.263,3075.336,2867.804,974.6645,-0.06187588,-0.005476525,0.1135016,-0.4912109375,-0.383379280567169,0.370602011680603,-0.560003743914979,-0.240953966313175,0.346668994161124,8
1.17999267578125,-0.19402939081192,2.58685612678528,1.35589599609375,-0.322550701230474,2.8270318247214,1.34253133946411,2041.059,3059.747,2855.412,1021.469,-0.0628783,-0.005490906,0.113415,-0.505491435527802,-0.382088840007782,0.376331955194473,-0.573463232144024,-0.246745208083563,0.355001058539242,8
1.19999694824219,-0.204417824745178,2.57923626899719,1.36351883411407,-0.334156660511822,2.8220381046756,1.34971598112778,2061.002,3078.6,2882.216,960.2286,-0.06427912,-0.005521798,0.1134766,-0.519421696662903,-0.380992949008942,0.381140500307083,-0.58687652428584,-0.252516572968185,0.36330452533874,8
1.22000122070313,-0.215083748102188,2.57163238525391,1.3712602853775,-0.346030421585499,2.81692915700008,1.35706640485806,2048.659,3060.797,2864.244,1017.891,-0.06539179,-0.005482384,0.1133437,-0.533296704292297,-0.380196750164032,0.387074172496796,-0.600236516861372,-0.258265004538453,0.371574997167698,8
1.239990234375,-0.226019352674484,2.56404066085815,1.37909412384033,-0.358161486344149,2.81170949873715,1.36457611182642,2067.925,3081.087,2902.181,944.4706,-0.06696305,-0.00546747,0.1134269,-0.546780169010162,-0.379592210054398,0.391693234443665,-0.613526094901141,-0.263983138701136,0.379801879044709,8
1.25999450683594,-0.237225130200386,2.55645442008972,1.38705253601074,-0.3705671011502,2.80637170925886,1.37225577835275,2051.276,3056.081,2875.992,1023.537,-0.0680411,-0.005364139,0.1132511,-0.560289144515991,-0.379316955804825,0.397917836904526,-0.626758665639206,-0.269676744214496,0.387993470686331,8
1.27999877929688,-0.248692333698273,2.5488703250885,1.39510190486908,-0.383236695417198,2.80092033679326,1.3800988607405,2081.957,3086.452,2920.505,921.4016,-0.06970984,-0.005312474,0.1133788,-0.573361456394196,-0.379209190607071,0.40247043967247,-0.639917282339435,-0.275338529371412,0.396139281255613,8
1.29998779296875,-0.26042315363884,2.54128122329712,1.40328431129456,-0.396158759015336,2.79536033382764,1.388098233671,2058.921,3054.595,2880.623,1028.735,-0.07074101,-0.005159076,0.113177,-0.586540997028351,-0.379459589719772,0.409119665622711,-0.652985332144132,-0.280961346123326,0.404229026602261,8
1.31999206542969,-0.272406786680222,2.53368473052979,1.41154897212982,-0.409351342777246,2.78968393359302,1.39626507146953,2091.377,3091.022,2947.431,894.9086,-0.07253812,-0.005078648,0.1134038,-0.599180221557617,-0.379825532436371,0.413231730461121,-0.665976209205206,-0.286550957599616,0.412270998344359,8
1.33999633789063,-0.284648984670639,2.52607274055481,1.41996276378632,-0.422802873722428,2.78389611561957,1.40459220990988,2063.027,3046.872,2878.302,1052.172,-0.0733344,-0.004860802,0.1131166,-0.612113416194916,-0.380602896213531,0.420690834522247,-0.678873453515705,-0.29210028151913,0.420255006953505,8
1.36000061035156,-0.297135144472122,2.51844477653503,1.42844581604004,-0.436511415158101,2.77799771321212,1.41307845008695,2113.053,3105.644,2975.849,844.3121,-0.07537811,-0.004778776,0.1135054,-0.624306499958038,-0.38139995932579,0.424155205488205,-0.691670720740693,-0.297606588091785,0.42817712498415,9
1.37998962402344,-0.309875994920731,2.51079082489014,1.43709671497345,-0.450464156928423,2.77199423822282,1.42171586190405,2058.512,3033.455,2872.473,1094.037,-0.0758676,-0.004491155,0.1131082,-0.637040853500366,-0.382692784070969,0.432544648647308,-0.704352136620515,-0.303063047067127,0.436027525513373,9
1.39999389648438,-0.322851240634918,2.50311350822449,1.44579613208771,-0.464680216184654,2.76587746507559,1.43051627978847,2133.584,3120.807,3017.127,780.9821,-0.07817923,-0.004414456,0.113713,-0.648763120174408,-0.383863478899002,0.434969484806061,-0.716930938559026,-0.308475354130225,0.443814403124744,9
1.41999816894531,-0.336079508066177,2.49540019035339,1.45469498634338,-0.47914673136562,2.75965292774086,1.43947174182117,2053.589,3015.277,2852.371,1156.831,-0.07814354,-0.004044276,0.1131227,-0.661415219306946,-0.385666251182556,0.444940686225891,-0.729391385793766,-0.313836736470737,0.451528013536465,9
1.43998718261719,-0.349531531333923,2.48765754699707,1.4636105298996,-0.49384995777978,2.75332654017544,1.44857373938334,2166.783,3149.355,3066.024,682.2455,-0.08094891,-0.004012851,0.1140593,-0.67260205745697,-0.387130230665207,0.445778518915176,-0.741718206886022,-0.319140623215221,0.459158903000492,9
1.45999145507813,-0.363236844539642,2.47986888885498,1.47276520729065,-0.508809800712713,2.74688973769103,1.45783459479497,2032.061,2984.315,2822.69,1259.36,-0.08017872,-0.003536145,0.1131906,-0.685265719890594,-0.389436036348343,0.457736015319824,-0.753924423002454,-0.324392617007921,0.466715132239272,9
1.47999572753906,-0.377153903245926,2.47204685211182,1.48189282417297,-0.524012471663969,2.74034845309416,1.46724577231745,2207.833,3185.841,3129.961,551.0168,-0.08360568,-0.003572897,0.1145536,-0.69585245847702,-0.391098469495773,0.456381142139435,-0.765994882555672,-0.329586198544069,0.474187321698441,9
1.5,-0.391327738761902,2.46416854858398,1.49131953716278,-0.539455198877605,2.73370387899399,1.4768055561018,2007.136,2946.238,2765.477,1401.597,-0.08184001,-0.002967294,0.1132628,-0.708694219589233,-0.39392077922821,0.471333593130112,-0.777924000354858,-0.334718964672088,0.481572013878822,9
1.51998901367188,-0.405697733163834,2.45625567436218,1.50064718723297,-0.555123050061237,2.72696244033876,1.48650470234772,2257.975,3238.887,3223.471,360.701,-0.0863008,-0.003121757,0.1152721,-0.718498110771179,-0.395642876625061,0.466384649276733,-0.789697369743256,-0.339784716610053,0.488860290373601,9
1.53999328613281,-0.420333176851273,2.44827508926392,1.51036298274994,-0.571036956668503,2.72011513090874,1.49635616862212,1955.333,2882.625,2676.986,1630.475,-0.08296865,-0.002314819,0.1133061,-0.731772661209106,-0.399032950401306,0.485789149999619,-0.801327600455846,-0.344788879974649,0.496059957209413,9
1.55999755859375,-0.435144484043121,2.44026231765747,1.51987504959106,-0.587181951496087,2.71316839067337,1.50635068951315,2335.318,3321.39,3352.573,73.35845,-0.08896875,-0.002655704,0.116256,-0.740565419197083,-0.40063750743866,0.475604057312012,-0.812800388649436,-0.349725300221754,0.503162159625937,9
1.58000183105469,-0.450237333774567,2.43216824531555,1.52990996837616,-0.60355483331529,2.70612359703193,1.51648628330776,1877.791,2793.614,2528.161,1974.843,-0.08339476,-0.00156008,0.1132713,-0.754641711711884,-0.404699951410294,0.501743376255035,-0.824110582941666,-0.354591760855452,0.510163708672098,9
1.59999084472656,-0.465492188930511,2.42403864860535,1.53970563411713,-0.620139554045575,2.69898765502515,1.52675301547962,2161.296,3653.992,3267.958,0,-0.08952482,-0.001035437,0.1181665,-0.762743413448334,-0.406484723091125,0.4897820353508,-0.835244706287931,-0.359382463079953,0.517056261415284,9
1.6199951171875,-0.481027632951736,2.41582632064819,1.55001926422119,-0.636958033083316,2.69175113334911,1.53716445517924,1938.134,2604.951,2447.405,2192.385,-0.0828813,0.0009516863,0.1146631,-0.776776075363159,-0.410613059997559,0.515680134296417,-0.846214826007804,-0.364102599125749,0.523847288101157,9
1.63999938964844,-0.496718376874924,2.40758228302002,1.56007051467896,-0.653994195024907,2.68442094880091,1.54771065096602,2190.388,3668.098,3234.867,0,-0.08880417,0.00234422,0.1189595,-0.784535765647888,-0.412197172641754,0.502561151981354,-0.857007552155828,-0.368746407673381,0.530528499715628,9
1.65998840332031,-0.512681126594543,2.39926433563232,1.57061111927032,-0.67123120513297,2.67700434489773,1.55838118133557,2043.207,2536.834,2476.654,2137.284,-0.08272311,0.004890317,0.1142892,-0.798137962818146,-0.415899753570557,0.527029275894165,-0.867610144209785,-0.373308406832068,0.537092009268528,9
1.67999267578125,-0.528792977333069,2.39091825485229,1.58090841770172,-0.688691692550512,2.66949158495151,1.56919005480539,2187.632,3692.876,3226.287,0,-0.08910032,0.006863019,0.1175563,-0.805589139461517,-0.417300313711166,0.514863610267639,-0.878034183119987,-0.377793579561193,0.543544985919778,9
1.69999694824219,-0.545156240463257,2.38250517845154,1.59162759780884,-0.706358800111611,2.66188992212981,1.58012683598675,2118.807,2525.034,2608.656,1943.506,-0.08494206,0.009592,0.1124915,-0.818170249462128,-0.420649439096451,0.535959482192993,-0.888267004546665,-0.382196476749158,0.549879589839776,9
1.72000122070313,-0.56166273355484,2.37406253814697,1.60213422775269,-0.724228658537036,2.6542010212754,1.5911891296115,2229.526,3594.041,3296.281,0,-0.09191634,0.0115758,0.1146584,-0.825319707393646,-0.422134846448898,0.525331020355225,-0.898304216251578,-0.386515208538549,0.556093102023817,9
1.739990234375,-0.57840096950531,2.36555051803589,1.61301398277283,-0.74228345468553,2.64643254688532,1.60236590849663,2135.395,2572.234,2778.433,1711.138,-0.08940924,0.01401875,0.1099413,-0.836914956569672,-0.425605475902557,0.543988943099976,-0.908134108040217,-0.390744736359816,0.562178273303667,9
1.75999450683594,-0.595277726650238,2.35699915885925,1.62371957302094,-0.760546715064628,2.63857437616062,1.61367173667103,2249.285,3496.535,3384.106,0,-0.09629884,0.01559483,0.111878,-0.84383624792099,-0.427562743425369,0.535278916358948,-0.917767514700581,-0.394889722119545,0.568141810929231,9
1.77999877929688,-0.612374126911163,2.34836745262146,1.63478589057922,-0.779000609654483,2.63063418086074,1.62509557650306,2125.531,2629.914,2884.569,1557.937,-0.09410173,0.01749641,0.1081306,-0.85482382774353,-0.431589543819427,0.553316056728363,-0.927192788821983,-0.398945154262308,0.57397650459845,9
1.79998779296875,-0.62960559129715,2.33968472480774,1.64570260047913,-0.797626646773287,2.62261991743975,1.63662598076079,2277.266,3426.554,3430.755,0,-0.1002494,0.01843628,0.1105587,-0.861572086811066,-0.434136748313904,0.545836746692657,-0.936399026186941,-0.402906341007953,0.579675604081262,9
1.81999206542969,-0.647052347660065,2.33090925216675,1.65699124336243,-0.816448984455027,2.61452119137054,1.64827790441807,2096.181,2670.765,2896.677,1535.884,-0.0971143,0.01976947,0.1077868,-0.872341632843018,-0.438777595758438,0.564431726932526,-0.945396434568188,-0.406777674475912,0.585245428475252,9
1.83999633789063,-0.664630532264709,2.32207560539246,1.66813313961029,-0.835449117627072,2.60634596486888,1.66003989195343,2305.944,3403.996,3425.717,0,-0.1022595,0.02010281,0.110943,-0.878910660743713,-0.441683977842331,0.557096421718597,-0.954174163352093,-0.410554485950274,0.590679260733698,9
1.86000061035156,-0.682425260543823,2.31314206123352,1.67967474460602,-0.854622615239374,2.59809614449182,1.6719092003358,2073.959,2694.218,2822.219,1612.959,-0.09773801,0.02100948,0.1087035,-0.889736831188202,-0.446681082248688,0.577080488204956,-0.962728579444532,-0.414235212212131,0.595974851798267,9
1.87998962402344,-0.700345635414124,2.30415081977844,1.69104766845703,-0.873950157556149,2.58978004298193,1.6838738697284,2305.453,3443.242,3385.761,0,-0.102276,0.02098912,0.1125952,-0.896015107631683,-0.449564903974533,0.568646728992462,-0.971049893464309,-0.417815641164241,0.601126141575667,9
1.89999389648438,-0.718484938144684,2.29506063461304,1.70284128189087,-0.893456683142228,2.58138692997148,1.69594933829086,2051.152,2680.076,2729.514,1748.002,-0.09652201,0.02176407,0.1103806,-0.906962037086487,-0.454513996839523,0.589682102203369,-0.979147395688901,-0.421299770153459,0.606138881190213,9
1.91999816894531,-0.736744105815887,2.28591918945313,1.71444141864777,-0.913122862707269,2.57292512231409,1.70812364027167,2293.848,3504.791,3336.28,0,-0.1008081,0.02170679,0.1146631,-0.912958204746246,-0.457059234380722,0.580008745193481,-0.987011339258123,-0.424683405378145,0.611007036871143,9
1.93998718261719,-0.755222618579865,2.27668762207031,1.72646832466125,-0.932928814964021,2.56440317437226,1.72038446820694,2052.331,2652.741,2661.338,1847.729,-0.09450973,0.02256411,0.1121347,-0.923930943012238,-0.461596250534058,0.601346135139465,-0.994632798067981,-0.427962706185118,0.615725082934877,9
1.95999145507813,-0.773815453052521,2.26741528511047,1.73827600479126,-0.952900013794853,2.55581012544606,1.73274759164336,2272.885,3547.762,3316.112,0,-0.09889649,0.02265967,0.1164193,-0.929638028144836,-0.463611930608749,0.590386509895325,-1.00202031904361,-0.431141350077486,0.620298310335216,9
1.97999572753906,-0.792626202106476,2.25806403160095,1.75051021575928,-0.973016570682103,2.54715453300902,1.74520069864106,2061.849,2622.094,2637.239,1897.811,-0.09247827,0.02369316,0.1134066,-0.940542161464691,-0.467568576335907,0.611713647842407,-1.00916501115878,-0.434215511495054,0.624721215103391,9
2,-0.811546802520752,2.24868249893188,1.7625185251236,-0.993273599084619,2.53843849960327,1.7577407641983,2251.828,3586.888,3300.234,0,-0.09702748,0.02401798,0.1175044,-0.946024179458618,-0.46906778216362,0.600418150424957,-1.01606400046349,-0.437183953857422,0.628992018127441,9
2.01998901367188,-0.830678880214691,2.23923492431641,1.77493143081665,-1.01365055070775,2.52967086658596,1.77035506794184,2080.067,2597.704,2660.825,1879.945,-0.09096826,0.02520198,0.1141845,-0.95660787820816,-0.472386807203293,0.620648205280304,-1.02270954399163,-0.440043345582587,0.633105926142498,9
2.03999328613281,-0.849916338920593,2.22976684570313,1.78711628913879,-1.03417354141348,2.52084039703127,1.78305977683431,2257.745,3560.017,3322.077,0,-0.09558618,0.0256129,0.1178047,-0.961872160434723,-0.473398268222809,0.60924369096756,-1.02910913225408,-0.442796909628122,0.637067576131623,9
2.05999755859375,-0.869358599185944,2.22024297714233,1.79969656467438,-1.05482201812353,2.5119559343546,1.79584216754118,2094.109,2602.369,2693.616,1825.822,-0.08982629,0.02678065,0.1142584,-0.972112894058228,-0.476190626621246,0.629011392593384,-1.03525504859546,-0.445441325732794,0.640872191117535,9
2.08000183105469,-0.888901054859161,2.21070599555969,1.81205654144287,-1.07559088172821,2.50301967256038,1.80869908347065,2251.213,3557.618,3327.475,0,-0.09444315,0.02716104,0.1176704,-0.977126240730286,-0.476850807666779,0.618001997470856,-1.04114485287423,-0.447975543971863,0.644518260536375,9
2.09999084472656,-0.908638954162598,2.20112156867981,1.82479357719421,-1.09645901288412,2.49404069871208,1.82161745074311,2095.84,2607.394,2724.238,1779.75,-0.08892987,0.0282295,0.1141865,-0.986896395683289,-0.479223012924194,0.636849880218506,-1.04677201701582,-0.450396755497224,0.648001743199023,9
2.1199951171875,-0.92847090959549,2.19153022766113,1.83730781078339,-1.11745308225396,2.48500753716864,1.83461377976925,2263.183,3515.543,3350.216,0,-0.09340078,0.0284286,0.1173861,-0.991592645645142,-0.479559689760208,0.625712692737579,-1.0521429102862,-0.45270770082608,0.651326581984514,9
2.13999938964844,-0.948491275310516,2.18189811706543,1.85020267963409,-1.138551967509,2.47592927627801,1.8476749948214,2087.027,2624.713,2724.528,1762.012,-0.08770801,0.02930874,0.1139195,-1.00102186203003,-0.481619626283646,0.644743502140045,-1.05725102347782,-0.454905579228273,0.654488747383304,8
2.15998840332031,-0.968598186969757,2.17226433753967,1.86287307739258,-1.15973418543027,2.46681515966915,1.86078779676364,2250.614,3529.902,3336.807,0,-0.09200796,0.02934077,0.1172701,-1.00534558296204,-0.481685906648636,0.633522748947144,-1.06209075728,-0.456987981476842,0.657484773155346,8
2.17999267578125,-0.988885343074799,2.16259598731995,1.87591552734375,-1.18102676265167,2.45765355853653,1.8739689163698,2070.813,2622.243,2711.542,1780.532,-0.08605099,0.03009325,0.1139193,-1.01435804367065,-0.48341229557991,0.652120232582092,-1.06666760390386,-0.458957270716794,0.660318059240953,8
2.19999694824219,-1.00925087928772,2.15293335914612,1.88872170448303,-1.20240821395574,2.44845371736898,1.88720505326679,2262.441,3510.494,3331.29,0,-0.09015279,0.02994141,0.1172244,-1.01827871799469,-0.483127593994141,0.640310883522034,-1.07097597819164,-0.460811043810786,0.662985148161421,7
2.22000122070313,-1.02979016304016,2.14324331283569,1.90190577507019,-1.22387315175433,2.43921795429519,1.90049287228091,2058.063,2629.988,2676.914,1808.234,-0.0838672,0.03056099,0.1137765,-1.02696335315704,-0.484488159418106,0.659203171730042,-1.07501419914593,-0.462548577472581,0.665484999299265,7
2.239990234375,-1.05039823055267,2.13356709480286,1.91483771800995,-1.24539969505118,2.42995568409656,1.91381882803312,2239.639,3537.43,3311.709,0,-0.08793438,0.03032481,0.1172304,-1.03040492534637,-0.483826041221619,0.646595656871796,-1.07877792518082,-0.464168003639063,0.667814925005999,5
2.25999450683594,-1.07117247581482,2.12387180328369,1.92814552783966,-1.26701526177039,2.4206551096063,1.92719989352455,2041.273,2614.968,2644.13,1858.91,-0.08132495,0.03092504,0.1136575,-1.03870689868927,-0.484765112400055,0.665390193462372,-1.08227143928024,-0.465671165158559,0.669977576652695,5
2.27999877929688,-1.09200596809387,2.11419820785522,1.94118630886078,-1.28869796983554,2.41132564607061,1.9406225227075,2231.473,3549.23,3292.407,0,-0.08534899,0.03067357,0.1170813,-1.04167938232422,-0.483680695295334,0.652037084102631,-1.08549040888332,-0.467056197851165,0.67197027217779,2
2.29998779296875,-1.112997174263,2.10451531410217,1.95460045337677,-1.31042570636616,2.40197680804417,1.95407302665558,2037.071,2604.627,2613.308,1889.699,-0.07860906,0.03127719,0.1132758,-1.04955744743347,-0.484146744012833,0.67070734500885,-1.08843144721369,-0.468321644481621,0.673790915005368,0
2.31999206542969,-1.13403713703156,2.09486293792725,1.96772921085358,-1.33222611841886,2.3925966997709,1.96756852021384,2211.221,3562.646,3282.357,0,-0.08271086,0.03105278,0.1166302,-1.05200564861298,-0.482623875141144,0.656438589096069,-1.09109790637238,-0.469468947365361,0.675441580245663,0
2.33999633789063,-1.15522575378418,2.08521056175232,1.98123037815094,-1.35407709248145,2.38319483607731,1.98109531406483,2031.679,2589.142,2588.897,1919.555,-0.07586121,0.03169197,0.1125392,-1.05942630767822,-0.482622444629669,0.675058007240295,-1.09348640563071,-0.470496651869278,0.67692017506657,0
2.36000061035156,-1.17645287513733,2.07559657096863,1.99443590641022,-1.37597305876702,2.37377361348711,1.99464996024512,2192.375,3584.866,3261.279,0,-0.0800674,0.03153213,0.1158097,-1.06135702133179,-0.480705142021179,0.660278677940369,-1.09559602313537,-0.471404361345641,0.678226128796969,0
2.37998962402344,-1.19781625270844,2.06599187850952,2.00799798965454,-1.39789168475144,2.36434264106153,2.00821863385843,2028.41,2571.885,2583.717,1926.769,-0.07334452,0.03220936,0.1115247,-1.06817138195038,-0.480240374803543,0.678106486797333,-1.09742465646102,-0.47219117117957,0.679358139935436,0
2.39999389648438,-1.2192075252533,2.0564329624176,2.02125287055969,-1.41986083522252,2.35488992936084,2.02181858453579,2190.064,3566.99,3263.504,0,-0.07761943,0.03204681,0.1145165,-1.06956887245178,-0.47794646024704,0.662744641304016,-1.09897439291323,-0.472857979480329,0.680317500623536,0
2.41999816894531,-1.24072337150574,2.04689121246338,2.0348596572876,-1.44185817738692,2.34542508756209,2.03543598721428,2024.519,2570.901,2579.032,1918.12,-0.07097537,0.03268242,0.1100177,-1.07579123973846,-0.477088034152985,0.680341958999634,-1.10024313330221,-0.473403883025206,0.681102911362803,0
2.43998718261719,-1.26225614547729,2.03740072250366,2.0481550693512,-1.46386128162322,2.33595776650478,2.04905695688976,2174.415,3577.263,3249.211,0,-0.07534508,0.03249115,0.1129225,-1.07664108276367,-0.474508285522461,0.664770126342773,-1.10122974390336,-0.473828394004169,0.681713670323692,0
2.45999145507813,-1.28389930725098,2.02793455123901,2.06178450584412,-1.48589810917879,2.32647593524532,2.06269880290633,2011.722,2563.494,2584.163,1911.648,-0.06883952,0.03307432,0.1084019,-1.0821590423584,-0.473316580057144,0.681471109390259,-1.10193535162022,-0.474131997292339,0.68215047511319,0
2.47999572753906,-1.30554866790771,2.01852488517761,2.07509565353394,-1.50794623031618,2.31698924467309,2.07634764018804,2184.271,3545.85,3250.863,0,-0.07320337,0.03275885,0.1110719,-1.08246552944183,-0.470479816198349,0.665563464164734,-1.10235882472314,-0.474314205938057,0.682412625136718,0
2.5,-1.32729578018188,2.00914430618286,2.08873796463013,-1.52999999932945,2.30750012397766,2.08999997377396,1999.17,2574.789,2574.764,1901.979,-0.06672976,0.03320203,0.1064942,-1.08735132217407,-0.469029664993286,0.68211841583252,-1.10250000050292,-0.474374949932098,0.682500019669533,0
2.51998901367188,-1.34903717041016,1.99982440471649,2.10205245018005,-1.5520369476803,2.29801824074336,2.10364189456856,2166.653,3549.042,3243.449,0,-0.07112984,0.03276174,0.1092091,-1.08706569671631,-0.465993940830231,0.665719509124756,-1.10235904000526,-0.474314298567936,0.682412758406603,0
2.53999328613281,-1.37086367607117,1.99053776264191,2.11569404602051,-1.57408507527774,2.28853154739156,2.11729073584934,1976.125,2570.102,2557.703,1925.491,-0.06447832,0.03311159,0.1046434,-1.09133470058441,-0.464333653450012,0.682084619998932,-1.10193578218388,-0.474132182551855,0.682150741652607,0
2.55999755859375,-1.39267337322235,1.98131585121155,2.12899780273438,-1.59612191359838,2.27904971150017,2.13093258853001,2161.351,3546.557,3229.186,0,-0.06880011,0.0325672,0.107381,-1.09048044681549,-0.461100965738297,0.665183424949646,-1.10123038958312,-0.473828671822132,0.681714070030222,0
2.57998657226563,-1.41455662250519,1.97213125228882,2.14262866973877,-1.61812503288753,2.26958238396605,2.14455356752391,1962.424,2567.641,2526.508,1951.875,-0.06195791,0.03283557,0.1027538,-1.09416484832764,-0.459217548370361,0.681547284126282,-1.1002439936861,-0.473404253224357,0.681103443981416,0
2.59999084472656,-1.43641066551208,1.96301603317261,2.15590381622314,-1.64012239440973,2.26011753383818,2.15817098218581,2144.486,3552.439,3217.227,0,-0.06628182,0.032229,0.1055407,-1.09270250797272,-0.455763280391693,0.663759291172028,-1.09897546783438,-0.47285844198887,0.680318166050934,0
2.6199951171875,-1.458327293396,1.95394325256348,2.16951107978821,-1.66209156852628,2.2506648119635,2.17177094750084,1947.019,2556.108,2488.621,1996.465,-0.05915573,0.03247174,0.1007418,-1.09583735466003,-0.453640192747116,0.680363237857819,-1.09742594550583,-0.472191725819537,0.679358937915576,0
2.63999938964844,-1.48020303249359,1.94494414329529,2.18274998664856,-1.68402693989188,2.24122663446822,2.18534998730279,2124.878,3578.558,3187.791,0,-0.06353503,0.03188424,0.103585,-1.09378564357758,-0.449962049722672,0.66195148229599,-1.09559602313537,-0.471404361345641,0.67822612879697,0
2.65998840332031,-1.50212848186493,1.93599307537079,2.19631052017212,-1.70590622088595,2.23181259109281,2.19889430449282,1935.905,2537.083,2465.592,2027.647,-0.05636953,0.03215458,0.09863541,-1.09627032279968,-0.447557598352432,0.678027451038361,-1.09348812118877,-0.470497390025984,0.676921237078733,0
2.67999267578125,-1.52400100231171,1.92712044715881,2.20948791503906,-1.72775723139253,2.2224107117184,2.21242112090437,2120.82,3567.832,3180.665,0,-0.06082074,0.03157195,0.1012892,-1.09363222122192,-0.443633615970612,0.658866465091705,-1.09109983431736,-0.469469776906228,0.675442773735451,0
2.69999694824219,-1.54591071605682,1.91830134391785,2.22298502922058,-1.74955768413056,2.21303058593937,2.22591663964878,1927.987,2531.477,2448.241,2037.99,-0.05366216,0.03182612,0.09611112,-1.09547889232635,-0.440961569547653,0.674858093261719,-1.08843358680109,-0.468322565086308,0.673792239511893,0
2.72000122070313,-1.56775593757629,1.90956425666809,2.23609280586243,-1.77130202882336,2.20367460188472,2.23937742484041,2103.172,3583.631,3160.319,0,-0.05825665,0.03125469,0.09870316,-1.09226012229919,-0.436846911907196,0.655394732952118,-1.08549040888332,-0.467056197851165,0.671970272177789,0
2.739990234375,-1.5896235704422,1.90088486671448,2.24950528144836,-1.79296822271738,2.1943522439355,2.25278983096475,1915.791,2521.289,2445.323,2040.316,-0.05127437,0.03149533,0.09346707,-1.09337329864502,-0.433951616287231,0.670622289180756,-1.08227399942825,-0.465672266718727,0.669979161506271,0
2.75999450683594,-1.61141514778137,1.89229154586792,2.26251816749573,-1.81458384274179,2.18505164650952,2.26617092945464,2103.958,3556.569,3164.826,0,-0.05593863,0.0308626,0.09585607,-1.08957767486572,-0.429675310850143,0.650644898414612,-1.07878069424208,-0.464169195088763,0.667816639186824,0
2.77999877929688,-1.63321566581726,1.88375926017761,2.27583599090576,-1.83612684690458,2.17578229366013,2.27950707526701,1901.973,2525.26,2436.299,2038.174,-0.04895742,0.03101739,0.09052697,-1.09003031253815,-0.426622718572617,0.665886640548706,-1.07501419914593,-0.462548577472581,0.665484999299265,0
2.79998779296875,-1.65492904186249,1.87531423568726,2.28875088691711,-1.85757544288233,2.1665535620153,2.29278477791556,2087.595,3567.447,3147.653,0,-0.05367441,0.03032191,0.09296013,-1.08566963672638,-0.422247588634491,0.645743429660797,-1.07097916161324,-0.460812413548163,0.662987118851036,0
2.81999206542969,-1.67663741111755,1.86693286895752,2.3019585609436,-1.87895695992541,2.1573536925621,2.30602095550813,1881.789,2518.764,2430.19,2047.553,-0.04669107,0.03041302,0.0877011,-1.08541703224182,-0.419069081544876,0.660381317138672,-1.06667099276523,-0.458958728849171,0.660320157107579,0
2.83999633789063,-1.6982479095459,1.85864114761353,2.3147554397583,-1.90024960698239,2.14819206138118,2.31920211834584,2097.722,3538.538,3144.218,0,-0.05136545,0.02959311,0.09000302,-1.08051896095276,-0.414589077234268,0.639844536781311,-1.06209435025759,-0.456989527434725,0.657486997379635,0
2.86000061035156,-1.71984076499939,1.85041522979736,2.32784748077393,-1.9214480311499,2.13907097167731,2.33232495272651,1864.88,2527.787,2409.055,2055.299,-0.04428997,0.02956004,0.08471084,-1.07964313030243,-0.411297619342804,0.65460479259491,-1.05725102347782,-0.454905579228273,0.654488747383304,0
2.87998962402344,-1.74132454395294,1.842280626297,2.34051871299744,-1.94253086194772,2.12999961857111,2.34537622930486,2080.094,3547.129,3129.881,0,-0.0489979,0.02864396,0.08711182,-1.07418823242188,-0.406726658344269,0.633559465408325,-1.05214690704168,-0.452709420518306,0.651329056166547,0
2.89999389648438,-1.76277875900269,1.83421409130096,2.35348391532898,-1.96352501326936,2.1209664217661,2.35837260906308,1840.666,2520.526,2384.541,2089.295,-0.04172108,0.02854865,0.08182799,-1.0727037191391,-0.403324276208878,0.64825713634491,-1.04677621342161,-0.450398561093403,0.648004340974112,0
2.91999816894531,-1.78411316871643,1.82624137401581,2.36601781845093,-1.98440911693069,2.11198057539494,2.37130086407726,2075.658,3545.287,3113.179,0,-0.04639653,0.02756722,0.08424837,-1.0667290687561,-0.398640304803848,0.626697063446045,-1.04114485287423,-0.447975543971863,0.644518260536375,0
2.93998718261719,-1.80540633201599,1.81833934783936,2.3788468837738,-2.00516218376194,2.10305111051103,2.38414800105147,1826.254,2516.421,2353.542,2117.436,-0.0389743,0.02742043,0.07889168,-1.06466150283813,-0.395092785358429,0.641451001167297,-1.03525963910674,-0.445443300901551,0.640875032862689,0
2.95999145507813,-1.82656943798065,1.81053400039673,2.3912296295166,-2.02581075424974,2.0941666074844,2.39693044981124,2060.154,3550.069,3100.591,0,-0.04369874,0.02641058,0.08134059,-1.05815732479095,-0.390274882316589,0.619133234024048,-1.02911391720548,-0.442798968459032,0.637070538244476,0
2.97999572753906,-1.84767985343933,1.80280256271362,2.40391087532043,-2.04633384260397,2.08533609591429,2.40963521915279,1810.844,2505.636,2322.331,2154.048,-0.03609276,0.02625126,0.0758458,-1.05552649497986,-0.386567294597626,0.634068250656128,-1.02271452148052,-0.440045487257004,0.633109007445237,0
3,-1.86865043640137,1.79517018795013,2.4161365032196,-2.06672639957428,2.07656174835205,2.42225918334961,2045.042,3566.634,3076.164,0,-0.04089657,0.02526396,0.07831692,-1.04851973056793,-0.38161313533783,0.61127781867981,-1.01606400046349,-0.437183953857422,0.628992018127441,0
3.01998901367188,-1.88955557346344,1.78761601448059,2.42865204811096,-2.0869680292999,2.06785234056679,2.43478971639231,1797.543,2491.813,2304.918,2176.401,-0.03330176,0.02512334,0.07272912,-1.04526925086975,-0.377728015184402,0.625779032707214,-1.00917036754089,-0.434217816196637,0.624724530959079,0
3.03999328613281,-1.91031122207642,1.78016304969788,2.44070053100586,-2.10708469520508,2.05919670122237,2.4472428908773,2042.807,3552.015,3070.93,0,-0.03817482,0.02413253,0.07504162,-1.03777325153351,-0.372636198997498,0.602427244186401,-1.00202586176059,-0.431143734953757,0.620301741541063,0
3.05999755859375,-1.93098926544189,1.77279114723206,2.45303893089294,-2.12705600675913,2.05060360379452,2.45960608409476,1786.084,2490.246,2290.163,2183.369,-0.03059226,0.02396254,0.06931825,-1.03391885757446,-0.368593901395798,0.616924941539764,-0.994638524886308,-0.427965170275055,0.615728628108227,0
3.07998657226563,-1.95150828361511,1.76552295684814,2.46490597724915,-2.14686207530873,2.04208160581513,2.47186698402085,2029.413,3560.453,3053.541,0,-0.0355777,0.02296207,0.07160664,-1.02594029903412,-0.363402396440506,0.593357145786285,-0.987017247723776,-0.424685947625853,0.611010694492843,0
3.09999084472656,-1.97193694114685,1.75833833217621,2.4770519733429,-2.16652837486666,2.03361974652815,2.48404136028297,1767.444,2484.278,2285.44,2189.912,-0.02808463,0.02276941,0.06589916,-1.02144038677216,-0.359238564968109,0.607298076152802,-0.979153483542501,-0.421302389586788,0.606142649861596,0
3.1199951171875,-1.99219703674316,1.75125908851624,2.48872065544128,-2.18603502400946,2.02522658035469,2.49611690533293,2036.273,3534.438,3050.893,0,-0.03310576,0.02169625,0.06803361,-1.01300621032715,-0.35396882891655,0.583429336547852,-0.971056158224178,-0.417818336715394,0.601130019760458,0
3.13999938964844,-2.01235556602478,1.74426460266113,2.5006685256958,-2.20537738341953,2.01690410346351,2.50809074721212,1751.092,2492.862,2272.208,2189.698,-0.02563878,0.02141131,0.06231286,-1.00790905952454,-0.349718451499939,0.597397565841675,-0.962728579444533,-0.414235212212131,0.595974851798267,0
3.15998840332031,-2.03233551979065,1.73737692832947,2.51213145256042,-2.22453632143911,2.00866054767245,2.51995104251302,2022.532,3534.045,3042.263,0,-0.03072382,0.0202606,0.06450303,-0.999014735221863,-0.344400763511658,0.573151111602783,-0.954180774018563,-0.410557330335374,0.590683353051152,0
3.17999267578125,-2.0522027015686,1.7305748462677,2.52387356758118,-2.24353658854737,2.00048526354177,2.53171311296128,1726.978,2489.911,2254.201,2213.092,-0.02312583,0.01991211,0.05883205,-0.99335378408432,-0.340089052915573,0.587109923362732,-0.945403214201559,-0.406780591562751,0.585249625391267,0
3.19999694824219,-2.07188367843628,1.72388076782227,2.53512334823608,-2.2623590635174,1.99238647840124,2.54336512160655,2019.085,3528.137,3028.948,0,-0.02818104,0.01869402,0.06105942,-0.984039843082428,-0.334715992212296,0.562489032745361,-0.936405971974636,-0.402909329586355,0.579679903854719,0
3.22000122070313,-2.09144043922424,1.71727430820465,2.54665470123291,-2.28099938900442,1.98436606709459,2.55490437104486,1710.844,2488.422,2226.558,2237.09,-0.02044189,0.01828483,0.05538277,-0.977853178977966,-0.330317080020905,0.576564967632294,-0.927192788821982,-0.398945154262308,0.573976504598449,0
3.239990234375,-2.11080312728882,1.71077704429626,2.55768179893494,-2.2994392795179,1.97643189735754,2.5663195416865,2010.386,3527.701,3015.066,0,-0.02553332,0.01702144,0.0576471,-0.968130886554718,-0.32486754655838,0.551354944705963,-0.917774783907129,-0.394892849856044,0.568146310914365,0
3.25999450683594,-2.13003206253052,1.70436954498291,2.56899189949036,-2.31770268688992,1.96857366338589,2.57762546085652,1690.331,2481.428,2200.743,2269.511,-0.01762533,0.01658484,0.05191388,-0.961437165737152,-0.320359259843826,0.565506935119629,-0.90814153446928,-0.390747931744771,0.562182870617026,0
3.27999877929688,-2.14905858039856,1.69807362556458,2.57978963851929,-2.33577134012187,1.96079922667992,2.58881081793642,2003.434,3531.296,2996.002,0,-0.02274233,0.01530919,0.05417616,-0.951333165168762,-0.314815759658813,0.539889752864838,-0.898304216251578,-0.386515208538549,0.556093102023818,0
3.29998779296875,-2.1679413318634,1.69186997413635,2.59086918830872,-2.35362764460945,1.95311615770631,2.59986472102797,1678.283,2476.48,2175.807,2290.254,-0.0148157,0.0148566,0.04837749,-0.944126069545746,-0.310175597667694,0.553975582122803,-0.888274735793772,-0.382199803288803,0.549884375850026,0
3.31999206542969,-2.18661403656006,1.68577933311462,2.60142350196838,-2.37129490830989,1.94551442770222,2.61080159886703,1994.459,3525.773,2988.076,0,-0.02004135,0.01357452,0.05059241,-0.933642685413361,-0.304539650678635,0.527721226215363,-0.878042061913513,-0.37779696958594,0.54354986326829,0
3.33999633789063,-2.20513272285461,1.6797833442688,2.6122624874115,-2.38875555478454,1.93800159931817,2.62161057080077,1662.632,2471.28,2154.344,2312.418,-0.01206465,0.01310889,0.04469366,-0.925936579704285,-0.299785017967224,0.541951656341553,-0.867618167158097,-0.373311858882592,0.53709697585572,0
3.36000061035156,-2.22343444824219,1.67390179634094,2.62257051467896,-2.406005803634,1.93057929915441,2.6322892965819,1981.461,3535.088,2969.817,0,-0.0173995,0.01184452,0.0469254,-0.915092587471008,-0.294075340032578,0.515395939350128,-0.857007552155826,-0.36874640767338,0.530528499715627,0
3.37998962402344,-2.24157190322876,1.66811752319336,2.63315653800964,-2.42302905329872,1.92325467039821,2.6428274990542,1647.057,2463.671,2141.813,2326.761,-0.009482983,0.01138572,0.04102036,-0.906872034072876,-0.289223372936249,0.529298841953278,-0.846223126656603,-0.364106170663035,0.523852426598178,0
3.39999389648438,-2.25948572158813,1.66244840621948,2.64320254325867,-2.43984769972619,1.91601807669906,2.65323904237604,1981.751,3515.631,2967.754,0,-0.01488281,0.01010555,0.0431445,-0.895691394805908,-0.283459305763245,0.502299189567566,-0.835253140422974,-0.35938609205264,0.51706148254665,0
3.41999816894531,-2.27722549438477,1.65687727928162,2.65352964401245,-2.45644516534361,1.90887665092339,2.66351366424015,1632.399,2465.83,2126.994,2334.397,-0.006950851,0.009607377,0.03719143,-0.886982619762421,-0.278534084558487,0.516350269317627,-0.824110582941664,-0.354591760855451,0.510163708672097,0
3.43998718261719,-2.29473471641541,1.65142273902893,2.6633129119873,-2.47280564474684,1.90183719369507,2.67364158034846,1971.365,3520.231,2952.183,0,-0.01243164,0.00830907,0.03934774,-0.875475227832794,-0.272734522819519,0.489165157079697,-0.812809078412023,-0.349729039183832,0.50316753900293,0
3.45999145507813,-2.31206035614014,1.64606761932373,2.67337203025818,-2.48895081463434,1.8948903781363,2.68363620960993,1612.875,2462.587,2115.006,2348.081,-0.004516721,0.007788931,0.03345156,-0.866281688213348,-0.267754465341568,0.502952516078949,-0.80133641229185,-0.344792671461508,0.496065412155666,0
3.47999572753906,-2.32914996147156,1.64082908630371,2.68288064002991,-2.50486489870395,1.88804299234919,2.69348778574196,1977.032,3499.301,2946.576,0,-0.01003479,0.006439686,0.03552831,-0.854480803012848,-0.261928915977478,0.475433468818665,-0.789706299681989,-0.339788558913217,0.488865818431069,0
3.5,-2.34604692459106,1.63569104671478,2.69266819953918,-2.5205447997813,1.88129636896134,2.70319439144611,1596.23,2468.533,2096.634,2357.689,-0.002104962,0.005857575,0.02963235,-0.844835758209229,-0.256902456283569,0.489377945661545,-0.777924000354857,-0.334718964672089,0.481572013878822,0
3.51998901367188,-2.3627016544342,1.6306699514389,2.70189809799194,-2.53597583877076,1.87465682397749,2.71274693966292,1966.878,3499.107,2935.767,0,-0.007705058,0.00446797,0.03176412,-0.83275043964386,-0.251060903072357,0.461491405963898,-0.766004036374581,-0.329590137176618,0.474192988348404,0
3.53999328613281,-2.37915563583374,1.62574982643127,2.71140789985657,-2.55117869390181,1.86811546013321,2.72215823120146,1575.26,2465.88,2077.376,2380.949,0.0003004961,0.003852294,0.02590822,-0.822682082653046,-0.245998948812485,0.47548919916153,-0.753933682518821,-0.324396601119134,0.466720864320997,0
3.55999755859375,-2.39536237716675,1.62094712257385,2.7203528881073,-2.56613872308604,1.86167857751006,2.73141920191151,1964.822,3492.266,2924.047,0,-0.005335909,0.002434213,0.02805785,-0.810348808765411,-0.240138277411461,0.447250306606293,-0.741727567798258,-0.319144650954242,0.459164697851087,0
3.57998657226563,-2.41136026382446,1.61624646186829,2.72958040237427,-2.58084213759183,1.85535210901407,2.74052131591136,1560.448,2465.185,2054.755,2400.13,0.002717318,0.001787187,0.02220473,-0.799885272979736,-0.235028713941574,0.461374849081039,-0.72940084364523,-0.31384080592,0.451533868397061,0
3.59999084472656,-2.42710638046265,1.6116635799408,2.7382333278656,-2.59530884290342,1.84912748987145,2.74947689564398,1957.43,3488.17,2915.091,0,-0.002994458,0.0003566809,0.02437744,-0.787323713302612,-0.229146853089333,0.432647347450256,-0.716940488958392,-0.308479463400265,0.4438203152769,0
3.6199951171875,-2.44263648986816,1.60718369483948,2.74717307090759,-2.60952509409627,1.84301063413925,2.75827743234631,1545.261,2461.501,2032.146,2423.444,0.005128882,-0.0003062635,0.01849708,-0.776488184928894,-0.223990097641945,0.446982949972153,-0.704361775018033,-0.303067194200314,0.436033492140578,0
3.63999938964844,-2.45791053771973,1.6028219461441,2.75553178787231,-2.6234885835008,1.83700253474321,2.76692149746096,1950.405,3491.098,2899.392,0,-0.0006759103,-0.001725196,0.02069807,-0.763720512390137,-0.218086048960686,0.417939484119415,-0.691670720740692,-0.297606588091786,0.428177124984152,0
3.65998840332031,-2.47296094894409,1.5985643863678,2.76417541503906,-2.63718676607487,1.8311085894645,2.77540132500924,1530.209,2456.936,2015.829,2440.902,0.007420769,-0.002380866,0.01482185,-0.752522468566895,-0.212885573506355,0.432176530361176,-0.678883253871145,-0.292104498338286,0.420261073840379,0
3.67999267578125,-2.48775243759155,1.59442520141602,2.77223873138428,-2.65063849381582,1.82532068681534,2.78372858527554,1931.946,3491.703,2876.282,22.5499,0.001671746,-0.003730023,0.01701136,-0.73957896232605,-0.206971347332001,0.403169572353363,-0.665986083416798,-0.286555206197011,0.41227711095171,0
3.69999694824219,-2.50231313705444,1.59039068222046,2.78057742118835,-2.66383127580226,1.81964420129024,2.79189554578451,1527.611,2454.945,2007.681,2434.696,0.009622579,-0.004353203,0.01117348,-0.728025496006012,-0.201721295714378,0.416935652494431,-0.65299527533123,-0.280965624398954,0.404235181908735,0
3.72000122070313,-2.51661157608032,1.58647465705872,2.78834652900696,-2.6767633032417,1.81407991116207,2.79990108680742,1912.751,3485.26,2841.878,65.83922,0.00402825,-0.005595834,0.01324355,-0.714930653572083,-0.195801720023155,0.388457328081131,-0.639917282339434,-0.275338529371411,0.396139281255611,0
3.739990234375,-2.53067207336426,1.5826643705368,2.79636907577515,-2.68942333385363,1.80863265367006,2.80773824883709,1530.49,2461.235,2014.345,2398.879,0.0116102,-0.006169479,0.007507734,-0.703016459941864,-0.190506160259247,0.40112179517746,-0.62676873176137,-0.26968107538565,0.387999702095468,0
3.75999450683594,-2.54446768760681,1.57897233963013,2.80384182929993,-2.70182915057228,1.80329477731443,2.81541804035694,1889.368,3463.171,2804.527,133.9106,0.006303739,-0.007284811,0.009331889,-0.68978351354599,-0.184606075286865,0.373636215925217,-0.613536214864365,-0.263987493038594,0.379808143784027,0
3.77999877929688,-2.55801773071289,1.57538652420044,2.81153845787048,-2.7139695770734,1.79807109095524,2.82293354268985,1541.21,2480.108,2033.362,2329.893,0.01333683,-0.007817443,0.003772039,-0.67750358581543,-0.179288074374199,0.384835779666901,-0.60023651686137,-0.258265004538452,0.371574997167698,0
3.79998779296875,-2.5713005065918,1.57191753387451,2.81871438026428,-2.72583438304408,1.79296599641037,2.83027842278479,1865.92,3431.955,2761.582,218.3979,0.008372677,-0.008817194,0.005291238,-0.664133727550507,-0.173441827297211,0.358801066875458,-0.586886736182787,-0.252520966862155,0.36331084698941,0
3.81999206542969,-2.58433032035828,1.56855440139771,2.82607626914978,-2.73744054699573,1.78797218830065,2.83746319114912,1548.989,2509.75,2065.05,2239.721,0.01471167,-0.0093184,3.244738E-05,-0.651496350765228,-0.168148756027222,0.368095517158508,-0.573473482003301,-0.246749618311662,0.355007403690404,0
3.83999633789063,-2.59709024429321,1.56530654430389,2.83295488357544,-2.74877791451009,1.78309403578861,2.84448156171422,1839.578,3388.52,2715.368,323.0095,0.01023384,-0.01021269,0.001217912,-0.637998878955841,-0.162403732538223,0.343926161527634,-0.560014026276881,-0.240958390526246,0.346675359432959,0
3.86000061035156,-2.60959100723267,1.56216287612915,2.83997797966003,-2.75984563331209,1.77833190558438,2.85133300688122,1562.539,2549.751,2100.285,2129.852,0.0158042,-0.01070271,-0.003641074,-0.625035345554352,-0.157175004482269,0.351154953241348,-0.546515580872635,-0.235150386571708,0.338319178707605,0
3.87998962402344,-2.62181925773621,1.55913162231445,2.84655785560608,-2.7706348636882,1.77368960116974,2.85801205444635,1810.09,3338.15,2667.479,440.4154,0.01189012,-0.01150645,-0.002776612,-0.611426711082458,-0.151568382978439,0.328997105360031,-0.532995796775444,-0.22933320117373,0.329949788314816,0
3.89999389648438,-2.63378310203552,1.55620288848877,2.85323977470398,-2.78116151864576,1.76916027562219,2.86452855531919,1574.296,2593.447,2137.168,2016.895,0.01673045,-0.01198742,-0.007178284,-0.598189234733582,-0.14643494784832,0.334091782569885,-0.519441457145543,-0.223501147495394,0.321559006401168,0
3.91999816894531,-2.64547324180603,1.55338287353516,2.85952115058899,-2.79141684911929,1.7647476934202,2.87087709341145,1784.848,3284.352,2616.82,560.8428,0.01344392,-0.01271606,-0.006633401,-0.584491908550262,-0.140982642769814,0.31407231092453,-0.505870408491346,-0.2176619043907,0.313157880805522,0
3.93998718261719,-2.65689373016357,1.55066418647766,2.86586260795593,-2.80139308531637,1.76045519768837,2.87705285885147,1588.617,2640.69,2170.143,1902.421,0.01755616,-0.01319383,-0.01056529,-0.571036875247955,-0.135950803756714,0.31707164645195,-0.492300656572426,-0.211823219234969,0.304757557950781,0
