t,x_s1,x_s2,x_s3,x_s_d1,x_s_d2,x_s_d3,propellers_rpms1,propellers_rpms2,propellers_rpms3,propellers_rpms4,rollRad,pitchRad,yawRad,v_s1,v_s2,v_s3,v_s_d1,v_s_d2,v_s_d3,insideCount
0,-0.0599999986588955,2.94000005722046,1.17999994754791,-0.0599999986588955,2.94000005722046,1.17999994754791,0,0,0,0,0,0,0,0,0,0,-1.06581410364015E-15,4.44089209850063E-16,4.44089209850063E-16,0
0.0200042724609375,-0.0599999986588955,2.94000005722046,1.1771354675293,-0.0600018701838461,2.93999925195556,1.18000110611101,0,0,0,0,0.0163538,-0.002474609,-2.024222E-05,3.71994488546079E-08,3.50004931704007E-08,-0.143225952982903,-0.000280105751305916,-0.000120521679537258,0.00017339880334547,5
0.040008544921875,-0.0599999986588955,2.94000005722046,1.17048275470734,-0.060014880898484,2.93999365380853,1.18000916036316,0,0,0,0,0.03270752,-0.004950816,-5.430172E-05,3.62924410524101E-08,3.44428769949445E-08,-0.332637369632721,-0.00111143977225461,-0.000478221483967637,0.00068803416424398,6
0.0600128173828125,-0.0600004345178604,2.94013261795044,1.16416549682617,-0.0600499235789167,2.93997857592211,1.18003085345166,3185.406,2835.785,1501.1,2767.662,0.03127991,-0.00494336,-0.01646952,-2.17784399865195E-05,0.0066222520545125,-0.315860867500305,-0.00248060856799822,-0.00106733656662813,0.00153561487136384,6
0.0800018310546875,-0.0599162206053734,2.94038772583008,1.15857708454132,-0.0601175574246769,2.93994947496775,1.18007272202403,3065.867,3067.289,2154.926,2024.011,0.01897359,-0.004311125,-0.04351499,0.00421075755730271,0.0127500332891941,-0.279417961835861,-0.00437268608126799,-0.00188144466206175,0.00270690098422899,6
0.100006103515625,-0.0596375651657581,2.94068765640259,1.15374827384949,-0.0602282404704493,2.93990185114529,1.18014124010193,2639.975,3831.739,2620.523,1134.889,-0.005854161,-0.002888465,-0.07014393,0.013932827860117,0.0149973286315799,-0.241438910365105,-0.00677739276378709,-0.00291612276782231,0.00419552897277328,6
0.120010375976563,-0.0590849071741104,2.94089889526367,1.14957010746002,-0.0603920338334453,2.93983137543704,1.18024263599618,2092.432,4101.934,3169.28,755.8676,-0.04011893,-0.0004511395,-0.08993442,0.0276328176259995,0.010560616850853,-0.208907812833786,-0.00968041450003567,-0.00416521191989172,0.00599263771761404,5
0.139999389648438,-0.0582314841449261,2.94085621833801,1.14596676826477,-0.0606185767455666,2.93973390035084,1.18038287685052,1510.421,4074.854,3735.698,701.9178,-0.07649344,0.002388238,-0.09949782,0.0426710844039917,-0.00213099643588066,-0.1801697909832,-0.0130660253322238,-0.00562194567796536,0.00808849210174802,4
0.160003662109375,-0.057099461555481,2.94039487838745,1.14297807216644,-0.0609177895434042,2.93960515744296,1.18056810382587,1134.704,3846.992,4070.02,880.2095,-0.1062777,0.004335666,-0.09869941,0.0566010773181915,-0.0230685900896788,-0.14943665266037,-0.0169265510445065,-0.00728302204135792,0.0104783414199936,4
0.180007934570313,-0.0557377450168133,2.93938803672791,1.14071130752563,-0.0612988491946875,2.93944119812059,1.1808039979024,1101.369,3565.178,4009.805,1148.83,-0.1236271,0.004491996,-0.09000099,0.0680858865380287,-0.0503411740064621,-0.113337203860283,-0.0212468478482708,-0.00914192506089775,0.0131528109458008,3
0.20001220703125,-0.0541964881122112,2.9377772808075,1.13924872875214,-0.0617708265342762,2.93923811945689,1.181096174359,1373.433,3339.853,3594.74,1386.094,-0.1278765,0.003023011,-0.07724978,0.0770629048347473,-0.0805363655090332,-0.0731291696429253,-0.0260142813927851,-0.0111932185284278,0.0161040794142088,3
0.220001220703125,-0.052514236420393,2.93557620048523,1.13858413696289,-0.0623420644491781,2.93899233174064,1.18144979784016,1790.81,3212.872,3016.944,1527.125,-0.12298,0.0008615057,-0.06426154,0.0841125845909119,-0.110051393508911,-0.0332301445305347,-0.03121219533433,-0.0134297356845702,0.019321835755004,3
0.240005493164063,-0.0507195815443993,2.93284702301025,1.13860702514648,-0.0630219993990999,2.93869977472688,1.18187070996396,2158.609,3168.505,2517.75,1558.698,-0.1149692,-0.0009869675,-0.05362115,0.08973278850317,-0.136453002691269,0.00114187225699425,-0.0368361158647881,-0.0158495515746756,0.0228033104678445,3
0.260009765625,-0.0488372780382633,2.92966485023499,1.13913798332214,-0.0638185570309634,2.93835703823113,1.18236381708338,2352.36,3158.934,2273.711,1495.771,-0.1090517,-0.00190416,-0.04623674,0.094115287065506,-0.159109771251678,0.0265465974807739,-0.0428699302682246,-0.0184457333472145,0.0265385290140116,3
0.279998779296875,-0.0468917600810528,2.92608761787415,1.13999629020691,-0.0647390625194898,2.93796097043536,1.18293365383054,2352.767,3152.545,2324.093,1363.333,-0.1078181,-0.001744903,-0.04152081,0.0972758904099464,-0.178863987326622,0.042917899787426,-0.0492963837173861,-0.0212108567320638,0.030516809833474,3
0.300003051757813,-0.0449087619781494,2.92214369773865,1.14106214046478,-0.0657927507678135,2.93750759781875,1.18358593705038,2228.624,3143.838,2573.113,1194.891,-0.1110874,-0.0007366303,-0.03798307,0.0991498455405235,-0.197192519903183,0.0532903857529163,-0.0561132031658829,-0.0241439437008635,0.0347367458022363,3
0.32000732421875,-0.0429169610142708,2.91783547401428,1.14229428768158,-0.0669865614821475,2.93699393441958,1.18432496275165,2074.617,3132.407,2872.85,1032.589,-0.1169266,0.0006859419,-0.03398034,0.0995899140834808,-0.215409621596336,0.0616096034646034,-0.0633036493784043,-0.0272377918282996,0.0391879745362408,3
0.340011596679688,-0.0409489832818508,2.91315102577209,1.14370775222778,-0.0683278498358171,2.93641681551226,1.18515528413699,1955.479,3107.79,3109.085,921.0994,-0.1228431,0.00206963,-0.02837385,0.0983990728855133,-0.234226062893867,0.0706742256879807,-0.0708558471483356,-0.0304872915447207,0.0438631447168985,3
0.360000610351563,-0.0390402227640152,2.90807723999023,1.14534378051758,-0.0698225328270578,2.93577369517774,1.1860805641102,1904.595,3065.525,3222.246,881.0573,-0.1267127,0.003092807,-0.02087119,0.0954378992319107,-0.253694236278534,0.0818041488528252,-0.0787518717320621,-0.0338847303337087,0.0487511600740379,3
0.3800048828125,-0.0372257679700851,2.90261030197144,1.14724361896515,-0.0714797725314022,2.93506063123087,1.18710647443246,1923.027,3021.193,3207.839,896.1625,-0.1274227,0.003643283,-0.01188303,0.0907230451703072,-0.273342579603195,0.094989150762558,-0.0869921272359981,-0.0374302820709642,0.0538522707687797,3
0.400009155273438,-0.0355373844504356,2.89676117897034,1.14943194389343,-0.0733051402689975,2.93427522648826,1.18823646401636,1991.839,2988.842,3098.373,939.4394,-0.125037,0.00379138,-0.002210956,0.0844191089272499,-0.29245463013649,0.109415151178837,-0.0955591682828665,-0.0411164404980124,0.0591556772815509,3
0.419998168945313,-0.0340021178126335,2.89055466651917,1.15190637111664,-0.0753034649285836,2.93341540321397,1.18947352217404,2072.576,2975.207,2953.354,985.7162,-0.120508,0.003707796,0.007339394,0.0767636224627495,-0.310327172279358,0.123719446361065,-0.104434660908044,-0.0449353170220673,0.0646500300148815,3
0.44000244140625,-0.0326427109539509,2.88402438163757,1.15464198589325,-0.077483988232608,2.93247718495301,1.19082336997196,2135.532,2972.308,2825.882,1023.903,-0.1150773,0.003565009,0.01615273,0.0679702535271645,-0.326508969068527,0.136779338121414,-0.113620829717891,-0.048887868829098,0.0703367061060819,4
0.460006713867188,-0.0314786322414875,2.87720727920532,1.15760219097137,-0.0798512213598696,2.93145863067119,1.19228880004469,2169.007,2977.508,2748.253,1039.342,-0.1098607,0.003475045,0.02394281,0.0582042261958122,-0.340854495763779,0.148011207580566,-0.123099793815011,-0.0529664022684887,0.0762046364278779,4
0.480010986328125,-0.0305270254611969,2.87013816833496,1.16074848175049,-0.0824109101018722,2.93035726811493,1.19387336931088,2168.573,2984.898,2732.442,1031.723,-0.1055437,0.003481603,0.03074938,0.0475804582238197,-0.353461056947708,0.15731517970562,-0.132860437136906,-0.0571661344090936,0.082246939608052,4
0.5,-0.0298039205372334,2.86284637451172,1.16405296325684,-0.085166398670376,2.92917165836334,1.1955791479969,2146.557,2989.055,2762.763,1009.98,-0.1022728,0.003568862,0.03679617,0.036155141890049,-0.364584624767303,0.165221393108368,-0.142884000065179,-0.0614789935111996,0.0884520025491718,4
0.520004272460938,-0.0293246563524008,2.85535645484924,1.16749942302704,-0.088127196023106,2.92789770997757,1.19741202260058,2115.789,2992.543,2818.166,977.6335,-0.09984297,0.003687171,0.04241444,0.0239631664007902,-0.374495178461075,0.172326028347015,-0.153174893518032,-0.065906877469682,0.0948225558197254,4
0.540008544921875,-0.029104471206665,2.84768795967102,1.17108643054962,-0.0912963635428427,2.92653410573011,1.19937388826368,2089.82,2991.339,2870.052,951.9817,-0.09781791,0.0037778,0.04785479,0.0110091269016266,-0.383428543806076,0.179352462291718,-0.163714777034477,-0.0704418948965508,0.101347245800684,4
0.55999755859375,-0.029157992452383,2.83985781669617,1.17481684684753,-0.094676112580471,2.92507989413848,1.20146611391775,2071.308,2990.394,2908.896,932.2855,-0.09579497,0.003795071,0.05329917,-0.00267596542835236,-0.391506016254425,0.186520889401436,-0.17448465888317,-0.0750758741803766,0.108014315705644,5
0.580001831054688,-0.0294994376599789,2.83188223838806,1.17869889736176,-0.0982762614093182,2.92353085067394,1.20369477754168,2062.476,2984.388,2922.745,933.2136,-0.09338694,0.003717754,0.05874067,-0.017072256654501,-0.39878311753273,0.194100990891457,-0.185490414529404,-0.0798113433697334,0.11482740272751,5
0.600006103515625,-0.0301417596638203,2.82377743721008,1.18274021148682,-0.102098762959148,2.92188613504538,1.20606108809202,2067.689,2984.759,2911.561,938.0101,-0.09049155,0.00353851,0.0641101,-0.032116487622261,-0.405236333608627,0.202068775892258,-0.196713446836865,-0.0846403006364086,0.121774994352997,5
0.620010375976563,-0.0310961008071899,2.81556129455566,1.18694281578064,-0.106147859919355,2.92014392174208,1.20856767199563,2074.955,2987.379,2887.046,950.9166,-0.08718017,0.003271433,0.06929369,-0.0477165505290031,-0.41080766916275,0.210130080580711,-0.20814339888717,-0.0895582896877615,0.128850679156259,5
0.639999389648438,-0.0323718674480915,2.8072521686554,1.1913058757782,-0.110424235525481,2.91830391678686,1.21121495220784,2082.489,2991.043,2854.925,970.1504,-0.08360089,0.002940476,0.07414704,-0.0637888386845589,-0.415460020303726,0.218155190348625,-0.219761081350814,-0.0945570538913933,0.136042578028218,5
0.660003662109375,-0.033976387232542,2.79886889457703,1.19582271575928,-0.114938248900541,2.91636166293851,1.21400934151928,2086.967,2999.252,2828.531,982.1165,-0.08001148,0.002567283,0.07860518,-0.0802257806062698,-0.41916960477829,0.225840121507645,-0.231574097577923,-0.0996398647564507,0.143355397804799,5
0.680007934570313,-0.0359156392514706,2.79042935371399,1.20048844814301,-0.119690355154666,2.91431696437584,1.21695112166479,2088.578,3006.433,2804.834,996.3876,-0.07658985,0.002169881,0.08260188,-0.0969620496034622,-0.421975195407867,0.233285561203957,-0.243563621239988,-0.104798621839723,0.150777484091833,6
0.70001220703125,-0.0381934680044651,2.78195095062256,1.20529162883759,-0.124683985757554,2.91216834463331,1.22004241688759,2084.093,3017.172,2798.595,995.8582,-0.0735613,0.001757693,0.08620272,-0.113891802728176,-0.42392110824585,0.240159422159195,-0.255719729227087,-0.11002905550423,0.158302694011575,6
0.720001220703125,-0.0408134274184704,2.77344870567322,1.21022808551788,-0.129918284978346,2.90991617190799,1.22328269744952,2074.166,3019.629,2796.213,1006.958,-0.0708763,0.001345571,0.08939749,-0.130997911095619,-0.425113886594772,0.246820494532585,-0.268023157655716,-0.11532287703907,0.16591910230247,6
0.740005493164063,-0.0437774322926998,2.76493620872498,1.21528911590576,-0.13540428105644,2.90755570105657,1.22667879035609,2065.552,3027.751,2807.236,997.5983,-0.06860516,0.000927782,0.09231157,-0.148200452327728,-0.425629466772079,0.253050565719604,-0.280482990349159,-0.120683994959631,0.173632332283853,6
0.760009765625,-0.0470878593623638,2.75642442703247,1.22047734260559,-0.141140917956636,2.9050873864615,1.23023004187122,2057.32,3028.013,2808.944,1006.54,-0.06657264,0.000510764,0.09492995,-0.165521338582039,-0.425584673881531,0.259408801794052,-0.293080296154222,-0.126104263719567,0.181430664670081,6
0.779998779296875,-0.0507451258599758,2.74792385101318,1.22578513622284,-0.147126184485884,2.90251209348295,1.23393520697061,2052.072,3036.357,2821.948,991.8701,-0.06486449,8.048816E-05,0.0973937,-0.182863265275955,-0.425032556056976,0.265392035245895,-0.305795832832518,-0.131575403921268,0.189302187598958,6
0.800003051757813,-0.0547506250441074,2.7394425868988,1.23121738433838,-0.153371683173492,2.89982482987671,1.2378014681726,2042.4,3031.016,2821.2,1010.594,-0.06319841,-0.0003424825,0.09961485,-0.200274899601936,-0.424068450927734,0.271612644195557,-0.318639638509124,-0.13710173468952,0.197253115148089,6
0.82000732421875,-0.0591039396822453,2.73098826408386,1.23677039146423,-0.159875221826383,2.89702653888221,1.24182746840525,2045.875,3040.677,2823.485,996.7686,-0.06172834,-0.0007797736,0.1016938,-0.217666462063789,-0.422719776630402,0.277652949094772,-0.331592781842754,-0.14267511039705,0.205271727915392,6
0.840011596679688,-0.0638049989938736,2.72256731987,1.24244678020477,-0.166638895824778,2.89411631891588,1.24601450480873,2040.764,3038.834,2816.387,1013.177,-0.06031154,-0.001210673,0.1035513,-0.235052824020386,-0.421050399541855,0.283816993236542,-0.344646098867604,-0.148291588045382,0.213352352969496,6
0.860000610351563,-0.0688520818948746,2.71418571472168,1.24824130535126,-0.173659158941841,2.89109569582005,1.2503603820997,2042.119,3045.643,2815.657,1007.212,-0.05908116,-0.00164317,0.105242,-0.252354443073273,-0.419082760810852,0.289724320173264,-0.357780475378537,-0.153942943326036,0.221483157706883,6
0.8800048828125,-0.0742437839508057,2.7058482170105,1.25415503978729,-0.180948461186242,2.88795931270381,1.25487280742661,2037.992,3044.548,2808.72,1021.79,-0.05793707,-0.002057558,0.1066964,-0.269585162401199,-0.416870951652527,0.295689672231674,-0.371007022483504,-0.159633957038354,0.229671020432672,6
0.900009155273438,-0.0799774080514908,2.69755935668945,1.26018452644348,-0.188503099076414,2.88470876307182,1.25954948815793,2042.018,3052.715,2805.65,1014.53,-0.05704065,-0.00246662,0.1079713,-0.286680042743683,-0.414445281028748,0.301472008228302,-0.384306908919572,-0.165356526615982,0.237904283698049,7
0.919998168945313,-0.0860499739646912,2.68932223320007,1.26632761955261,-0.196318384305134,2.8813460641717,1.26438752200817,2037.774,3053.694,2803.502,1022.365,-0.05635515,-0.002853843,0.1090465,-0.303629666566849,-0.411860883235931,0.307155519723892,-0.397661187980262,-0.171102499820431,0.246171218589148,7
0.94000244140625,-0.0924578458070755,2.68113899230957,1.27257943153381,-0.204407453948074,2.87786556348678,1.26939504145298,2035.086,3056.47,2808.895,1019.35,-0.05591626,-0.003219229,0.1099631,-0.32039350271225,-0.409158498048782,0.312593370676041,-0.411081631631503,-0.176876941799768,0.254479112513653,7
0.960006713867188,-0.0991978645324707,2.67301106452942,1.27894306182861,-0.212765478812529,2.87426933888379,1.27456905699201,2035.062,3057.735,2805.835,1024.739,-0.05565847,-0.003556385,0.1106961,-0.337001442909241,-0.406398862600327,0.318181872367859,-0.424549556012544,-0.182671813410681,0.262816399271726,7
0.980010986328125,-0.106265231966972,2.66493892669678,1.28541040420532,-0.221393324468958,2.87055701793193,1.27991010445463,2034.85,3063.421,2817.431,1010.247,-0.05571386,-0.003877562,0.111353,-0.353368639945984,-0.403611868619919,0.323368817567825,-0.438056556301695,-0.188483498293199,0.271177875878363,7
1,-0.11365681886673,2.65692162513733,1.29198741912842,-0.230284798736574,2.86673126495361,1.28541435058594,2029.701,3058.304,2815.397,1027.148,-0.05584489,-0.00415826,0.1118402,-0.369579344987869,-0.400866270065308,0.328853279352188,-0.451584000205995,-0.194303979492187,0.279552008056641,7
1.02000427246094,-0.121367201209068,2.64895820617676,1.29866433143616,-0.239454009753966,2.86278600961093,1.2910905289958,2032.987,3065.313,2832.564,1002.662,-0.05625342,-0.004425108,0.1123099,-0.38551864027977,-0.398167490959167,0.33384445309639,-0.465144357597929,-0.200138622445408,0.287946515251652,7
1.04000854492188,-0.129393875598907,2.64104652404785,1.30545449256897,-0.248894644448595,2.85872396824263,1.29693473159157,2030.865,3058.741,2821.21,1028.534,-0.05661881,-0.004645618,0.1125976,-0.401334285736084,-0.395589828491211,0.3395054936409,-0.47871923339115,-0.205979512261105,0.296350010028666,7
1.05999755859375,-0.137730270624161,2.6331844329834,1.31234097480774,-0.258599401509697,2.85454828239877,1.30294243851408,2039.071,3071.476,2843.741,987.5856,-0.05736129,-0.004868791,0.1129509,-0.416819363832474,-0.393107622861862,0.344325572252274,-0.492290296490434,-0.211818761581115,0.30475114456651,7
1.08000183105469,-0.146374449133873,2.62536835670471,1.3193416595459,-0.268583149539609,2.85025255453512,1.30912285413647,2028.178,3055.802,2829.486,1035.454,-0.05790138,-0.005025918,0.1130831,-0.432209759950638,-0.390809565782547,0.350034326314926,-0.50587040849135,-0.217661904390701,0.313157880805523,7
1.10000610351563,-0.155319377779961,2.61759567260742,1.32643795013428,-0.278838480013141,2.84583997233313,1.31547139222872,2046.415,3075.155,2853.188,976.9767,-0.05886758,-0.005196893,0.1133214,-0.447246611118317,-0.388640314340591,0.354816257953644,-0.519441457145546,-0.223501147495394,0.321559006401169,7
1.12001037597656,-0.16456350684166,2.60986161231995,1.33365106582642,-0.289365134970699,2.84131064678559,1.32198789310157,2033.877,3057.839,2833.663,1034.293,-0.05960155,-0.005297028,0.113328,-0.462206870317459,-0.386703163385391,0.36065474152565,-0.532995796775449,-0.22933320117373,0.329949788314817,8
1.13999938964844,-0.174098804593086,2.60216331481934,1.3409548997879,-0.300154365346813,2.83666834237095,1.3286669406667,2051.142,3078.334,2868.164,964.7452,-0.06083299,-0.00541687,0.1135018,-0.47676420211792,-0.384916722774506,0.365194708108902,-0.546515580872639,-0.235150386571708,0.338319178707607,8
1.16000366210938,-0.183924943208694,2.59449505805969,1.34837937355042,-0.311222084148811,2.83190621216671,1.33551838583369,2034.645,3054.384,2842.446,1040.607,-0.06166176,-0.00544723,0.11339,-0.491306960582733,-0.38340961933136,0.371222317218781,-0.560014026276883,-0.240958390526247,0.34667535943296,8
1.18000793457031,-0.194032952189445,2.58685398101807,1.35589218139648,-0.322559451663168,2.82702805965467,1.34253675639879,2062.088,3083.868,2884.058,944.4968,-0.06311212,-0.005519668,0.1135324,-0.50540030002594,-0.382058829069138,0.375638604164124,-0.573473482003304,-0.246749618311663,0.355007403690405,8
1.20001220703125,-0.204423889517784,2.57923316955566,1.36353194713593,-0.334165615614823,2.82203425154496,1.34972152476313,2039.975,3053.561,2847.304,1044.873,-0.06403092,-0.005489307,0.1133375,-0.519547164440155,-0.38103523850441,0.381991237401962,-0.586886736182789,-0.252520966862155,0.363310846989412,8
1.22000122070313,-0.215087071061134,2.57163000106812,1.37125265598297,-0.346030421585499,2.81692915700008,1.35706640485806,2070.382,3088.874,2907.212,920.7277,-0.06572788,-0.0055202,0.1135143,-0.533158957958221,-0.380155116319656,0.386034697294235,-0.600236516861372,-0.258265004538453,0.371574997167698,8
1.24000549316406,-0.22602616250515,2.56403684616089,1.37910997867584,-0.358170848086624,2.8117054706409,1.36458190719098,2039.695,3045.956,2854.222,1061.136,-0.0665753,-0.005416337,0.1132309,-0.546955645084381,-0.379654794931412,0.392865270376205,-0.613536214864368,-0.263987493038594,0.379808143784027,8
1.260009765625,-0.237228319048882,2.55645179748535,1.38704168796539,-0.37057666480527,2.80636759428526,1.37226169871082,2086.842,3097.898,2931.035,885.088,-0.06847147,-0.005417402,0.1134815,-0.560108363628387,-0.379255801439285,0.39658585190773,-0.626768731761373,-0.26968107538565,0.387999702095469,8
1.27999877929688,-0.24870041012764,2.5488657951355,1.39512431621552,-0.383236695417198,2.80092033679326,1.3800988607405,2043.277,3040.067,2852.258,1081.753,-0.06920118,-0.005248558,0.1131147,-0.573604762554169,-0.379298955202103,0.404130339622498,-0.639917282339435,-0.275338529371412,0.396139281255613,8
1.30000305175781,-0.260425627231598,2.54127860069275,1.40326523780823,-0.396168722856641,2.79535604666509,1.38810440176341,2100.256,3107.793,2966.286,839.8252,-0.0713578,-0.005232046,0.1135173,-0.586260080337524,-0.379360407590866,0.407045662403107,-0.652995275331231,-0.280965624398954,0.404235181908735,8
1.32000732421875,-0.272416830062866,2.53367924690247,1.41158199310303,-0.409361504843077,2.78967956113998,1.39627136227237,2041.712,3025.867,2840.16,1127.933,-0.07173171,-0.004979046,0.1129885,-0.599560379981995,-0.379965096712112,0.415837615728378,-0.6659860834168,-0.286555206197011,0.41227711095171,8
1.34001159667969,-0.284650415182114,2.52607035636902,1.41993343830109,-0.422813232584026,2.78389165849082,1.40459862253867,2128.078,3130.305,3006.919,761.564,-0.07431604,-0.004977448,0.1136375,-0.611680865287781,-0.380441159009933,0.417571395635605,-0.678883253871146,-0.292104498338286,0.420261073840379,8
1.36000061035156,-0.29714772105217,2.51843810081482,1.42849242687225,-0.436511415158101,2.77799771321212,1.41307845008695,2029.046,3002.95,2819.536,1203.685,-0.07419034,-0.004625378,0.1128898,-0.624865114688873,-0.381616085767746,0.427949547767639,-0.691670720740693,-0.297606588091785,0.42817712498415,9
1.3800048828125,-0.30987548828125,2.51078939437866,1.43704950809479,-0.450474904562636,2.77198961381608,1.4217225152016,2158.134,3157.323,3066.028,657.1239,-0.07730304,-0.004655738,0.1138842,-0.63638973236084,-0.382438212633133,0.427854627370834,-0.704361775018035,-0.303067194200314,0.436033492140578,9
1.40000915527344,-0.322868049144745,2.5031054019928,1.44586527347565,-0.464691155755482,2.76587275808388,1.43052305190393,2011.844,2970.784,2777.29,1317.196,-0.07635549,-0.004179033,0.1127846,-0.649623095989227,-0.384203016757965,0.440786331892014,-0.716940488958393,-0.308479463400265,0.443820315276901,9
1.41999816894531,-0.336076676845551,2.49539995193481,1.45462381839752,-0.47914673136562,2.75965292774086,1.43947174182117,2205.37,3203.618,3141.493,497.356,-0.08034065,-0.004293016,0.1143072,-0.660433053970337,-0.385270208120346,0.437927842140198,-0.729391385793766,-0.313836736470737,0.451528013536465,9
1.44000244140625,-0.349554359912872,2.48764681816101,1.46370983123779,-0.493861275572861,2.75332167044526,1.4485807456364,1971.799,2919.269,2714.271,1495.704,-0.07820746,-0.003645335,0.1126965,-0.673884928226471,-0.38765475153923,0.454302281141281,-0.741727567798258,-0.319144650954242,0.459164697851088,9
1.46000671386719,-0.363231033086777,2.47987008094788,1.4726597070694,-0.508821304757097,2.74688478782212,1.45784171634646,2267.445,3266.92,3244.899,274.8954,-0.08337399,-0.003885552,0.1149452,-0.68383401632309,-0.388837695121765,0.447492659091949,-0.753933682518823,-0.324396601119133,0.466720864320996,9
1.48001098632813,-0.37718677520752,2.47203183174133,1.48204064369202,-0.524024159888143,2.74034342397783,1.467253007885,1918.294,2850.766,2606.667,1752.733,-0.07955608,-0.003010437,0.1125692,-0.697787523269653,-0.391909331083298,0.469044208526611,-0.766004036374583,-0.329590137176618,0.474192988348404,9
1.5,-0.391320377588272,2.46416997909546,1.49117982387543,-0.539455198877605,2.73370387899399,1.4768055561018,2308.144,3391.17,3356.415,0,-0.086247,-0.003284743,0.1159948,-0.706680595874786,-0.393092662096024,0.456956595182419,-0.777924000354858,-0.334718964672088,0.481572013878822,9
1.52000427246094,-0.4057477414608,2.45623254776001,1.50087440013885,-0.555135099954955,2.72695725560613,1.48651216180595,1850.075,2735.854,2462.544,2108.979,-0.08015582,-0.001989381,0.1125936,-0.721369981765747,-0.396873235702515,0.484727382659912,-0.789706299681991,-0.339788558913217,0.48886581843107,9
1.54000854492188,-0.420342892408371,2.44826483726501,1.51032173633575,-0.571049184024557,2.72010986981902,1.49636373793799,2100.795,3744.824,3214.858,0,-0.08644461,-0.001091363,0.1178294,-0.729757249355316,-0.398381322622299,0.472366273403168,-0.801336412291853,-0.344792671461508,0.496065412155667,9
1.55999755859375,-0.435224056243896,2.44022297859192,1.52027416229248,-0.587181951496087,2.71316839067337,1.50635068951315,1967.358,2545.293,2420.214,2229.197,-0.08002373,0.001191927,0.1140156,-0.744059085845947,-0.402096450328827,0.497618675231934,-0.812800388649436,-0.349725300221754,0.503162159625937,9
1.58000183105469,-0.450266569852829,2.43215560913086,1.52995336055756,-0.60355483331529,2.70612359703193,1.51648628330776,2200.321,3643.349,3231.839,0,-0.08631305,0.002813489,0.1178184,-0.752125382423401,-0.403365641832352,0.483960628509521,-0.824110582941666,-0.354591760855452,0.510163708672098,9
1.60000610351563,-0.465585112571716,2.42402100563049,1.54011654853821,-0.620152298932711,2.69898217125626,1.52676090517188,2061.781,2524.075,2489.332,2102.728,-0.08085091,0.005469532,0.1126907,-0.765927791595459,-0.406728237867355,0.508156955242157,-0.835253140422976,-0.35938609205264,0.51706148254665,9
1.62001037597656,-0.48105925321579,2.415860414505,1.5500500202179,-0.636970945360177,2.69174557755711,1.53717244849371,2169.461,3708.883,3213.666,0,-0.08774317,0.007578436,0.115669,-0.773707985877991,-0.408030390739441,0.496672660112381,-0.846223126656604,-0.364106170663034,0.523852426598179,9
1.63999938964844,-0.496784448623657,2.40763545036316,1.56037724018097,-0.653994195024907,2.68442094880091,1.54771065096602,2126.02,2520.877,2658.554,1872.023,-0.08460703,0.01031113,0.1106558,-0.786256611347198,-0.41124626994133,0.516360938549042,-0.857007552155828,-0.368746407673381,0.530528499715628,9
1.66000366210938,-0.512659311294556,2.39937925338745,1.57050061225891,-0.671244443874359,2.67699864863716,1.55838937674714,2247.639,3525.974,3334.544,0,-0.09195842,0.01218667,0.1124382,-0.793745756149292,-0.412809938192368,0.506168305873871,-0.867618167158098,-0.373311858882592,0.53709697585572,9
1.68000793457031,-0.528769850730896,2.39105010032654,1.58099937438965,-0.688705090349012,2.66948582025311,1.56919834868089,2124.895,2597.687,2818.706,1643.58,-0.08997809,0.01444839,0.1078975,-0.805529534816742,-0.416463285684586,0.524937629699707,-0.878042061913515,-0.377796969585941,0.543549863268291,9
1.70001220703125,-0.545026659965515,2.38267517089844,1.59134268760681,-0.706372354049449,2.66188409024902,1.58013522651994,2238.229,3490.301,3390.859,0,-0.0969902,0.01585099,0.1100387,-0.81283700466156,-0.418744683265686,0.517166495323181,-0.888274735793774,-0.382199803288802,0.549884375850026,9
1.72000122070313,-0.561508119106293,2.37421274185181,1.60204434394836,-0.724228658537036,2.6542010212754,1.5911891296115,2109.706,2640.503,2901.813,1534.016,-0.09496246,0.01757091,0.1067663,-0.82407158613205,-0.423122495412827,0.535085737705231,-0.898304216251578,-0.386515208538549,0.556093102023817,9
1.74000549316406,-0.578132688999176,2.36569285392761,1.61259996891022,-0.742297311768984,2.64642658456943,1.60237448669139,2294.603,3383.082,3448.499,0,-0.10101,0.01826038,0.1093656,-0.831229507923126,-0.425998747348785,0.527781009674072,-0.908141534469281,-0.390747931744771,0.562182870617028,9
1.760009765625,-0.594983220100403,2.35707139968872,1.62355291843414,-0.760560719141003,2.63856835059778,1.61368040586141,2080.885,2688.508,2870.179,1555.133,-0.097542,0.01939931,0.1068301,-0.842527806758881,-0.431076526641846,0.547648072242737,-0.91777478390713,-0.394892849856044,0.568146310914365,9
1.77999877929688,-0.61197304725647,2.34838509559631,1.63436090946198,-0.779000609654483,2.63063418086074,1.62509557650306,2287.241,3437.842,3403.609,0,-0.1026361,0.01961734,0.1104901,-0.849491715431213,-0.434309959411621,0.540401518344879,-0.927192788821983,-0.398945154262308,0.57397650459845,9
1.80000305175781,-0.629189670085907,2.33959221839905,1.64557981491089,-0.797640935141499,2.62261376955408,1.63663482594136,2061.137,2681.769,2786.883,1670.137,-0.09778754,0.02049364,0.1084408,-0.860837519168854,-0.439649194478989,0.560945332050323,-0.936405971974637,-0.402909329586356,0.579679903854719,9
1.82000732421875,-0.646541059017181,2.33073735237122,1.65662705898285,-0.816463410111527,2.61451498441355,1.64828683458664,2315.55,3447.567,3368.786,0,-0.1023506,0.02044308,0.1124937,-0.867562472820282,-0.442748516798019,0.552362143993378,-0.94540321420156,-0.406780591562751,0.585249625391268,9
1.84001159667969,-0.664122700691223,2.32177829742432,1.66810870170593,-0.835463677219795,2.60633970028288,1.66004890503489,2050.683,2676.434,2698.33,1784.912,-0.09653106,0.02123586,0.1102205,-0.879082143306732,-0.447950124740601,0.574084520339966,-0.954180774018563,-0.410557330335375,0.590683353051152,9
1.86000061035156,-0.681833386421204,2.31276440620422,1.67939555644989,-0.854622615239374,2.59809614449182,1.6719092003358,2282.371,3530.559,3323.137,0,-0.1010675,0.02125143,0.1146319,-0.885534524917603,-0.450689136981964,0.564341306686401,-0.962728579444532,-0.414235212212131,0.595974851798267,9
1.8800048828125,-0.699774026870728,2.30365562438965,1.69111251831055,-0.873964974649439,2.58977366760063,1.68388304221498,2051.676,2639.11,2658.062,1869.145,-0.09492838,0.02220058,0.1120488,-0.897031486034393,-0.455441176891327,0.585849940776825,-0.971056158224177,-0.417818336715394,0.601130019760457,9
1.90000915527344,-0.71783983707428,2.29450178146362,1.7026195526123,-0.893471623792247,2.58138050142717,1.69595858726494,2278.896,3551.871,3311.761,0,-0.09955376,0.02238833,0.1162699,-0.903292655944824,-0.457688629627228,0.57535046339035,-0.979153483542501,-0.421302389586788,0.606142649861596,9
1.91999816894531,-0.73613315820694,2.28526425361633,1.7145494222641,-0.913122862707269,2.57292512231409,1.70812364027167,2068.986,2621.155,2659.534,1875.073,-0.09356324,0.02347696,0.11328,-0.914667725563049,-0.461878567934036,0.596491813659668,-0.987011339258123,-0.424683405378145,0.611007036871143,9
1.94000244140625,-0.754547953605652,2.27599096298218,1.72626399993896,-0.932943991899774,2.5643966441608,1.72039386345315,2261.384,3565.847,3320.476,0,-0.09830526,0.02382707,0.1172484,-0.920737504959106,-0.46365961432457,0.58573043346405,-0.994638524886308,-0.427965170275055,0.615728628108227,9
1.96000671386719,-0.773185431957245,2.26664447784424,1.73839139938354,-0.952915303453826,2.55580354673295,1.73275705667061,2086.054,2608.909,2683.841,1848.568,-0.09254112,0.02500041,0.1140016,-0.931878566741943,-0.467326015233994,0.606370866298676,-1.00202586176059,-0.431143734953757,0.620301741541062,9
1.98001098632813,-0.791940748691559,2.25727009773254,1.75030815601349,-0.973031969359004,2.54714790738853,1.74521023115561,2259.722,3561.818,3328.283,0,-0.09729113,0.02541299,0.1176982,-0.937764704227448,-0.468724459409714,0.595838785171509,-1.00917036754089,-0.434217816196637,0.624724530959079,9
2,-0.810911595821381,2.24783158302307,1.76262068748474,-0.993273599084619,2.53843849960327,1.7577407641983,2096.637,2608.375,2718.135,1801.725,-0.09178691,0.026565,0.1143807,-0.948542296886444,-0.47192856669426,0.615627348423004,-1.01606400046349,-0.437183953857422,0.628992018127441,9
2.02000427246094,-0.829995453357697,2.23837184906006,1.77472400665283,-1.01366615605493,2.52966415204104,1.77036472839513,2268.256,3530.123,3349.793,0,-0.09641069,0.02689025,0.1178016,-0.954194188117981,-0.472983002662659,0.60516893863678,-1.02271452148052,-0.440045487257004,0.633109007445237,9
2.04000854492188,-0.849288582801819,2.22885537147522,1.78722107410431,-1.03418924440916,2.52083364047092,1.78306949773667,2098.857,2622.4,2732.076,1766.811,-0.09089209,0.02790982,0.1144605,-0.964653313159943,-0.475826174020767,0.624851942062378,-1.02911391720548,-0.442798968459032,0.637070538244476,9
2.05999755859375,-0.868688642978668,2.21932339668274,1.79951059818268,-1.05482201812353,2.5119559343546,1.79584216754118,2263.801,3531.691,3346.254,0,-0.09537952,0.02809701,0.1178867,-0.970005989074707,-0.476596593856812,0.614475190639496,-1.03525504859546,-0.445441325732794,0.640872191117535,9
2.08000183105469,-0.888290047645569,2.20974159240723,1.81218302249908,-1.07559088172821,2.50301967256038,1.80869908347065,2088.157,2625.439,2735.733,1761.649,-0.08974054,0.02898628,0.1146464,-0.980071604251862,-0.47909489274025,0.633619427680969,-1.04114485287423,-0.447975543971863,0.644518260536375,9
2.10000610351563,-0.907991707324982,2.20015072822571,1.82464170455933,-1.09647498538954,2.49403382618922,1.82162733848484,2276.458,3508.792,3347.669,0,-0.09402929,0.02898357,0.1179916,-0.985087335109711,-0.479540467262268,0.622933268547058,-1.04677621342161,-0.450398561093403,0.648004340974112,9
2.12001037597656,-0.927888631820679,2.19051647186279,1.83748638629913,-1.11746913671118,2.48500062938421,1.83462371824305,2078.039,2638.02,2714.776,1771.058,-0.08814477,0.02971489,0.1147311,-0.994840145111084,-0.481701344251633,0.642236948013306,-1.05214690704168,-0.452709420518306,0.651329056166548,9
2.13999938964844,-0.94787722826004,2.18088054656982,1.85010457038879,-1.138551967509,2.47592927627801,1.8476749948214,2259.778,3524.706,3336.513,0,-0.09234831,0.0295842,0.1182164,-0.999433279037476,-0.481803745031357,0.630908906459808,-1.05725102347782,-0.454905579228273,0.654488747383304,8
2.16000366210938,-0.968054354190826,2.17120862007141,1.86310863494873,-1.15975039167652,2.46680818657414,1.86079782920208,2060.802,2629.42,2687.475,1813.291,-0.08610106,0.03025289,0.1149029,-1.00885820388794,-0.483590662479401,0.650201678276062,-1.0620943502576,-0.456989527434725,0.657486997379635,8
2.18000793457031,-0.988314926624298,2.16154265403748,1.87587332725525,-1.18104303873349,2.45764655539322,1.87397899203979,2252.711,3536.639,3318.829,0,-0.09018315,0.03006564,0.1184263,-1.01303040981293,-0.483302026987076,0.638233482837677,-1.06667099276523,-0.458958728849171,0.660320157107579,7
2.19999694824219,-1.00875687599182,2.1518497467041,1.8890233039856,-1.20240821395574,2.44845371736898,1.88720505326679,2055.869,2621.693,2654.291,1847.26,-0.08370635,0.03071088,0.1149464,-1.02210128307343,-0.484650373458862,0.657501101493835,-1.07097597819164,-0.460811043810786,0.662985148161421,7
2.22000122070313,-1.02927255630493,2.14217138290405,1.9019148349762,-1.22387315175433,2.43921795429519,1.90049287228091,2234.927,3550.465,3308.391,0,-0.08779909,0.0305234,0.1184567,-1.02578687667847,-0.483923643827438,0.644578099250793,-1.07501419914593,-0.462548577472581,0.665484999299265,7
2.24000549316406,-1.04996228218079,2.13247513771057,1.91519379615784,-1.24541615591711,2.42994860144581,1.91382901809327,2049.906,2606.904,2623.368,1886.432,-0.08109645,0.03119697,0.1147007,-1.03448808193207,-0.484808206558228,0.663947701454163,-1.07878069424208,-0.464169195088763,0.667816639186824,5
2.260009765625,-1.07071602344513,2.12280178070068,1.92820274829865,-1.26703177594152,2.42064800401982,1.92721011658316,2214.79,3579.715,3283.933,0,-0.0852579,0.0310781,0.1181782,-1.03768861293793,-0.483662843704224,0.650445163249969,-1.08227399942825,-0.465672266718726,0.669979161506271,4
2.27999877929688,-1.09163308143616,2.11312079429626,1.94158434867859,-1.28869796983554,2.41132564607061,1.9406225227075,2048.041,2587.266,2612.654,1902.861,-0.07861758,0.03180714,0.1142078,-1.04585599899292,-0.484049916267395,0.669081091880798,-1.08549040888332,-0.467056197851165,0.67197027217779,4
2.30000305175781,-1.11260414123535,2.10347127914429,1.95468258857727,-1.31044231452835,2.40196966201596,1.95408330789913,2212.136,3566.156,3284.571,0,-0.08284615,0.03170814,0.1174095,-1.04855358600616,-0.482480049133301,0.654910504817963,-1.08843358680109,-0.468322565086307,0.673792239511894,0
2.32000732421875,-1.13372802734375,2.09382295608521,1.96814906597137,-1.33224276726637,2.39258953623693,1.96757882664355,2046.713,2583.785,2606.372,1898.323,-0.07627346,0.03242268,0.1131785,-1.05618917942047,-0.482419639825821,0.673324406147003,-1.09109983431736,-0.469469776906228,0.675442773735451,0
2.34001159667969,-1.15489542484283,2.08421277999878,1.98132753372192,-1.35409377777295,2.38318765686251,1.9811056430551,2195.226,3580.511,3269.817,0,-0.08061176,0.03232734,0.1162727,-1.05836939811707,-0.480514407157898,0.658924520015717,-1.09348812118877,-0.470497390025984,0.676921237078733,0
2.36000061035156,-1.17620229721069,2.07461142539978,1.99485659599304,-1.37597305876702,2.37377361348711,1.99464996024512,2039.855,2575.302,2610.763,1889.993,-0.07423242,0.03301235,0.111973,-1.06534266471863,-0.480067133903503,0.676452457904816,-1.09559602313537,-0.471404361345641,0.678226128796969,0
2.3800048828125,-1.1975417137146,2.06505441665649,2.00808715820313,-1.39790843013262,2.36433543599182,2.00822900004707,2197.338,3551.456,3278.667,0,-0.07859468,0.03283178,0.1148362,-1.06698107719421,-0.477856159210205,0.661530613899231,-1.09742594550583,-0.472191725819537,0.679358937915576,0
2.40000915527344,-1.21900939941406,2.05551218986511,2.02166795730591,-1.41987760424917,2.35488271411715,2.02182896536211,2029.419,2580.791,2603.551,1884.12,-0.07218072,0.03341417,0.1104214,-1.0733790397644,-0.477109253406525,0.679034531116486,-1.09897546783438,-0.472858441988871,0.680318166050934,0
2.41999816894531,-1.24049866199493,2.04601883888245,2.03494572639465,-1.44185817738692,2.34542508756209,2.03543598721428,2179.722,3565.861,3261.913,0,-0.07655469,0.03315587,0.113328,-1.07446491718292,-0.474672347307205,0.663884699344635,-1.10024313330221,-0.473403883025206,0.681102911362803,0
2.44000244140625,-1.26210272312164,2.036545753479,2.04855942726135,-1.46387808506052,2.33595053645515,2.04906735901791,2012.785,2572.878,2597.479,1893.613,-0.07010399,0.03366612,0.1089501,-1.08020257949829,-0.47365328669548,0.68068939447403,-1.10123038958312,-0.473828671822132,0.681714070030222,0
2.46000671386719,-1.28371751308441,2.02712631225586,2.06186032295227,-1.48591492338117,2.32646870056377,2.06270921169857,2189.913,3539.12,3258.48,0,-0.07440978,0.03327186,0.1117029,-1.08074164390564,-0.470974981784821,0.665048658847809,-1.10193578218388,-0.474132182551855,0.682150741652607,0
2.48001098632813,-1.30543565750122,2.0177321434021,2.07549810409546,-1.5079630509786,2.31698200721197,2.07635805297935,1999.124,2581.161,2575.371,1901.779,-0.06785042,0.03365629,0.1072405,-1.08590161800385,-0.469706863164902,0.681892275810242,-1.10235904000526,-0.474314298567936,0.682412758406602,0
2.5,-1.32715260982513,2.00839591026306,2.08881044387817,-1.52999999932945,2.30750012397766,2.08999997377396,2169.527,3552.294,3244.142,0,-0.07218765,0.03316722,0.1100749,-1.08584547042847,-0.466811329126358,0.665622293949127,-1.10250000050292,-0.474374949932098,0.682500019669533,0
2.52000427246094,-1.34896087646484,1.99908983707428,2.10245609283447,-1.55205376834272,2.29801100328223,2.10365230735988,1977.847,2571.346,2551.476,1936.38,-0.06542215,0.03349736,0.1055643,-1.09041404724121,-0.465302765369415,0.682283639907837,-1.10235882472314,-0.474314205938057,0.682412625136718,0
2.54000854492188,-1.37075650691986,1.98984634876251,2.11576461791992,-1.57410188948011,2.28852431271001,2.11730114464159,2163.275,3554.023,3227.356,0,-0.06972422,0.03294904,0.1083868,-1.08978807926178,-0.462176918983459,0.665420830249786,-1.10193535162022,-0.474131997292339,0.682150475113189,0
2.55999755859375,-1.39263212680817,1.98063814640045,2.12940454483032,-1.59612191359838,2.27904971150017,2.13093258853001,1967.08,2565.723,2521.794,1962.343,-0.06283196,0.03323485,0.1037511,-1.09377133846283,-0.460406273603439,0.68200147151947,-1.10123038958312,-0.473828671822132,0.681714070030222,0
2.58000183105469,-1.41448271274567,1.97149753570557,2.14269018173218,-1.61814182127198,2.26957516039323,2.14456396033363,2145.329,3560.867,3216.517,0,-0.06718729,0.03266264,0.1065692,-1.09253907203674,-0.457036942243576,0.664278864860535,-1.10024313330221,-0.473403883025206,0.681102911362804,0
2.60000610351563,-1.43640172481537,1.96239745616913,2.1563093662262,-1.64013916343638,2.26011031859448,2.15818136301212,1954.498,2553.348,2491.351,1998.04,-0.06011234,0.03294393,0.1017385,-1.09595155715942,-0.455005466938019,0.680962383747101,-1.09897439291323,-0.472857979480329,0.680317500623536,0
2.62001037597656,-1.45828437805176,1.95336925983429,2.16956353187561,-1.66210831390746,2.25065760689379,2.17178131368948,2126.818,3582.67,3191.281,0,-0.0645497,0.03240347,0.1045619,-1.09413433074951,-0.451411545276642,0.662709951400757,-1.09742465646102,-0.47219117117957,0.679358139935436,0
2.63999938964844,-1.48022198677063,1.94438719749451,2.18313908576965,-1.68402693989188,2.24122663446822,2.18534998730279,1944.81,2536.317,2476.626,2017.858,-0.05750883,0.03270915,0.09959483,-1.0968736410141,-0.449103802442551,0.67877584695816,-1.09559602313537,-0.471404361345641,0.67822612879697,0
2.66000366210938,-1.50211119651794,1.93548154830933,2.19633674621582,-1.70592290617745,2.23180541187802,2.19890463348308,2124.308,3567.181,3188.083,0,-0.06201011,0.03216213,0.1022116,-1.0944744348526,-0.445280909538269,0.659887492656708,-1.09348640563071,-0.470496651869278,0.67692017506657,0
2.68000793457031,-1.52404272556305,1.92662668228149,2.2098536491394,-1.72777388024004,2.22240354818443,2.21243142733407,1936.779,2533.753,2463.962,2020.789,-0.05499321,0.03243325,0.09705549,-1.09656465053558,-0.442729473114014,0.675851106643677,-1.09109790637238,-0.469468947365361,0.675441580245664,0
2.69999694824219,-1.5459144115448,1.91785216331482,2.22298812866211,-1.74955768413056,2.21303058593937,2.22591663964878,2108.241,3579.573,3169.919,0,-0.05960741,0.03187295,0.09962499,-1.09358704090118,-0.438738018274307,0.656720459461212,-1.08843358680109,-0.468322565086308,0.673792239511893,0
2.72000122070313,-1.5678129196167,1.90913248062134,2.23642587661743,-1.77130202882336,2.20367460188472,2.23937742484041,1921.17,2525.041,2464.175,2021.999,-0.05271461,0.03211186,0.09445608,-1.09494030475616,-0.435984641313553,0.671893179416656,-1.08549040888332,-0.467056197851165,0.671970272177789,0
2.74000549316406,-1.58964133262634,1.9004955291748,2.24947476387024,-1.79298473688851,2.19434513834902,2.25280005402337,2117.301,3549.987,3169.151,0,-0.0573533,0.03145513,0.09681328,-1.09140658378601,-0.431846380233765,0.652445912361145,-1.08227143928024,-0.465671165158559,0.669977576652695,0
2.760009765625,-1.61148297786713,1.89191651344299,2.26282477378845,-1.81460030360772,2.18504456385877,2.26618111951479,1906.965,2534.934,2454.865,2014.349,-0.05051644,0.03157618,0.09160396,-1.09208631515503,-0.428946018218994,0.667502880096436,-1.07877792518082,-0.464168003639063,0.667814925005998,0
2.77999877929688,-1.63324248790741,1.88342249393463,2.27577781677246,-1.83612684690458,2.17578229366013,2.27950707526701,2101.465,3550.597,3161.813,0,-0.05521212,0.03081453,0.09400247,-1.08797335624695,-0.424710035324097,0.647651851177216,-1.07501419914593,-0.462548577472581,0.665484999299265,0
2.80000305175781,-1.65500271320343,1.87498843669891,2.28902912139893,-1.85759178470316,2.16654653058634,2.29279489428112,1882.877,2531.595,2439.856,2034.87,-0.04823677,0.03085062,0.08883546,-1.08800721168518,-0.421705573797226,0.662564337253571,-1.07097597819164,-0.460811043810786,0.662985148161422,0
2.82000732421875,-1.67666959762573,1.8666410446167,2.3018753528595,-1.87897323600723,2.1573466894188,2.30603103117811,2097.59,3544.686,3149.035,0,-0.05286961,0.02999228,0.09126391,-1.08335161209106,-0.417371809482574,0.642311215400696,-1.06666760390385,-0.458957270716794,0.660318059240952,0
2.84001159667969,-1.69832539558411,1.85835599899292,2.31502103805542,-1.90026581322863,2.14818508828617,2.31921215078427,1867.336,2530.719,2411.318,2058.385,-0.04572168,0.02994581,0.08608059,-1.08278453350067,-0.414246261119843,0.657284259796143,-1.06209075728,-0.456987981476842,0.657484773155346,0
2.86000061035156,-1.71987688541412,1.85016012191772,2.32774782180786,-1.9214480311499,2.13907097167731,2.33232495272651,2085.84,3547.428,3134.857,0,-0.05036677,0.02901881,0.08856423,-1.07757687568665,-0.409792125225067,0.636342406272888,-1.05725102347782,-0.454905579228273,0.654488747383304,0
2.8800048828125,-1.74140548706055,1.84202980995178,2.34077501296997,-1.94254691640495,2.12999271078668,2.34538616777867,1846.025,2521.376,2383.075,2096.221,-0.04297916,0.02893646,0.08329836,-1.07642817497253,-0.406518161296844,0.651356518268585,-1.0521429102862,-0.45270770082608,0.651326581984514,0
2.90000915527344,-1.76281940937042,1.83399140834808,2.35337376594543,-1.96354098577478,2.12095954924324,2.35838249680481,2076.391,3556.541,3112.52,0,-0.04761359,0.02798845,0.08579168,-1.07070016860962,-0.401920944452286,0.629943609237671,-1.04677201701582,-0.450396755497224,0.648001743199023,0
2.91999816894531,-1.78419852256775,1.82602226734161,2.36626982688904,-1.98440911693069,2.11198057539494,2.37130086407726,1835.631,2513.692,2355.031,2120.708,-0.04016846,0.02788663,0.08042372,-1.06894600391388,-0.398462444543839,0.644803524017334,-1.04114485287423,-0.447975543971863,0.644518260536375,0
2.94000244140625,-1.80545210838318,1.81814813613892,2.37872219085693,-2.00517798053537,2.10304431360073,2.38415778000673,2064.92,3553.68,3103.977,0,-0.04489823,0.02692609,0.08285604,-1.0626814365387,-0.393708050251007,0.622614145278931,-1.03525504859546,-0.445441325732794,0.640872191117535,0
2.96000671386719,-1.82665872573853,1.81034660339355,2.39147424697876,-2.02582645724542,2.09415985092405,2.3969401707136,1821.153,2505.358,2330.454,2147.535,-0.03735616,0.0268136,0.0773214,-1.06034171581268,-0.390074640512466,0.637598872184753,-1.02910913225408,-0.442796909628122,0.637067576131623,0
2.98001098632813,-1.84773027896881,1.80264282226563,2.40377521514893,-2.04634944795115,2.08532938136936,2.40964487960608,2047.13,3571.435,3081.376,0,-0.04219246,0.0258797,0.0797673,-1.05356502532959,-0.385188460350037,0.615053355693817,-1.02270954399162,-0.440043345582586,0.633105926142498,0
3,-1.86874175071716,1.79501509666443,2.41636490821838,-2.06672639957428,2.07656174835205,2.42225918334961,1807.908,2492.621,2319.527,2161.924,-0.03472389,0.02578038,0.0741796,-1.050577044487,-0.38138884305954,0.629485845565796,-1.01606400046349,-0.437183953857422,0.628992018127441,0
3.02000427246094,-1.88960778713226,1.78748750686646,2.42849326133728,-2.0869834279768,2.06784571494631,2.43479924890685,2047.776,3549.388,3080.887,0,-0.03961559,0.02482315,0.07645409,-1.04330468177795,-0.376380115747452,0.606421113014221,-1.00916501115878,-0.434215511495054,0.624721215103391,0
3.04000854492188,-1.91040194034576,1.78003859519958,2.44091153144836,-2.10709998486405,2.05919012250926,2.44725235590455,1795.277,2494.111,2306.731,2165.131,-0.0321385,0.02467294,0.07076018,-1.03970837593079,-0.372445642948151,0.620912790298462,-1.00202031904361,-0.431141350077486,0.620298310335216,0
3.05999755859375,-1.93104088306427,1.77269148826599,2.45286512374878,-2.12705600675913,2.05060360379452,2.45960608409476,2033.444,3559.003,3063.149,0,-0.03710902,0.02368703,0.07305095,-1.03194844722748,-0.367353349924088,0.597678005695343,-0.994638524886308,-0.427965170275055,0.615728628108227,0
3.08000183105469,-1.95159518718719,1.76542520523071,2.46509790420532,-2.14687713595163,2.04207512564123,2.47187630727625,1775.753,2488.403,2299.868,2174.251,-0.02967241,0.02350071,0.067405,-1.0277087688446,-0.363311648368835,0.611644148826599,-0.987011339258122,-0.424683405378145,0.611007036871143,0
3.10000610351563,-1.97198474407196,1.75826239585876,2.4768590927124,-2.16654331551667,2.03361331798384,2.48405060925705,2041.845,3531.962,3059.743,0,-0.03464826,0.02242639,0.06956065,-1.01949048042297,-0.358142763376236,0.588064730167389,-0.979147395688901,-0.421299770153459,0.606138881190213,0
3.12001037597656,-1.99227833747864,1.7511819601059,2.4889018535614,-2.18604984110275,2.02522020497339,2.49612607781951,1758.733,2496.923,2282.469,2179.005,-0.02718235,0.02214077,0.06389601,-1.01466512680054,-0.354012727737427,0.602132439613342,-0.971049893464309,-0.41781564116424,0.601126141575667,0
3.13999938964844,-2.01239800453186,1.74420642852783,2.50046443939209,-2.20537738341953,2.01690410346351,2.50809074721212,2026.833,3535.511,3048.19,0,-0.03221413,0.02098933,0.06612859,-1.00598251819611,-0.348786026239395,0.57813435792923,-0.962728579444533,-0.414235212212131,0.595974851798267,0
3.16000366210938,-2.03240966796875,1.73731482028961,2.51230812072754,-2.22455088103183,2.00865428308644,2.51996005559448,1734.669,2492.168,2261.646,2206.885,-0.02459696,0.02064659,0.06050047,-1.0005978345871,-0.344579786062241,0.592182278633118,-0.954174163352092,-0.410554485950274,0.590679260733698,0
3.18000793457031,-2.05223941802979,1.73052906990051,2.52366352081299,-2.24355101420387,2.00047905658478,2.53172204312984,2023.684,3530.4,3033.695,0,-0.02960689,0.01943489,0.06275913,-0.991491436958313,-0.339281469583511,0.567764699459076,-0.945396434568188,-0.406777674475913,0.585245428475253,0
3.19999694824219,-2.07195091247559,1.72382974624634,2.53530168533325,-2.2623590635174,1.99238647840124,2.54336512160655,1719.063,2489.959,2233.637,2231.463,-0.02186189,0.01903926,0.05710426,-0.985579669475555,-0.334970057010651,0.581907272338867,-0.936405971974636,-0.402909329586355,0.579679903854719,0
3.22000122070313,-2.09147214889526,1.71723806858063,2.54643821716309,-2.28099938900442,1.98436606709459,2.55490437104486,2012.027,3530.33,3022.338,0,-0.02690964,0.01779358,0.05939558,-0.976054549217224,-0.329581081867218,0.556828677654266,-0.927192788821982,-0.398945154262308,0.573976504598449,0
3.24000549316406,-2.11086463928223,1.71073508262634,2.55786228179932,-2.29945328359428,1.9764258717947,2.56632821087688,1702.696,2482.262,2203.578,2265.01,-0.018991,0.01737448,0.05364839,-0.969641387462616,-0.325147539377213,0.571208298206329,-0.91776751470058,-0.394889722119544,0.568141810929231,0
3.260009765625,-2.13005924224854,1.70434165000916,2.56877636909485,-2.31771654397337,1.96856770107001,2.57763403905129,1999.561,3542.872,2999.486,0,-0.02411119,0.01614016,0.05597663,-0.959721446037292,-0.319657295942307,0.545698761940002,-0.908134108040216,-0.390744736359816,0.562178273303667,0
3.27999877929688,-2.14911460876465,1.69804036617279,2.5799720287323,-2.33577134012187,1.96079922667992,2.58881081793642,1687.653,2471.457,2183.919,2288.827,-0.01618563,0.01573369,0.05017123,-0.952780425548553,-0.315084755420685,0.559787213802338,-0.898304216251578,-0.386515208538549,0.556093102023818,0
3.30000305175781,-2.167964220047,1.69185018539429,2.59064674377441,-2.35364119854729,1.95311032582551,2.59987311156116,1997.724,3529.144,2993.143,0,-0.02137879,0.01449795,0.05237959,-0.942483127117157,-0.309494405984879,0.53373658657074,-0.888267004546666,-0.382196476749158,0.549879589839776,0
3.32000732421875,-2.18666481971741,1.68575429916382,2.6016047000885,-2.37130830610839,1.94550866300381,2.61080989274252,1674.606,2470.435,2166.848,2299.73,-0.01345322,0.01406904,0.04647001,-0.935025095939636,-0.304797261953354,0.547901451587677,-0.878034183119985,-0.377793579561194,0.543544985919778,0
3.34001159667969,-2.20515203475952,1.67977166175842,2.61203694343567,-2.38876879352593,1.93799590305759,2.62161876621234,1985.892,3535.702,2976.563,0,-0.01876357,0.0128336,0.04867061,-0.924355864524841,-0.299132376909256,0.52161318063736,-0.867610144209785,-0.373308406832067,0.537092009268528,0
3.36000061035156,-2.22347927093506,1.67388486862183,2.62274575233459,-2.406005803634,1.93057929915441,2.6322892965819,1657.497,2466.042,2156.213,2310.233,-0.01092216,0.01239361,0.04277528,-0.916365265846252,-0.294342368841171,0.535438001155853,-0.857007552155826,-0.36874640767338,0.530528499715627,0
3.3800048828125,-2.24158620834351,1.66811227798462,2.63292002677917,-2.42304196557559,1.92324911460621,2.64283549236868,1985.837,3515.055,2975.803,0,-0.01629908,0.01112204,0.04488445,-0.90534633398056,-0.288629025220871,0.508712351322174,-0.846214826007803,-0.364102599125748,0.523847288101157,0
3.40000915527344,-2.25952363014221,1.66243672370911,2.6433744430542,-2.43986044461333,1.91601259293018,2.6532469320683,1640.664,2469.279,2140.691,2319.471,-0.00841985,0.01062795,0.0389654,-0.896862030029297,-0.283775269985199,0.522725164890289,-0.835244706287931,-0.359382463079953,0.517056261415284,0
3.41999816894531,-2.27723360061646,1.65687620639801,2.65329027175903,-2.45644516534361,1.90887665092339,2.66351366424015,1974.987,3520.075,2959.949,0,-0.01385909,0.009325061,0.04113553,-0.885508835315704,-0.278029650449753,0.495793879032135,-0.824110582941664,-0.354591760855451,0.510163708672097,0
3.44000244140625,-2.29476475715637,1.65141367912292,2.66348218917847,-2.47281804716281,1.90183185728196,2.67364925803476,1620.139,2465.437,2126.104,2337.204,-0.005948969,0.008802263,0.03528227,-0.876541912555695,-0.273121058940887,0.509590268135071,-0.812800388649434,-0.349725300221754,0.503162159625937,0
3.46000671386719,-2.31206226348877,1.64606702327728,2.67312788963318,-2.4889630419904,1.89488511704659,2.68364377892579,1980.46,3500.475,2952.873,0,-0.01140579,0.007444267,0.03738952,-0.864891171455383,-0.267341643571854,0.482287704944611,-0.801327600455845,-0.344788879974649,0.496059957209413,0
3.48001098632813,-2.32917213439941,1.64081919193268,2.68305349349976,-2.50487694859767,1.88803780761656,2.69349524520019,1603.858,2470.165,2104.496,2350.766,-0.003445065,0.006859882,0.03152326,-0.8554767370224,-0.262373089790344,0.496276080608368,-0.789697369743255,-0.339784716610052,0.488860290373601,0
3.5,-2.34604287147522,1.63568830490112,2.69242477416992,-2.5205447997813,1.88129636896134,2.70319439144611,1969.686,3502.365,2940.27,0,-0.008981245,0.005466356,0.03368595,-0.843536078929901,-0.256561607122421,0.468561559915543,-0.777924000354857,-0.334718964672089,0.481572013878822,0
3.52000427246094,-2.36271667480469,1.6306574344635,2.70207667350769,-2.53598752699493,1.87465179486116,2.71275417523047,1583.313,2466.004,2083.625,2376.522,-0.0009379653,0.004855569,0.0278363,-0.833695948123932,-0.251537382602692,0.482592165470123,-0.765994882555673,-0.32958619854407,0.474187321698442,0
3.54000854492188,-2.37914657592773,1.62574350833893,2.7111668586731,-2.55119019794619,1.86811051026429,2.72216535275294,1967.317,3496.804,2927.357,0,-0.006521016,0.003442452,0.0300014,-0.821498990058899,-0.245689868927002,0.454508066177368,-0.753924423002452,-0.324392617007921,0.466715132239272,0
3.55999755859375,-2.39537167549133,1.62093162536621,2.72053909301758,-2.56613872308604,1.86167857751006,2.73141920191151,1569.002,2464.754,2061.657,2394.827,0.001545608,0.002807821,0.02413795,-0.811253130435944,-0.240600347518921,0.468614965677261,-0.741727567798258,-0.319144650954242,0.459164697851087,0
3.58000183105469,-2.41134786605835,1.6162371635437,2.72933983802795,-2.58085326729328,1.85534732021446,2.74052820572674,1959.784,3491.935,2919.169,0,-0.004127367,0.00138684,0.02630598,-0.798815667629242,-0.23472099006176,0.440035313367844,-0.729391385793765,-0.313836736470737,0.451528013536464,0
3.60000610351563,-2.42711138725281,1.61164593696594,2.73842644691467,-2.59531978247425,1.84912278287974,2.74948366775945,1553.745,2461.446,2040.57,2416.092,0.003987887,0.0007382254,0.0204082,-0.788183569908142,-0.229575678706169,0.454330414533615,-0.716930938559024,-0.308475354130224,0.443814403124743,0
3.62001037597656,-2.44262218475342,1.60717248916626,2.74693560600281,-2.60953584173048,1.8430060097325,2.75828408564387,1952.075,3494.879,2903.961,0,-0.001784318,-0.0006700513,0.02260092,-0.775525987148285,-0.223670467734337,0.42545410990715,-0.704352136620513,-0.303063047067126,0.436027525513372,0
3.63999938964844,-2.45791220664978,1.60280275344849,2.75572800636292,-2.6234885835008,1.83700253474321,2.76692149746096,1538.226,2457.044,2025.534,2432.24,0.006295737,-0.001312406,0.01671391,-0.764516353607178,-0.21847939491272,0.439624667167664,-0.691670720740692,-0.297606588091786,0.428177124984152,0
3.66000366210938,-2.47294569015503,1.59855127334595,2.76393914222717,-2.63719712493647,1.83110413233575,2.77540773763803,1943.506,3486.89,2891.362,10.25356,0.000507356,-0.002690325,0.01886961,-0.751667022705078,-0.212564617395401,0.410560607910156,-0.678873453515702,-0.29210028151913,0.420255006953505,0
3.68000793457031,-2.48775124549866,1.59440493583679,2.77243137359619,-2.65064865588166,1.82531631436231,2.78373487607838,1529.434,2457.252,2013.572,2434.579,0.008519148,-0.003331082,0.01299413,-0.740292847156525,-0.20733530819416,0.424611806869507,-0.665976209205203,-0.286550957599616,0.412270998344358,0
3.69999694824219,-2.50229692459106,1.59037613868713,2.78034901618958,-2.66383127580226,1.81964420129024,2.79189554578451,1922.856,3490.367,2860.216,40.79722,0.00281817,-0.004632303,0.01513059,-0.727272629737854,-0.20141838490963,0.395887166261673,-0.65299527533123,-0.280965624398954,0.404235181908735,0
3.72000122070313,-2.51660752296448,1.58645343780518,2.78853034973145,-2.6767633032417,1.81407991116207,2.79990108680742,1525.619,2457.926,2013.733,2417.613,0.01058814,-0.005232046,0.009363207,-0.715538144111633,-0.196150973439217,0.409063816070557,-0.639917282339434,-0.275338529371411,0.396139281255611,0
3.74000549316406,-2.53065538406372,1.58264851570129,2.7961540222168,-2.6894328975087,1.80862853869646,2.80774416919516,1902.584,3473.115,2821.504,101.3604,0.005168164,-0.00641662,0.01130795,-0.70237922668457,-0.190243273973465,0.381188184022903,-0.626758665639204,-0.269676744214497,0.387993470686332,0
3.760009765625,-2.54446077346802,1.57894968986511,2.80401468276978,-2.70183851231475,1.80329074921818,2.81542383572149,1535.849,2472.271,2025.4,2360.918,0.01246557,-0.006975884,0.005684496,-0.690282940864563,-0.184935122728348,0.393035650253296,-0.613526094901139,-0.263983138701136,0.379801879044709,0
3.77999877929688,-2.5580005645752,1.57536864280701,2.81134223937988,-2.7139695770734,1.79807109095524,2.82293354268985,1877.779,3445.222,2780.087,181.4795,0.007372944,-0.008036887,0.007339194,-0.676989674568176,-0.179060116410255,0.366382241249084,-0.60023651686137,-0.258265004538452,0.371574997167698,0
3.80000305175781,-2.57129144668579,1.57189393043518,2.81887221336365,-2.72584333814708,1.79296214327972,2.83028396642013,1545.179,2497.058,2051.302,2280.058,0.01404097,-0.008557802,0.001948764,-0.664531350135803,-0.173747181892395,0.376499533653259,-0.586876524285838,-0.252516572968186,0.363304525338741,0
3.82000732421875,-2.58431363105774,1.56853461265564,2.82590270042419,-2.73744929742843,1.78796842323393,2.8374686080838,1852.696,3407.243,2735.152,277.2769,0.009370271,-0.009505888,0.003269564,-0.651105105876923,-0.167945310473442,0.351526647806168,-0.573463232144022,-0.246745208083563,0.355001058539243,0
3.83999633789063,-2.59707975387573,1.56528127193451,2.83309602737427,-2.74877791451009,1.78309403578861,2.84448156171422,1557.889,2533.093,2084.179,2177.321,0.01527924,-0.01000709,-0.001775263,-0.638301491737366,-0.162671864032745,0.359662771224976,-0.560014026276881,-0.240958390526246,0.346675359432959,0
3.86000061035156,-2.60957479476929,1.56214129924774,2.83982729911804,-2.75984563331209,1.77833190558438,2.85133300688122,1822.061,3360.392,2689.992,388.9085,0.01111919,-0.01085451,-0.0007749799,-0.624752759933472,-0.15699066221714,0.336567580699921,-0.546515580872635,-0.235150386571708,0.338319178707605,0
3.8800048828125,-2.62180781364441,1.55910539627075,2.84668064117432,-2.77064299647982,1.77368610185671,2.85801708903178,1570.703,2573.934,2119.635,2067.512,0.01629228,-0.01134453,-0.00539876,-0.611647665500641,-0.151799276471138,0.34266597032547,-0.532985466132484,-0.229328756186666,0.329943393154704,0
3.90000915527344,-2.63376784324646,1.55618000030518,2.85311317443848,-2.78116944461445,1.76915686529929,2.86453346187138,1796.079,3309.933,2641.046,504.3768,0.01270169,-0.01211046,-0.004707403,-0.59799599647522,-0.146264970302582,0.321621596813202,-0.519431110871129,-0.223496695782554,0.321552601564443,0
3.91999816894531,-2.64546060562134,1.55335664749146,2.85962533950806,-2.79141684911929,1.7647476934202,2.87087709341145,1581.971,2618.444,2154.715,1956.385,0.01715101,-0.01259302,-0.008865663,-0.584645211696625,-0.141177028417587,0.325609892606735,-0.505870408491346,-0.2176619043907,0.313157880805522,0
3.94000244140625,-2.65687918663025,1.55064034461975,2.86575770378113,-2.8014005971492,1.76045196555656,2.87705750903383,1769.948,3255.885,2592.48,624.1028,0.01418292,-0.01328491,-0.008476841,-0.570916831493378,-0.135804429650307,0.306618899106979,-0.492290296490434,-0.211818761581115,0.30475114456651,0
