t,x_s1,x_s2,x_s3,x_s_d1,x_s_d2,x_s_d3,propellers_rpms1,propellers_rpms2,propellers_rpms3,propellers_rpms4,rollRad,pitchRad,yawRad,v_s1,v_s2,v_s3,v_s_d1,v_s_d2,v_s_d3,insideCount
0,-0.0599999986588955,2.94000005722046,1.17999994754791,-0.0599999986588955,2.94000005722046,1.17999994754791,0,0,0,0,0,0,0,0,0,0,-1.06581410364015E-15,4.44089209850063E-16,4.44089209850063E-16,0
0.0200042724609375,-0.0599999986588955,2.94000005722046,1.1771354675293,-0.0600018701838461,2.93999925195556,1.18000110611101,0,0,0,0,0.0163538,-0.002474609,-2.024222E-05,3.71994488546079E-08,3.50004931704007E-08,-0.143225952982903,-0.000280105751305916,-0.000120521679537258,0.00017339880334547,5
0.0399932861328125,-0.0599999986588955,2.94000005722046,1.17048275470734,-0.060014863945674,2.93999366110285,1.18000914986856,0,0,0,0,0.03270752,-0.004950816,-5.430172E-05,3.62924410524101E-08,3.44428769949445E-08,-0.332637369632721,-0.00111059898697896,-0.000477859717552347,0.000687513678106196,6
0.05999755859375,-0.0600004345178604,2.94013237953186,1.16416537761688,-0.0600498857373401,2.93997859220429,1.18003083002592,3185.182,2835.672,1501.344,2767.742,0.03128216,-0.00494336,-0.01646952,-2.17777997022495E-05,0.00662205973640084,-0.315866738557816,-0.00247936261166862,-0.00106680046642749,0.00153484356504269,6
0.0800018310546875,-0.0599162131547928,2.9403874874115,1.15857708454132,-0.0601175574246769,2.93994947496775,1.18007272202403,3066.065,3067.351,2154.765,2023.927,0.01897811,-0.004311125,-0.04351445,0.00421100296080112,0.0127505138516426,-0.279414087533951,-0.00437268608126799,-0.00188144466206175,0.00270690098422899,6
0.100006103515625,-0.0596375465393066,2.94068741798401,1.15374851226807,-0.0602282404704493,2.93990185114529,1.18014124010193,2640.412,3831.792,2620.119,1134.785,-0.00585203,-0.002888997,-0.07014553,0.0139334248378873,0.0149990078061819,-0.241430014371872,-0.00677739276378709,-0.00291612276782231,0.00419552897277328,6
0.1199951171875,-0.0590848848223686,2.94089865684509,1.14957022666931,-0.0603918861403606,2.93983143898525,1.18024254456713,2092.144,4102,3169.368,755.9529,-0.04012052,-0.0004511395,-0.08993655,0.0276331454515457,0.0105631183832884,-0.208911597728729,-0.00967801353495435,-0.00416417885169243,0.00599115140585487,5
0.139999389648438,-0.0582314655184746,2.94085597991943,1.14596664905548,-0.0606185767455666,2.93973390035084,1.18038287685052,1509.82,4074.808,3736.101,702.1599,-0.07649291,0.002388631,-0.09949782,0.0426709204912186,-0.00212864298373461,-0.180180862545967,-0.0130660253322238,-0.00562194567796536,0.00808849210174802,4
0.160003662109375,-0.0570994280278683,2.94039463996887,1.14297807216644,-0.0609177895434042,2.93960515744296,1.18056810382587,1135.5,3846.896,4069.747,879.8394,-0.1062777,0.004335342,-0.09870101,0.0566018968820572,-0.0230679474771023,-0.149430781602859,-0.0169265510445065,-0.00728302204135792,0.0104783414199936,4
0.17999267578125,-0.0557376928627491,2.93938779830933,1.14071130752563,-0.0612985250199726,2.93944133760391,1.18080379722281,1101.06,3565.41,4009.875,1148.807,-0.1236298,0.004491817,-0.09000047,0.0680867731571198,-0.0503394827246666,-0.11334003508091,-0.0212433804254414,-0.00914043312572283,0.0131506644458931,3
0.199996948242188,-0.054196435958147,2.93777704238892,1.13924849033356,-0.0617704296168641,2.93923829023936,1.18109592864822,1372.789,3339.654,3595.068,1386.597,-0.1278738,0.003022869,-0.07724819,0.0770627856254578,-0.0805345773696899,-0.0731382369995117,-0.0260104776919234,-0.0111915819022102,0.0161017247421801,3
0.220001220703125,-0.0525141879916191,2.93557596206665,1.1385840177536,-0.0623420644491781,2.93899233174064,1.18144979784016,1791.279,3212.742,3016.703,1527.051,-0.122972,0.0008608057,-0.06426101,0.0841125249862671,-0.110050901770592,-0.0332254394888878,-0.03121219533433,-0.0134297356845702,0.019321835755004,3
0.240005493164063,-0.0507195070385933,2.93284702301025,1.13860714435577,-0.0630219993990999,2.93869977472688,1.18187070996396,2159.386,3168.774,2517.156,1558.232,-0.1149655,-0.0009880328,-0.05362222,0.0897341221570969,-0.136451736092567,0.00115440040826797,-0.0368361158647881,-0.0158495515746756,0.0228033104678445,3
0.259994506835938,-0.0488371625542641,2.92966485023499,1.13913798332214,-0.0638179029240226,2.93835731967507,1.18236341216003,2351.914,3159.025,2273.849,1495.926,-0.1090548,-0.001904693,-0.04623727,0.0941172763705254,-0.159105867147446,0.02654086984694,-0.0428651747123285,-0.0184436871643672,0.0265355850983733,3
0.279998779296875,-0.0468916222453117,2.92608761787415,1.13999593257904,-0.0647390625194898,2.93796097043536,1.18293365383054,2351.911,3152.214,2324.76,1363.847,-0.1078175,-0.001744371,-0.04152134,0.0972770377993584,-0.178859412670135,0.0429000034928322,-0.0492963837173861,-0.0212108567320638,0.030516809833474,3
0.300003051757813,-0.0449086017906666,2.92214369773865,1.14106202125549,-0.0657927507678135,2.93750759781875,1.18358593705038,2229.798,3143.8,2572.474,1194.488,-0.1110858,-0.000737163,-0.03798733,0.0991510525345802,-0.197191253304482,0.0533048734068871,-0.0561132031658829,-0.0241439437008635,0.0347367458022363,3
0.319992065429688,-0.0429167523980141,2.91783547401428,1.142294049263,-0.0669855955880233,2.93699435001684,1.18432436481717,2074.202,3133.069,2873.096,1032.022,-0.1169335,0.0006859004,-0.03397927,0.0995924770832062,-0.215405881404877,0.0616018623113632,-0.0632980253096114,-0.0272353719486164,0.0391844929697465,3
0.339996337890625,-0.040948748588562,2.91315102577209,1.14370715618134,-0.068326768706371,2.93641728069206,1.18515461486636,1954.493,3107.055,3109.736,922.1723,-0.1228415,0.002070007,-0.02837279,0.09840027987957,-0.234222531318665,0.0706573128700256,-0.0708499516420146,-0.0304847548730522,0.0438594951176439,3
0.360000610351563,-0.0390399843454361,2.90807723999023,1.14534342288971,-0.0698225328270578,2.93577369517774,1.1860805641102,1905.274,3065.472,3221.855,880.8794,-0.126702,0.00309234,-0.02087226,0.0954382419586182,-0.253693282604218,0.0818127021193504,-0.0787518717320621,-0.0338847303337087,0.0487511600740379,3
0.3800048828125,-0.0372254773974419,2.90261030197144,1.14724361896515,-0.0714797725314022,2.93506063123087,1.18710647443246,1924.144,3021.797,3206.961,895.2914,-0.1274205,0.003641866,-0.01188462,0.0907252281904221,-0.273341298103333,0.0950083062052727,-0.0869921272359981,-0.0374302820709642,0.0538522707687797,3
0.399993896484375,-0.0355370119214058,2.89676141738892,1.14943170547485,-0.0733036822025899,2.9342758538535,1.18823556140379,1991.102,2988.908,3098.734,939.658,-0.1250445,0.003790666,-0.002209891,0.08442322909832,-0.292449682950974,0.10940358042717,-0.0955525119207663,-0.0411135764513579,0.0591515566763244,3
0.419998168945313,-0.0340016856789589,2.89055490493774,1.1519056558609,-0.0753034649285836,2.93341540321397,1.18947352217404,2071.422,2974.436,2954.21,986.7979,-0.1205064,0.003708411,0.007339199,0.076766349375248,-0.310321986675262,0.12369691580534,-0.104434660908044,-0.0449353170220673,0.0646500300148815,3
0.44000244140625,-0.032642275094986,2.88402462005615,1.15464174747467,-0.077483988232608,2.93247718495301,1.19082336997196,2137.145,2972.524,2824.69,1023.39,-0.1150725,0.003564308,0.01614687,0.0679710134863853,-0.326508790254593,0.136806964874268,-0.113620829717891,-0.048887868829098,0.0703367061060819,4
0.460006713867188,-0.0314780920743942,2.8772075176239,1.15760159492493,-0.0798512213598696,2.93145863067119,1.19228880004469,2168.575,2978.548,2748.927,1037.921,-0.1098735,0.003474696,0.02394644,0.0582091733813286,-0.340849757194519,0.147992610931396,-0.123099793815011,-0.0529664022684887,0.0762046364278779,4
0.479995727539063,-0.0305264368653297,2.87013840675354,1.16074788570404,-0.0824088828700873,2.93035814037613,1.19387211435783,2168.064,2983.511,2732.34,1033.819,-0.1055464,0.003481757,0.03074675,0.0475824549794197,-0.353460073471069,0.157316714525223,-0.132852887402757,-0.0571628859694044,0.0822422659629699,4
0.5,-0.0298032648861408,2.86284685134888,1.16405165195465,-0.085166398670376,2.92917165836334,1.1955791479969,2145.871,2989.654,2764.089,1008.682,-0.1022734,0.003569687,0.03680092,0.0361586958169937,-0.364580810070038,0.165188759565353,-0.142884000065179,-0.0614789935111996,0.0884520025491718,4
0.520004272460938,-0.0293240509927273,2.8553569316864,1.16749918460846,-0.088127196023106,2.92789770997757,1.19741202260058,2117.468,2991.883,2815.955,979.0168,-0.09982912,0.003686576,0.04240715,0.0239606946706772,-0.374498307704926,0.172379419207573,-0.153174893518032,-0.065906877469682,0.0948225558197254,4
0.539993286132813,-0.0291037447750568,2.84768843650818,1.17108559608459,-0.091293865515634,2.92653518056143,1.19937234186584,2089.617,2993.288,2871.189,948.8362,-0.09783282,0.003776299,0.04786342,0.011015216819942,-0.383424192667007,0.179322451353073,-0.163706645289342,-0.0704383960337938,0.101342211863077,4
0.55999755859375,-0.0291572399437428,2.83985829353333,1.17481577396393,-0.094676112580471,2.92507989413848,1.20146611391775,2069.436,2987.775,2909.285,936.4968,-0.09578325,0.003796206,0.05329702,-0.00267467647790909,-0.391504406929016,0.18651071190834,-0.17448465888317,-0.0750758741803766,0.108014315705644,5
0.580001831054688,-0.0294986963272095,2.83188271522522,1.17869853973389,-0.0982762614093182,2.92353085067394,1.20369477754168,2064.891,2985.919,2921.195,930.8906,-0.09337948,0.003717304,0.05873591,-0.0170729774981737,-0.398783266544342,0.194137334823608,-0.185490414529404,-0.0798113433697334,0.11482740272751,5
0.600006103515625,-0.0301409102976322,2.82377815246582,1.18273937702179,-0.102098762959148,2.92188613504538,1.20606108809202,2067.024,2985.361,2912.496,936.9622,-0.0905054,0.003537553,0.06411484,-0.0321105942130089,-0.405232071876526,0.202043622732162,-0.196713446836865,-0.0846403006364086,0.121774994352997,5
0.6199951171875,-0.0310952179133892,2.8155620098114,1.18694221973419,-0.106144683970236,2.92014528826426,1.20856570593183,2074.195,2985.845,2886.591,953.8026,-0.08718017,0.003272028,0.06928828,-0.0477155409753323,-0.410807490348816,0.210140079259872,-0.208134604141382,-0.0895545055543457,0.128845234789665,5
0.639999389648438,-0.0323708541691303,2.80725288391113,1.19130420684814,-0.110424235525481,2.91830391678686,1.21121495220784,2081.937,2991.844,2857.212,967.4925,-0.08360621,0.002941591,0.07415286,-0.0637818872928619,-0.415455162525177,0.218099474906921,-0.219761081350814,-0.0945570538913933,0.136042578028218,5
0.660003662109375,-0.0339755080640316,2.79886937141418,1.19582271575928,-0.114938248900541,2.91636166293851,1.21400934151928,2088.55,2998.283,2825.006,985.3387,-0.07999017,0.002568113,0.07859178,-0.080232709646225,-0.419173151254654,0.22592556476593,-0.231574097577923,-0.0996398647564507,0.143355397804799,5
0.67999267578125,-0.0359145291149616,2.79043006896973,1.20048701763153,-0.119686638739014,2.91431856344567,1.21694882102647,2088.762,3009.307,2807.647,990.0829,-0.07662021,0.002167256,0.08261728,-0.0969504192471504,-0.421969354152679,0.233214735984802,-0.243554411173546,-0.104794659005432,0.150771782621969,6
0.699996948242188,-0.0381924100220203,2.7819516658783,1.20529067516327,-0.124680083855354,2.91217002351282,1.22004000142426,2081.193,3012.825,2797.693,1004.316,-0.07353627,0.001760606,0.08619335,-0.113894246518612,-0.423922121524811,0.240181401371956,-0.255710395848158,-0.11002503961202,0.158296916205407,6
0.720001220703125,-0.0408122651278973,2.77344942092896,1.21022665500641,-0.129918284978346,2.90991617190799,1.22328269744952,2076.79,3022.697,2797.087,1000.223,-0.07087044,0.00134518,0.08940242,-0.130993038415909,-0.425109088420868,0.246797978878021,-0.268023157655716,-0.11532287703907,0.16591910230247,6
0.740005493164063,-0.0437763892114162,2.76493692398071,1.21528935432434,-0.13540428105644,2.90755570105657,1.22667879035609,2066.04,3026.834,2803.689,1001.729,-0.06858705,0.0009273083,0.09230114,-0.148206204175949,-0.425629168748856,0.253133207559586,-0.280482990349159,-0.120683994959631,0.173632332283853,6
0.759994506835938,-0.047086525708437,2.75642538070679,1.22047591209412,-0.14113644597991,2.90508931062815,1.2302272735046,2056.951,3029.895,2812.053,1001.502,-0.06660513,0.0005074118,0.09494309,-0.165507465600967,-0.425577372312546,0.259328424930573,-0.293070637251543,-0.126100107763583,0.181424685349205,6
0.779998779296875,-0.0507438071072102,2.7479248046875,1.22578406333923,-0.147126184485884,2.90251209348295,1.23393520697061,2049.077,3032.354,2821.313,999.8412,-0.06484211,8.411407E-05,0.09738159,-0.182863846421242,-0.425030887126923,0.265406012535095,-0.305795832832518,-0.131575403921268,0.189302187598958,6
0.800003051757813,-0.054749246686697,2.73944354057312,1.23121654987335,-0.153371683173492,2.89982482987671,1.2378014681726,2046.465,3034.562,2820.566,1003.553,-0.06320587,-0.0003435478,0.0996135,-0.200271844863892,-0.42406439781189,0.271625399589539,-0.318639638509124,-0.13710173468952,0.197253115148089,6
0.819992065429688,-0.0591024570167065,2.73098921775818,1.23676931858063,-0.159870162197751,2.89702871589906,1.2418243362541,2044.059,3039.702,2823.909,999.076,-0.06174273,-0.0007803062,0.1016949,-0.217660784721375,-0.422716975212097,0.277639806270599,-0.33158286215529,-0.142670842232658,0.205265587156312,6
0.839996337890625,-0.0638033300638199,2.72256827354431,1.24244463443756,-0.166633637018892,2.89411858163313,1.24601124935738,2039.182,3037.732,2818.576,1013.654,-0.06031261,-0.001209075,0.1035545,-0.235044091939926,-0.421046853065491,0.283763140439987,-0.344636106234817,-0.148287288494656,0.213346167053785,6
0.860000610351563,-0.068850502371788,2.714186668396,1.24824011325836,-0.173659158941841,2.89109569582005,1.2503603820997,2043.433,3045.493,2813.518,1008.403,-0.05905133,-0.00164104,0.1052335,-0.252357929944992,-0.419081032276154,0.289775460958481,-0.357780475378537,-0.153942943326036,0.221483157706883,6
0.8800048828125,-0.074242115020752,2.70584940910339,1.25415420532227,-0.180948461186242,2.88795931270381,1.25487280742661,2040.403,3047.131,2807.843,1017.449,-0.05794399,-0.002061287,0.106701,-0.26958155632019,-0.416866600513458,0.295706391334534,-0.371007022483504,-0.159633957038354,0.229671020432672,6
0.899993896484375,-0.0799756199121475,2.69756054878235,1.26018345355988,-0.18849723509595,2.8847112861788,1.25954585807468,2039.657,3051.176,2805.772,1018.246,-0.0570497,-0.002468218,0.1079726,-0.286674916744232,-0.414442658424377,0.301463931798935,-0.384296738353309,-0.165352150505452,0.237897987633041,7
0.919998168945313,-0.0860479772090912,2.68932342529297,1.26632511615753,-0.196318384305134,2.8813460641717,1.26438752200817,2036.389,3052.812,2806.304,1021.786,-0.05635675,-0.002852778,0.1090501,-0.303618520498276,-0.411856144666672,0.30708521604538,-0.397661187980262,-0.171102499820431,0.246171218589148,7
0.94000244140625,-0.0924560725688934,2.68114018440247,1.27257931232452,-0.204407453948074,2.87786556348678,1.26939504145298,2037.676,3056.841,2803.983,1021.694,-0.05589123,-0.003217099,0.1099451,-0.32040411233902,-0.409158378839493,0.312709718942642,-0.411081631631503,-0.176876941799768,0.254479112513653,7
0.960006713867188,-0.099195659160614,2.67301225662231,1.27894032001495,-0.212765478812529,2.87426933888379,1.27456905699201,2035.388,3060.496,2811.011,1015.881,-0.05571013,-0.003561712,0.1107173,-0.336979568004608,-0.406391769647598,0.31805232167244,-0.424549556012544,-0.182671813410681,0.262816399271726,7
0.979995727539063,-0.106263294816017,2.66493988037109,1.28541016578674,-0.22138664033507,2.87055989392801,1.27990596665734,2031.605,3058.617,2812.158,1024.256,-0.05568244,-0.003872236,0.1113288,-0.353382527828217,-0.403616607189178,0.323495358228683,-0.438046240701377,-0.188479059778567,0.271171490030365,7
1,-0.113654240965843,2.65692281723022,1.29198265075684,-0.230284798736574,2.86673126495361,1.28541435058594,2031.897,3062.627,2824.819,1010.45,-0.05589655,-0.004161988,0.1118728,-0.369546711444855,-0.400857716798782,0.328624904155731,-0.451584000205995,-0.194303979492187,0.279552008056641,7
1.02000427246094,-0.121365398168564,2.64895915985107,1.29866600036621,-0.239454009753966,2.86278600961093,1.2910905289958,2031.681,3059.957,2819.146,1023.978,-0.05616394,-0.004414988,0.1122621,-0.385558307170868,-0.398177653551102,0.334169656038284,-0.465144357597929,-0.200138622445408,0.287946515251652,7
1.03999328613281,-0.129391014575958,2.64104771614075,1.30544888973236,-0.248887339851819,2.85872711120656,1.2969302096982,2035.969,3068.244,2835.832,997.644,-0.05673811,-0.004660532,0.1126611,-0.401281625032425,-0.395576149225235,0.339147329330444,-0.478708875293167,-0.205975055460915,0.29634359787259,7
1.05999755859375,-0.137728363275528,2.63318538665771,1.3123425245285,-0.258599401509697,2.85454828239877,1.30294243851408,2028.466,3057.802,2829.21,1028.189,-0.05722547,-0.004851747,0.1128871,-0.416867256164551,-0.393121987581253,0.344679117202759,-0.492290296490434,-0.211818761581115,0.30475114456651,7
1.08000183105469,-0.146371513605118,2.62536954879761,1.31933605670929,-0.268583149539609,2.85025255453512,1.30912285413647,2041.677,3070.969,2844.117,990.3616,-0.05802229,-0.005042429,0.1131481,-0.432156085968018,-0.390792280435562,0.349676311016083,-0.50587040849135,-0.217661904390701,0.313157880805523,7
1.10000610351563,-0.155317604541779,2.61759638786316,1.32644128799438,-0.278838480013141,2.84583997233313,1.31547139222872,2034.332,3060.908,2834.804,1023.597,-0.05873655,-0.005180913,0.1132484,-0.44730469584465,-0.388657361268997,0.355260580778122,-0.519441457145546,-0.223501147495394,0.321559006401169,7
1.1199951171875,-0.164560168981552,2.60986280441284,1.33364343643188,-0.289357002179081,2.84131414609862,1.32198285851614,2044.942,3072.844,2856.128,983.4564,-0.05977784,-0.0053178,0.1134158,-0.462128639221191,-0.386680990457535,0.36010730266571,-0.532985466132485,-0.229328756186667,0.329943393154705,8
1.13999938964844,-0.174097001552582,2.60216403007507,1.34095871448517,-0.300154365346813,2.83666834237095,1.3286669406667,2036.143,3059.303,2844.929,1024.761,-0.06063325,-0.005390771,0.1134006,-0.476842433214188,-0.384940654039383,0.365761309862137,-0.546515580872639,-0.235150386571708,0.338319178707607,8
1.16000366210938,-0.183921322226524,2.59449648857117,1.34837079048157,-0.311222084148811,2.83190621216671,1.33551838583369,2053.901,3076.553,2867.781,970.931,-0.06186683,-0.005473861,0.1134973,-0.491216629743576,-0.383379936218262,0.370605975389481,-0.560014026276883,-0.240958390526247,0.34667535943296,8
1.17999267578125,-0.194031417369843,2.5868546962738,1.3558988571167,-0.322550701230474,2.8270318247214,1.34253133946411,2042.983,3061.093,2852.539,1021.146,-0.06288469,-0.005491971,0.1134084,-0.505503416061401,-0.382092207670212,0.376402884721756,-0.573463232144024,-0.246745208083563,0.355001058539242,8
1.19999694824219,-0.204419553279877,2.57923483848572,1.36351871490479,-0.334156660511822,2.8220381046756,1.34971598112778,2057.749,3077.891,2888.542,957.4413,-0.06431641,-0.005523396,0.1134957,-0.519406676292419,-0.380990236997604,0.380990236997604,-0.58687652428584,-0.252516572968185,0.36330452533874,8
1.22000122070313,-0.215086042881012,2.57163071632385,1.37126338481903,-0.346030421585499,2.81692915700008,1.35706640485806,2048.127,3057.78,2857.75,1028.686,-0.0653332,-0.005474394,0.1133168,-0.533324480056763,-0.380205988883972,0.387236028909683,-0.600236516861372,-0.258265004538453,0.371574997167698,8
1.24000549316406,-0.226021245121956,2.5640389919281,1.37909376621246,-0.358170848086624,2.8117054706409,1.36458190719098,2072.256,3086.645,2909.473,926.4317,-0.06701046,-0.005474394,0.1134593,-0.546759784221649,-0.379584223031998,0.391518741846085,-0.613536214864368,-0.263987493038594,0.379808143784027,8
1.25999450683594,-0.237227886915207,2.55645227432251,1.38705837726593,-0.3705671011502,2.80637170925886,1.37225577835275,2047.911,3050.79,2863.192,1046.027,-0.06796973,-0.005356682,0.1132096,-0.5603346824646,-0.379332602024078,0.398227959871292,-0.626758665639206,-0.269676744214496,0.387993470686331,8
1.27999877929688,-0.248694017529488,2.54886841773987,1.39509904384613,-0.383236695417198,2.80092033679326,1.3800988607405,2084.745,3093.421,2938.635,891.8566,-0.06983128,-0.005325257,0.1134467,-0.573306143283844,-0.379191279411316,0.402032017707825,-0.639917282339435,-0.275338529371412,0.396139281255613,8
1.30000305175781,-0.260426372289658,2.54127860069275,1.40329170227051,-0.396168722856641,2.79535604666509,1.38810440176341,2050.922,3042.287,2859.701,1072.226,-0.07056897,-0.005137238,0.1130933,-0.586619257926941,-0.379486560821533,0.40963014960289,-0.652995275331231,-0.280965624398954,0.404235181908735,8
1.31999206542969,-0.272408574819565,2.53368258476257,1.411545753479,-0.409351342777246,2.78968393359302,1.39626507146953,2106.699,3109.108,2969.144,837.2444,-0.0727288,-0.005102084,0.1135001,-0.599108457565308,-0.379798263311386,0.412704706192017,-0.665976209205206,-0.286550957599616,0.412270998344359,8
1.33999633789063,-0.284652680158615,2.52606987953186,1.41997110843658,-0.422802873722428,2.78389611561957,1.40459220990988,2043.259,3026.242,2854.546,1119.034,-0.07313733,-0.004833105,0.11302,-0.612204432487488,-0.380638152360916,0.421269148588181,-0.678873453515705,-0.29210028151913,0.420255006953505,8
1.36000061035156,-0.297136902809143,2.51844263076782,1.42843985557556,-0.436511415158101,2.77799771321212,1.41307845008695,2131.894,3126.714,3005.51,771.7018,-0.07558744,-0.004801679,0.1136271,-0.624212622642517,-0.381362020969391,0.423438012599945,-0.691670720740693,-0.297606588091785,0.42817712498415,9
1.3800048828125,-0.309880465269089,2.51078772544861,1.43710875511169,-0.450474904562636,2.77198961381608,1.4217225152016,2039.23,3010.232,2835.381,1177.377,-0.07557199,-0.004452273,0.1129695,-0.6371790766716,-0.382743000984192,0.433444857597351,-0.704361775018035,-0.303067194200314,0.436033492140578,9
1.39999389648438,-0.322853088378906,2.50311160087585,1.44578850269318,-0.464680216184654,2.76587746507559,1.43051627978847,2158.706,3150.968,3057.484,680.7964,-0.07850839,-0.004451207,0.1138911,-0.64862996339798,-0.383807957172394,0.433987587690353,-0.716930938559026,-0.308475354130225,0.443814403124744,9
1.41999816894531,-0.336084991693497,2.49539685249329,1.45471000671387,-0.47914673136562,2.75965292774086,1.43947174182117,2020.701,2979.862,2805.393,1277.217,-0.07776111,-0.003986752,0.1129412,-0.661596179008484,-0.385738015174866,0.446078330278397,-0.729391385793766,-0.313836736470737,0.451528013536465,9
1.44000244140625,-0.349533379077911,2.48765587806702,1.46359765529633,-0.493861275572861,2.75332167044526,1.4485807456364,2200.847,3189.051,3123.583,544.991,-0.0813633,-0.004050668,0.114303,-0.672419428825378,-0.387050688266754,0.444382011890411,-0.741727567798258,-0.319144650954242,0.459164697851088,9
1.46000671386719,-0.363244473934174,2.47986483573914,1.47278881072998,-0.508821304757097,2.74688478782212,1.45784171634646,1994.953,2940.436,2747.177,1423.336,-0.0796152,-0.003449859,0.1129215,-0.685553848743439,-0.389551520347595,0.459560930728912,-0.753933682518823,-0.324396601119133,0.466720864320996,9
1.47999572753906,-0.377155780792236,2.47204518318176,1.48187279701233,-0.524012471663969,2.74034845309416,1.46724577231745,2251.993,3243.512,3219.669,350.12,-0.08429065,-0.003628291,0.1149471,-0.695568919181824,-0.390979200601578,0.454200387001038,-0.765994882555672,-0.329586198544069,0.474187321698441,9
1.5,-0.391338437795639,2.46416306495667,1.49135172367096,-0.539455198877605,2.73370387899399,1.4768055561018,1942.691,2875.189,2657.314,1656.696,-0.0809585,-0.002816027,0.1128783,-0.709132194519043,-0.394106268882751,0.473948270082474,-0.777924000354858,-0.334718964672088,0.481572013878822,9
1.52000427246094,-0.40570068359375,2.45625352859497,1.50061702728271,-0.555135099954955,2.72695725560613,1.48651216180595,2330.698,3328.033,3351.825,56.97425,-0.08721639,-0.003177151,0.1158676,-0.718113541603088,-0.395473718643188,0.463264316320419,-0.789706299681991,-0.339788558913217,0.48886581843107,9
1.53999328613281,-0.420350313186646,2.44826674461365,1.5104147195816,-0.571036956668503,2.72011513090874,1.49635616862212,1864.495,2784.091,2506.984,2006.601,-0.08161577,-0.00206608,0.1127665,-0.73248028755188,-0.399333864450455,0.489882737398148,-0.801327600455846,-0.344788879974649,0.496059957209413,9
1.55999755859375,-0.435166120529175,2.44024753570557,1.51996839046478,-0.587181951496087,2.71316839067337,1.50635068951315,2137.771,3676.085,3255.425,0,-0.08788005,-0.00147912,0.1177718,-0.740790128707886,-0.400958240032196,0.47768160700798,-0.812800388649436,-0.349725300221754,0.503162159625937,9
1.58000183105469,-0.450267553329468,2.43214917182922,1.53004431724548,-0.60355483331529,2.70612359703193,1.51648628330776,1940.301,2590.273,2425.905,2214.264,-0.0812882,0.0005661134,0.1141737,-0.755072236061096,-0.404917478561401,0.503793597221375,-0.824110582941666,-0.354591760855452,0.510163708672098,9
1.60000610351563,-0.465528249740601,2.42402172088623,1.53985142707825,-0.620152298932711,2.69898217125626,1.52676090517188,2180.178,3673.832,3226.844,0,-0.08740974,0.002027748,0.1184519,-0.763034403324127,-0.406372159719467,0.49035519361496,-0.835253140422976,-0.35938609205264,0.51706148254665,9
1.6199951171875,-0.481065332889557,2.41582298278809,1.55014908313751,-0.636958033083316,2.69175113334911,1.53716445517924,2042.655,2524.161,2467.931,2148.728,-0.08146184,0.004631699,0.1136401,-0.776853740215302,-0.409943044185638,0.514885604381561,-0.846214826007804,-0.364102599125749,0.523847288101157,9
1.63999938964844,-0.496755957603455,2.4075973033905,1.56020426750183,-0.653994195024907,2.68442094880091,1.54771065096602,2179.113,3699.779,3217.763,0,-0.08803505,0.006672312,0.1168405,-0.784531831741333,-0.411278784275055,0.502760827541351,-0.857007552155828,-0.368746407673381,0.530528499715628,9
1.66000366210938,-0.512701153755188,2.39930629730225,1.57067680358887,-0.671244443874359,2.67699864863716,1.55838937674714,2121.008,2518.563,2612.774,1933.789,-0.0841724,0.00943382,0.1117199,-0.797264397144318,-0.414555132389069,0.523625612258911,-0.867618167158098,-0.373311858882592,0.53709697585572,9
1.67999267578125,-0.52879410982132,2.3909854888916,1.58093929290771,-0.688691692550512,2.66949158495151,1.56919005480539,2230.641,3582.264,3298.85,0,-0.09135814,0.01142834,0.113764,-0.804647386074066,-0.416044771671295,0.51312381029129,-0.878034183119987,-0.377793579561193,0.543544985919778,9
1.69999694824219,-0.545122027397156,2.38259482383728,1.59157180786133,-0.706358800111611,2.66188992212981,1.58012683598675,2130.615,2574.106,2791.905,1692.558,-0.08912855,0.01385469,0.1090619,-0.816397130489349,-0.419536679983139,0.531628608703613,-0.888267004546665,-0.382196476749158,0.549879589839776,9
1.72000122070313,-0.561593890190125,2.37416291236877,1.60203945636749,-0.724228658537036,2.6542010212754,1.5911891296115,2254.085,3486.708,3383.079,0,-0.09616835,0.01538982,0.1109397,-0.823589980602264,-0.421598106622696,0.523382067680359,-0.898304216251578,-0.386515208538549,0.556093102023817,9
1.74000549316406,-0.578288435935974,2.36564826965332,1.61286306381226,-0.742297311768984,2.64642658456943,1.60237448669139,2119.2,2638.361,2898.698,1534.734,-0.09426685,0.01723076,0.1073382,-0.8347287774086,-0.425735294818878,0.541179120540619,-0.908141534469281,-0.390747931744771,0.562182870617028,9
1.75999450683594,-0.595123469829559,2.35707950592041,1.62354147434235,-0.760546715064628,2.63857437616062,1.61367173667103,2286.251,3401.819,3442.023,0,-0.1005194,0.01806757,0.1097428,-0.841751337051392,-0.428438544273376,0.533919274806976,-0.917767514700581,-0.394889722119545,0.568141810929231,9
1.77999877929688,-0.612179219722748,2.34841370582581,1.63459956645966,-0.779000609654483,2.63063418086074,1.62509557650306,2084.851,2683.145,2898.44,1529.554,-0.09743974,0.01931133,0.1071048,-0.852791368961334,-0.433292806148529,0.55290299654007,-0.927192788821983,-0.398945154262308,0.57397650459845,9
1.80000305175781,-0.629372119903564,2.33968544006348,1.64551591873169,-0.797640935141499,2.62261376955408,1.63663482594136,2300.669,3408.13,3423.513,0,-0.1026196,0.01957141,0.1104438,-0.859645187854767,-0.436409771442413,0.545820593833923,-0.936405971974637,-0.402909329586356,0.579679903854719,9
1.81999206542969,-0.646787703037262,2.33085250854492,1.65683901309967,-0.816448984455027,2.61452119137054,1.64827790441807,2065.664,2695.956,2812.536,1627.086,-0.09803628,0.02043636,0.1083614,-0.870782852172852,-0.441647917032242,0.566156566143036,-0.945396434568188,-0.406777674475912,0.585245428475252,9
1.83999633789063,-0.664334833621979,2.32195830345154,1.66799259185791,-0.835449117627072,2.60634596486888,1.66003989195343,2306.151,3440.7,3385.912,0,-0.102577,0.02037751,0.1123944,-0.877350807189941,-0.444714426994324,0.557680130004883,-0.954174163352093,-0.410554485950274,0.590679260733698,9
1.86000061035156,-0.682108819484711,2.31296014785767,1.6795825958252,-0.854622615239374,2.59809614449182,1.6719092003358,2049.644,2680.578,2705.874,1773.84,-0.09667754,0.02114999,0.1101896,-0.888705551624298,-0.449907928705215,0.579502046108246,-0.962728579444532,-0.414235212212131,0.595974851798267,9
1.8800048828125,-0.700008630752563,2.30390763282776,1.69097793102264,-0.873964974649439,2.58977366760063,1.68388304221498,2280.275,3530.423,3323.98,0,-0.1010632,0.02114823,0.11468,-0.894985556602478,-0.452630072832108,0.569769501686096,-0.971056158224177,-0.417818336715394,0.601130019760457,9
1.89999389648438,-0.718135178089142,2.29476046562195,1.70280599594116,-0.893456683142228,2.58138692997148,1.69594933829086,2053.159,2639.322,2646.91,1876.91,-0.0947345,0.02208784,0.1121264,-0.906329929828644,-0.457363605499268,0.591403126716614,-0.979147395688901,-0.421299770153459,0.606138881190213,9
1.91999816894531,-0.736382484436035,2.28556966781616,1.71441578865051,-0.913122862707269,2.57292512231409,1.70812364027167,2273.621,3554.93,3310.962,0,-0.09924323,0.02227877,0.1164182,-0.912365198135376,-0.45953693985939,0.580489754676819,-0.987011339258123,-0.424683405378145,0.611007036871143,9
1.94000244140625,-0.75485497713089,2.27629613876343,1.72645485401154,-0.932943991899774,2.5643966441608,1.72039386345315,2069.147,2615.391,2638.717,1899.904,-0.09298,0.0233949,0.1133314,-0.923619031906128,-0.463664323091507,0.601951003074646,-0.994638524886308,-0.427965170275055,0.615728628108227,9
1.95999145507813,-0.773444175720215,2.26698923110962,1.73827433586121,-0.952900013794853,2.55581012544606,1.73274759164336,2252.566,3590.493,3301.061,0,-0.0976938,0.02381086,0.1173705,-0.929463028907776,-0.465348482131958,0.590976119041443,-1.00202031904361,-0.431141350077486,0.620298310335216,9
1.97999572753906,-0.792251169681549,2.25761222839355,1.75049555301666,-0.973016570682103,2.54715453300902,1.74520069864106,2086.406,2595.538,2680.776,1860.734,-0.091919,0.02505218,0.1140564,-0.940348446369171,-0.468857258558273,0.611060321331024,-1.00916501115878,-0.434215511495054,0.624721215103391,9
2,-0.811171650886536,2.24820995330811,1.76250207424164,-0.993273599084619,2.53843849960327,1.7577407641983,2272.001,3547.391,3327.818,0,-0.09667541,0.0254906,0.1175494,-0.946029782295227,-0.470109403133392,0.600325465202332,-1.01606400046349,-0.437183953857422,0.628992018127441,9
2.02000427246094,-0.830302834510803,2.23874688148499,1.7748988866806,-1.01366615605493,2.52966415204104,1.77036472839513,2098.817,2612.897,2723.384,1786.581,-0.09130062,0.026644,0.1141241,-0.95655220746994,-0.473151385784149,0.619838774204254,-1.02271452148052,-0.440045487257004,0.633109007445237,9
2.03999328613281,-0.849542617797852,2.22926473617554,1.78708720207214,-1.03417354141348,2.52084039703127,1.78305977683431,2265.807,3531.857,3347.295,0,-0.09601121,0.02696946,0.1174572,-0.961991786956787,-0.474103480577469,0.609413862228394,-1.02910913225408,-0.442796909628122,0.637067576131623,9
2.05999755859375,-0.868985176086426,2.21972846984863,1.79965627193451,-1.05482201812353,2.5119559343546,1.79584216754118,2092.367,2623.208,2749.925,1749.65,-0.09066146,0.02797309,0.1141602,-0.972131669521332,-0.476815938949585,0.62845253944397,-1.03525504859546,-0.445441325732794,0.640872191117535,9
2.08000183105469,-0.888531148433685,2.21017837524414,1.81201863288879,-1.07559088172821,2.50301967256038,1.80869908347065,2275.105,3507.215,3356.185,0,-0.09511267,0.0280932,0.1174494,-0.977295279502869,-0.477505087852478,0.618121206760406,-1.04114485287423,-0.447975543971863,0.644518260536375,9
2.10000610351563,-0.908273577690125,2.20057964324951,1.82476353645325,-1.09647498538954,2.49403382618922,1.82162733848484,2084.508,2638.702,2739.878,1743.646,-0.08950938,0.02890335,0.1142584,-0.987122714519501,-0.479936897754669,0.637244820594788,-1.04677621342161,-0.450398561093403,0.648004340974112,9
2.1199951171875,-0.928111672401428,2.19097304344177,1.83729147911072,-1.11745308225396,2.48500753716864,1.83461377976925,2268.639,3508,3351.215,0,-0.09375605,0.02883045,0.1176876,-0.991907954216003,-0.480328172445297,0.62639707326889,-1.0521429102862,-0.45270770082608,0.651326581984514,9
2.13999938964844,-0.948140799999237,2.18132424354553,1.85020589828491,-1.138551967509,2.47592927627801,1.8476749948214,2065.844,2637.332,2709.938,1783.838,-0.08766327,0.02952123,0.1144985,-1.00145721435547,-0.482440173625946,0.645723700523376,-1.05725102347782,-0.454905579228273,0.654488747383304,8
2.16000366210938,-0.96825760602951,2.17167496681213,1.86289143562317,-1.15975039167652,2.46680818657414,1.86079782920208,2261.005,3525.491,3328.946,0,-0.09170862,0.02934481,0.1180525,-1.00584161281586,-0.48246693611145,0.634274899959564,-1.0620943502576,-0.456989527434725,0.657486997379635,8
2.17999267578125,-0.988559186458588,2.1619918346405,1.87596487998962,-1.18102676265167,2.45765355853653,1.8739689163698,2058.799,2630.614,2667.781,1828.475,-0.08527655,0.02998703,0.1147396,-1.01507890224457,-0.484162718057632,0.653673052787781,-1.06666760390386,-0.458957270716794,0.660318059240953,8
2.19999694824219,-1.00893890857697,2.15231704711914,1.88878738880157,-1.20240821395574,2.44845371736898,1.88720505326679,2244.719,3541.094,3315.555,0,-0.08930964,0.02978684,0.1183243,-1.01898264884949,-0.48373880982399,0.641122937202454,-1.07097597819164,-0.460811043810786,0.662985148161421,7
2.22000122070313,-1.02949690818787,2.14261770248413,1.9020026922226,-1.22387315175433,2.43921795429519,1.90049287228091,2050.502,2614.965,2628.247,1880.655,-0.08256492,0.03045656,0.114714,-1.02790713310242,-0.484961479902267,0.66076397895813,-1.07501419914593,-0.462548577472581,0.665484999299265,7
2.24000549316406,-1.05012357234955,2.1329357624054,1.9149534702301,-1.24541615591711,2.42994860144581,1.91382901809327,2220.667,3579.447,3286.526,0,-0.08667257,0.0303405,0.1183098,-1.03133571147919,-0.484091371297836,0.647540986537933,-1.07878069424208,-0.464169195088763,0.667816639186824,5
2.25999450683594,-1.07091891765594,2.12324023246765,1.92828238010406,-1.26701526177039,2.4206551096063,1.92719989352455,2049.326,2591.325,2613.394,1905.549,-0.07996833,0.03108984,0.1144575,-1.03976356983185,-0.484780132770538,0.666446447372437,-1.08227143928024,-0.465671165158559,0.669977576652695,5
2.27999877929688,-1.0917729139328,2.11357140541077,1.94133198261261,-1.28869796983554,2.41132564607061,1.9406225227075,2217.641,3567.697,3286.678,0,-0.08416069,0.03101909,0.1177605,-1.04270577430725,-0.483445197343826,0.652480006217957,-1.08549040888332,-0.467056197851165,0.67197027217779,2
2.30000305175781,-1.11278545856476,2.10389852523804,1.95475506782532,-1.31044231452835,2.40196966201596,1.95408330789913,2049.963,2585.618,2607.569,1901.913,-0.07754006,0.03177622,0.1136037,-1.05063056945801,-0.483641296625137,0.67115443944931,-1.08843358680109,-0.468322565086307,0.673792239511894,1
2.31999206542969,-1.13384699821472,2.09425973892212,1.96789467334747,-1.33222611841886,2.3925966997709,1.96756852021384,2199.292,3584.563,3271.835,0,-0.08186024,0.03173488,0.1167749,-1.05307590961456,-0.481937050819397,0.656982600688934,-1.09109790637238,-0.469468947365361,0.675441580245663,0
2.33999633789063,-1.15505361557007,2.08462572097778,1.98138642311096,-1.35407709248145,2.38319483607731,1.98109531406483,2043.548,2574.719,2619.777,1888.174,-0.07547079,0.03247911,0.1125402,-1.06033360958099,-0.481697201728821,0.674589097499847,-1.09348640563071,-0.470496651869278,0.67692017506657,0
2.36000061035156,-1.1762992143631,2.07503247261047,1.99458932876587,-1.37597305876702,2.37377361348711,1.99464996024512,2211.288,3549.189,3278.376,0,-0.07981174,0.03234302,0.1153894,-1.06228315830231,-0.479663550853729,0.66014701128006,-1.09559602313537,-0.471404361345641,0.678226128796969,0
2.3800048828125,-1.19767796993256,2.06545066833496,2.00813889503479,-1.39790843013262,2.36433543599182,2.00822900004707,2035.687,2587.374,2620.682,1864.333,-0.07355225,0.03295624,0.1110704,-1.06893360614777,-0.479090809822083,0.677477896213531,-1.09742594550583,-0.472191725819537,0.679358937915576,0
2.39999389648438,-1.21908438205719,2.05591440200806,2.02139234542847,-1.41986083522252,2.35488992936084,2.02181858453579,2194.522,3549.029,3275.886,0,-0.07793262,0.03269688,0.1139156,-1.07032787799835,-0.476812779903412,0.662671148777008,-1.09897439291323,-0.472857979480329,0.680317500623536,0
2.41999816894531,-1.24061191082001,2.04639458656311,2.0349862575531,-1.44185817738692,2.34542508756209,2.03543598721428,2015.257,2585.312,2612.486,1875.191,-0.07155647,0.03320397,0.1096277,-1.07637655735016,-0.475985646247864,0.679700136184692,-1.10024313330221,-0.473403883025206,0.681102911362803,0
2.44000244140625,-1.26215648651123,2.03692507743835,2.04827570915222,-1.46387808506052,2.33595053645515,2.04906735901791,2191.639,3541.101,3266.417,0,-0.07583404,0.03281698,0.1124749,-1.07722783088684,-0.473481416702271,0.664472997188568,-1.10123038958312,-0.473828671822132,0.681714070030222,0
2.45999145507813,-1.28381085395813,2.02747702598572,2.0619056224823,-1.48589810917879,2.32647593524532,2.06269880290633,2001.916,2586.453,2584.945,1895.203,-0.06925976,0.03321777,0.1081543,-1.08272016048431,-0.47240823507309,0.681500554084778,-1.10193535162022,-0.474131997292339,0.68215047511319,0
2.47999572753906,-1.30547046661377,2.01808381080627,2.07521390914917,-1.50794623031618,2.31698924467309,2.07634764018804,2175.147,3546.334,3255.915,0,-0.07350058,0.03274138,0.1110745,-1.08297419548035,-0.46965703368187,0.665412425994873,-1.10235882472314,-0.474314205938057,0.682412625136718,0
2.5,-1.32722949981689,2.00871729850769,2.08886814117432,-1.52999999932945,2.30750012397766,2.08999997377396,1985.906,2576.534,2545.502,1941.362,-0.06658808,0.03309944,0.1066061,-1.08795535564423,-0.468323618173599,0.682717204093933,-1.10250000050292,-0.474374949932098,0.682500019669533,0
2.52000427246094,-1.34898209571838,1.99941086769104,2.10218715667725,-1.55205376834272,2.29801100328223,2.10365230735988,2155.635,3573.875,3225.803,0,-0.07084861,0.0326248,0.1096121,-1.08762228488922,-0.465316325426102,0.665952801704407,-1.10235882472314,-0.474314205938057,0.682412625136718,0
2.53999328613281,-1.37082183361053,1.99013757705688,2.11584281921387,-1.57408507527774,2.28853154739156,2.11729073584934,1974.635,2557.23,2518.092,1978.402,-0.06383118,0.03300519,0.1049875,-1.09199035167694,-0.463665097951889,0.682785391807556,-1.10193578218388,-0.474132182551855,0.682150741652607,0
2.55999755859375,-1.39264321327209,1.98093032836914,2.12914657592773,-1.59612191359838,2.27904971150017,2.13093258853001,2150.242,3567.327,3216.541,0,-0.06814709,0.0325356,0.1078259,-1.0910667181015,-0.460364729166031,0.66518622636795,-1.10123038958312,-0.473828671822132,0.681714070030222,0
2.58000183105469,-1.41453981399536,1.97176241874695,2.14278554916382,-1.61814182127198,2.26957516039323,2.14456396033363,1967.578,2549.537,2496.517,1995.119,-0.06109558,0.03291024,0.1029428,-1.09482991695404,-0.458394587039948,0.681952714920044,-1.10024313330221,-0.473403883025206,0.681102911362804,0
2.60000610351563,-1.43640613555908,1.96266555786133,2.15606498718262,-1.64013916343638,2.26011031859448,2.15818136301212,2131.159,3587.223,3194.222,0,-0.06555904,0.03246698,0.1057162,-1.09331929683685,-0.45485132932663,0.663967728614807,-1.09897439291323,-0.472857979480329,0.680317500623536,0
2.6199951171875,-1.45833325386047,1.95361351966858,2.16966342926025,-1.66209156852628,2.2506648119635,2.17177094750084,1957.576,2536.659,2492.497,1999.802,-0.05868755,0.032844,0.1007322,-1.09635889530182,-0.45259553194046,0.679920971393585,-1.09742594550583,-0.472191725819537,0.679358937915576,0
2.63999938964844,-1.48021841049194,1.94463682174683,2.18289089202881,-1.68402693989188,2.24122663446822,2.18534998730279,2131,3562.043,3198.52,0,-0.06323782,0.03235696,0.1032734,-1.0942610502243,-0.448835909366608,0.66137433052063,-1.09559602313537,-0.471404361345641,0.67822612879697,0
2.66000366210938,-1.50215125083923,1.93570959568024,2.19643592834473,-1.70592290617745,2.23180541187802,2.19890463348308,1946.186,2538.988,2485.635,1995.269,-0.05640309,0.03266144,0.09815797,-1.09664011001587,-0.446366459131241,0.67725682258606,-1.09348640563071,-0.470496651869278,0.67692017506657,0
2.67999267578125,-1.52403044700623,1.92686033248901,2.20960688591003,-1.72775723139253,2.2224107117184,2.21242112090437,2114.074,3573.162,3182.367,0,-0.06102207,0.03212379,0.1007079,-1.09396469593048,-0.442467331886292,0.658546149730682,-1.09109983431736,-0.469469776906228,0.675442773735451,0
2.69999694824219,-1.54594278335571,1.91806364059448,2.22308111190796,-1.74955768413056,2.21303058593937,2.22591663964878,1928.275,2531.956,2483.961,1998.788,-0.05423474,0.03236767,0.09564312,-1.09561812877655,-0.439827769994736,0.673713982105255,-1.08843358680109,-0.468322565086308,0.673792239511893,0
2.72000122070313,-1.56779050827026,1.90934777259827,2.23617386817932,-1.77130202882336,2.20367460188472,2.23937742484041,2124.752,3542.203,3181.028,0,-0.05881698,0.03170259,0.0980291,-1.0923877954483,-0.435793489217758,0.654639601707458,-1.08549040888332,-0.467056197851165,0.671970272177789,0
2.74000549316406,-1.58965849876404,1.90068745613098,2.24957084655762,-1.79298473688851,2.19434513834902,2.25280005402337,1912.52,2542.144,2466.757,2000.464,-0.05197106,0.03181449,0.09293006,-1.09340107440948,-0.433015942573547,0.669853985309601,-1.08227143928024,-0.465671165158559,0.669977576652695,0
2.75999450683594,-1.61145031452179,1.89210999011993,2.26257658004761,-1.81458384274179,2.18505164650952,2.26617092945464,2107.123,3549.179,3168.684,0,-0.05658205,0.03104113,0.09540486,-1.0895881652832,-0.428873509168625,0.650288939476013,-1.07878069424208,-0.464169195088763,0.667816639186824,0
2.77999877929688,-1.63324987888336,1.88359045982361,2.2758846282959,-1.83612684690458,2.17578229366013,2.27950707526701,1888.287,2535.86,2444.243,2031.627,-0.0495332,0.03107871,0.09032227,-1.08997738361359,-0.425971984863281,0.665407121181488,-1.07501419914593,-0.462548577472581,0.665484999299265,0
2.80000305175781,-1.65496218204498,1.87515640258789,2.28879117965698,-1.85759178470316,2.16654653058634,2.29279489428112,2102.678,3547.046,3152.498,0,-0.05409253,0.03022495,0.0928226,-1.08561611175537,-0.42170324921608,0.645331919193268,-1.07097597819164,-0.460811043810786,0.662985148161422,0
2.81999206542969,-1.67667043209076,1.86678373813629,2.30200123786926,-1.87895695992541,2.1573536925621,2.30602095550813,1873.773,2532.365,2412.555,2060.05,-0.04687483,0.03019999,0.08767333,-1.0854115486145,-0.418645918369293,0.66050112247467,-1.06667099276523,-0.458958728849171,0.660320157107579,0
2.83999633789063,-1.69828009605408,1.85849905014038,2.31479382514954,-1.90024960698239,2.14819206138118,2.31920211834584,2086.651,3552.62,3139.703,0,-0.05146612,0.02930659,0.09021408,-1.08048415184021,-0.414225846529007,0.639625489711761,-1.06209435025759,-0.456989527434725,0.657486997379635,0
2.86000061035156,-1.71987414360046,1.85027933120728,2.32789373397827,-1.9214480311499,2.13907097167731,2.33232495272651,1858.173,2521.167,2378.827,2099.943,-0.04402791,0.02926543,0.08491735,-1.0797107219696,-0.410993456840515,0.654999077320099,-1.05725102347782,-0.454905579228273,0.654488747383304,0
2.8800048828125,-1.74135911464691,1.84215080738068,2.34056568145752,-1.94254691640495,2.12999271078668,2.34538616777867,2070.091,3572.458,3113.451,0,-0.04869004,0.02839411,0.08749381,-1.0742439031601,-0.406417012214661,0.633602976799011,-1.0521429102862,-0.45270770082608,0.651326581984514,0
2.89999389648438,-1.76281571388245,1.83409130573273,2.35353589057922,-1.96352501326936,2.1209664217661,2.35837260906308,1845.51,2505.448,2359.612,2125.422,-0.04124491,0.02837539,0.08208568,-1.07283186912537,-0.402982115745544,0.648512661457062,-1.04677621342161,-0.450398561093403,0.648004340974112,0
2.91999816894531,-1.78415238857269,1.82612657546997,2.36606597900391,-1.98440911693069,2.11198057539494,2.37130086407726,2067.195,3559.14,3107.647,0,-0.04597522,0.02750427,0.08449434,-1.06683719158173,-0.398239880800247,0.626498878002167,-1.04114485287423,-0.447975543971863,0.644518260536375,0
2.94000244140625,-1.80544865131378,1.81823396682739,2.37889361381531,-2.00517798053537,2.10304431360073,2.38415778000673,1835.309,2502.478,2344.112,2133.372,-0.0385386,0.02746106,0.07892099,-1.06480228900909,-0.394619286060333,0.641382992267609,-1.03525504859546,-0.445441325732794,0.640872191117535,0
2.95999145507813,-1.82661426067352,1.81043887138367,2.39127635955811,-2.02581075424974,2.0941666074844,2.39693044981124,2052.315,3570.084,3089.28,0,-0.04338929,0.02658756,0.08129497,-1.05828630924225,-0.389753580093384,0.619132220745087,-1.02911391720548,-0.442798968459032,0.637070538244476,0
2.97999572753906,-1.84772562980652,1.80271923542023,2.40394353866577,-2.04633384260397,2.08533609591429,2.40963521915279,1818.009,2494.82,2341.292,2138.224,-0.036064,0.0265252,0.07571894,-1.05556774139404,-0.385983824729919,0.633364737033844,-1.02271452148052,-0.440045487257004,0.633109007445237,0
3,-1.86869692802429,1.79509878158569,2.41615986824036,-2.06672639957428,2.07656174835205,2.42225918334961,2059.903,3542.674,3087.42,0,-0.04095356,0.02557723,0.07790933,-1.04855668544769,-0.381017833948135,0.610816717147827,-1.01606400046349,-0.437183953857422,0.628992018127441,0
3.02000427246094,-1.88960099220276,1.78755617141724,2.42866015434265,-2.0869834279768,2.06784571494631,2.43479924890685,1802.521,2503.831,2330.634,2133.999,-0.0336794,0.02541738,0.07230826,-1.04520487785339,-0.377142995595932,0.625008821487427,-1.00916501115878,-0.434215511495054,0.624721215103391,0
3.03999328613281,-1.91035461425781,1.780113697052,2.44070219993591,-2.10708469520508,2.05919670122237,2.4472428908773,2045.673,3541.964,3079.606,0,-0.03863395,0.02438361,0.07454256,-1.0376889705658,-0.372116357088089,0.602101385593414,-1.00202586176059,-0.431143734953757,0.620301741541063,0
3.05999755859375,-1.93102931976318,1.77275037765503,2.45302653312683,-2.12705600675913,2.05060360379452,2.45960608409476,1778.16,2501.286,2315.014,2154.569,-0.03123835,0.02415149,0.06899609,-1.03373527526855,-0.368171066045761,0.616219341754913,-0.994638524886308,-0.427965170275055,0.615728628108227,0
3.08000183105469,-1.95154452323914,1.76548862457275,2.46488547325134,-2.14687713595163,2.04207512564123,2.47187630727625,2042.638,3534.585,3067.272,0,-0.03614868,0.02303551,0.07126205,-1.02575421333313,-0.363080561161041,0.592946529388428,-0.987011339258122,-0.424683405378145,0.611007036871143,0
3.10000610351563,-1.97196924686432,1.75830781459808,2.4770290851593,-2.16654331551667,2.03361331798384,2.48405060925705,1761.705,2500.813,2287.368,2177.646,-0.02859756,0.02272993,0.06571452,-1.02124297618866,-0.359043389558792,0.607178211212158,-0.979147395688901,-0.421299770153459,0.606138881190213,0
3.1199951171875,-1.99222528934479,1.75123059749603,2.48869490623474,-2.18603502400946,2.02522658035469,2.49611690533293,2032.735,3535.195,3053.265,0,-0.0335292,0.02155565,0.06803255,-1.01280188560486,-0.353866904973984,0.58329176902771,-0.971056158224178,-0.417818336715394,0.601130019760458,0
3.13999938964844,-2.01238036155701,1.7442364692688,2.50064706802368,-2.20537738341953,2.01690410346351,2.50809074721212,1740.374,2493.153,2259.91,2212.917,-0.02577034,0.02121578,0.06242682,-1.00775516033173,-0.349711805582047,0.597608149051666,-0.962728579444533,-0.414235212212131,0.595974851798267,0
3.16000366210938,-2.03235816955566,1.73734772205353,2.51211285591125,-2.22455088103183,2.00865428308644,2.51996005559448,2024.969,3540.804,3032.619,0,-0.03070838,0.02002274,0.06475468,-0.998883366584778,-0.344426244497299,0.573284268379211,-0.954174163352092,-0.410554485950274,0.590679260733698,0
3.17999267578125,-2.05222392082214,1.73054528236389,2.52386331558228,-2.24353658854737,2.00048526354177,2.53171311296128,1728.397,2487.024,2232.863,2236.508,-0.02290212,0.01966462,0.05907181,-0.993291139602661,-0.340121328830719,0.587519705295563,-0.945403214201559,-0.406780591562751,0.585249625391267,0
3.19999694824219,-2.07190346717834,1.72385096549988,2.53511333465576,-2.2623590635174,1.99238647840124,2.54336512160655,2015.138,3536.632,3023.757,0,-0.02793976,0.01846252,0.06135073,-0.983986377716064,-0.334719508886337,0.562502920627594,-0.936405971974636,-0.402909329586355,0.579679903854719,0
3.22000122070313,-2.09146094322205,1.71724534034729,2.54665112495422,-2.28099938900442,1.98436606709459,2.55490437104486,1713.111,2480.45,2209.292,2261.408,-0.02006053,0.01809268,0.0555408,-0.977863669395447,-0.330275148153305,0.576884686946869,-0.927192788821982,-0.398945154262308,0.573976504598449,0
3.24000549316406,-2.11082363128662,1.71074998378754,2.55768179893494,-2.29945328359428,1.9764258717947,2.56632821087688,2000.267,3549.114,3003.667,0,-0.02520788,0.01691279,0.05783396,-0.968145191669464,-0.324775278568268,0.551530659198761,-0.91776751470058,-0.394889722119544,0.568141810929231,0
3.25999450683594,-2.1300528049469,1.70434594154358,2.56899213790894,-2.31770268688992,1.96857366338589,2.57762546085652,1698.224,2470.812,2196.613,2276.619,-0.01739097,0.01655402,0.05199489,-0.961461186408997,-0.32020515203476,0.56551730632782,-0.90814153446928,-0.390747931744771,0.562182870617026,0
3.27999877929688,-2.14908003807068,1.69805335998535,2.57978582382202,-2.33577134012187,1.96079922667992,2.58881081793642,2000.048,3529.583,3001.669,0,-0.02260438,0.01535914,0.05415912,-0.951350033283234,-0.314624279737473,0.53968757390976,-0.898304216251578,-0.386515208538549,0.556093102023818,0
3.30000305175781,-2.16796278953552,1.69185423851013,2.59086132049561,-2.35364119854729,1.95311032582551,2.59987311156116,1684.037,2472.252,2182.563,2283.093,-0.01477788,0.01496021,0.0482494,-0.944132149219513,-0.309955447912216,0.553779125213623,-0.888267004546666,-0.382196476749158,0.549879589839776,0
3.31999206542969,-2.1866352558136,1.68576812744141,2.60141682624817,-2.37129490830989,1.94551442770222,2.61080159886703,1988.588,3535.362,2985.373,0,-0.02007224,0.01374531,0.05043356,-0.93363755941391,-0.304319202899933,0.527770936489105,-0.878042061913513,-0.37779696958594,0.54354986326829,0
3.33999633789063,-2.20515275001526,1.67977666854858,2.61224699020386,-2.38875555478454,1.93800159931817,2.62161057080077,1664.413,2468.426,2172.388,2294.719,-0.01227504,0.01332026,0.04457565,-0.925877273082733,-0.29957440495491,0.5415078997612,-0.867618167158097,-0.373311858882592,0.53709697585572,0
3.36000061035156,-2.22345328330994,1.67389845848083,2.62255024909973,-2.406005803634,1.93057929915441,2.6322892965819,1994.866,3512.313,2980.577,0,-0.01759923,0.01204212,0.04666059,-0.915030241012573,-0.29389351606369,0.515161156654358,-0.857007552155826,-0.36874640767338,0.530528499715627,0
3.3800048828125,-2.24158883094788,1.66811692714691,2.63313102722168,-2.42304196557559,1.92324911460621,2.64283549236868,1647.235,2475.242,2154.395,2302.74,-0.009781791,0.0115424,0.04079761,-0.906767249107361,-0.28908571600914,0.529035925865173,-0.846214826007803,-0.364102599125748,0.523847288101157,0
3.39999389648438,-2.25950026512146,1.6624493598938,2.6431770324707,-2.43984769972619,1.91601807669906,2.65323904237604,1983.158,3513.042,2969.455,0,-0.01517682,0.01021042,0.04294403,-0.895573019981384,-0.28337287902832,0.502305090427399,-0.835253140422974,-0.35938609205264,0.51706148254665,0
3.41999816894531,-2.27723693847656,1.65687894821167,2.65350127220154,-2.45644516534361,1.90887665092339,2.66351366424015,1624.917,2471.937,2134.277,2327.817,-0.007254983,0.009667739,0.03711989,-0.886835992336273,-0.278512626886368,0.516212999820709,-0.824110582941664,-0.354591760855451,0.510163708672097,0
3.44000244140625,-2.29474353790283,1.65142393112183,2.6632833480835,-2.47281804716281,1.90183185728196,2.67364925803476,1980.658,3506.759,2956.542,0,-0.01266493,0.008295498,0.03928722,-0.875332653522491,-0.272760301828384,0.489102214574814,-0.812800388649434,-0.349725300221754,0.503162159625937,0
3.45999145507813,-2.31206631660461,1.64606738090515,2.67334604263306,-2.48895081463434,1.8948903781363,2.68363620960993,1609.649,2470.59,2109.25,2349.395,-0.00466426,0.007713132,0.0334537,-0.866150915622711,-0.267828285694122,0.50313127040863,-0.80133641229185,-0.344792671461508,0.496065412155666,0
3.47999572753906,-2.32915353775024,1.64082670211792,2.68285536766052,-2.50486489870395,1.88804299234919,2.69348778574196,1971.742,3504.083,2946.41,0,-0.01013812,0.006320896,0.03564611,-0.854354381561279,-0.262027949094772,0.475464314222336,-0.789706299681989,-0.339788558913217,0.488865818431069,0
3.5,-2.34604835510254,1.63568663597107,2.69264960289001,-2.5205447997813,1.88129636896134,2.70319439144611,1593.828,2465.339,2083.848,2376.537,-0.002031459,0.005719699,0.02976068,-0.844750761985779,-0.257017821073532,0.489708334207535,-0.777924000354857,-0.334718964672089,0.481572013878822,0
3.52000427246094,-2.36270213127136,1.63066339492798,2.70188331604004,-2.53598752699493,1.87465179486116,2.71275417523047,1963.055,3509.932,2928.087,0,-0.00759214,0.004337981,0.03197927,-0.832683384418488,-0.251164555549622,0.461681336164474,-0.765994882555673,-0.32958619854407,0.474187321698442,0
3.53999328613281,-2.37915515899658,1.62574172019958,2.71139860153198,-2.55117869390181,1.86811546013321,2.72215823120146,1578.562,2458.784,2066.148,2396.148,0.000496394,0.003744778,0.02607403,-0.822656393051147,-0.246073931455612,0.475759893655777,-0.753933682518821,-0.324396601119134,0.466720864320997,0
3.55999755859375,-2.39536190032959,1.62093806266785,2.72034430503845,-2.56613872308604,1.86167857751006,2.73141920191151,1961.575,3496.867,2922.375,0,-0.005151086,0.002366005,0.02821474,-0.810339510440826,-0.240180164575577,0.447287380695343,-0.741727567798258,-0.319144650954242,0.459164697851087,0
3.58000183105469,-2.4113597869873,1.61623787879944,2.72957420349121,-2.58085326729328,1.85534732021446,2.74052820572674,1564.92,2459.234,2050.235,2406.781,0.002921863,0.001755744,0.0222622,-0.799900412559509,-0.235027715563774,0.461491048336029,-0.729391385793765,-0.313836736470737,0.451528013536464,0
3.59999084472656,-2.4271068572998,1.61165535449982,2.73823046684265,-2.59530884290342,1.84912748987145,2.74947689564398,1953.501,3498.658,2908.77,0,-0.002841593,0.0003803768,0.02441052,-0.78734278678894,-0.229113012552261,0.432807922363281,-0.716940488958392,-0.308479463400265,0.4438203152769,0
3.6199951171875,-2.44263672828674,1.60717678070068,2.74716639518738,-2.60952509409627,1.84301063413925,2.75827743234631,1546.544,2457.201,2040.049,2418.104,0.00516882,-0.0002343582,0.01850482,-0.77649861574173,-0.223926916718483,0.446802049875259,-0.704361775018033,-0.303067194200314,0.436033492140578,0
3.63999938964844,-2.45791125297546,1.60281610488892,2.75552344322205,-2.6234885835008,1.83700253474321,2.76692149746096,1957.393,3480.121,2904.306,0,-0.0006663229,-0.001634648,0.02058593,-0.763730525970459,-0.218014791607857,0.417852342128754,-0.691670720740692,-0.297606588091786,0.428177124984152,0
3.66000366210938,-2.47296142578125,1.59856009483337,2.76416301727295,-2.63719712493647,1.83110413233575,2.77540773763803,1531.067,2463.089,2025.741,2424.189,0.007308617,-0.002291384,0.0147067,-0.752506911754608,-0.212817043066025,0.431981384754181,-0.678873453515702,-0.29210028151913,0.420255006953505,0
3.67999267578125,-2.48775243759155,1.59442162513733,2.7722270488739,-2.65063849381582,1.82532068681534,2.78372858527554,1930.615,3490.464,2877.173,24.92565,0.001541213,-0.0036464,0.01688138,-0.739550113677979,-0.206921979784966,0.403202593326569,-0.665986083416798,-0.286555206197011,0.41227711095171,0
3.69999694824219,-2.50231194496155,1.59038746356964,2.78056216239929,-2.66383127580226,1.81964420129024,2.79189554578451,1523.688,2459.165,2017.2,2424.338,0.009423107,-0.0042797,0.01112689,-0.727974116802216,-0.201704129576683,0.416757196187973,-0.65299527533123,-0.280965624398954,0.404235181908735,0
3.72000122070313,-2.51660919189453,1.58647108078003,2.78833389282227,-2.6767633032417,1.81407991116207,2.79990108680742,1911.388,3478.826,2838.845,77.3784,0.003938348,-0.005531386,0.01319296,-0.714880347251892,-0.195813924074173,0.38858836889267,-0.639917282339434,-0.275338529371411,0.396139281255611,0
3.74000549316406,-2.53066825866699,1.58266067504883,2.79635524749756,-2.6894328975087,1.80862853869646,2.80774416919516,1532.872,2466.658,2018.75,2385.954,0.01149436,-0.006122607,0.007537683,-0.70295923948288,-0.190539002418518,0.401062607765198,-0.626758665639204,-0.269676744214497,0.387993470686332,0
3.75999450683594,-2.54446315765381,1.57896757125854,2.80383253097534,-2.70182915057228,1.80329477731443,2.81541804035694,1889.449,3456.914,2797.133,147.9648,0.006305875,-0.007249124,0.009334889,-0.689736902713776,-0.184652283787727,0.373861372470856,-0.613536214864365,-0.263987493038594,0.379808143784027,0
3.77999877929688,-2.55801200866699,1.57538080215454,2.811527967453,-2.7139695770734,1.79807109095524,2.82293354268985,1541.935,2485.593,2037.441,2318.653,0.01330537,-0.007792942,0.003832501,-0.677456855773926,-0.179335355758667,0.384770214557648,-0.60023651686137,-0.258265004538452,0.371574997167698,0
3.80000305175781,-2.57129430770874,1.5719108581543,2.81870865821838,-2.72584333814708,1.79296214327972,2.83028396642013,1866.307,3424.934,2753.417,233.8012,0.008458644,-0.008797486,0.005288755,-0.664098799228668,-0.173487484455109,0.359032869338989,-0.586876524285838,-0.252516572968186,0.363304525338741,0
3.81999206542969,-2.58432340621948,1.5685476064682,2.82606983184814,-2.73744054699573,1.78797218830065,2.83746319114912,1553.556,2517.366,2067.676,2224.008,0.01470058,-0.009309879,6.59263E-05,-0.651457846164703,-0.16817981004715,0.368053078651428,-0.573473482003301,-0.246749618311662,0.355007403690404,0
3.83999633789063,-2.59708261489868,1.56529879570007,2.83295083045959,-2.74877791451009,1.78309403578861,2.84448156171422,1835.305,3382.274,2711.274,338,0.01028421,-0.01020257,0.001197965,-0.637966334819794,-0.162432715296745,0.344048112630844,-0.560014026276881,-0.240958390526246,0.346675359432959,0
3.86000061035156,-2.60958242416382,1.56215488910675,2.83997249603271,-2.75984563331209,1.77833190558438,2.85133300688122,1564.954,2555.297,2103.986,2117.657,0.01577502,-0.01069632,-0.003633617,-0.624998033046722,-0.157196536660194,0.351082473993301,-0.546515580872635,-0.235150386571708,0.338319178707605,0
3.8800048828125,-2.62181043624878,1.5591231584549,2.84655404090881,-2.77064299647982,1.77368610185671,2.85801708903178,1808.21,3334.04,2664.986,449.3124,0.01189061,-0.01150006,-0.00280058,-0.611390888690948,-0.151592224836349,0.32907834649086,-0.532985466132484,-0.229328756186666,0.329943393154704,0
3.89999389648438,-2.63377332687378,1.55619359016418,2.85323452949524,-2.78116151864576,1.76916027562219,2.86452855531919,1575.441,2597.856,2140.545,2007.592,0.0166608,-0.01198529,-0.007167099,-0.598150432109833,-0.146460637450218,0.334027588367462,-0.519441457145543,-0.223501147495394,0.321559006401168,0
3.91999816894531,-2.64546251296997,1.55337333679199,2.85951638221741,-2.79141684911929,1.7647476934202,2.87087709341145,1781.158,3280.537,2616.837,568.6644,0.01341335,-0.0127118,-0.006629141,-0.584456622600555,-0.141018316149712,0.314094722270966,-0.505870408491346,-0.2176619043907,0.313157880805522,0
3.94000244140625,-2.65688228607178,1.55065369606018,2.86585736274719,-2.8014005971492,1.76045196555656,2.87705750903383,1590.03,2642.906,2171.971,1896.896,0.01751528,-0.0131933,-0.01053387,-0.571004569530487,-0.135991841554642,0.317050397396088,-0.492290296490434,-0.211818761581115,0.30475114456651,0
