t,x_s1,x_s2,x_s3,x_s_d1,x_s_d2,x_s_d3,propellers_rpms1,propellers_rpms2,propellers_rpms3,propellers_rpms4,rollRad,pitchRad,yawRad,v_s1,v_s2,v_s3,v_s_d1,v_s_d2,v_s_d3,insideCount
0,-0.0599999986588955,2.94000005722046,1.17999994754791,-0.0599999986588955,2.94000005722046,1.17999994754791,0,0,0,0,0,0,0,0,0,0,-1.06581410364015E-15,4.44089209850063E-16,4.44089209850063E-16,0
0.0199985504150391,-0.0599999986588955,2.94000005722046,1.1771354675293,-0.0600018685815247,2.93999925264499,1.1800011051191,0,0,0,0,0.0163538,-0.002474609,-2.024222E-05,3.71994488546079E-08,3.50004931704007E-08,-0.143225952982903,-0.000279946173977888,-0.000120453017871082,0.000173300017377699,5
0.0399990081787109,-0.0599999986588955,2.94000005722046,1.17048275470734,-0.0600148703014743,2.93999365836812,1.1800091538031,0,0,0,0,0.03270752,-0.004950816,-5.430172E-05,3.62924410524101E-08,3.44428769949445E-08,-0.332637369632721,-0.0011109142447864,-0.000477995364179603,0.000687708837706811,6
0.0599994659423828,-0.0600004345178604,2.94013261795044,1.16416549682617,-0.0600498904664975,2.93997859016946,1.18003083295349,3185.4,2835.781,1501.103,2767.661,0.03127996,-0.00494336,-0.01646952,-2.17784127016785E-05,0.0066222446039319,-0.315861105918884,-0.00247951833951941,-0.00106686747177115,0.00153493996800067,6
0.0799999237060547,-0.0599162206053734,2.94038772583008,1.15857708454132,-0.0601175490846357,2.93994947855624,1.18007271686115,3065.819,3067.271,2154.962,2024.03,0.01897419,-0.004310593,-0.04351445,0.00421071983873844,0.0127500034868717,-0.279419213533401,-0.00437248097278563,-0.00188135640961186,0.00270677401230774,6
0.0999984741210938,-0.0596375614404678,2.94068765640259,1.15374839305878,-0.0602281887669101,2.93990187339187,1.18014120809498,2640.257,3831.793,2620.315,1134.765,-0.005855226,-0.002888465,-0.07014447,0.0139330504462123,0.0149975568056107,-0.24143448472023,-0.00677637982016689,-0.00291568692648091,0.00419490191241918,6
0.119998931884766,-0.0590849108994007,2.94089889526367,1.14957010746002,-0.0603919230601972,2.93983142309968,1.18024256742227,2092.082,4101.933,3169.462,756.0049,-0.04012052,-0.0004506069,-0.08993442,0.0276325400918722,0.0105608124285936,-0.208913192152977,-0.00967861374975049,-0.00416443710735115,0.00599152296740588,5
0.139999389648438,-0.0582314990460873,2.94085621833801,1.14596664905548,-0.0606185767455666,2.93973390035084,1.18038287685052,1510.331,4074.781,3735.821,701.9697,-0.07649344,0.002388551,-0.09949676,0.0426706448197365,-0.00213140435516834,-0.180173456668854,-0.0130660253322238,-0.00562194567796536,0.00808849210174802,4
0.159999847412109,-0.0570994764566422,2.94039487838745,1.14297795295715,-0.0609177249752248,2.93960518522485,1.18056806385509,1135.198,3846.983,4069.8,879.9636,-0.1062782,0.004335598,-0.09869941,0.0566011220216751,-0.0230697430670261,-0.149431928992271,-0.0169257706321904,-0.00728268625174051,0.0104778583075938,4
0.179998397827148,-0.0557377673685551,2.93938803672791,1.14071118831635,-0.0612986465792905,2.93944128530034,1.18080387247382,1100.983,3565.293,4009.933,1148.945,-0.1236287,0.004492302,-0.08999993,0.0680855512619019,-0.0503413565456867,-0.113341182470322,-0.0212446806785156,-0.00914099258829578,0.0131514693644856,3
0.19999885559082,-0.0541965290904045,2.9377772808075,1.13924849033356,-0.0617704792283666,2.93923826889292,1.1810959593601,1373.27,3339.686,3594.848,1386.321,-0.1278749,0.003023119,-0.07724925,0.0770619660615921,-0.0805369541049004,-0.0731325298547745,-0.0260109531407025,-0.0111917864745373,0.0161020190676231,3
0.219999313354492,-0.0525142960250378,2.93557620048523,1.13858389854431,-0.0623420049171324,2.93899235735562,1.18144976098699,1790.89,3212.875,3016.899,1527.084,-0.1229747,0.0008614064,-0.06426048,0.0841116309165955,-0.110052064061165,-0.0332299247384071,-0.0312116790433783,-0.0134295135389972,0.0193215161463106,3
0.239999771118164,-0.0507196448743343,2.93284702301025,1.13860690593719,-0.063021788625926,2.93869986541668,1.18187057948532,2159.271,3168.569,2517.295,1558.431,-0.114966,-0.0009875001,-0.05362222,0.0897326692938805,-0.136453628540039,0.0011516772210598,-0.0368344480011416,-0.0158488339395432,0.022802277980796,3
0.259998321533203,-0.0488373339176178,2.92966485023499,1.13913774490356,-0.063818066443955,2.93835724931701,1.18236351338666,2351.874,3159.105,2273.926,1495.814,-0.1090522,-0.00190416,-0.04623674,0.0941156297922134,-0.159107893705368,0.0265396405011415,-0.04286636357961,-0.0184441987007453,0.0265363210638542,3
0.279998779296875,-0.0468918196856976,2.92608761787415,1.13999593257904,-0.0647390625194898,2.93796097043536,1.18293365383054,2352.524,3152.208,2324.322,1363.697,-0.1078159,-0.001744371,-0.04152241,0.0972757935523987,-0.178862184286118,0.0429109595716,-0.0492963837173861,-0.0212108567320638,0.030516809833474,3
0.299999237060547,-0.0449088141322136,2.92214369773865,1.1410619020462,-0.065792536715479,2.93750768991949,1.18358580454179,2229.336,3144.015,2572.697,1194.455,-0.1110879,-0.0007366303,-0.03798626,0.0991502702236176,-0.197191998362541,0.053299218416214,-0.0561118672418845,-0.0241433688900884,0.0347359188016424,3
0.319999694824219,-0.0429169908165932,2.91783547401428,1.14229393005371,-0.0669860785243584,2.93699414222283,1.18432466377777,2074.043,3132.682,2873.217,1032.467,-0.1169314,0.0006863074,-0.0339798,0.099591039121151,-0.215407162904739,0.06159907579422,-0.0633008373176985,-0.0272365818771378,0.0391862337367069,3
0.339998245239258,-0.0409490056335926,2.91315102577209,1.14370727539063,-0.0683269038426322,2.9364172225467,1.18515469852215,1955.249,3107.294,3109.26,921.6873,-0.1228426,0.002069672,-0.02837492,0.0983993262052536,-0.234225109219551,0.070669062435627,-0.0708506885691688,-0.0304850719522193,0.043859951310657,3
0.35999870300293,-0.0390402525663376,2.90807723999023,1.14534330368042,-0.069822382620517,2.93577375980741,1.18608047112519,1904.555,3065.714,3222.363,880.7873,-0.1267073,0.003092765,-0.02087066,0.0954379513859749,-0.253693342208862,0.0818003192543983,-0.0787511019946779,-0.0338843991372162,0.0487506835699294,3
0.379999160766602,-0.0372257828712463,2.90261030197144,1.14724338054657,-0.0714792747653362,2.93506084540571,1.18710616629155,1923.963,3021.181,3207.057,896.048,-0.1274184,0.003642249,-0.01188515,0.0907234400510788,-0.2733433842659,0.0950066968798637,-0.0869897229117765,-0.0374292475574207,0.0538507823775527,3
0.399999618530273,-0.0355373546481133,2.89676117897034,1.14943146705627,-0.0733042289655903,2.93427561859665,1.18823589987613,1991.243,2989.257,3098.787,939.1069,-0.1250397,0.00379083,-0.002208826,0.0844214484095573,-0.292451500892639,0.109402842819691,-0.0955550080350531,-0.0411146504596022,0.0591531018899743,3
0.419998168945313,-0.034002061933279,2.89055466651917,1.15190577507019,-0.0753034649285836,2.93341540321397,1.18947352217404,2072.277,2974.442,2953.393,986.783,-0.1205032,0.003707621,0.007337628,0.0767645835876465,-0.31032532453537,0.123716853559017,-0.104434660908044,-0.0449353170220673,0.0646500300148815,3
0.439998626708984,-0.0326426327228546,2.88402462005615,1.15464162826538,-0.0774835548069347,2.93247737144397,1.19082310166083,2136.376,2972.879,2825.356,1023.037,-0.1150768,0.003564195,0.01615028,0.0679716467857361,-0.326507896184921,0.136790364980698,-0.113619049702587,-0.0488871029382406,0.0703356041918149,4
0.459999084472656,-0.0314784795045853,2.8772075176239,1.15760159492493,-0.0798502821969742,2.93145903476675,1.19228821865812,2168.373,2977.615,2748.812,1039.246,-0.1098666,0.00347485,0.023944,0.0582074262201786,-0.340851098299026,0.147995725274086,-0.123096124252221,-0.0529648233581361,0.0762023647937057,4
0.479999542236328,-0.0305268373340368,2.87013840675354,1.16074776649475,-0.0824093896672336,2.93035792231548,1.19387242808941,2168.273,2984.23,2732.561,1032.628,-0.1055416,0.003481856,0.03074749,0.0475819148123264,-0.353459388017654,0.157311201095581,-0.13285477482153,-0.0571636980729742,0.0822434343651008,4
0.499998092651367,-0.0298037026077509,2.86284685134888,1.16405212879181,-0.0851661261416979,2.92917177562482,1.19557897928867,2146.71,2989.457,2762.95,1009.225,-0.1022686,0.003568863,0.03679655,0.0361569076776505,-0.364582300186157,0.165215715765953,-0.142883031072219,-0.0614785765805993,0.0884514026963699,4
0.519998550415039,-0.0293244309723377,2.8553569316864,1.16749918460846,-0.0881263195578599,2.92789808709608,1.19741148002684,2116.622,2992.518,2817.093,977.9384,-0.09983818,0.00368631,0.04241104,0.0239636711776257,-0.374494880437851,0.1723503023386,-0.153171913786256,-0.0659055953743427,0.0948207112238116,4
0.539999008178711,-0.0291041471064091,2.84768843650818,1.17108571529388,-0.0912948022612966,2.92653477750595,1.19937292175603,2089.186,2991.879,2870.932,951.0548,-0.09782483,0.003776906,0.04785857,0.0110139697790146,-0.383424133062363,0.179328352212906,-0.163709694677519,-0.0704397081003365,0.101344099579621,4
0.559999465942383,-0.0291576385498047,2.83985829353333,1.17481625080109,-0.0946764453845371,2.92507975094219,1.20146631993932,2070.827,2989.163,2908.676,934.313,-0.09578698,0.003795225,0.0532953,-0.0026747016236186,-0.391504287719727,0.186524525284767,-0.174485697560587,-0.0750763210942518,0.108014958696444,5
0.579998016357422,-0.0294990427792072,2.83188271522522,1.17869853973389,-0.0982755538235842,2.92353115512831,1.2036943395124,2063.833,2985.599,2922.038,931.3506,-0.09339014,0.00371675,0.05873853,-0.0170702561736107,-0.398781538009644,0.194115847349167,-0.185488294752812,-0.0798104312890852,0.11482609048482,5
0.599998474121094,-0.0301412604749203,2.82377815246582,1.18273937702179,-0.102097262171133,2.92188678079254,1.20606015903275,2066.531,2984.512,2912.674,938.2119,-0.0905022,0.003538031,0.06411322,-0.0321108587086201,-0.405232518911362,0.202039539813995,-0.196709126405959,-0.0846384416756885,0.121772319800455,5
0.619998931884766,-0.0310955755412579,2.8155620098114,1.1869421005249,-0.106145477944935,2.92014494663912,1.20856619743999,2074.668,2986.404,2886.797,952.5487,-0.08717378,0.003272183,0.06928969,-0.0477154552936554,-0.41080704331398,0.210135206580162,-0.208136802817102,-0.0895554515830839,0.128846595874672,5
0.639999389648438,-0.0323712751269341,2.80725288391113,1.19130492210388,-0.110424235525481,2.91830391678686,1.21121495220784,2082.973,2991.976,2855.503,968.0861,-0.08359876,0.002940399,0.0741495,-0.0637850761413574,-0.41545706987381,0.218139812350273,-0.219761081350814,-0.0945570538913933,0.136042578028218,5
0.659999847412109,-0.0339758284389973,2.79886937141418,1.19582259654999,-0.114937365519793,2.91636204303257,1.21400879466451,2087.784,2998.921,2826.52,983.7436,-0.08000243,0.002566433,0.07859942,-0.0802275240421295,-0.419170290231705,0.225886687636375,-0.231571827761751,-0.0996388881179631,0.143353992680462,5
0.679998397827148,-0.0359148867428303,2.79043006896973,1.20048725605011,-0.119688032378415,2.91431796380157,1.21694968375564,2087.962,3007.488,2806.831,993.7021,-0.07660689,0.002168117,0.082611,-0.0969530269503593,-0.421970337629318,0.233233898878098,-0.243557864937104,-0.104796145063404,0.150773920666137,6
0.69999885559082,-0.0381927527487278,2.7819516658783,1.20529091358185,-0.124680571585341,2.91216981365623,1.22004030335236,2082.972,3014.825,2797.541,1000.615,-0.07354373,0.001758922,0.08619452,-0.113893069326878,-0.423921078443527,0.240183621644974,-0.255711562515536,-0.1100255415964,0.15829763842809,6
0.719999313354492,-0.0408125631511211,2.77344942092896,1.21022653579712,-0.129917773765869,2.90991639186844,1.22328238098464,2075.377,3021.696,2797.663,1002.05,-0.07087737,0.001344549,0.08940316,-0.130990862846375,-0.425108462572098,0.246783122420311,-0.268021976505935,-0.115322368823317,0.165918371114489,6
0.739999771118164,-0.0437766723334789,2.76493692398071,1.21528899669647,-0.13540267613015,2.90755639161152,1.22667779683026,2065.933,3026.578,2804.02,1001.82,-0.06858598,0.0009276186,0.09230014,-0.148205444216728,-0.425629168748856,0.253125488758087,-0.280479406212952,-0.12068245280595,0.173630113532805,6
0.759998321533203,-0.0470868013799191,2.75642538070679,1.22047543525696,-0.141137563960274,2.90508882959244,1.2302279655877,2057.169,3030.06,2812.283,1000.899,-0.0665998,0.0005076113,0.0949434,-0.165506884455681,-0.425576776266098,0.259323358535767,-0.293073051970232,-0.126101146749576,0.181426180175103,6
0.779998779296875,-0.050744142383337,2.7479248046875,1.2257844209671,-0.147126184485884,2.90251209348295,1.23393520697061,2050.136,3032.752,2819.563,1000.193,-0.06483626,8.334035E-05,0.097378,-0.182867616415024,-0.425031870603561,0.26544776558876,-0.305795832832518,-0.131575403921268,0.189302187598958,6
0.799999237060547,-0.0547494553029537,2.73944354057312,1.2312159538269,-0.153370467664426,2.8998253528763,1.23780071571459,2045.693,3034.999,2822.464,1001.776,-0.06322025,-0.0003456783,0.09962182,-0.200265258550644,-0.424062162637711,0.271578073501587,-0.318637178554805,-0.1371006762399,0.197251592319181,6
0.819999694824219,-0.0591027624905109,2.73098921775818,1.23676943778992,-0.159872691993147,2.89702762739878,1.24182590231796,2043.124,3037.874,2822.609,1003.367,-0.06172515,-0.0007787083,0.1016871,-0.217665016651154,-0.42271825671196,0.277671486139297,-0.331587821991737,-0.142672976311719,0.205268657531342,6
0.839998245239258,-0.0638035982847214,2.72256827354431,1.24244475364685,-0.166634294361289,2.89411829879707,1.24601165628363,2041.585,3040.145,2818.493,1008.804,-0.06032486,-0.001211206,0.1035572,-0.235042467713356,-0.421045988798141,0.283764004707336,-0.344637355311016,-0.148287825937249,0.213346940291454,6
0.85999870300293,-0.0688507258892059,2.714186668396,1.24823987483978,-0.173658476530939,2.8910959894424,1.25035995965485,2041.237,3044.006,2814.354,1011.249,-0.05905986,-0.00164104,0.1052347,-0.252355217933655,-0.419081300497055,0.289754986763,-0.357779218042882,-0.153942402329629,0.221482379356217,6
0.879999160766602,-0.0742423236370087,2.70584940910339,1.2541538476944,-0.180946338277887,2.88796022613197,1.25487149324521,2040.548,3046.914,2808.122,1017.328,-0.05794186,-0.002060222,0.1066994,-0.269581228494644,-0.416867434978485,0.295700877904892,-0.371003228241413,-0.159632324481982,0.229668671616073,6
0.899999618530273,-0.079975813627243,2.69756054878235,1.26018297672272,-0.188499434070438,2.88471034002151,1.25954721934464,2040.019,3051.468,2806.13,1017.23,-0.05704331,-0.002467152,0.1079735,-0.286674022674561,-0.414442360401154,0.301456689834595,-0.384300552311253,-0.165353791545005,0.237900348654692,7
0.919998168945313,-0.0860483050346375,2.68932342529297,1.26632595062256,-0.196318384305134,2.8813460641717,1.26438752200817,2037.659,3053.322,2803.729,1022.67,-0.05634876,-0.002853311,0.1090449,-0.303625106811523,-0.411857813596725,0.307147264480591,-0.397661187980262,-0.171102499820431,0.246171218589148,7
0.939998626708984,-0.0924561619758606,2.68114018440247,1.27257859706879,-0.204405885800988,2.87786623821667,1.26939407069523,2036.587,3057.33,2807.242,1018.711,-0.05591413,-0.003219762,0.1099581,-0.32039338350296,-0.409156292676926,0.312629908323288,-0.411079067636589,-0.176875838584386,0.254477525278661,7
0.959999084472656,-0.0991959571838379,2.67301225662231,1.27894103527069,-0.212762239776093,2.87427073255068,1.27456705187416,2034.051,3057.934,2808.249,1022.934,-0.05567977,-0.003557983,0.1107037,-0.336989223957062,-0.40639466047287,0.318120151758194,-0.424544411524882,-0.18266959988136,0.262813214588797,7
0.979999542236328,-0.106263354420662,2.66494011878967,1.28540909290314,-0.221388311353785,2.87055917493534,1.27990700109753,2033.758,3061.578,2815.902,1014.995,-0.05569788,-0.003875432,0.1113433,-0.353370100259781,-0.403611481189728,0.323404520750046,-0.438048819599778,-0.188480169406503,0.271173086491326,7
0.999998092651367,-0.113654688000679,2.65692281723022,1.29198479652405,-0.23028393740968,2.86673163555851,1.28541381738356,2031.181,3060.201,2818.02,1020.905,-0.05585554,-0.004159325,0.1118495,-0.369566768407822,-0.400860965251923,0.328788161277771,-0.45158270821391,-0.194303423584087,0.279551208251994,7
1.01999855041504,-0.121365264058113,2.64895939826965,1.29866409301758,-0.239451348187707,2.86278715480854,1.29108888135949,2032.885,3063.922,2827.525,1009.558,-0.05622519,-0.004422978,0.1122941,-0.385529488325119,-0.398168444633484,0.33396378159523,-0.465140476318736,-0.200136952439402,0.28794411255494,7
1.03999900817871,-0.129391461610794,2.64104771614075,1.30545127391815,-0.248890079057088,2.85872593260306,1.29693190539675,2031.59,3061.468,2827.175,1018.482,-0.05666301,-0.004651477,0.1126218,-0.401309847831726,-0.395582139492035,0.339357048273087,-0.478712759579464,-0.205976726760794,0.296346002430842,7
1.05999946594238,-0.137728184461594,2.63318538665771,1.31234073638916,-0.258600340480156,2.85454787838601,1.30294301978152,2035.739,3066.52,2837.662,1002.687,-0.0573059,-0.004862399,0.1129239,-0.416835904121399,-0.393110811710358,0.34447106719017,-0.492291591500725,-0.211819318787865,0.30475194623957,7
1.07999801635742,-0.146371886134148,2.62536931037903,1.31933879852295,-0.268581219802083,2.85025338484727,1.30912165953701,2033.912,3062.202,2834.771,1017.322,-0.05795731,-0.005033374,0.1131079,-0.432186126708984,-0.390801012516022,0.349902123212814,-0.50586781946303,-0.217660790404144,0.31315627807366,7
1.09999847412109,-0.155317112803459,2.61759638786316,1.3264377117157,-0.278834517009062,2.84584167750307,1.31546893894041,2040.362,3068.982,2847.837,995.2325,-0.0588287,-0.005191034,0.1132972,-0.447260826826096,-0.388644695281982,0.354944050312042,-0.519436284009554,-0.223498921639497,0.321555803983559,7
1.11999893188477,-0.16456064581871,2.60986256599426,1.33364689350128,-0.289359035362208,2.84131327127672,1.32198411715334,2038.014,3062.861,2841.594,1016.495,-0.05965534,-0.005302886,0.1133569,-0.462177157402039,-0.386694133281708,0.360461294651031,-0.532988048794549,-0.229329867434001,0.329944991945551,8
1.13999938964844,-0.174096450209618,2.60216403007507,1.34095501899719,-0.300154365346813,2.83666834237095,1.3286669406667,2046.932,3072.37,2859.531,984.5071,-0.06075576,-0.005407815,0.1134665,-0.47679004073143,-0.384922981262207,0.365404188632965,-0.546515580872639,-0.235150386571708,0.338319178707607,8
1.15999794006348,-0.183921948075294,2.59449601173401,1.34837567806244,-0.31121887973388,2.83190759093694,1.33551640214821,2041.798,3062.517,2850.094,1016.628,-0.06173314,-0.005458415,0.1134272,-0.491275191307068,-0.383397877216339,0.371033519506454,-0.560010170393828,-0.240956731447489,0.346672972457667,8
1.17999839782715,-0.194030463695526,2.5868546962738,1.35589265823364,-0.322553982624406,2.82703041282926,1.34253337080327,2054.089,3075.5,2875.213,970.6815,-0.06304235,-0.005511678,0.1134962,-0.505426585674286,-0.382066637277603,0.375850856304169,-0.573467075844405,-0.246746861920456,0.355003437972878,8
1.19999885559082,-0.204420536756516,2.57923436164856,1.36352670192719,-0.334157779891176,2.82203762303794,1.34971667407692,2046.263,3061.12,2859.136,1018.041,-0.06410868,-0.005499428,0.113382,-0.519503891468048,-0.381019622087479,0.381702214479446,-0.586877800774655,-0.252517122205661,0.363305315546124,8
1.21999931335449,-0.215084567666054,2.57163095474243,1.37125396728516,-0.346029276726411,2.81692964960096,1.35706569613575,2063.614,3079.802,2893.634,951.5831,-0.0656091,-0.005507417,0.113458,-0.533201396465302,-0.380165368318558,0.386362820863724,-0.600235245789198,-0.258264457631606,0.371574210313473,8
1.23999786376953,-0.226022601127625,2.56403827667236,1.37910461425781,-0.358166167196084,2.81170748469733,1.36457900949675,2050.108,3057.965,2867.76,1023.498,-0.06669035,-0.005433381,0.113289,-0.546902239322662,-0.379632234573364,0.392531991004944,-0.613531154887641,-0.263985315871967,0.379805011417393,8
1.2599983215332,-0.237225770950317,2.55645298957825,1.38704395294189,-0.370569492049568,2.80637068052165,1.37225725843336,2074.854,3084.826,2915.195,927.6899,-0.06834897,-0.005403554,0.1134142,-0.560157001018524,-0.379269629716873,0.396966367959976,-0.626761182173783,-0.269677827009021,0.387995028541113,8
1.27999877929688,-0.248696282505989,2.54886770248413,1.3951164484024,-0.383236695417198,2.80092033679326,1.3800988607405,2054.21,3053.198,2872.966,1034.919,-0.06934765,-0.005268265,0.1131906,-0.573528230190277,-0.379267811775208,0.40362474322319,-0.639917282339435,-0.275338529371412,0.396139281255613,8
1.29999923706055,-0.260423183441162,2.54128003120422,1.40327036380768,-0.396166231882091,2.79535711846185,1.3881028597315,2089.572,3092.737,2939.205,895.3136,-0.07117351,-0.005211806,0.1134092,-0.586344003677368,-0.379386931657791,0.407698690891266,-0.652992789539212,-0.280964554832093,0.404233643085061,8
1.31999778747559,-0.27241188287735,2.53368163108826,1.41157066822052,-0.409355153534276,2.78968229393073,1.39626743050967,2056.126,3045.632,2873.943,1056.537,-0.07199803,-0.005013134,0.1131162,-0.599435746669769,-0.379918128252029,0.415014624595642,-0.665979912040938,-0.286552550826386,0.412273290576068,8
1.33999824523926,-0.284648001194,2.52607178688049,1.41994071006775,-0.42280416857195,2.783895558482,1.40459301148342,2106.946,3103.501,2968.501,852.133,-0.07402043,-0.00494336,0.113474,-0.611806035041809,-0.380487382411957,0.418502986431122,-0.678874678563316,-0.292100808622893,0.420255765316334,8
1.35999870300293,-0.297141760587692,2.51844096183777,1.42847621440887,-0.436510095902056,2.77799828085114,1.41307763340462,2055.621,3034.41,2867.99,1092.232,-0.07454933,-0.004675446,0.1130733,-0.624686896800995,-0.381545186042786,0.426774322986603,-0.691669505523675,-0.297606065217852,0.428176372706927,9
1.3799991607666,-0.309873461723328,2.51079082489014,1.43706297874451,-0.450470874182571,2.77199134797602,1.42172002020435,2129.391,3119.93,3004.659,790.7819,-0.0768583,-0.00461153,0.1136353,-0.636586785316467,-0.382512897253036,0.429341226816177,-0.704358160626625,-0.303065639028665,0.436031254660118,9
1.39999771118164,-0.322860240936279,2.50310897827148,1.44584202766418,-0.464682951063699,2.76587628833354,1.43051797280888,2049.271,3017.05,2852.903,1150.084,-0.07694299,-0.004263188,0.1130684,-0.649339735507965,-0.384090185165405,0.438951790332794,-0.716933326165324,-0.308476381450513,0.44381588116678,9
1.41999816894531,-0.336074650287628,2.49540138244629,1.45464372634888,-0.47914673136562,2.75965292774086,1.43947174182117,2157.352,3143.23,3052.7,704.0076,-0.0796658,-0.004228035,0.1139228,-0.660719513893127,-0.385384380817413,0.440083295106888,-0.729391385793766,-0.313836736470737,0.451528013536465,9
1.43999862670898,-0.349543988704681,2.48765182495117,1.46367728710175,-0.4938584461112,2.75332288788357,1.44857899406484,2035.474,2991,2822.802,1240.474,-0.07907777,-0.003780091,0.1130915,-0.673465013504028,-0.387481391429901,0.45167538523674,-0.741725227577294,-0.31914364402254,0.459163249142831,9
1.45999908447266,-0.363228619098663,2.47987174987793,1.4726893901825,-0.508815552717244,2.74688726276417,1.45783815555978,2195.361,3178.497,3116.778,577.094,-0.08243975,-0.003809918,0.1143716,-0.68423467874527,-0.389005035161972,0.450606942176819,-0.753929052770513,-0.324394609067776,0.466717998286247,9
1.47999954223633,-0.3771713078022,2.47203898429871,1.48199117183685,-0.524015393706918,2.74034719582071,1.46724758120123,2008.476,2951.485,2770.672,1381.301,-0.08086156,-0.003228284,0.1131288,-0.697134554386139,-0.391637712717056,0.465086847543716,-0.76599717101811,-0.329587183205524,0.474188738365705,9
1.49999809265137,-0.39131423830986,2.46417379379272,1.49120438098907,-0.539453715106405,2.73370451741928,1.47680463757674,2246.749,3230.495,3205.982,391.7501,-0.08519719,-0.003368366,0.1150268,-0.707146048545837,-0.393261820077896,0.46066090464592,-0.777922869861026,-0.334718478252175,0.481571314049288,9
1.51999855041504,-0.405723065137863,2.45624423027039,1.50079309940338,-0.555130581228843,2.72695919988774,1.48650936449923,1962.277,2892.366,2684.617,1597.53,-0.0821484,-0.002597115,0.1131453,-0.720439493656158,-0.396475702524185,0.479437381029129,-0.789702950965343,-0.339787118053995,0.488863745415943,9
1.53999900817871,-0.420312166213989,2.44828367233276,1.51019132137299,-0.571041541911266,2.72011315800687,1.49635900710582,2319.048,3308.968,3332.291,117.0505,-0.08798286,-0.002912966,0.1159554,-0.729456305503845,-0.39802685379982,0.469912171363831,-0.801330904905084,-0.34479030178684,0.496062002820904,9
1.55999946594238,-0.435182213783264,2.44024515151978,1.52009427547455,-0.587183501790833,2.71316772362485,1.50635164921945,1886.337,2804.579,2545.156,1929.704,-0.08275454,-0.001858354,0.1130927,-0.743501782417297,-0.401920408010483,0.495146572589874,-0.812801474874933,-0.34972576759424,0.503162832051264,9
1.57999801635742,-0.450217425823212,2.43217301368713,1.52975833415985,-0.603551689586986,2.70612494969039,1.51648433719019,2190.671,3601.944,3285.721,0,-0.0889842,-0.001488174,0.1176975,-0.751761555671692,-0.403612643480301,0.483201712369919,-0.824108441976122,-0.354590839657789,0.510162383312438,9
1.59999847412109,-0.465535879135132,2.42401885986328,1.53994905948639,-0.620145926473056,2.69898491314762,1.52675696031579,1923.217,2632.095,2448.393,2174.674,-0.08246265,0.0003612914,0.1142151,-0.765927791595459,-0.40770623087883,0.509535014629364,-0.835248923368005,-0.359384277571697,0.517058871988737,9
1.61999893188477,-0.481011867523193,2.41583275794983,1.54987871646881,-0.636961261140657,2.69174974440622,1.53716645350051,2169.654,3684.77,3232.721,0,-0.08847713,0.001664111,0.1187209,-0.773796856403351,-0.409299999475479,0.496485143899918,-0.846216901179681,-0.364103492014234,0.523848572731403,9
1.63999938964844,-0.496762871742249,2.40757203102112,1.56030249595642,-0.653994195024907,2.68442094880091,1.54771065096602,2027.799,2535.974,2464.567,2160.119,-0.08229327,0.004170793,0.1142071,-0.787550270557404,-0.413040786981583,0.52118855714798,-0.857007552155828,-0.368746407673381,0.530528499715628,9
1.65999794006348,-0.512665390968323,2.39928317070007,1.57047915458679,-0.671239479331992,2.67700078474105,1.55838630345892,2190.364,3688.465,3222.506,0,-0.08865397,0.006092955,0.1175939,-0.79513144493103,-0.414447486400604,0.50883424282074,-0.867615158565213,-0.373310564369123,0.537095113393405,9
1.67999839782715,-0.528823971748352,2.39092683792114,1.58108508586884,-0.688696716710861,2.66948942319567,1.56919316499998,2108.21,2522.643,2590.987,1970.758,-0.08429118,0.008819612,0.1125389,-0.807922661304474,-0.417814135551453,0.530297577381134,-0.878037137680598,-0.377794850826084,0.543546814933542,9
1.69999885559082,-0.545128107070923,2.38254117965698,1.59147608280182,-0.706360494347389,2.66188919314749,1.58012788479941,2225.744,3604.987,3284.878,0,-0.09123777,0.01081508,0.1147886,-0.815211594104767,-0.419281154870987,0.51955235004425,-0.888267970958778,-0.382196892569292,0.54988018809491,9
1.71999931335449,-0.56166797876358,2.37408661842346,1.60224509239197,-0.724226945158621,2.65420175849427,1.59118806894864,2133.683,2567.752,2759.249,1733.635,-0.08863746,0.01329548,0.1100151,-0.826993703842163,-0.42272624373436,0.538447976112366,-0.898303268694426,-0.386514800831178,0.556092515440802,9
1.73999786376953,-0.578348815441132,2.36559367179871,1.61283767223358,-0.742290383213093,2.64642956573347,1.60237019758524,2249.983,3504.768,3371.891,0,-0.09563305,0.01491243,0.1119311,-0.834043502807617,-0.42464479804039,0.529626667499542,-0.908137821269591,-0.39074633405868,0.562180571969536,9
1.7599983215332,-0.595251977443695,2.35702109336853,1.62378942966461,-0.760550216073323,2.63857286977439,1.61367390396219,2122.248,2625.728,2878.782,1568.773,-0.09353874,0.0168685,0.1080973,-0.845158219337463,-0.428625404834747,0.547588050365448,-0.917769332013572,-0.394890504058555,0.568142935932543,9
1.77999877929688,-0.6122927069664,2.34839820861816,1.63459098339081,-0.779000609654483,2.63063418086074,1.62509557650306,2277.494,3425.371,3429.913,0,-0.09983072,0.0178567,0.11043,-0.852037787437439,-0.431149244308472,0.540080606937408,-0.927192788821983,-0.398945154262308,0.57397650459845,9
1.79999923706055,-0.629551410675049,2.33968234062195,1.64576649665833,-0.79763736303951,2.62261530652977,1.63663261464007,2097.392,2672.36,2895.829,1532.688,-0.09688047,0.01922932,0.1075825,-0.86293625831604,-0.435790479183197,0.558775126934052,-0.936404235539493,-0.402908582446823,0.579678828918647,9
1.81999778747559,-0.646943867206573,2.33090782165527,1.65679514408112,-0.816454394064092,2.61451886376689,1.64828125322378,2296.954,3408.172,3429.204,0,-0.1021908,0.01961835,0.1107285,-0.869624435901642,-0.438728779554367,0.551432609558105,-0.945398976945681,-0.406778768389922,0.585247002328031,9
1.83999824523926,-0.664555430412292,2.32203221321106,1.66822469234467,-0.835450937570646,2.606345181798,1.6600410185852,2072.259,2690.015,2827.613,1612.655,-0.09777796,0.02057493,0.1084687,-0.880578637123108,-0.44378325343132,0.571474850177765,-0.954174989692508,-0.410554841501469,0.590679772277779,9
1.85999870300293,-0.682295560836792,2.31309723854065,1.67948925495148,-0.854620778981102,2.59809693458245,1.67190806360445,2303.735,3442.669,3387.692,0,-0.1023698,0.02060505,0.1123457,-0.887007772922516,-0.446748107671738,0.563228189945221,-0.962727774564036,-0.414234865894539,0.595974353538898,9
1.8799991607666,-0.700257301330566,2.30406141281128,1.69117653369904,-0.873959418228252,2.58977605837344,1.68387960252558,2056.254,2680.175,2731.621,1740.317,-0.09672548,0.0214104,0.1101353,-0.898084998130798,-0.451792627573013,0.584363520145416,-0.971053808954927,-0.417817325890467,0.60112856545088,9
1.89999771118164,-0.718341648578644,2.29497241973877,1.70267152786255,-0.893460418296025,2.58138532283915,1.69595165052899,2292.37,3501.999,3340.464,0,-0.1010819,0.02138513,0.1144154,-0.90421724319458,-0.454438865184784,0.574748635292053,-0.979148917665041,-0.421300425017273,0.606139823365946,9
1.91999816894531,-0.736648321151733,2.28579044342041,1.7145961523056,-0.913122862707269,2.57292512231409,1.70812364027167,2052.676,2651.338,2664.163,1846.443,-0.09482238,0.02226894,0.1118845,-0.915334522724152,-0.459101378917694,0.596233248710632,-0.987011339258123,-0.424683405378145,0.611007036871143,9
1.93999862670898,-0.755072414875031,2.27656555175781,1.72630751132965,-0.932940197657643,2.56439827671719,1.72039151463653,2274.853,3551.368,3311.435,0,-0.09925441,0.02239523,0.1161756,-0.921205163002014,-0.461251556873322,0.585566997528076,-0.99463709319481,-0.4279645542582,0.615727741822989,9
1.95999908447266,-0.773716449737549,2.26725888252258,1.73844110965729,-0.952907658613767,2.55580683609405,1.73275232415044,2063.555,2622.218,2646.346,1887.201,-0.09298533,0.02344487,0.1132212,-0.932205736637115,-0.465332806110382,0.606682419776917,-1.00202309041976,-0.431142542523221,0.620300025949072,9
1.9799976348877,-0.79247373342514,2.25791954994202,1.75035226345062,-0.973018495512246,2.54715370480838,1.74520189020262,2262.493,3570.311,3308.247,0,-0.09758248,0.02375536,0.1172411,-0.937857747077942,-0.466964423656464,0.595555365085602,-1.00916568071436,-0.434215799586116,0.624721629590192,9
1.99999809265137,-0.811445534229279,2.24851059913635,1.76267087459564,-0.993271661096953,2.53843933346522,1.75773956449162,2079.054,2605.751,2668.795,1867.204,-0.09161381,0.02491871,0.1139608,-0.948592662811279,-0.470445245504379,0.615930020809174,-1.01606335446626,-0.437183675902864,0.628991618224387,9
2.01999855041504,-0.830526471138,2.23907804489136,1.77476871013641,-1.01366030404084,2.52966666999921,1.77036110571964,2259.542,3562.576,3320.48,0,-0.0962818,0.02531507,0.1176264,-0.954043865203857,-0.47163125872612,0.604894459247589,-1.02271265493931,-0.440044684136465,0.633107851967309,9
2.03999900817871,-0.849814713001251,2.22958612442017,1.78725910186768,-1.03417943002831,2.52083786332482,1.7830634221674,2091.627,2606.181,2703.824,1816.427,-0.09064016,0.02646871,0.11421,-0.964414775371552,-0.474601805210114,0.624518752098083,-1.02911092662815,-0.442797681697156,0.63706868693465,9
2.05999755859375,-0.869207203388214,2.22007751464844,1.79953253269196,-1.05482201812353,2.5119559343546,1.79584216754118,2262.538,3539.925,3337.739,0,-0.09526233,0.02680538,0.1176076,-0.969626307487488,-0.475428402423859,0.613673567771912,-1.03525504859546,-0.445441325732794,0.640872191117535,9
2.07999801635742,-0.888799548149109,2.21051740646362,1.81218934059143,-1.07558691007788,2.50302138145056,1.8086966248299,2092.51,2616.353,2728.073,1774.771,-0.08972882,0.02784213,0.1141997,-0.979615032672882,-0.478003561496735,0.632840812206268,-1.04114375428791,-0.447975071280863,0.644517580459114,9
2.09999847412109,-0.908490061759949,2.20094680786133,1.82463037967682,-1.09646699912883,2.4940372624541,1.82162239460902,2264.346,3522.827,3346.256,0,-0.09419174,0.02802396,0.1175085,-0.984529674053192,-0.478527396917343,0.622049570083618,-1.04677411523768,-0.450397658303471,0.648003042098304,9
2.11999893188477,-0.928373157978058,2.19133138656616,1.83745145797729,-1.11745709586255,2.485005810225,1.83461626438416,2085.061,2626.838,2728.182,1762.44,-0.08851815,0.02890183,0.1141695,-0.99415510892868,-0.480773448944092,0.641056895256042,-1.0521439094894,-0.452708130755304,0.651327200538896,9
2.1399974822998,-0.948347151279449,2.18171167373657,1.85005009174347,-1.13854995096316,2.47593014394135,1.84767374648347,2262.414,3516.316,3344.16,0,-0.09279838,0.02890661,0.1175215,-0.998702645301819,-0.480989694595337,0.62993311882019,-1.05725054902531,-0.454905375084611,0.654488453674597,8
2.15999794006348,-0.96850711107254,2.17205357551575,1.8630303144455,-1.15974431432775,2.46681080148754,1.86079406703369,2071.374,2630.302,2706.714,1783.405,-0.08679242,0.02964997,0.1141942,-1.00799703598022,-0.482904523611069,0.649008750915527,-1.06209300290918,-0.456988947708343,0.657486163306784,8
2.17999839782715,-0.988749742507935,2.16239809989929,1.87577617168427,-1.18103286617629,2.4576509323604,1.8739726947423,2254.188,3525.866,3329.875,0,-0.09091659,0.02952847,0.1176437,-1.0121283531189,-0.482771933078766,0.637295365333557,-1.06666887474518,-0.458957817524312,0.66031884595227,7
2.19999885559082,-1.00917136669159,2.15271210670471,1.8889045715332,-1.20241025668069,2.44845283844151,1.88720631781084,2059.439,2625.066,2673.355,1821.916,-0.08456868,0.03019929,0.1142322,-1.02108418941498,-0.484299421310425,0.656420111656189,-1.07097637612794,-0.460811215031657,0.662985394502945,7
2.21999931335449,-1.02966642379761,2.14303684234619,1.90178275108337,-1.22387110132782,2.43921883653644,1.90049160296922,2242.781,3540.479,3312.285,0,-0.08863213,0.03002103,0.1177235,-1.02475845813751,-0.483762145042419,0.643906831741333,-1.07501382704219,-0.462548417366737,0.665484768949324,7
2.23999786376953,-1.05033349990845,2.13333988189697,1.91504240036011,-1.24540792547886,2.42995214277345,1.91382392305993,2049.742,2613.658,2641.198,1862.252,-0.08203388,0.0306783,0.1141199,-1.03334140777588,-0.484840601682663,0.662980735301971,-1.07877930973132,-0.464168599372462,0.667815782108711,5
2.2599983215332,-1.07106423377991,2.12366271018982,1.92803633213043,-1.26701939030951,2.42065333321126,1.92720244928693,2227.667,3557.882,3294.819,0,-0.08611331,0.03050722,0.117577,-1.03653681278229,-0.483870655298233,0.649698078632355,-1.08227207933222,-0.465671440555045,0.66997797287536,4
2.27999877929688,-1.09195780754089,2.11397337913513,1.94140648841858,-1.28869796983554,2.41132564607061,1.9406225227075,2044.449,2599.572,2618.085,1890.385,-0.07941812,0.03118502,0.1137377,-1.04467689990997,-0.484464466571808,0.668510913848877,-1.08549040888332,-0.467056197851165,0.67197027217779,3
2.29999923706055,-1.11290526390076,2.1043119430542,1.95449817180634,-1.31043816248474,2.40197144852433,1.95408073758635,2215.159,3567.938,3281.377,0,-0.08357372,0.03104074,0.1170669,-1.04737973213196,-0.483067005872726,0.654583394527435,-1.08843305191934,-0.468322334941636,0.673791908394614,0
2.31999778747559,-1.13400518894196,2.09464836120605,1.96795690059662,-1.33223236173323,2.39259401344714,1.96757238512285,2040.168,2587.972,2607.373,1901.013,-0.07692327,0.03173219,0.1130037,-1.05499744415283,-0.483183234930038,0.672934055328369,-1.0910986293707,-0.469469258451341,0.675442027816066,0
2.33999824523926,-1.15514898300171,2.08502054214478,1.98112690448761,-1.35407917814146,2.38319393867607,1.98109660518773,2204.944,3568.137,3274.641,0,-0.08116143,0.03159314,0.1161558,-1.05719292163849,-0.481394380331039,0.658498406410217,-1.09348662008434,-0.470496744142684,0.676920307823584,0
2.35999870300293,-1.17643368244171,2.07539892196655,1.99465465545654,-1.37597096908363,2.3737745126195,1.99464866663155,2034.993,2581.604,2602.943,1899.575,-0.07459781,0.03226351,0.1119184,-1.06423759460449,-0.481083154678345,0.676389396190643,-1.09559583531025,-0.471404280529741,0.678226012524276,0
2.3799991607666,-1.19775199890137,2.06581974029541,2.00788593292236,-1.39790215061238,2.36433813789396,2.0082251127249,2195.644,3565.083,3268.961,0,-0.07889934,0.03209131,0.1149227,-1.06590855121613,-0.478959441184998,0.661558568477631,-1.09742546213314,-0.472191517837776,0.679358638684859,0
2.39999771118164,-1.21919882297516,2.0562539100647,2.02146553993225,-1.41986502747765,2.35488812555058,2.02182117974142,2026.238,2578.084,2599.302,1896.579,-0.07240017,0.03270698,0.1105823,-1.07234418392181,-0.478284478187561,0.678982794284821,-1.09897466165884,-0.47285809511406,0.680317666989874,0
2.41999816894531,-1.24066805839539,2.04673647880554,2.03474020957947,-1.44185817738692,2.34542508756209,2.03543598721428,2188.473,3557.001,3264.92,0,-0.07672034,0.03246189,0.1134746,-1.07347106933594,-0.475872695446014,0.663728058338165,-1.10024313330221,-0.473403883025206,0.681102911362803,0
2.43999862670898,-1.26225411891937,2.03723883628845,2.04835772514343,-1.46387388420027,2.33595234396796,2.0490647584853,2014.446,2577.052,2589.014,1900.084,-0.07018921,0.03299724,0.1090596,-1.07930362224579,-0.474890917539597,0.680878818035126,-1.10123022817855,-0.473828602374257,0.681713970113108,0
2.45999908447266,-1.28385162353516,2.0277943611145,2.06166100502014,-1.48590651627916,2.32647231790489,2.06270400730194,2178.954,3555.612,3255.274,0,-0.07450779,0.03266629,0.1119144,-1.07986867427826,-0.472226500511169,0.665163934230804,-1.10193556692257,-0.474132089930926,0.682150608395601,0
2.4799976348877,-1.3055534362793,2.01837491989136,2.07530236244202,-1.50794833289881,2.31698833999053,2.07634894178684,2000.07,2573.537,2572.109,1914.491,-0.06788132,0.03312443,0.1074401,-1.08509516716003,-0.470968157052994,0.682062864303589,-1.10235885164239,-0.474314217520657,0.682412641801014,0
2.49999809265137,-1.32725524902344,2.00901365280151,2.08861756324768,-1.52999789647758,2.30750102877607,2.08999867200848,2170.216,3554.018,3244.289,0,-0.07218871,0.03271081,0.1102676,-1.0850841999054,-0.468060404062271,0.665765643119812,-1.10250000050163,-0.474374949931546,0.682500019668738,0
2.51999855041504,-1.34904956817627,1.99968278408051,2.10226821899414,-1.5520474605947,2.29801371732999,2.10364840256337,1985.46,2568.837,2549.122,1936.36,-0.06542108,0.03310287,0.105699,-1.08971631526947,-0.466535180807114,0.682538866996765,-1.10235890547318,-0.474314240682543,0.682412675124841,0
2.53999900817871,-1.37083184719086,1.99041509628296,2.11558103561401,-1.5740913806044,2.28852883438564,2.11729463914691,2158.274,3560.147,3228.274,0,-0.06974392,0.03263121,0.1085194,-1.08912098407745,-0.46338963508606,0.665640115737915,-1.10193562074175,-0.474132113087814,0.682150641712234,0
2.55999755859375,-1.39269471168518,1.98118305206299,2.12922477722168,-1.59612191359838,2.27904971150017,2.13093258853001,1971.373,2560.664,2525.819,1961.034,-0.06286871,0.03298065,0.1038414,-1.09314012527466,-0.461595058441162,0.682186484336853,-1.10123038958312,-0.473828671822132,0.681714070030222,0
2.57999801635742,-1.41453373432159,1.97201895713806,2.14251756668091,-1.6181376241771,2.2695769662859,2.14456136213196,2147.919,3562.177,3214.678,0,-0.0672315,0.03246775,0.1066108,-1.09195637702942,-0.458211421966553,0.664639234542847,-1.10024334841354,-0.473403975581601,0.681103044526962,0
2.59999847412109,-1.43644094467163,1.96289598941803,2.15613746643066,-1.64013077892511,2.26011392621545,2.15817617260023,1958.326,2552.836,2504.268,1982.645,-0.06027905,0.03278336,0.1017937,-1.09535455703735,-0.456151366233826,0.680995762348175,-1.09897493039424,-0.472858210743393,0.680317833349887,0
2.61999893188477,-1.45831251144409,1.95384502410889,2.16939520835876,-1.66209575487342,2.25066301069528,2.17177353904914,2135.545,3567.698,3199.536,0,-0.06470523,0.03224477,0.1045105,-1.09358417987823,-0.452545434236526,0.66289234161377,-1.09742562325992,-0.472191587166126,0.67935873843001,0
2.6399974822998,-1.48023927211761,1.94484043121338,2.18297362327576,-1.68402485020812,2.24122753360076,2.185348693689,1945.735,2544.272,2487.577,1999.119,-0.05773893,0.03253246,0.09957555,-1.0963306427002,-0.450233042240143,0.678916871547699,-1.09559621095794,-0.471404442160446,0.678226245068088,0
2.65999794006348,-1.50211870670319,1.93591201305389,2.19617915153503,-1.70591664919621,2.23180810408224,2.19890076011363,2126.779,3564.752,3189.296,0,-0.06222849,0.03195982,0.1022003,-1.09397649765015,-0.446422457695007,0.660275220870972,-1.093487048984,-0.470496928686224,0.676920573332903,0
2.67999839782715,-1.52404022216797,1.92703437805176,2.20970010757446,-1.7277634747138,2.22240802539167,2.21242498581764,1932.856,2538.94,2472.892,2010.69,-0.05525154,0.03220538,0.09715372,-1.09606790542603,-0.443884193897247,0.676053881645203,-1.09109911135695,-0.469469465836558,0.675442326188514,0
2.69999885559082,-1.54590272903442,1.91823637485504,2.22283935546875,-1.74955976015262,2.21302969268507,2.22591792480533,2116.218,3565.015,3177.431,0,-0.05980075,0.03159114,0.09971844,-1.09313428401947,-0.439898312091827,0.656968474388123,-1.08843331936148,-0.468322450014513,0.673792073954033,0
2.71999740600586,-1.56779408454895,1.90949296951294,2.23628807067871,-1.77129788800495,2.2036763835632,2.23937486147656,1918.738,2533.691,2459.388,2021.727,-0.05281901,0.03178813,0.09460264,-1.09455764293671,-0.437163174152374,0.672439634799957,-1.08549099645889,-0.467056450668518,0.671970635915057,0
2.73999786376953,-1.58961486816406,1.90083265304565,2.24934554100037,-1.79297647980783,2.19434869114016,2.25279494249708,2108.818,3558.956,3168.568,0,-0.05740657,0.03111515,0.09710195,-1.09104919433594,-0.433022201061249,0.652879357337952,-1.08227271937422,-0.465671715947234,0.669978369091845,0
2.7599983215332,-1.61145126819611,1.89223027229309,2.26270937919617,-1.81458795796224,2.18504987584512,2.26617347697213,1903.507,2530.645,2443.227,2034.538,-0.05037209,0.03125059,0.09191938,-1.09182107448578,-0.430115431547165,0.668192327022552,-1.07878000199166,-0.464168897232749,0.667816210650842,0
2.77999877929688,-1.63320624828339,1.88371348381042,2.27567315101624,-1.83612684690458,2.17578229366013,2.27950707526701,2098.885,3559.12,3155.715,0,-0.05499161,0.03051834,0.09440072,-1.08774471282959,-0.425838351249695,0.648193061351776,-1.07501419914593,-0.462548577472581,0.665484999299265,0
2.79999732971191,-1.65496361255646,1.87525796890259,2.28893899917603,-1.85758565652604,2.16654916736975,2.29279110064756,1887.254,2525.874,2425.375,2051.451,-0.04789109,0.03059704,0.08917321,-1.08786642551422,-0.422773569822311,0.663298368453979,-1.07097717199316,-0.460811557470228,0.66298588718143,0
2.81999778747559,-1.67662811279297,1.86689066886902,2.30179476737976,-1.87896306346215,2.15735106638076,2.30602473388812,2091.693,3554.756,3144.572,0,-0.05253298,0.02980255,0.09162142,-1.08323037624359,-0.418364554643631,0.642791748046875,-1.06666972196052,-0.458958182057406,0.660319370418926,0
2.83999824523926,-1.69828259944916,1.85858774185181,2.31495094299316,-1.90025163276617,2.14819118974301,2.3192033724025,1871.004,2522.121,2404.717,2070.507,-0.04533872,0.02982376,0.08632804,-1.08272123336792,-0.415147453546524,0.657814383506775,-1.06209390114388,-0.456989334193641,0.657486719356853,0
2.85999870300293,-1.71983313560486,1.85037565231323,2.32768750190735,-1.92144601460316,2.13907183934104,2.33232370438801,2081.402,3557.054,3129.734,0,-0.05001576,0.02897919,0.08877228,-1.07753527164459,-0.410612106323242,0.636828780174255,-1.05725149792792,-0.454905783370899,0.65448904109052,0
2.87999725341797,-1.74136114120483,1.84223079681396,2.34072113037109,-1.94253888918396,2.12999616467562,2.34538119854648,1854.627,2516.148,2384.23,2091.485,-0.04274587,0.02895613,0.08342139,-1.07639408111572,-0.407243400812149,0.651684284210205,-1.05214490868305,-0.452708560680416,0.651327819087361,0
2.89999771118164,-1.76277458667755,1.83417916297913,2.35332465171814,-1.96352900640172,2.1209647036328,2.35837508100222,2073.606,3554.301,3117.55,0,-0.04746233,0.028066,0.08583153,-1.07066977024078,-0.402581661939621,0.63017600774765,-1.04677516433438,-0.450398109700476,0.648003691539142,0
2.91999816894531,-1.78415274620056,1.82619762420654,2.36622357368469,-1.98440911693069,2.11198057539494,2.37130086407726,1838.658,2511.297,2363.855,2111.16,-0.04011573,0.02799938,0.08040464,-1.06890892982483,-0.399063616991043,0.644942939281464,-1.04114485287423,-0.447975543971863,0.644518260536375,0
2.93999862670898,-1.80540585517883,1.81831204891205,2.37868309020996,-2.00517403134858,2.10304601282548,2.38415533527198,2063.595,3556.121,3103.042,0,-0.04488225,0.02707342,0.08279724,-1.06265926361084,-0.394282251596451,0.622979521751404,-1.03525619623725,-0.445441819530995,0.640872901562472,0
2.95999717712402,-1.82661151885986,1.81049966812134,2.39143443107605,-2.02581664288168,2.09416407377059,2.39693409515492,1822.775,2505.488,2345.342,2129.56,-0.03749092,0.02697035,0.07731293,-1.06027483940125,-0.390619426965714,0.637564539909363,-1.029112122866,-0.442798196404884,0.637069427462863,0
2.9799976348877,-1.84768164157867,1.80278527736664,2.40373682975769,-2.04633579327653,2.08533525659438,2.40963642671202,2056.548,3551.556,3092.065,0,-0.04230538,0.02600449,0.07965906,-1.05351293087006,-0.385723859071732,0.615120589733124,-1.0227138993024,-0.44004521955114,0.633108622287341,0
2.99999809265137,-1.86869215965271,1.79514670372009,2.41632914543152,-2.06672446158539,2.07656258221453,2.42225798364216,1806.763,2501.76,2327.003,2146.138,-0.03486131,0.02585863,0.07411034,-1.05051791667938,-0.381925284862518,0.629619061946869,-1.01606464645845,-0.437184231811008,0.628992418029098,0
3.01999855041504,-1.88955736160278,1.7876079082489,2.42846441268921,-2.08697765348254,2.06784819954987,2.43479567421983,2047.231,3551.531,3078.778,0,-0.03972797,0.02485522,0.07643836,-1.04325711727142,-0.376926422119141,0.606760084629059,-1.00916701981882,-0.434216375765357,0.624722458559645,0
3.03999900817871,-1.9103502035141,1.78014826774597,2.44088649749756,-2.1070904288371,2.05919423420069,2.44724644026866,1790.184,2497.2,2309.482,2163.007,-0.03224236,0.02466942,0.07085127,-1.03965365886688,-0.373001277446747,0.621101140975952,-1.00202378325828,-0.431142840632279,0.62030045484912,0
3.05999755859375,-1.93098855018616,1.77279019355774,2.45284247398376,-2.12705600675913,2.05060360379452,2.45960608409476,2041.269,3545.876,3067.821,0,-0.03715323,0.02362167,0.07314123,-1.03190994262695,-0.367905616760254,0.597802221775055,-0.994638524886308,-0.427965170275055,0.615728628108227,0
3.07999801635742,-1.95154297351837,1.76551294326782,2.46508383750916,-2.14687337079936,2.04207674568107,2.47187397646763,1772.849,2494.415,2291.556,2179.527,-0.02960956,0.02338937,0.06751142,-1.02771365642548,-0.363861620426178,0.612063765525818,-0.987012816387451,-0.424684040945629,0.611007951284564,0
3.09999847412109,-1.97193288803101,1.75833940505981,2.47685098648071,-2.16653584520328,2.033616532251,2.4840459847772,2033.357,3543.755,3055.25,0,-0.03456037,0.02229824,0.0697876,-1.01950204372406,-0.358675986528397,0.588359892368317,-0.979150439632689,-0.421301079877433,0.606140765536421,0
3.11999893188477,-1.99222755432129,1.75124895572662,2.4889018535614,-2.18603872829175,2.02522498650551,2.49611919846012,1756.155,2491.282,2271.935,2197.358,-0.02696024,0.02202128,0.06412754,-1.01472473144531,-0.35451802611351,0.602548539638519,-0.971054592046769,-0.41781766283301,0.601129050222034,0
3.1399974822998,-2.01234865188599,1.7442638874054,2.50046944618225,-2.20537554715972,2.0169048935548,2.50808961047982,2026.197,3539.824,3043.654,0,-0.031959,0.02088723,0.06638947,-1.00605964660645,-0.349245548248291,0.578382968902588,-0.962729384322967,-0.414235558528836,0.59597535005636,0
3.15999794006348,-2.03236293792725,1.73736429214478,2.51232028007507,-2.22454542119638,2.00865663230111,2.51995667569625,1738.189,2487.679,2251.885,2217.601,-0.02428164,0.02056897,0.06069048,-1.00071847438812,-0.344977021217346,0.592543661594391,-0.954176642367246,-0.410555552601238,0.590680795362169,0
3.17999839782715,-2.05219531059265,1.73057186603546,2.52367949485779,-2.24354199818069,2.00048293592768,2.53171646178199,2018.334,3538.634,3030.116,0,-0.029323,0.01940068,0.06294751,-0.991618633270264,-0.339619964361191,0.56796008348465,-0.945400671854024,-0.406779497661632,0.585248051557035,0
3.19999885559082,-2.07190942764282,1.72386717796326,2.53532075881958,-2.26236084956923,1.99238570991304,2.54336622725771,1721.684,2483.719,2231.412,2237.101,-0.02158812,0.01904739,0.05721403,-0.985723733901978,-0.335239827632904,0.582062125205994,-0.936405103758047,-0.402908956017012,0.579679366387291,0
3.21999740600586,-2.09143352508545,1.71727132797241,2.54646110534668,-2.28099585204123,1.98436758895103,2.55490218149615,2011.76,3534.636,3018.164,0,-0.02668541,0.01784693,0.05944969,-0.976205408573151,-0.32979953289032,0.557022094726563,-0.927194566064376,-0.398945918960059,0.573977604796153,0
3.23999786376953,-2.11082911491394,1.71076512336731,2.5578830242157,-2.29944628156995,1.97642888457015,2.56632387629027,1704.281,2480.167,2211.813,2256.484,-0.01889247,0.01746044,0.05367335,-0.969769895076752,-0.325310915708542,0.571094751358032,-0.917771149318993,-0.394891285994308,0.568144060931169,0
3.2599983215332,-2.13002586364746,1.70436930656433,2.56879591941833,-2.31770615117141,1.96857217280235,2.57762760541179,2004.286,3532.575,3005.354,0,-0.02404462,0.01623375,0.05589428,-0.959850430488586,-0.31979238986969,0.545648813247681,-0.908139677873146,-0.390747132903322,0.562181721295578,0
3.27999877929688,-2.14908385276794,1.69806516170502,2.57998943328857,-2.33577134012187,1.96079922667992,2.58881081793642,1688.082,2476.846,2192.492,2274.149,-0.01621705,0.01581633,0.05008642,-0.95288348197937,-0.315199464559555,0.559670805931091,-0.898304216251578,-0.386515208538549,0.556093102023818,0
3.29999732971191,-2.16793513298035,1.69187295436859,2.59066534042358,-2.35363611583443,1.95311251277486,2.59986996511977,1997.825,3527.838,2994.315,0,-0.02143632,0.01456267,0.05228528,-0.942579448223114,-0.309609174728394,0.533792734146118,-0.888269903777668,-0.382197724207263,0.549881384601876,0
3.31999778747559,-2.18663716316223,1.68577432632446,2.60162138938904,-2.37129993249841,1.94551226593426,2.61080470907906,1670.694,2473.941,2174.017,2292.024,-0.01356667,0.01411438,0.04644628,-0.935095608234406,-0.304920613765717,0.547797620296478,-0.87803910737898,-0.377795698332271,0.54354803427067,0
3.33999824523926,-2.20512533187866,1.6797890663147,2.61205220222473,-2.38875720963391,1.93800088728271,2.62161159523137,1991.023,3524.688,2982.241,0,-0.01884559,0.0128366,0.0486339,-0.924426019191742,-0.299266517162323,0.521540999412537,-0.8676171642955,-0.373311427378832,0.537096355035999,0
3.35999870300293,-2.22345399856567,1.67389941215515,2.62276244163513,-2.40600416902084,1.93058000248278,2.63228828467848,1654.256,2471.301,2155.404,2308.872,-0.01094666,0.01235837,0.0427771,-0.916437923908234,-0.294489175081253,0.53551310300827,-0.857008572601967,-0.368746846742847,0.530529131420399,0
3.37999725341797,-2.2415623664856,1.66812384128571,2.63293933868408,-2.42303550945299,1.9232518924954,2.64283149572124,1985.544,3518.89,2971.642,0,-0.01629162,0.01105404,0.04494647,-0.905421495437622,-0.288778305053711,0.508848786354065,-0.846218976345105,-0.364104384899943,0.523849857357654,0
3.39999771118164,-2.25950145721436,1.66244554519653,2.64339590072632,-2.43985088596004,1.91601670575165,2.65324101480657,1636.734,2469.207,2137.112,2326.293,-0.008353271,0.01054511,0.03907084,-0.89694619178772,-0.283920615911484,0.522827446460724,-0.835251031898626,-0.359385184813519,0.517060177269636,0
3.41999816894531,-2.27721333503723,1.65688228607178,2.65331196784973,-2.45644516534361,1.90887665092339,2.66351366424015,1979.54,3514.978,2959.939,0,-0.01375842,0.009217174,0.04123388,-0.885602653026581,-0.278159856796265,0.495798587799072,-0.824110582941664,-0.354591760855451,0.510163708672097,0
3.43999862670898,-2.29474639892578,1.65141773223877,2.66350746154785,-2.47281494657125,1.90183319137989,2.67364733862088,1620.298,2467.271,2118.314,2343.112,-0.005793973,0.008679083,0.03535014,-0.876655519008636,-0.273227483034134,0.509775996208191,-0.812802561098952,-0.34972623496609,0.503163504475677,0
3.45999717712402,-2.31204652786255,1.64606952667236,2.67315435409546,-2.48895539990862,1.89488840522088,2.68363904811313,1974.466,3509.063,2949.518,0,-0.01126997,0.007327653,0.03750265,-0.86500483751297,-0.267423391342163,0.482349753379822,-0.801333107864087,-0.344791249658555,0.496063366557468,0
3.4799976348877,-2.32915854454041,1.64082098007202,2.68308162689209,-2.50486640494811,1.88804234425441,2.69348871817885,1602.909,2465.484,2099.799,2360.889,-0.003269829,0.006761762,0.03160767,-0.855604708194733,-0.26242458820343,0.49636247754097,-0.78970518344449,-0.339788078627405,0.488865127426884,0
3.49999809265137,-2.34603214263916,1.63568913936615,2.69245314598083,-2.52054331600794,1.88129700738756,2.70319347291972,1968.847,3505.087,2938.049,0,-0.008813465,0.005392313,0.03375982,-0.84366762638092,-0.25658392906189,0.468581110239029,-0.777925130847354,-0.334719451091428,0.481572713707531,0
3.51999855041504,-2.36270880699158,1.63065850734711,2.70210528373718,-2.53598314392723,1.87465368077274,2.71275146190277,1586.63,2463.715,2081.403,2377.638,-0.0007952199,0.004802292,0.02786405,-0.833831250667572,-0.251524686813354,0.482609331607819,-0.765998315247401,-0.329587675535422,0.474189446698144,0
3.53999710083008,-2.37914133071899,1.62574541568756,2.71119427680969,-2.55118156992615,1.86811422266028,2.72216001159753,1964.528,3498.618,2928.125,0,-0.00641449,0.003415416,0.03000676,-0.821629405021667,-0.245654821395874,0.454451143741608,-0.753931367647136,-0.324395605094516,0.466719431305148,0
3.55999755859375,-2.3953685760498,1.62093472480774,2.72056484222412,-2.56613872308604,1.86167857751006,2.73141920191151,1569.864,2462.566,2063.559,2394.222,0.001624586,0.002801596,0.02410818,-0.811375975608826,-0.240544512867928,0.468532502651215,-0.741727567798258,-0.319144650954242,0.459164697851087,0
3.57999801635742,-2.41134715080261,1.61624145507813,2.7293655872345,-2.58085048488145,1.85534851740854,2.74052648328127,1959.627,3493.955,2917.401,0,-0.004071441,0.001401632,0.02625233,-0.79893034696579,-0.234653830528259,0.440041273832321,-0.72939375026341,-0.313837753835969,0.451529477255809,0
3.59999847412109,-2.42711305618286,1.61165118217468,2.73844861984253,-2.59531431270705,1.84912513636775,2.74948028171299,1553.819,2461.474,2046.09,2409.952,0.003972836,0.000767429,0.02036337,-0.78827828168869,-0.229501515626907,0.454156845808029,-0.716935713767317,-0.308477408768949,0.443817359206151,0
3.61999702453613,-2.44262504577637,1.60717940330505,2.74695491790771,-2.60952643755859,1.84301005608494,2.75827826401348,1955.793,3486.931,2908.412,0,-0.001804558,-0.0006450176,0.02250376,-0.775611639022827,-0.223599806427956,0.425313919782639,-0.70436057022192,-0.303066675810204,0.43603274631439,0
3.6399974822998,-2.45791697502136,1.60281121730804,2.75574517250061,-2.62348726424244,1.83700310238323,2.76692068077719,1537.535,2460.931,2029,2425.604,0.006251104,-0.001299623,0.01662397,-0.764582276344299,-0.218416854739189,0.439510971307755,-0.691671935956746,-0.297607110965304,0.428177877260776,0
3.65999794006348,-2.47295117378235,1.5985609292984,2.76395630836487,-2.6371932403809,1.83110580375149,2.77540533291308,1943.285,3488.077,2890.198,10.424,0.0004607215,-0.002690858,0.01879367,-0.751719892024994,-0.212511822581291,0.41055554151535,-0.67887712865581,-0.292101862829246,0.420257282040303,0
3.67999839782715,-2.48775768280029,1.59441494941711,2.77244687080383,-2.65064230460817,1.82531904713786,2.78373094433754,1527.104,2458.835,2015.41,2432.959,0.008456888,-0.003340669,0.01296164,-0.740330696105957,-0.20729660987854,0.424525856971741,-0.665982380593835,-0.286553612975735,0.412274818727906,0
3.69999694824219,-2.50230407714844,1.59038710594177,2.7803647518158,-2.66383127580226,1.81964420129024,2.79189554578451,1921.374,3487.67,2858.182,47.00169,0.002810848,-0.004645618,0.01510247,-0.727307319641113,-0.201390355825424,0.395892053842545,-0.65299527533123,-0.280965624398954,0.404235181908735,0
3.71999740600586,-2.51661539077759,1.58646440505981,2.78854537010193,-2.67676086214623,1.81408096149726,2.79989957565303,1527.988,2459.635,2012.911,2414.016,0.01057844,-0.005252819,0.009355173,-0.71556681394577,-0.196126848459244,0.409032940864563,-0.639919784131907,-0.275339605822821,0.396140829984331,0
3.73999786376953,-2.53066349029541,1.58265995979309,2.7961688041687,-2.68942811570037,1.808630596175,2.80774120902801,1901.16,3471.7,2819.878,105.7165,0.005188747,-0.006437926,0.01129706,-0.702406764030457,-0.190221354365349,0.381173998117447,-0.626763698705669,-0.269678909802388,0.38799658639423,0
3.7599983215332,-2.54446935653687,1.57896184921265,2.80402874946594,-2.70183149102237,1.80329377028414,2.81541948920704,1536.783,2472.775,2024.702,2360.007,0.01249107,-0.006997722,0.005673316,-0.690306842327118,-0.184910535812378,0.392996430397034,-0.613533684877225,-0.263986404455806,0.379806577601466,0
3.77999687194824,-2.5580096244812,1.57538104057312,2.81135582923889,-2.71396843221189,1.79807158355717,2.82293283396604,1877.937,3444.85,2778.681,183.0537,0.007407674,-0.00805766,0.007316616,-0.677010834217072,-0.179032161831856,0.366358995437622,-0.600237787932998,-0.258265551445064,0.371575784021584,0
3.79999732971191,-2.5713005065918,1.57190704345703,2.81888508796692,-2.72583998000171,1.79296358819586,2.83028188756818,1546.564,2497.905,2050.517,2278.504,0.01405343,-0.008579107,0.001920175,-0.664546370506287,-0.173714384436607,0.376459956169128,-0.586880353750828,-0.252518220679987,0.363306895959991,0
3.81999778747559,-2.58432269096375,1.56854867935181,2.82591438293457,-2.73744382842632,1.78797077639275,2.83746522251097,1851.354,3407.232,2735.523,278.186,0.009366621,-0.009523996,0.003237298,-0.651115000247955,-0.167912423610687,0.351459473371506,-0.573469638309223,-0.246747964477482,0.355005024260668,0
3.83999824523926,-2.59708905220032,1.56529569625854,2.83310627937317,-2.74877898265085,1.78309357619748,2.84448222294423,1557.431,2532.935,2084.791,2177.363,0.01526591,-0.01002254,-0.001809352,-0.638305187225342,-0.162641808390617,0.359592348337173,-0.560012740982885,-0.240957837500146,0.346674563774748,0
3.85999870300293,-2.60958409309387,1.56215631961823,2.83983659744263,-2.75984459091511,1.77833235409867,2.85133236158783,1822.754,3360.712,2690.009,387.9693,0.0110903,-0.01086889,-0.0008085357,-0.624751091003418,-0.156964316964149,0.336514413356781,-0.546516869536602,-0.235150941047811,0.338319976451988,0
3.87999725341797,-2.62181687355042,1.55912065505981,2.84668803215027,-2.77063893010371,1.77368785150474,2.85801457175126,1569.331,2574.15,2121.231,2067.068,0.01625193,-0.01135678,-0.005420598,-0.611641049385071,-0.151780620217323,0.342577397823334,-0.532990631455729,-0.229330978680956,0.329946590735853,0
3.89999771118164,-2.63377666473389,1.55619561672211,2.85311937332153,-2.78116350015273,1.7691594230351,2.8645297819664,1795.615,3308.902,2641.3,505.8199,0.01267809,-0.01212111,-0.004727643,-0.597986698150635,-0.14625371992588,0.321570426225662,-0.519438870577852,-0.223500034567577,0.321557405192552,0
3.91999816894531,-2.64546942710876,1.55337238311768,2.85963034629822,-2.79141684911929,1.7647476934202,2.87087709341145,1582.539,2619.004,2155.317,1954.706,0.01713098,-0.01260368,-0.008875784,-0.58463329076767,-0.141171231865883,0.325552940368652,-0.505870408491346,-0.2176619043907,0.313157880805522,0
