t,x_s1,x_s2,x_s3,x_s_d1,x_s_d2,x_s_d3,propellers_rpms1,propellers_rpms2,propellers_rpms3,propellers_rpms4,rollRad,pitchRad,yawRad,v_s1,v_s2,v_s3,v_s_d1,v_s_d2,v_s_d3,insideCount
0,-0.0599999986588955,2.94000005722046,1.17999994754791,-0.0599999986588955,2.94000005722046,1.17999994754791,0,0,0,0,0,0,0,0,0,0,-1.06581410364015E-15,4.44089209850063E-16,4.44089209850063E-16,0
0.0199966430664063,-0.0599999986588955,2.94000005722046,1.1771354675293,-0.0600018680476204,2.93999925287472,1.18000110478858,0,0,0,0,0.0163538,-0.002474609,-2.024222E-05,3.71994488546079E-08,3.50004931704007E-08,-0.143225952982903,-0.000279892991557604,-0.000120430134961378,0.000173267094926113,5
0.0399971008300781,-0.0599999986588955,2.94000005722046,1.17048275470734,-0.0600148681826738,2.93999365927978,1.18000915249146,0,0,0,0,0.03270752,-0.004950816,-5.430172E-05,3.62924410524101E-08,3.44428769949445E-08,-0.332637369632721,-0.00111080915396111,-0.000477950146533378,0.000687643781479785,6
0.05999755859375,-0.0600004345178604,2.94013261795044,1.16416549682617,-0.0600498857373401,2.93997859220429,1.18003083002592,3185.417,2835.788,1501.084,2767.654,0.0312798,-0.00494336,-0.01646952,-2.17784563574241E-05,0.00662225764244795,-0.315860688686371,-0.00247936261166862,-0.00106680046642749,0.00153484356504269,6
0.0799980163574219,-0.0599162206053734,2.94038772583008,1.15857708454132,-0.0601175407449857,2.93994948214456,1.18007271169851,3065.806,3067.271,2154.969,2024.032,0.0189738,-0.004310593,-0.04351445,0.00421071797609329,0.0127499792724848,-0.279419511556625,-0.00437227586895222,-0.00188126815916228,0.00270664704326441,6
0.0999984741210938,-0.0596375614404678,2.94068765640259,1.15374839305878,-0.0602281887669101,2.93990187339187,1.18014120809498,2640.244,3831.791,2620.331,1134.765,-0.005855759,-0.002888465,-0.07014393,0.0139330439269543,0.0149974562227726,-0.241434946656227,-0.00677637982016689,-0.00291568692648091,0.00419490191241918,6
0.119998931884766,-0.0590849108994007,2.94089889526367,1.14957010746002,-0.0603919230601972,2.93983142309968,1.18024256742227,2092.121,4101.934,3169.445,755.9836,-0.04012159,-0.0004506069,-0.08993442,0.0276325102895498,0.0105606578290462,-0.208912894129753,-0.00967861374975049,-0.00416443710735115,0.00599152296740588,5
0.139999389648438,-0.0582315027713776,2.94085621833801,1.14596664905548,-0.0606185767455666,2.93973390035084,1.18038287685052,1510.287,4074.781,3735.844,701.9886,-0.07649398,0.002388579,-0.09949676,0.042670413851738,-0.00213159061968327,-0.180174112319946,-0.0130660253322238,-0.00562194567796536,0.00808849210174802,4
0.159999847412109,-0.057099487632513,2.94039487838745,1.14297795295715,-0.0609177249752248,2.93960518522485,1.18056806385509,1135.185,3846.969,4069.815,879.9801,-0.1062788,0.004335658,-0.09869888,0.0566007345914841,-0.0230700764805079,-0.149432331323624,-0.0169257706321904,-0.00728268625174051,0.0104778583075938,4
0.179996490478516,-0.0557377859950066,2.93938803672791,1.14071118831635,-0.0612986060586912,2.93944130273522,1.18080384738964,1100.995,3565.29,4009.929,1148.942,-0.1236287,0.004492339,-0.0899994,0.0680851191282272,-0.0503417477011681,-0.113341070711613,-0.0212442472567593,-0.00914080609902243,0.0131512010557717,3
0.199996948242188,-0.0541965588927269,2.9377772808075,1.13924849033356,-0.0617704296168641,2.93923829023936,1.18109592864822,1373.226,3339.681,3594.863,1386.352,-0.1278738,0.003023117,-0.07724871,0.0770614370703697,-0.0805371999740601,-0.0731329843401909,-0.0260104776919234,-0.0111915819022102,0.0161017247421801,3
0.219997406005859,-0.052514337003231,2.93557620048523,1.13858389854431,-0.0623419453860714,2.93899238297017,1.18144972413443,1790.962,3212.857,3016.852,1527.079,-0.1229731,0.0008614791,-0.06426048,0.0841111615300179,-0.110052280128002,-0.0332289449870586,-0.0312111627562649,-0.0134292913950757,0.0193211965399932,3
0.239997863769531,-0.0507196895778179,2.93284702301025,1.13860690593719,-0.0630217183703222,2.93869989564571,1.18187053599376,2159.299,3168.599,2517.263,1558.398,-0.1149644,-0.0009875001,-0.05362222,0.0897323861718178,-0.136453479528427,0.00115213915705681,-0.0368338920540454,-0.0158485947310391,0.02280193382306,3
0.259998321533203,-0.0488373823463917,2.92966485023499,1.13913774490356,-0.063818066443955,2.93835724931701,1.18236351338666,2351.878,3159.099,2273.918,1495.818,-0.1090517,-0.00190416,-0.04623727,0.0941154882311821,-0.159107476472855,0.0265394691377878,-0.04286636357961,-0.0184441987007453,0.0265363210638542,3
0.279998779296875,-0.0468918681144714,2.92608761787415,1.13999593257904,-0.0647390625194898,2.93796097043536,1.18293365383054,2352.586,3152.223,2324.29,1363.653,-0.1078165,-0.001744371,-0.04152294,0.0972758382558823,-0.178861781954765,0.0429114401340485,-0.0492963837173861,-0.0212108567320638,0.030516809833474,3
0.299999237060547,-0.0449088588356972,2.92214369773865,1.1410619020462,-0.065792536715479,2.93750768991949,1.18358580454179,2229.242,3144.043,2572.778,1194.438,-0.1110895,-0.0007366303,-0.0379868,0.0991504266858101,-0.197191402316093,0.0532970353960991,-0.0561118672418845,-0.0241433688900884,0.0347359188016424,3
0.319999694824219,-0.0429170355200768,2.91783547401428,1.14229381084442,-0.0669860785243584,2.93699414222283,1.18432466377777,2074.003,3132.625,2873.273,1032.516,-0.116933,0.0006865342,-0.03398034,0.099591076374054,-0.21540692448616,0.0615976490080357,-0.0633008373176985,-0.0272365818771378,0.0391862337367069,3
0.339996337890625,-0.0409490540623665,2.91315102577209,1.14370715618134,-0.068326768706371,2.93641728069206,1.18515461486636,1955.243,3107.313,3109.286,921.6544,-0.1228436,0.002069987,-0.02837492,0.09839928150177,-0.234225198626518,0.0706684365868568,-0.0708499516420146,-0.0304847548730522,0.0438594951176439,3
0.359996795654297,-0.0390402972698212,2.90807723999023,1.14534318447113,-0.0698222324154443,2.93577382443646,1.1860803781411,1904.475,3065.696,3222.423,880.8251,-0.1267068,0.003093028,-0.02087013,0.0954377800226212,-0.253693491220474,0.0817988812923431,-0.0787503322603694,-0.0338840679420472,0.0487502070677249,3
0.379997253417969,-0.0372258350253105,2.90261030197144,1.14724338054657,-0.0714791088463715,2.935060916796,1.18710606357981,1924.067,3021.145,3206.961,896.0805,-0.1274163,0.003642229,-0.01188462,0.0907231047749519,-0.273343861103058,0.0950089693069458,-0.0869889214763108,-0.0374289027221294,0.0538502862508218,3
0.399997711181641,-0.0355374068021774,2.89676117897034,1.14943146705627,-0.0733040467096699,2.93427569701629,1.18823578705104,1991.293,2989.336,3098.728,939.0218,-0.1250381,0.003790808,-0.002208293,0.0844214558601379,-0.292451441287994,0.109403938055038,-0.0955541759940907,-0.0411142924556206,0.059152586816983,3
0.419998168945313,-0.0340021178126335,2.89055466651917,1.15190577507019,-0.0753034649285836,2.93341540321397,1.18947352217404,2072.28,2974.398,2953.337,986.8715,-0.1205016,0.003707641,0.007337402,0.076764702796936,-0.310324966907501,0.123717747628689,-0.104434660908044,-0.0449353170220673,0.0646500300148815,3
0.439998626708984,-0.0326426774263382,2.88402462005615,1.15464162826538,-0.0774835548069347,2.93247737144397,1.19082310166083,2136.469,2972.925,2825.264,1022.987,-0.1150768,0.003564001,0.01614952,0.0679719597101212,-0.326507419347763,0.136792004108429,-0.113619049702587,-0.0488871029382406,0.0703356041918149,4
0.459999084472656,-0.0314785167574883,2.8772075176239,1.15760147571564,-0.0798502821969742,2.93145903476675,1.19228821865812,2168.26,2977.644,2748.925,1039.207,-0.1098687,0.003474847,0.02394362,0.0582081116735935,-0.340850204229355,0.147992491722107,-0.123096124252221,-0.0529648233581361,0.0762023647937057,4
0.479999542236328,-0.0305268689990044,2.87013840675354,1.16074764728546,-0.0824093896672336,2.93035792231548,1.19387242808941,2168.21,2984.127,2732.617,1032.753,-0.1055427,0.003481999,0.03074664,0.0475823655724525,-0.353458970785141,0.157309666275978,-0.13285477482153,-0.0571636980729742,0.0822434343651008,4
0.5,-0.0298037249594927,2.86284685134888,1.16405189037323,-0.085166398670376,2.92917165836334,1.1955791479969,2146.721,2989.53,2763.021,1009.077,-0.1022702,0.003569079,0.03679636,0.0361573286354542,-0.364582121372223,0.165214017033577,-0.142884000065179,-0.0614789935111996,0.0884520025491718,4
0.519996643066406,-0.0293244514614344,2.8553569316864,1.16749894618988,-0.0881260274065667,2.92789821280061,1.19741129917127,2116.725,2992.5,2816.978,977.9838,-0.09983978,0.003686294,0.04241063,0.0239637345075607,-0.374495416879654,0.172353282570839,-0.153170920546857,-0.0659051680111775,0.0948200963613094,4
0.539997100830078,-0.0291041508316994,2.84768843650818,1.17108535766602,-0.0912944900108037,2.92653491185861,1.1993727284581,2088.869,2991.886,2871.332,950.944,-0.09782643,0.003777266,0.04786023,0.0110147427767515,-0.383423984050751,0.179318994283676,-0.163708678212627,-0.0704392707438901,0.101343470339432,4
0.55999755859375,-0.0291576646268368,2.83985829353333,1.17481601238251,-0.094676112580471,2.92507989413848,1.20146611391775,2070.99,2988.898,2908.35,934.7863,-0.09578218,0.003795522,0.05329429,-0.00267567485570908,-0.391505420207977,0.186532944440842,-0.17448465888317,-0.0750758741803766,0.108014315705644,5
0.579998016357422,-0.0294990688562393,2.83188271522522,1.17869830131531,-0.0982755538235842,2.92353115512831,1.2036943395124,2064.039,2986.038,2922.096,930.6038,-0.09338907,0.003716532,0.05874011,-0.0170698333531618,-0.398781388998032,0.194114372134209,-0.185488294752812,-0.0798104312890852,0.11482609048482,5
0.599998474121094,-0.030141294002533,2.82377815246582,1.1827392578125,-0.102097262171133,2.92188678079254,1.20606015903275,2066.535,2984.232,2912.279,938.9,-0.09049901,0.003537883,0.06411216,-0.0321114100515842,-0.405232965946198,0.20204883813858,-0.196709126405959,-0.0846384416756885,0.121772319800455,5
0.619998931884766,-0.0310955755412579,2.8155620098114,1.18694186210632,-0.106145477944935,2.92014494663912,1.20856619743999,2074.635,2986.693,2887.072,951.9738,-0.08717591,0.003271935,0.06929078,-0.0477141700685024,-0.410806030035019,0.210128009319305,-0.208136802817102,-0.0895554515830839,0.128846595874672,5
0.639999389648438,-0.0323712751269341,2.80725288391113,1.1913046836853,-0.110424235525481,2.91830391678686,1.21121495220784,2082.806,2991.6,2855.347,968.8232,-0.08359769,0.002940635,0.07414766,-0.0637851506471634,-0.415456920862198,0.218143478035927,-0.219761081350814,-0.0945570538913933,0.136042578028218,5
0.659999847412109,-0.0339757949113846,2.79886960983276,1.19582223892212,-0.114937365519793,2.91636204303257,1.21400879466451,2087.909,2999.251,2826.797,982.9915,-0.08000562,0.002566471,0.07859975,-0.0802262499928474,-0.419169515371323,0.225880011916161,-0.231571827761751,-0.0996388881179631,0.143353992680462,5
0.679996490478516,-0.0359148569405079,2.79043030738831,1.20048701763153,-0.119687567829752,2.91431816368388,1.21694939617789,2087.851,3007.202,2806.653,994.3132,-0.07660689,0.002168485,0.0826093,-0.0969531014561653,-0.421970576047897,0.233238533139229,-0.24355671368107,-0.104795649710095,0.15077320798381,6
0.699996948242188,-0.038192693144083,2.78195190429688,1.20529043674469,-0.124680083855354,2.91217002351282,1.22004000142426,2082.94,3015.045,2797.998,999.9369,-0.07354639,0.00175924,0.08619577,-0.113891392946243,-0.423920601606369,0.240172922611237,-0.255710395848158,-0.11002503961202,0.158296916205407,6
0.719997406005859,-0.0408125184476376,2.77344965934753,1.21022629737854,-0.129917262555645,2.90991661182791,1.22328206452116,2075.368,3021.359,2797.232,1002.878,-0.07087258,0.0013453,0.08940118,-0.130991697311401,-0.425109088420868,0.246794044971466,-0.26802079535749,-0.115321860608138,0.165917639927336,6
0.739997863769531,-0.0437765903770924,2.76493716239929,1.2152886390686,-0.135402141159277,2.90755662179454,1.22667746565781,2066.18,3027.062,2804.312,1000.736,-0.06858759,0.0009276028,0.09230208,-0.148203834891319,-0.42562860250473,0.253118366003036,-0.280478211503383,-0.120681938755799,0.173629373950669,6
0.759998321533203,-0.0470867343246937,2.75642561912537,1.22047531604767,-0.141137563960274,2.90508882959244,1.2302279655877,2056.935,3029.604,2811.839,1002.068,-0.06659447,0.0005081351,0.09494177,-0.165507555007935,-0.425577044487,0.259333997964859,-0.293073051970232,-0.126101146749576,0.181426180175103,6
0.779998779296875,-0.0507440753281116,2.74792504310608,1.22578418254852,-0.147126184485884,2.90251209348295,1.23393520697061,2050.502,3033.25,2819.696,999.1468,-0.06483839,8.287816E-05,0.09737917,-0.182866230607033,-0.425031214952469,0.265443921089172,-0.305795832832518,-0.131575403921268,0.189302187598958,6
0.799999237060547,-0.054749358445406,2.7394437789917,1.23121583461761,-0.153370467664426,2.8998253528763,1.23780071571459,2045.323,3034.606,2822.322,1002.704,-0.06322025,-0.0003451457,0.09962058,-0.200264930725098,-0.424062132835388,0.271581083536148,-0.318637178554805,-0.1371006762399,0.197251592319181,6
0.819999694824219,-0.0591026283800602,2.73098945617676,1.23676908016205,-0.159872691993147,2.89702762739878,1.24182590231796,2043.25,3038.09,2822.917,1002.7,-0.06172888,-0.0007787083,0.1016875,-0.217663377523422,-0.422717809677124,0.277663767337799,-0.331587821991737,-0.142672976311719,0.205268657531342,6
0.839996337890625,-0.0638034790754318,2.72256851196289,1.24244439601898,-0.166633637018892,2.89411858163313,1.24601124935738,2041.457,3039.913,2818.319,1009.378,-0.06032486,-0.001210673,0.1035557,-0.235042467713356,-0.421046376228333,0.283768385648727,-0.344636106234817,-0.148287288494656,0.213346167053785,6
0.859996795654297,-0.0688505321741104,2.71418690681458,1.24823927879333,-0.173657794122436,2.89109628306371,1.25035953721147,2041.226,3044.171,2814.923,1010.494,-0.05906252,-0.00164104,0.1052362,-0.252353072166443,-0.419081091880798,0.289741605520248,-0.357777960707973,-0.153941861333544,0.221481601006014,6
0.879997253417969,-0.0742422044277191,2.70584964752197,1.25415360927582,-0.180945630646592,2.88796053060595,1.25487105518773,2040.535,3046.608,2807.498,1018.336,-0.05793547,-0.002059689,0.1066971,-0.269582718610764,-0.416868209838867,0.295716524124146,-0.371001963495383,-0.159631780297098,0.229667888678032,6
0.899997711181641,-0.0799756199121475,2.69756078720093,1.26018249988556,-0.188498701076517,2.88471065540831,1.25954676558649,2040.347,3052.023,2806.648,1015.744,-0.05704597,-0.002468218,0.1079765,-0.286671608686447,-0.414441734552383,0.301444113254547,-0.384299280991351,-0.165353244531568,0.237899561647111,7
0.919998168945313,-0.0860481709241867,2.68932366371155,1.26632583141327,-0.196318384305134,2.8813460641717,1.26438752200817,2037.282,3052.731,2802.936,1024.496,-0.05634077,-0.002853311,0.1090422,-0.303626894950867,-0.411858230829239,0.307166278362274,-0.397661187980262,-0.171102499820431,0.246171218589148,7
0.939998626708984,-0.0924559980630875,2.68114066123962,1.27257823944092,-0.204405885800988,2.87786623821667,1.26939407069523,2037.162,3058.069,2807.709,1016.839,-0.05591946,-0.003220827,0.1099609,-0.320390731096268,-0.409155368804932,0.312617868185043,-0.411079067636589,-0.176875838584386,0.254477525278661,7
0.959999084472656,-0.0991957932710648,2.67301273345947,1.2789409160614,-0.212762239776093,2.87427073255068,1.27456705187416,2033.436,3057.242,2807.649,1024.907,-0.05567658,-0.003557983,0.1107005,-0.33699032664299,-0.406395018100739,0.318134188652039,-0.424544411524882,-0.18266959988136,0.262813214588797,7
0.979999542236328,-0.106263116002083,2.66494059562683,1.28540861606598,-0.221388311353785,2.87055917493534,1.27990700109753,2034.133,3062.142,2816.78,1013.106,-0.05570587,-0.003875965,0.1113457,-0.35336646437645,-0.403610706329346,0.323382943868637,-0.438048819599778,-0.188480169406503,0.271173086491326,7
0.999996185302734,-0.113654479384422,2.65692329406738,1.29198479652405,-0.230283076085251,2.86673200616235,1.28541328418271,2030.73,3059.53,2817.244,1022.913,-0.05585128,-0.00415826,0.1118452,-0.369568705558777,-0.400861978530884,0.328807175159454,-0.45158141622203,-0.194302867676075,0.279550408447474,7
1.01999664306641,-0.121364951133728,2.64895987510681,1.29866337776184,-0.239450461003889,2.86278753653895,1.29108833215045,2033.244,3064.594,2828.933,1007.005,-0.05623424,-0.004423511,0.1122987,-0.385524421930313,-0.398167610168457,0.333930045366287,-0.465139182559269,-0.200136395770846,0.2879433116562,7
1.03999710083008,-0.129391252994537,2.64104819297791,1.30545127391815,-0.248889165986195,2.85872632547195,1.29693134016237,2031.113,3060.525,2825.575,1021.669,-0.0566497,-0.004649879,0.1126155,-0.401314616203308,-0.395583838224411,0.339396357536316,-0.478711464817306,-0.205976169660809,0.296345200911388,7
1.05999755859375,-0.137727826833725,2.63318610191345,1.31233990192413,-0.258599401509697,2.85454828239877,1.30294243851408,2036.681,3067.85,2839.341,998.5243,-0.05731709,-0.004863997,0.1129316,-0.416829526424408,-0.393109232187271,0.34443011879921,-0.492290296490434,-0.211818761581115,0.30475114456651,7
1.07999801635742,-0.146371722221375,2.62537002563477,1.31933903694153,-0.268581219802083,2.85025338484727,1.30912165953701,2032.815,3060.681,2832.487,1022.435,-0.05793814,-0.005031777,0.1130993,-0.432192921638489,-0.390803068876266,0.34995710849762,-0.50586781946303,-0.217660790404144,0.31315627807366,7
1.09999847412109,-0.155316740274429,2.6175971031189,1.32643687725067,-0.278834517009062,2.84584167750307,1.31546893894041,2041.846,3070.889,2850.022,989.3795,-0.05884681,-0.005193697,0.1133065,-0.447252303361893,-0.388642221689224,0.354889839887619,-0.519436284009554,-0.223498921639497,0.321555803983559,7
1.11999893188477,-0.164560437202454,2.60986328125,1.33364737033844,-0.289359035362208,2.84131327127672,1.32198411715334,2036.279,3060.78,2838.95,1023.24,-0.05963723,-0.005300756,0.1133453,-0.462185055017471,-0.386696875095367,0.360524654388428,-0.532988048794549,-0.229329867434001,0.329944991945551,8
1.13999938964844,-0.174096003174782,2.60216498374939,1.3409538269043,-0.300154365346813,2.83666834237095,1.3286669406667,2048.592,3074.587,2862.925,976.9026,-0.06078346,-0.005411011,0.1134787,-0.476777702569962,-0.384919941425323,0.365321189165115,-0.546515580872639,-0.235150386571708,0.338319178707607,8
1.15999603271484,-0.183921724557877,2.59449696540833,1.34837639331818,-0.311217811600473,2.8319080505249,1.33551574092274,2039.794,3059.84,2846.27,1025.564,-0.06170651,-0.005454154,0.1134107,-0.491287261247635,-0.383402645587921,0.37112632393837,-0.560008885098767,-0.240956178420931,0.346672176798798,8
1.17999649047852,-0.194029912352562,2.58685564994812,1.3558908700943,-0.322552888823985,2.82703088346102,1.34253269368871,2056.327,3078.594,2880.346,959.7151,-0.06307963,-0.005515406,0.1135155,-0.505408644676208,-0.382062256336212,0.375726401805878,-0.573465794611364,-0.246746310641672,0.355002644828593,8
1.19999694824219,-0.204420402646065,2.5792350769043,1.36352789402008,-0.334156660511822,2.8220381046756,1.34971598112778,2043.464,3057.236,2853.038,1031.46,-0.06406181,-0.005493569,0.1133579,-0.519523859024048,-0.381027162075043,0.381850481033325,-0.58687652428584,-0.252516572968185,0.36330452533874,8
1.21999740600586,-0.215083926916122,2.57163190841675,1.37125170230865,-0.346028131869748,2.8169301422008,1.35706498741494,2067.405,3084.725,2900.779,934.9453,-0.0656613,-0.005513809,0.1134877,-0.533176183700562,-0.380158066749573,0.386188954114914,-0.600233974716476,-0.258263910724523,0.371573423458908,8
1.23999786376953,-0.22602254152298,2.5640389919281,1.37910664081573,-0.358166167196084,2.81170748469733,1.36457900949675,2045.515,3052.112,2858.822,1043.786,-0.06662057,-0.005425392,0.1132546,-0.546931862831116,-0.379643201828003,0.392748326063156,-0.613531154887641,-0.263985315871967,0.379805011417393,8
1.2599983215332,-0.237224966287613,2.55645394325256,1.38704097270966,-0.370569492049568,2.80637068052165,1.37225725843336,2080.596,3092.032,2925.376,903.4443,-0.06842779,-0.005413141,0.1134564,-0.560121059417725,-0.379258066415787,0.39671778678894,-0.626761182173783,-0.269677827009021,0.387995028541113,8
1.27999877929688,-0.248696357011795,2.54886817932129,1.39511954784393,-0.383236695417198,2.80092033679326,1.3800988607405,2047.25,3044.738,2860.506,1064.103,-0.06925444,-0.005256015,0.1131413,-0.573570311069489,-0.379283875226974,0.403925985097885,-0.639917282339435,-0.275338529371412,0.396139281255613,8
1.29999923706055,-0.260422170162201,2.54128074645996,1.40326607227325,-0.396166231882091,2.79535711846185,1.3881028597315,2097.482,3102.739,2954.494,860.5441,-0.07129016,-0.005225122,0.1134702,-0.586291372776031,-0.379369348287582,0.407326847314835,-0.652992789539212,-0.280964554832093,0.404233643085061,8
1.31999969482422,-0.272412180900574,2.53368186950684,1.41157519817352,-0.409356423791328,2.7896817473746,1.39626821685929,2046.358,3033.567,2855.604,1098.653,-0.07186007,-0.00499396,0.1130442,-0.599499583244324,-0.379943311214447,0.415459364652634,-0.665981146317813,-0.286553081901244,0.412274054652251,8
1.33999633789063,-0.284646779298782,2.52607274055481,1.41993463039398,-0.422802873722428,2.78389611561957,1.40459220990988,2118.937,3118.363,2990.432,801.0529,-0.07419194,-0.004962002,0.1135646,-0.611731231212616,-0.380461394786835,0.417970567941666,-0.678873453515705,-0.29210028151913,0.420255006953505,8
1.3599967956543,-0.297142386436462,2.51844096183777,1.4284827709198,-0.436508776648329,2.77799884848916,1.41307681672372,2040.431,3016.539,2842.003,1154.05,-0.07434587,-0.004646684,0.1129726,-0.624780356884003,-0.381583541631699,0.427404969930649,-0.691668290305691,-0.297605542343502,0.428175620429107,9
1.37999725341797,-0.309872031211853,2.51079154014587,1.43705439567566,-0.450469530727146,2.77199192602736,1.42171918854144,2146.928,3141.221,3036.098,717.2289,-0.07709052,-0.004636031,0.1137672,-0.636481821537018,-0.38247361779213,0.428578495979309,-0.704356955827446,-0.303065120637236,0.436030508832034,9
1.39999771118164,-0.322861671447754,2.50310850143433,1.44585239887238,-0.464682951063699,2.76587628833354,1.43051797280888,2028.323,2992.168,2813.756,1239.061,-0.07663619,-0.004220578,0.1129229,-0.649482727050781,-0.384148120880127,0.439899772405624,-0.716933326165324,-0.308476381450513,0.44381588116678,9
1.41999816894531,-0.336073011159897,2.49540209770203,1.45463168621063,-0.47914673136562,2.75965292774086,1.43947174182117,2182.462,3174.385,3098.759,596.7827,-0.08000988,-0.004263188,0.1141212,-0.660567045211792,-0.38532367348671,0.43896347284317,-0.729391385793766,-0.313836736470737,0.451528013536465,9
1.43999862670898,-0.349546670913696,2.48765063285828,1.46369302272797,-0.4938584461112,2.75332288788357,1.44857899406484,2003.594,2954.265,2765.177,1372.616,-0.07862663,-0.003712979,0.1128809,-0.673681497573853,-0.387570798397064,0.45306795835495,-0.741725227577294,-0.31914364402254,0.459163249142831,9
1.45999908447266,-0.363226890563965,2.47987246513367,1.47267174720764,-0.508815552717244,2.74688726276417,1.45783815555978,2232.082,3224.366,3185.534,418.5447,-0.08294788,-0.003854127,0.1146719,-0.68401312828064,-0.388913452625275,0.448934644460678,-0.753929052770513,-0.324394609067776,0.466717998286247,9
1.47999954223633,-0.377176344394684,2.47203683853149,1.48201513290405,-0.524015393706918,2.74034719582071,1.46724758120123,1960.792,2897.658,2684.319,1577.995,-0.08017713,-0.003116964,0.1128242,-0.697471559047699,-0.391779094934464,0.467171192169189,-0.76599717101811,-0.329587183205524,0.474188738365705,9
1.49999618530273,-0.391312956809998,2.46417427062988,1.49117863178253,-0.539452231337361,2.73370515584365,1.47680371905302,2301.313,3299.423,3307.997,155.4947,-0.08594074,-0.003418966,0.1154924,-0.706830322742462,-0.393127292394638,0.458177208900452,-0.777921739365859,-0.334717991831687,0.481570614218926,9
1.51999664306641,-0.405732393264771,2.45624017715454,1.50083005428314,-0.555129074991064,2.72695984797977,1.48650843206629,1889.04,2812.875,2554.583,1893.464,-0.08109379,-0.002407497,0.1127163,-0.720972895622253,-0.396702438592911,0.482569307088852,-0.789701834723693,-0.339786637766398,0.488863054409188,9
1.53999710083008,-0.42032265663147,2.44827651977539,1.51024115085602,-0.571040013494911,2.72011381564173,1.49635806094328,2215.407,3552.185,3298.465,0,-0.08750721,-0.002193379,0.1170274,-0.729509949684143,-0.398188441991806,0.470554083585739,-0.801329803423436,-0.344789827850059,0.496061320951293,9
1.55999755859375,-0.435200899839401,2.44023418426514,1.52018654346466,-0.587181951496087,2.71316839067337,1.50635068951315,1903.128,2655.829,2446.059,2161.949,-0.08116143,-0.000479369,0.1135447,-0.743914484977722,-0.402118682861328,0.497271686792374,-0.812800388649436,-0.349725300221754,0.503162159625937,9
1.57999801635742,-0.450241386890411,2.43216156959534,1.52987253665924,-0.603551689586986,2.70612494969039,1.51648433719019,2149.608,3698.217,3226.603,0,-0.08733677,0.0007221615,0.1182168,-0.752023577690125,-0.403635025024414,0.484297931194305,-0.824108441976122,-0.354590839657789,0.510162383312438,9
1.59999847412109,-0.465561836957932,2.42401528358459,1.54005694389343,-0.620145926473056,2.69898491314762,1.52675696031579,2009.228,2536.461,2449.394,2181.531,-0.08114918,0.003174996,0.1138478,-0.766026675701141,-0.407319813966751,0.509217858314514,-0.835248923368005,-0.359384277571697,0.517058871988737,9
1.61999893188477,-0.481038808822632,2.41584181785583,1.54998815059662,-0.636961261140657,2.69174974440622,1.53716645350051,2188.945,3680.127,3220.631,0,-0.08757646,0.005028583,0.1173417,-0.773846507072449,-0.408670753240585,0.496559739112854,-0.846216901179681,-0.364103492014234,0.523848572731403,9
1.63999938964844,-0.496778547763824,2.40760159492493,1.56036150455475,-0.653994195024907,2.68442094880091,1.54771065096602,2094.292,2521.03,2564.287,2004.483,-0.0830299,0.007741232,0.1122696,-0.78698593378067,-0.412016808986664,0.518668532371521,-0.857007552155828,-0.368746407673381,0.530528499715628,9
1.65999603271484,-0.512668788433075,2.39933276176453,1.57051634788513,-0.671237824488362,2.67700149677403,1.55838527903188,2211.952,3626.269,3267.298,0,-0.09004254,0.009759706,0.1146763,-0.794516503810883,-0.413444638252258,0.507743656635284,-0.867614155697522,-0.373310132863173,0.537094492570531,9
1.67999649047852,-0.528800785541534,2.39099550247192,1.58105421066284,-0.688695041988866,2.66949014378176,1.56919212826729,2128.284,2556.632,2734.218,1767.304,-0.08737618,0.01229733,0.1098438,-0.806599259376526,-0.41684702038765,0.52689254283905,-0.878036152828799,-0.377794427071868,0.543546205263364,9
1.69999694824219,-0.54507851600647,2.38262152671814,1.5914112329483,-0.706358800111611,2.66188992212981,1.58012683598675,2248.552,3510.27,3359.934,0,-0.09452464,0.01397247,0.1117323,-0.813888013362885,-0.418712258338928,0.517849385738373,-0.888267004546665,-0.382196476749158,0.549879589839776,9
1.71999740600586,-0.561584055423737,2.37416839599609,1.60213148593903,-0.724225231782013,2.65420249571236,1.5911870082869,2120.344,2619.807,2863.838,1585.747,-0.09254538,0.01599753,0.107756,-0.825275301933289,-0.422654032707214,0.536010563373566,-0.898302321135456,-0.386514393123025,0.556091928856661,9
1.73999786376953,-0.578231871128082,2.36566495895386,1.61270081996918,-0.742290383213093,2.64642956573347,1.60237019758524,2269.133,3435.95,3421.912,0,-0.09908237,0.01707244,0.110039,-0.832390904426575,-0.425170242786407,0.528469741344452,-0.908137821269591,-0.39074633405868,0.562180571969536,9
1.7599983215332,-0.595102071762085,2.35706853866577,1.6236435174942,-0.760550216073323,2.63857286977439,1.61367390396219,2096.74,2666.433,2895.757,1534.553,-0.09639631,0.01852134,0.1071049,-0.843511283397675,-0.429820328950882,0.547132849693298,-0.917769332013572,-0.394890504058555,0.568142935932543,9
1.77999877929688,-0.612111210823059,2.34841203689575,1.63444173336029,-0.779000609654483,2.63063418086074,1.62509557650306,2294.311,3405.064,3431.319,0,-0.1019426,0.01898192,0.1101604,-0.850456774234772,-0.432822406291962,0.539909720420837,-0.927192788821983,-0.398945154262308,0.57397650459845,9
1.79999923706055,-0.629343807697296,2.33965253829956,1.64564120769501,-0.79763736303951,2.62261530652977,1.63663261464007,2072.266,2689.253,2836.724,1601.164,-0.09780938,0.01998588,0.1078714,-0.861633062362671,-0.4379703104496,0.559971451759338,-0.936404235539493,-0.402908582446823,0.579678828918647,9
1.81999588012695,-0.646710693836212,2.33083081245422,1.65668153762817,-0.816452590859454,2.61451963963547,1.64828013695421,2301.605,3437.933,3392.614,0,-0.1025743,0.02005975,0.1117062,-0.868343591690063,-0.441084504127502,0.552018105983734,-0.945398129488514,-0.406778403752778,0.585246477711674,9
1.83999633789063,-0.664303660392761,2.32190465927124,1.66814517974854,-0.835449117627072,2.60634596486888,1.66003989195343,2055.819,2681.492,2743.702,1725.424,-0.09714998,0.02088555,0.1095472,-0.879650115966797,-0.446305066347122,0.573182106018066,-0.954174163352093,-0.410554485950274,0.590679260733698,9
1.8599967956543,-0.682025492191315,2.31292152404785,1.67942404747009,-0.854618942724365,2.59809772467243,1.67190692687406,2296.586,3492.132,3345.681,0,-0.1016039,0.02086576,0.113809,-0.886087954044342,-0.44916170835495,0.563942074775696,-0.962726969681477,-0.41423451957606,0.595973855278252,9
1.87999725341797,-0.699974715709686,2.30384016036987,1.69113564491272,-0.873957566090845,2.58977685529642,1.6838784559643,2052.587,2656.937,2671.915,1832.847,-0.09550202,0.02174056,0.1113662,-0.897464990615845,-0.454067289829254,0.585581243038177,-0.971053025860989,-0.417816988947023,0.601128080678429,9
1.89999771118164,-0.718047678470612,2.2947108745575,1.70264029502869,-0.893460418296025,2.58138532283915,1.69595165052899,2278.365,3544.657,3315.463,0,-0.1000155,0.0218524,0.1156959,-0.903645753860474,-0.456465661525726,0.575230538845062,-0.979148917665041,-0.421300425017273,0.606139823365946,9
1.91999816894531,-0.73634660243988,2.28549385070801,1.71457231044769,-0.913122862707269,2.57292512231409,1.70812364027167,2061.447,2627.031,2649.64,1882.717,-0.09383222,0.02289036,0.1128418,-0.914946496486664,-0.460835695266724,0.596599400043488,-0.987011339258123,-0.424683405378145,0.611007036871143,9
1.93999862670898,-0.754765093326569,2.2762393951416,1.72628748416901,-0.932940197657643,2.56439827671719,1.72039151463653,2265.266,3568.33,3309.92,0,-0.09849222,0.02319309,0.1169403,-0.920923888683319,-0.462737411260605,0.585760116577148,-0.99463709319481,-0.4279645542582,0.615727741822989,9
1.95999908447266,-0.773405015468597,2.26690864562988,1.73841607570648,-0.952907658613767,2.55580683609405,1.73275232415044,2078.289,2608.852,2668.996,1868.145,-0.09257787,0.02435819,0.1137546,-0.931997179985046,-0.466527074575424,0.606431186199188,-1.00202309041976,-0.431142542523221,0.620300025949072,9
1.97999572753906,-0.792160868644714,2.25754880905151,1.75032889842987,-0.973016570682103,2.54715453300902,1.74520069864106,2262.165,3562.764,3322.009,0,-0.09731244,0.02476433,0.117505,-0.937792062759399,-0.467989414930344,0.595641553401947,-1.00916501115878,-0.434215511495054,0.624721215103391,9
1.99999618530273,-0.811131536960602,2.24812364578247,1.76263988018036,-0.993269723110518,2.53844016732665,1.7577383647857,2091.696,2607.169,2705.629,1819.075,-0.09171341,0.02593895,0.1141645,-0.948532521724701,-0.47127029299736,0.615550935268402,-1.01606270846678,-0.437183397947334,0.628991218319934,9
2.01999664306641,-0.830214023590088,2.23867607116699,1.77474057674408,-1.01365835337184,2.52966750931758,1.77035989816261,2266.785,3541.187,3338.685,0,-0.09639045,0.0263037,0.1176257,-0.954120755195618,-0.472376555204391,0.605033814907074,-1.02271203275434,-0.440044416427654,0.633107466805174,9
2.03999710083008,-0.849503755569458,2.22917079925537,1.78722941875458,-1.03417746715556,2.52083870789413,1.78306220705567,2096.429,2618.288,2732.154,1772.051,-0.09094855,0.02737014,0.1142876,-0.964495718479156,-0.475258201360703,0.624442040920258,-1.02911032850577,-0.442797424341804,0.637068316668402,9
2.05999755859375,-0.868900001049042,2.21964955329895,1.79950892925262,-1.05482201812353,2.5119559343546,1.79584216754118,2269.385,3521.569,3350.762,0,-0.0954887,0.02758521,0.1176374,-0.969806551933289,-0.476062774658203,0.613974690437317,-1.03525504859546,-0.445441325732794,0.640872191117535,9
2.07999801635742,-0.888496816158295,2.21007704734802,1.8121737241745,-1.07558691007788,2.50302138145056,1.8086966248299,2089.158,2629.257,2736.145,1756.96,-0.08991843,0.02849598,0.1143623,-0.97984254360199,-0.478622257709503,0.633238852024078,-1.04114375428791,-0.447975071280863,0.644517580459114,9
2.09999847412109,-0.908192992210388,2.20049452781677,1.82462441921234,-1.09646699912883,2.4940372624541,1.82162239460902,2266.781,3516.685,3349.451,0,-0.09426152,0.02854161,0.1177613,-0.984813570976257,-0.479131251573563,0.622532308101654,-1.04677411523768,-0.450397658303471,0.648003042098304,9
2.11999893188477,-0.928083658218384,2.19086718559265,1.83746099472046,-1.11745709586255,2.485005810225,1.83461626438416,2077.767,2633.159,2717.58,1773.602,-0.08837647,0.02931876,0.1145184,-0.99453330039978,-0.481367945671082,0.641826808452606,-1.0521439094894,-0.452708130755304,0.651327200538896,9
2.13999938964844,-0.948065876960754,2.18123650550842,1.85007190704346,-1.138551967509,2.47592927627801,1.8476749948214,2260.913,3522.501,3338.053,0,-0.09255177,0.029232,0.1180051,-0.999109148979187,-0.48153430223465,0.630547225475311,-1.05725102347782,-0.454905579228273,0.654488747383304,8
2.15999603271484,-0.968236207962036,2.17156863212585,1.86307048797607,-1.15974228854654,2.4668116731246,1.86079281297862,2065.984,2629.205,2686.161,1810.199,-0.08630773,0.02993107,0.1146839,-1.00851678848267,-0.483393847942352,0.649926424026489,-1.06209255378819,-0.456988754464129,0.657485885279498,8
2.17999649047852,-0.988489389419556,2.16190528869629,1.8758282661438,-1.18103083166728,2.45765180775279,1.8739714352843,2248.831,3538.624,3320.938,0,-0.09039248,0.02978573,0.1182298,-1.012655377388,-0.483161091804504,0.637892007827759,-1.06666845113384,-0.45895763525619,0.660318583716675,7
2.19999694824219,-1.00892353057861,2.15221405029297,1.88897323608398,-1.20240821395574,2.44845371736898,1.88720505326679,2057.794,2618.202,2653.419,1850.364,-0.08387572,0.03046913,0.1147287,-1.02171504497528,-0.48457658290863,0.657250642776489,-1.07097597819164,-0.460811043810786,0.662985148161421,7
2.21999740600586,-1.02943134307861,2.14253568649292,1.90186262130737,-1.22386905090202,2.43921971877738,1.90049033365798,2235.76,3556.455,3302.123,0,-0.08797273,0.030327,0.1182447,-1.02539217472076,-0.48391056060791,0.644470572471619,-1.07501345493598,-0.46254825725983,0.665484538597853,7
2.23999786376953,-1.05011177062988,2.13283920288086,1.91513276100159,-1.24540792547886,2.42995214277345,1.91382392305993,2052.187,2604.357,2631.707,1878.17,-0.08136649,0.03102979,0.1145163,-1.03402245044708,-0.484836399555206,0.663507282733917,-1.07877930973132,-0.464168599372462,0.667815782108711,5
2.2599983215332,-1.07085621356964,2.1231644153595,1.92813420295715,-1.26701939030951,2.42065333321126,1.92720244928693,2224.923,3563.923,3290.827,0,-0.08553008,0.03090846,0.1178912,-1.03722286224365,-0.483734905719757,0.650074601173401,-1.08227207933222,-0.465671440555045,0.66997797287536,4
2.27999877929688,-1.09176349639893,2.11348080635071,1.94150829315186,-1.28869796983554,2.41132564607061,1.9406225227075,2048.325,2594.332,2621.167,1887.883,-0.07895793,0.03162018,0.1139362,-1.04535782337189,-0.484178990125656,0.668703675270081,-1.08549040888332,-0.467056197851165,0.67197027217779,3
2.29999923706055,-1.11272478103638,2.10382699966431,1.95460402965546,-1.31043816248474,2.40197144852433,1.95408073758635,2213.366,3567.218,3283.363,0,-0.08320088,0.03150524,0.1171537,-1.04806578159332,-0.482681334018707,0.654787957668304,-1.08843305191934,-0.468322334941636,0.673791908394614,0
2.31999588012695,-1.13383758068085,2.09417343139648,1.96806252002716,-1.33223028062798,2.39259490888859,1.96757109681956,2043.422,2587.314,2617.338,1887.113,-0.07671236,0.03219909,0.1130353,-1.05564486980438,-0.482690185308456,0.672926723957062,-1.09109838837379,-0.469469154757102,0.675441878627497,0
2.33999633789063,-1.15499448776245,2.08455657958984,1.98123395442963,-1.35407709248145,2.38319483607731,1.98109531406483,2204.742,3561.911,3280.224,0,-0.08100164,0.0320513,0.1161011,-1.05783987045288,-0.480844646692276,0.658574402332306,-1.09348640563071,-0.470496651869278,0.67692017506657,0
2.3599967956543,-1.1762912273407,2.07494688034058,1.99476110935211,-1.37596887940059,2.37377541175173,1.99464737301821,2035.85,2584.202,2611.79,1885.596,-0.07454082,0.0326925,0.1118633,-1.0648444890976,-0.480480641126633,0.676355540752411,-1.09559564748259,-0.471404199712748,0.678225896250009,0
2.37999725341797,-1.19762134552002,2.06538009643555,2.00799345970154,-1.39790005743958,2.36433903852774,2.00822381695123,2195.669,3559.93,3272.712,0,-0.07884874,0.03248322,0.114841,-1.06650733947754,-0.478337436914444,0.661612391471863,-1.09742530100382,-0.472191448508328,0.679358538938131,0
2.39999771118164,-1.2190797328949,2.05582714080811,2.02157354354858,-1.41986502747765,2.35488812555058,2.02182117974142,2024.83,2580.967,2602.629,1889.882,-0.0723714,0.03305631,0.1105326,-1.07291281223297,-0.477647423744202,0.679004967212677,-1.09897466165884,-0.47285809511406,0.680317666989874,0
2.41999816894531,-1.24056005477905,2.04632258415222,2.03484892845154,-1.44185817738692,2.34542508756209,2.03543598721428,2189.538,3553.255,3265.861,0,-0.07667347,0.03276159,0.1134327,-1.07402372360229,-0.475231349468231,0.663765966892242,-1.10024313330221,-0.473403883025206,0.681102911362803,0
2.43999862670898,-1.2621568441391,2.03683757781982,2.04846811294556,-1.46387388420027,2.33595234396796,2.0490647584853,2011.548,2579.2,2586.498,1901.626,-0.07010452,0.03325547,0.1090425,-1.07984173297882,-0.474248051643372,0.680957436561584,-1.10123022817855,-0.473828602374257,0.681713970113108,0
2.45999908447266,-1.28376460075378,2.02740573883057,2.06177186965942,-1.48590651627916,2.32647231790489,2.06270400730194,2178.405,3556.054,3253.543,0,-0.07440393,0.0328843,0.1119269,-1.08038341999054,-0.471578747034073,0.665182530879974,-1.10193556692257,-0.474132089930926,0.682150608395601,0
2.47999572753906,-1.30547666549683,2.01799964904785,2.07541489601135,-1.50794623031618,2.31698924467309,2.07634764018804,1997.476,2573.637,2565.667,1921.996,-0.0677178,0.03331638,0.1074544,-1.08560574054718,-0.470315426588058,0.682157397270203,-1.10235882472314,-0.474314205938057,0.682412625136718,0
2.49999618530273,-1.32718801498413,2.00865173339844,2.08872985839844,-1.52999579362571,2.30750193357449,2.089997370243,2168.199,3557.344,3241.256,0,-0.07202359,0.03288321,0.1103104,-1.08556568622589,-0.467394769191742,0.665742754936218,-1.10250000049778,-0.474374949929889,0.682500019666355,0
2.51999664306641,-1.34899187088013,1.99933469295502,2.10238170623779,-1.55204535801192,2.29801462201262,2.10364710096447,1984.138,2566.84,2541.831,1945.853,-0.06520856,0.03326846,0.1057143,-1.09019541740417,-0.465854793787003,0.682589888572693,-1.10235893238473,-0.47431425226183,0.68241269178437,0
2.53999710083008,-1.37078309059143,1.99008083343506,2.11569333076477,-1.57408927882895,2.2885297387209,2.11729333804778,2155.47,3565.354,3224.432,0,-0.06955378,0.03279969,0.1085475,-1.08957016468048,-0.462691187858582,0.665580630302429,-1.10193567455836,-0.474132136243598,0.68215067502728,0
2.55999755859375,-1.39265465736389,1.98086333274841,2.12933564186096,-1.59612191359838,2.27904971150017,2.13093258853001,1971.351,2557.286,2521.673,1967.583,-0.0626775,0.03315708,0.1038289,-1.09357297420502,-0.460874319076538,0.682114601135254,-1.10123038958312,-0.473828671822132,0.681714070030222,0
2.57999801635742,-1.41450190544128,1.9717139005661,2.14262580871582,-1.6181376241771,2.2695769662859,2.14456136213196,2146.827,3564.499,3212.463,0,-0.06707864,0.03265549,0.1065746,-1.09236240386963,-0.45747447013855,0.664504647254944,-1.10024334841354,-0.473403975581601,0.681103044526962,0
2.59999847412109,-1.43641662597656,1.96260583400726,2.15624141693115,-1.64013077892511,2.26011392621545,2.15817617260023,1959.036,2550.72,2504.939,1982.505,-0.06017519,0.03297795,0.1017202,-1.09572756290436,-0.455395549535751,0.68078088760376,-1.09897493039424,-0.472858210743393,0.680317833349887,0
2.61999893188477,-1.45829510688782,1.95357024669647,2.16949486732483,-1.66209575487342,2.25066301069528,2.17177353904914,2135.146,3566.937,3200.077,0,-0.06463971,0.03244505,0.1043977,-1.0939325094223,-0.451784670352936,0.66267317533493,-1.09742562325992,-0.472191587166126,0.67935873843001,0
2.63999557495117,-1.48022770881653,1.94458079338074,2.18306732177734,-1.68402276052401,2.24122843273345,2.18534740007499,1946.511,2544.179,2490.84,1994.405,-0.0577368,0.03272898,0.09944515,-1.09663879871368,-0.449470221996307,0.678625822067261,-1.09559639877797,-0.471404522974156,0.678226361337632,0
2.65999603271484,-1.50211310386658,1.93566727638245,2.19626760482788,-1.70591456353497,2.23180900148401,2.19889946898997,2126.21,3562.856,3191.247,0,-0.06225139,0.03215063,0.1020455,-1.09425985813141,-0.445671200752258,0.660010755062103,-1.09348726343002,-0.470497020956359,0.676920706085208,0
2.67999649047852,-1.52403926849365,1.92680430412292,2.20978283882141,-1.72776139360717,2.22240892083372,2.2124236975135,1932.936,2539.695,2475.808,2006.254,-0.05531332,0.03238333,0.09700281,-1.09631395339966,-0.443150907754898,0.675760209560394,-1.09109935234628,-0.469469569527535,0.67544247537239,0
2.69999694824219,-1.5459064245224,1.91802048683167,2.22291707992554,-1.74955768413056,2.21303058593937,2.22591663964878,2116.171,3563.487,3178.492,0,-0.05986999,0.03175476,0.09956422,-1.09335720539093,-0.439189612865448,0.656713485717773,-1.08843358680109,-0.468322565086308,0.673792239511893,0
2.71999740600586,-1.56780135631561,1.90929079055786,2.23636054992676,-1.77129788800495,2.2036763835632,2.23937486147656,1918.117,2534.496,2460.793,2019.508,-0.05289997,0.03193496,0.09446494,-1.09474861621857,-0.436484217643738,0.672169864177704,-1.08549099645889,-0.467056450668518,0.671970635915057,0
2.73999786376953,-1.58962571620941,1.90064334869385,2.24941325187683,-1.79297647980783,2.19434869114016,2.25279494249708,2109.913,3557.245,3168.733,0,-0.05748593,0.03124247,0.09696689,-1.09121954441071,-0.43237242102623,0.652634680271149,-1.08227271937422,-0.465671715947234,0.669978369091845,0
2.7599983215332,-1.61146509647369,1.89205324649811,2.26277208328247,-1.81458795796224,2.18504987584512,2.26617347697213,1902.315,2531.654,2443.342,2034.152,-0.05044879,0.03135995,0.09180058,-1.091965675354,-0.429498612880707,0.667945146560669,-1.07878000199166,-0.464168897232749,0.667816210650842,0
2.77999877929688,-1.63322234153748,1.8835483789444,2.27573108673096,-1.83612684690458,2.17578229366013,2.27950707526701,2099.578,3558.067,3155.739,0,-0.05506352,0.03060876,0.09428961,-1.08786976337433,-0.42524978518486,0.64794647693634,-1.07501419914593,-0.462548577472581,0.665484999299265,0
2.79999542236328,-1.65498185157776,1.87510418891907,2.2889928817749,-1.85758361379882,2.16655004629821,2.2927898361021,1886.279,2526.718,2423.911,2052.845,-0.04794915,0.03067223,0.08907182,-1.08797442913055,-0.422216951847076,0.663087666034698,-1.07097756992209,-0.460811728687929,0.662986133518392,0
2.81999588012695,-1.67664813995361,1.86674761772156,2.30184412002563,-1.87896102895071,2.15735194177419,2.30602347442862,2090.951,3555.644,3144.154,0,-0.05258944,0.02986635,0.09153828,-1.0833193063736,-0.417833268642426,0.642556190490723,-1.06667014556453,-0.458958364322378,0.660319632649988,0
2.83999633789063,-1.69830417633057,1.85845458507538,2.31499671936035,-1.90024960698239,2.14819206138118,2.31920211834584,1870.417,2521.714,2402.326,2073.873,-0.04537281,0.02988039,0.08624598,-1.08279955387115,-0.414644330739975,0.657629370689392,-1.06209435025759,-0.456989527434725,0.657486997379635,0
2.8599967956543,-1.71985638141632,1.85025179386139,2.32772922515869,-1.9214439980555,2.13907270700516,2.33232245604895,2080.502,3559.133,3128.417,0,-0.05005252,0.02903426,0.08870669,-1.07759737968445,-0.410130351781845,0.636620700359344,-1.05725197237562,-0.454905987512489,0.654489334796247,0
2.87999725341797,-1.74138510227203,1.842116355896,2.34075880050659,-1.94253888918396,2.12999616467562,2.34538119854648,1854.561,2514.875,2382.82,2094.291,-0.04277303,0.02901191,0.08335111,-1.0764445066452,-0.406783789396286,0.651484727859497,-1.05214490868305,-0.452708560680416,0.651327819087361,0
2.89999771118164,-1.76279926300049,1.83407354354858,2.35335826873779,-1.96352900640172,2.1209647036328,2.35837508100222,2074.13,3554.982,3116.451,0,-0.04749694,0.02812352,0.08575747,-1.0707083940506,-0.402140080928802,0.629976630210876,-1.04677516433438,-0.450398109700476,0.648003691539142,0
2.91999816894531,-1.78417778015137,1.82610058784485,2.36625242233276,-1.98440911693069,2.11198057539494,2.37130086407726,1838.883,2510.876,2364.485,2110.85,-0.04016792,0.02805762,0.08032536,-1.06893086433411,-0.39864107966423,0.644711792469025,-1.04114485287423,-0.447975543971863,0.644518260536375,0
2.93999862670898,-1.80543124675751,1.81822299957275,2.37870764732361,-2.00517403134858,2.10304601282548,2.38415533527198,2064.308,3555.137,3103.611,0,-0.04494457,0.02713058,0.08270427,-1.06267070770264,-0.393878787755966,0.622762084007263,-1.03525619623725,-0.445441819530995,0.640872901562472,0
2.95999908447266,-1.82663667201996,1.81041836738586,2.39145421981812,-2.02581860575671,2.0941632292003,2.39693531026807,1822.875,2506.137,2346.958,2127.442,-0.03757507,0.02702379,0.07722092,-1.06027007102966,-0.390238881111145,0.637334227561951,-1.02911152474823,-0.442797939051516,0.637069057199471,0
2.97999572753906,-1.84770667552948,1.80271089076996,2.40375280380249,-2.04633384260397,2.08533609591429,2.40963521915279,2056.971,3551.067,3092.493,0,-0.04239912,0.02605326,0.07956364,-1.05349957942963,-0.385366916656494,0.614931166172028,-1.02271452148052,-0.440045487257004,0.633109007445237,0
2.99999618530273,-1.8687162399292,1.79507923126221,2.41634058952332,-2.06672252359526,2.07656341607755,2.42225678393395,1805.74,2502.379,2329.813,2143.913,-0.03496997,0.02590136,0.07403242,-1.05048727989197,-0.381595641374588,0.629383683204651,-1.01606529245116,-0.437184509763622,0.628992817929355,0
3.01999664306641,-1.88958096504211,1.78754663467407,2.42847228050232,-2.08697572864857,2.06784902775215,2.4347944826559,2049.576,3548.648,3079.773,0,-0.03982651,0.02488544,0.07635139,-1.04322290420532,-0.376621723175049,0.60658198595047,-1.00916768936771,-0.434216663853534,0.624722873042298,0
3.03999710083008,-1.91037285327911,1.7800920009613,2.44089078903198,-2.10708851762775,2.05919505654068,2.44724525713902,1789.699,2499.364,2310.723,2160.363,-0.03234676,0.02468607,0.07078353,-1.03960871696472,-0.372724890708923,0.620927810668945,-1.00202447609459,-0.431143138740389,0.620300883747801,0
3.05999755859375,-1.93101012706757,1.77273893356323,2.45284390449524,-2.12705600675913,2.05060360379452,2.45960608409476,2042.047,3544.623,3068.618,0,-0.03725123,0.02362299,0.07308261,-1.03186047077179,-0.367653489112854,0.597650229930878,-0.994638524886308,-0.427965170275055,0.615728628108227,0
3.07999801635742,-1.95156335830688,1.76546621322632,2.46508312225342,-2.14687337079936,2.04207674568107,2.47187397646763,1771.975,2495.763,2290.531,2180.441,-0.02969265,0.02337857,0.06746865,-1.02766275405884,-0.363637655973434,0.611965239048004,-0.987012816387451,-0.424684040945629,0.611007951284564,0
3.09999847412109,-1.9719523191452,1.75829672813416,2.47684812545776,-2.16653584520328,2.033616532251,2.4840459847772,2032.76,3544.664,3055.151,0,-0.03463707,0.02227913,0.06976867,-1.01944744586945,-0.358472883701324,0.588247060775757,-0.979150439632689,-0.421301079877433,0.606140765536421,0
3.11999893188477,-1.9922456741333,1.75120997428894,2.48889780044556,-2.18603872829175,2.02522498650551,2.49611919846012,1755.322,2490.828,2270.088,2200.9,-0.02700499,0.02199918,0.06411543,-1.01467514038086,-0.354337215423584,0.60248726606369,-0.971054592046769,-0.41781766283301,0.601129050222034,0
3.13999557495117,-2.01236605644226,1.74422836303711,2.50046396255493,-2.20537371089838,2.01690568364676,2.50808847374658,2025.954,3541.381,3042.603,0,-0.03199362,0.02086592,0.06639352,-1.00601005554199,-0.349078476428986,0.578310549259186,-0.962730189199339,-0.414235904844652,0.595975848313175,0
3.15999603271484,-2.03237962722778,1.73733186721802,2.51231360435486,-2.22454360124808,2.00865741537402,2.51995554906156,1738.209,2486.664,2250.671,2220.182,-0.02429495,0.02055157,0.06069147,-1.00067329406738,-0.344821959733963,0.592484652996063,-0.95417746870157,-0.410555908149813,0.590681306902481,0
3.17999649047852,-2.05221080780029,1.73054254055023,2.52367162704468,-2.2435401949712,2.00048371179835,2.53171534550942,2019.101,3539.09,3029.242,0,-0.02932993,0.01938751,0.06294383,-0.991575121879578,-0.339471697807312,0.567902386188507,-0.9454015193052,-0.406779862296197,0.585248576169681,0
3.19999694824219,-2.07192444801331,1.72384059429169,2.53531169891357,-2.2623590635174,1.99238647840124,2.54336512160655,1722.48,2483.642,2231.022,2237.115,-0.02159983,0.01903764,0.05720121,-0.985680460929871,-0.335097283124924,0.582002282142639,-0.936405971974636,-0.402909329586355,0.579679903854719,0
3.21999740600586,-2.0914478302002,1.71724724769592,2.54645085334778,-2.28099585204123,1.98436758895103,2.55490218149615,2011.834,3534.798,3018.264,0,-0.02670618,0.0178411,0.05942817,-0.976161181926727,-0.329662770032883,0.556959986686707,-0.927194566064376,-0.398945918960059,0.573977604796153,0
3.23999786376953,-2.11084198951721,1.71074366569519,2.5578715801239,-2.29944628156995,1.97642888457015,2.56632387629027,1704.698,2480.345,2212.259,2255.779,-0.01892868,0.01745722,0.05364579,-0.969723403453827,-0.32518208026886,0.571033716201782,-0.917771149318993,-0.394891285994308,0.568144060931169,0
3.2599983215332,-2.13003826141357,1.704350233078,2.56878352165222,-2.31770615117141,1.96857217280235,2.57762760541179,2003.643,3533.06,3005.833,0,-0.02409202,0.0162346,0.05586665,-0.959802150726318,-0.319672793149948,0.545595765113831,-0.908139677873146,-0.390747132903322,0.562181721295578,0
3.27999877929688,-2.149094581604,1.69804835319519,2.57997560501099,-2.33577134012187,1.96079922667992,2.58881081793642,1687.953,2476.65,2193.805,2273.433,-0.01627404,0.01582011,0.05006231,-0.952832520008087,-0.315092116594315,0.55960601568222,-0.898304216251578,-0.386515208538549,0.556093102023818,0
3.29999542236328,-2.16794514656067,1.69185829162598,2.59065079689026,-2.35363442159312,1.95311324175956,2.5998689163037,1998.169,3527.276,2994.883,0,-0.02149064,0.01456808,0.05226018,-0.942528903484344,-0.30951327085495,0.533754527568817,-0.888270870184445,-0.382198140025101,0.549881982853707,0
3.31999588012695,-2.18664598464966,1.68576145172119,2.60160565376282,-2.37129825777079,1.94551298652277,2.61080367234288,1670.592,2474.205,2175.421,2290.682,-0.0136226,0.01411982,0.04642944,-0.935043215751648,-0.304837644100189,0.547746062278748,-0.878040092225563,-0.377796122084242,0.54354864393762,0
3.33999633789063,-2.20513367652893,1.67977750301361,2.61203598976135,-2.38875555478454,1.93800159931817,2.62161057080077,1992.134,3523.527,2982.602,0,-0.01889087,0.0128389,0.04861362,-0.924375355243683,-0.299193918704987,0.52152156829834,-0.867618167158097,-0.373311858882592,0.53709697585572,0
3.3599967956543,-2.22346138954163,1.67388892173767,2.62274599075317,-2.40600253440574,1.930580705812,2.63228727277387,1654.24,2472.194,2155.931,2307.654,-0.01099087,0.0123566,0.04276472,-0.916386663913727,-0.294427663087845,0.535494565963745,-0.85700959304645,-0.368747285811601,0.530529763124145,0
3.37999725341797,-2.24156856536865,1.66811454296112,2.63292288780212,-2.42303550945299,1.9232518924954,2.64283149572124,1986.169,3518.268,2971.834,0,-0.01632997,0.01104694,0.04493562,-0.905371367931366,-0.288725346326828,0.508842825889587,-0.846218976345105,-0.364104384899943,0.523849857357654,0
3.39999771118164,-2.2595067024231,1.66243672370911,2.64337968826294,-2.43985088596004,1.91601670575165,2.65324101480657,1636.679,2469.917,2136.548,2326.378,-0.008387893,0.01053343,0.03906509,-0.896897852420807,-0.283877044916153,0.52284300327301,-0.835251031898626,-0.359385184813519,0.517060177269636,0
3.41999816894531,-2.27721762657166,1.65687441825867,2.65329575538635,-2.45644516534361,1.90887665092339,2.66351366424015,1979.054,3515.437,2960.057,0,-0.01379304,0.009203316,0.04123824,-0.88555508852005,-0.278123259544373,0.495800197124481,-0.824110582941664,-0.354591760855451,0.510163708672097,0
3.43999862670898,-2.29475021362305,1.6514105796814,2.66349172592163,-2.47281494657125,1.90183319137989,2.67364733862088,1619.97,2466.935,2117.549,2344.734,-0.005814746,0.008664684,0.0353559,-0.876612484455109,-0.273198515176773,0.509802162647247,-0.812802561098952,-0.34972623496609,0.503163504475677,0
3.45999526977539,-2.3120493888855,1.64606237411499,2.6731390953064,-2.48895387148596,1.89488906285845,2.6836381019467,1974.042,3509.973,2949.135,0,-0.01128594,0.007315646,0.03751677,-0.864964187145233,-0.267398715019226,0.482368946075439,-0.801334209341438,-0.344791723593488,0.49606404842442,0
3.47999572753906,-2.32916045188904,1.64081454277039,2.68306660652161,-2.50486489870395,1.88804299234919,2.69348778574196,1603.03,2464.874,2099.549,2361.765,-0.003276753,0.006752573,0.0316216,-0.855568468570709,-0.262403219938278,0.496381223201752,-0.789706299681989,-0.339788558913217,0.488865818431069,0
3.49999618530273,-2.34603333473206,1.63568317890167,2.69243884086609,-2.52054183223243,1.88129764581471,2.703192554392,1969.479,3504.992,2937.66,0,-0.008815596,0.005385618,0.03376974,-0.843634843826294,-0.256563782691956,0.468606024980545,-0.777926261338517,-0.334719937510192,0.481573413535413,0
3.51999664306641,-2.36270904541016,1.63065302371979,2.70209145545959,-2.53598168290031,1.87465430941181,2.7127505574575,1587.009,2463.806,2081.491,2377.181,-0.0008005462,0.004797208,0.02787084,-0.833800911903381,-0.251505166292191,0.482625037431717,-0.765999459475408,-0.329588167864767,0.474190155029786,0
3.53999710083008,-2.37914133071899,1.62574052810669,2.71118092536926,-2.55118156992615,1.86811422266028,2.72216001159753,1964.782,3498.437,2928.174,0,-0.006423012,0.00341159,0.03000818,-0.821601033210754,-0.245636284351349,0.454470187425613,-0.753931367647136,-0.324395605094516,0.466719431305148,0
3.55999755859375,-2.39536809921265,1.62092995643616,2.72055196762085,-2.56613872308604,1.86167857751006,2.73141920191151,1569.971,2462.822,2063.816,2393.692,0.001608803,0.002798544,0.02410785,-0.811348736286163,-0.240527898073196,0.468548476696014,-0.741727567798258,-0.319144650954242,0.459164697851087,0
3.57999801635742,-2.4113461971283,1.61623704433441,2.72935318946838,-2.58085048488145,1.85534851740854,2.74052648328127,1959.218,3494.075,2917.776,0,-0.004091148,0.001399703,0.02625304,-0.798904120922089,-0.234639957547188,0.44005623459816,-0.72939375026341,-0.313837753835969,0.451529477255809,0
3.59999847412109,-2.42711114883423,1.61164712905884,2.73843669891357,-2.59531431270705,1.84912513636775,2.74948028171299,1553.718,2461.414,2046.466,2409.818,0.003952437,0.0007664517,0.02036604,-0.788253724575043,-0.22949156165123,0.454173266887665,-0.716935713767317,-0.308477408768949,0.443817359206151,0
3.6199951171875,-2.44262313842773,1.60717511177063,2.74694347381592,-2.60952509409627,1.84301063413925,2.75827743234631,1955.701,3487.029,2908.482,0,-0.001822667,-0.0006450176,0.0225094,-0.775588750839233,-0.223593041300774,0.42533877491951,-0.704361775018033,-0.303067194200314,0.436033492140578,0
3.63999557495117,-2.45791411399841,1.60280728340149,2.75573396682739,-2.62348594498176,1.83700367002424,2.76691986409198,1537.29,2460.795,2029.539,2425.474,0.006237097,-0.001298557,0.01663388,-0.764561533927917,-0.218413516879082,0.439525157213211,-0.691673151171832,-0.297607633838406,0.428178629536803,0
3.65999603271484,-2.47294807434082,1.59855687618256,2.76394581794739,-2.63719194552437,1.83110636089208,2.77540453133521,1943.808,3487.702,2889.728,10.84044,0.0004565673,-0.00268926,0.01880091,-0.751701891422272,-0.212510168552399,0.410594880580902,-0.678878353700696,-0.292102389931838,0.420258040401444,0
3.67999649047852,-2.48775458335876,1.59441089630127,2.77243661880493,-2.65064103434641,1.825319593696,2.783730157985,1527.351,2459.236,2015.727,2431.961,0.008450091,-0.003339604,0.01297232,-0.740314364433289,-0.207295581698418,0.424545466899872,-0.665983614869008,-0.28655414404986,0.412275582803033,0
3.69999694824219,-2.50230026245117,1.59038305282593,2.78035521507263,-2.66383127580226,1.81964420129024,2.79189554578451,1921.314,3487.123,2857.66,48.19588,0.002813664,-0.00464402,0.01510771,-0.727293431758881,-0.201389849185944,0.395932108163834,-0.65299527533123,-0.280965624398954,0.404235181908735,0
3.71999740600586,-2.51661157608032,1.58646059036255,2.78853631019592,-2.67676086214623,1.81408096149726,2.79989957565303,1528.605,2460.223,2012.998,2412.683,0.01057308,-0.005252819,0.00936185,-0.715553879737854,-0.196125686168671,0.409057170152664,-0.639919784131907,-0.275339605822821,0.396140829984331,0
3.73999786376953,-2.53065943717957,1.58265614509583,2.79616045951843,-2.68942811570037,1.808630596175,2.80774120902801,1900.745,3471.322,2819.701,106.709,0.005185591,-0.00643686,0.01130013,-0.70239531993866,-0.190220773220062,0.381204307079315,-0.626763698705669,-0.269678909802388,0.38799658639423,0
3.7599983215332,-2.54446506500244,1.57895803451538,2.80402064323425,-2.70183149102237,1.80329377028414,2.81541948920704,1536.853,2473.08,2025.05,2359.258,0.01248269,-0.006997189,0.005677911,-0.690296292304993,-0.184910595417023,0.393013507127762,-0.613533684877225,-0.263986404455806,0.379806577601466,0
3.77999877929688,-2.55800533294678,1.57537722587585,2.81134843826294,-2.7139695770734,1.79807109095524,2.82293354268985,1877.813,3444.603,2778.655,183.4841,0.007401051,-0.008057128,0.007319847,-0.677001416683197,-0.179033204913139,0.366385102272034,-0.60023651686137,-0.258265004538452,0.371574997167698,0
3.79999542236328,-2.57129573822021,1.57190299034119,2.81887793540955,-2.72583886061506,1.79296406983666,2.83028119461452,1546.681,2498.158,2050.74,2277.893,0.01404304,-0.008578574,0.001925957,-0.664538025856018,-0.173716560006142,0.37647944688797,-0.586881630238189,-0.252518769916838,0.363307686166475,0
3.81999588012695,-2.58431816101074,1.56854462623596,2.82590746879578,-2.73744273461857,1.78797124702766,2.83746454539187,1850.886,3407.015,2735.842,278.5562,0.009359936,-0.009523464,0.003244959,-0.651108026504517,-0.167916089296341,0.351476490497589,-0.573470919541002,-0.246748515755721,0.355005817404173,0
3.83999633789063,-2.59708404541016,1.5652916431427,2.83309984207153,-2.74877791451009,1.78309403578861,2.84448156171422,1557.62,2532.832,2084.653,2177.438,0.01526533,-0.01002201,-0.001801895,-0.638300001621246,-0.162646144628525,0.359620004892349,-0.560014026276881,-0.240958390526246,0.346675359432959,0
3.8599967956543,-2.60957908630371,1.56215226650238,2.83983063697815,-2.75984354851568,1.77833280261403,2.85133171629293,1823.02,3360.916,2689.931,387.5474,0.0110899,-0.01086889,-0.0007989483,-0.624747216701508,-0.1569684445858,0.336539447307587,-0.546518158200277,-0.23515149552379,0.33832077419619,0
3.87999725341797,-2.62181186676025,1.55911660194397,2.84668278694153,-2.77063893010371,1.77368785150474,2.85801457175126,1569.24,2573.995,2121,2067.526,0.01625497,-0.01135678,-0.005412076,-0.611639022827148,-0.151784375309944,0.34260505437851,-0.532990631455729,-0.229330978680956,0.329946590735853,0
3.89999771118164,-2.63377141952515,1.55619156360626,2.85311460494995,-2.78116350015273,1.7691594230351,2.8645297819664,1795.814,3309,2641.165,505.6225,0.01268013,-0.01212111,-0.004720187,-0.597986102104187,-0.146256685256958,0.321594536304474,-0.519438870577852,-0.223500034567577,0.321557405192552,0
3.91999816894531,-2.64546418190002,1.55336809158325,2.85962605476379,-2.79141684911929,1.7647476934202,2.87087709341145,1582.456,2618.965,2155.263,1954.855,0.01713246,-0.01260368,-0.008868859,-0.584634065628052,-0.141173452138901,0.325574100017548,-0.505870408491346,-0.2176619043907,0.313157880805522,0
