t,x_s1,x_s2,x_s3,x_s_d1,x_s_d2,x_s_d3,propellers_rpms1,propellers_rpms2,propellers_rpms3,propellers_rpms4,rollRad,pitchRad,yawRad,v_s1,v_s2,v_s3,v_s_d1,v_s_d2,v_s_d3,insideCount
0,-0.0599999986588955,2.94000005722046,1.17999994754791,-0.0599999986588955,2.94000005722046,1.17999994754791,0,0,0,0,0,0,0,0,0,0,-1.06581410364015E-15,4.44089209850063E-16,4.44089209850063E-16,0
0.0199966430664063,-0.0599999986588955,2.94000005722046,1.1771354675293,-0.0600018680476204,2.93999925287472,1.18000110478858,0,0,0,0,0.0163538,-0.002474609,-2.024222E-05,3.71994488546079E-08,3.50004931704007E-08,-0.143225952982903,-0.000279892991557604,-0.000120430134961378,0.000173267094926113,5
0.0400009155273438,-0.0599999986588955,2.94000005722046,1.17048275470734,-0.0600148724204753,2.93999365745638,1.18000915511487,0,0,0,0,0.03270752,-0.004950816,-5.430172E-05,3.62924410524101E-08,3.44428769949445E-08,-0.332637369632721,-0.00111101934050116,-0.00047804058392963,0.00068777389696065,6
0.05999755859375,-0.0600004345178604,2.94013261795044,1.16416561603546,-0.0600498857373401,2.93997859220429,1.18003083002592,3185.473,2835.817,1501.023,2767.634,0.03127922,-0.00494336,-0.01646952,-2.17786164284917E-05,0.00662230560556054,-0.315859228372574,-0.00247936261166862,-0.00106680046642749,0.00153484356504269,6
0.0800018310546875,-0.0599162243306637,2.94038772583008,1.15857720375061,-0.0601175574246769,2.93994947496775,1.18007272202403,3065.683,3067.238,2155.073,2024.076,0.01897327,-0.004310593,-0.04351445,0.00421056058257818,0.0127498283982277,-0.279422104358673,-0.00437268608126799,-0.00188144466206175,0.00270690098422899,6
0.0999984741210938,-0.0596375651657581,2.94068765640259,1.15374851226807,-0.0602281887669101,2.93990187339187,1.18014120809498,2640.358,3831.805,2620.274,1134.709,-0.005856291,-0.002888465,-0.07014393,0.013932996429503,0.0149971758946776,-0.241433456540108,-0.00677637982016689,-0.00291568692648091,0.00419490191241918,6
0.120002746582031,-0.0590849220752716,2.94089889526367,1.14957022666931,-0.0603919599823235,2.93983140721312,1.18024259027882,2091.985,4101.928,3169.514,756.0473,-0.04012159,-0.0004506069,-0.08993389,0.0276321992278099,0.0105603206902742,-0.208914533257484,-0.00967921398219614,-0.00416469537060396,0.00599189453988277,5
0.139999389648438,-0.0582315176725388,2.94085621833801,1.14596676826477,-0.0606185767455666,2.93973390035084,1.18038287685052,1510.456,4074.756,3735.773,701.9277,-0.07649398,0.002388645,-0.09949623,0.042670264840126,-0.00213215686380863,-0.180172264575958,-0.0130660253322238,-0.00562194567796536,0.00808849210174802,4
0.160003662109375,-0.0570995099842548,2.94039487838745,1.14297807216644,-0.0609177895434042,2.93960515744296,1.18056810382587,1135.018,3847.006,4069.875,880.0396,-0.1062788,0.004335557,-0.09869835,0.0566004142165184,-0.0230703596025705,-0.149433732032776,-0.0169265510445065,-0.00728302204135792,0.0104783414199936,4
0.180000305175781,-0.0557378120720387,2.93938803672791,1.14071130752563,-0.0612986871007165,2.9394412678651,1.18080389755851,1101.206,3565.236,4009.839,1148.887,-0.1236287,0.00449205,-0.0899994,0.0680849403142929,-0.0503423735499382,-0.113338783383369,-0.0212451141043368,-0.00914117907931815,0.0131517376757159,3
0.199996948242188,-0.054196584969759,2.9377772808075,1.13924860954285,-0.0617704296168641,2.93923829023936,1.18109592864822,1373.142,3339.761,3594.888,1386.324,-0.1278749,0.003023029,-0.07724819,0.0770612955093384,-0.0805374160408974,-0.0731335654854774,-0.0260104776919234,-0.0111915819022102,0.0161017247421801,3
0.220001220703125,-0.0525143705308437,2.93557620048523,1.1385840177536,-0.0623420644491781,2.93899233174064,1.18144979784016,1790.797,3212.796,3016.957,1527.199,-0.1229736,0.0008615138,-0.06425995,0.0841106995940208,-0.110052444040775,-0.0332313627004623,-0.03121219533433,-0.0134297356845702,0.019321835755004,3
0.239997863769531,-0.0507197305560112,2.93284702301025,1.13860714435577,-0.0630217183703222,2.93869989564571,1.18187053599376,2159.554,3168.583,2517.133,1558.306,-0.1149644,-0.0009875001,-0.05362275,0.0897319689393044,-0.13645438849926,0.00115558132529259,-0.0368338920540454,-0.0158485947310391,0.02280193382306,3
0.260002136230469,-0.0488374307751656,2.92966485023499,1.13913786411285,-0.0638182299684225,2.938357178957,1.18236361461609,2351.635,3159.196,2274.051,1495.809,-0.1090517,-0.001903628,-0.04623674,0.0941151157021523,-0.159107565879822,0.0265362877398729,-0.0428675524613532,-0.0184447102433459,0.0265370570382875,3
0.279998779296875,-0.0468919239938259,2.92608761787415,1.13999617099762,-0.0647390625194898,2.93796097043536,1.18293365383054,2352.855,3152.076,2324.123,1363.72,-0.1078159,-0.001744371,-0.04152348,0.0972753316164017,-0.178862631320953,0.0429156795144081,-0.0492963837173861,-0.0212108567320638,0.030516809833474,3
0.300003051757813,-0.0449089258909225,2.92214369773865,1.14106202125549,-0.0657927507678135,2.93750759781875,1.18358593705038,2228.967,3144.218,2572.946,1194.344,-0.11109,-0.0007366303,-0.03798573,0.0991500318050385,-0.19719135761261,0.0532929226756096,-0.0561132031658829,-0.0241439437008635,0.0347367458022363,3
0.319999694824219,-0.0429171174764633,2.91783547401428,1.142294049263,-0.0669860785243584,2.93699414222283,1.18432466377777,2074.277,3132.433,2873.091,1032.645,-0.1169325,0.0006862843,-0.0339814,0.0995904952287674,-0.215408027172089,0.0616023391485214,-0.0633008373176985,-0.0272365818771378,0.0391862337367069,3
0.339996337890625,-0.0409491360187531,2.91315102577209,1.14370727539063,-0.068326768706371,2.93641728069206,1.18515461486636,1954.955,3107.538,3109.507,921.4689,-0.1228447,0.002070055,-0.02837385,0.0983989089727402,-0.234225183725357,0.0706631988286972,-0.0708499516420146,-0.0304847548730522,0.0438594951176439,3
0.360000610351563,-0.0390403978526592,2.90807723999023,1.14534330368042,-0.0698225328270578,2.93577369517774,1.1860805641102,1904.57,3065.418,3222.334,881.121,-0.1267052,0.003092798,-0.02087066,0.0954369455575943,-0.253694504499435,0.0818013399839401,-0.0787518717320621,-0.0338847303337087,0.0487511600740379,3
0.379997253417969,-0.0372259467840195,2.90261030197144,1.14724361896515,-0.0714791088463715,2.935060916796,1.18710606357981,1924.343,3021.399,3206.791,895.7164,-0.1274168,0.003641948,-0.01188515,0.0907227173447609,-0.273344814777374,0.0950131416320801,-0.0869889214763108,-0.0374289027221294,0.0538502862508218,3
0.400001525878906,-0.0355375185608864,2.89676117897034,1.14943158626556,-0.0733044112230977,2.93427554017634,1.18823601270221,1990.908,2989.284,3098.994,939.1683,-0.1250391,0.003790807,-0.002207228,0.0844212844967842,-0.292451232671738,0.109397456049919,-0.0955558400788823,-0.0411150084648172,0.0591536169647403,3
0.419998168945313,-0.034002248197794,2.89055466651917,1.15190613269806,-0.0753034649285836,2.93341540321397,1.18947352217404,2072.578,2974.211,2953.049,987.0904,-0.1205011,0.003707433,0.007335942,0.0767637714743614,-0.310326457023621,0.123724952340126,-0.104434660908044,-0.0449353170220673,0.0646500300148815,3
0.44000244140625,-0.0326428115367889,2.88402462005615,1.15464174747467,-0.077483988232608,2.93247718495301,1.19082336997196,2136.181,2973.255,2825.653,1022.512,-0.1150794,0.003564237,0.01615131,0.0679720416665077,-0.326507061719894,0.136782586574554,-0.113620829717891,-0.048887868829098,0.0703367061060819,4
0.459999084472656,-0.0314786769449711,2.8772075176239,1.15760183334351,-0.0798502821969742,2.93145903476675,1.19228821865812,2168.542,2977.218,2748.497,1039.837,-0.1098671,0.003474737,0.02394167,0.0582067593932152,-0.340852081775665,0.148003160953522,-0.123096124252221,-0.0529648233581361,0.0762023647937057,4
0.480003356933594,-0.0305270161479712,2.87013840675354,1.16074776649475,-0.0824098964715798,2.93035770425173,1.19387274182544,2167.949,2984.633,2733.109,1031.955,-0.1055459,0.003481998,0.03074916,0.047582745552063,-0.35345858335495,0.157297730445862,-0.132856662250146,-0.057164510180779,0.0822446027733248,4
0.5,-0.0298039019107819,2.8628466129303,1.16405236721039,-0.085166398670376,2.92917165836334,1.1955791479969,2146.975,2988.95,2762.458,1010.04,-0.1022675,0.003568721,0.0367939,0.0361555479466915,-0.36458432674408,0.165228053927422,-0.142884000065179,-0.0614789935111996,0.0884520025491718,4
0.519996643066406,-0.0293246153742075,2.85535669326782,1.16749906539917,-0.0881260274065667,2.92789821280061,1.19741129917127,2116.485,2993.173,2817.646,976.8022,-0.09984404,0.003686263,0.04241423,0.0239645056426525,-0.374494791030884,0.172337025403976,-0.153170920546857,-0.0659051680111775,0.0948200963613094,4
0.540000915527344,-0.0291043687611818,2.8476881980896,1.17108571529388,-0.0912951145137283,2.92653464315245,1.19937311505516,2088.836,2991.043,2870.851,952.3835,-0.09782004,0.003777349,0.04785799,0.0110125243663788,-0.383425891399384,0.179331183433533,-0.163710711144578,-0.0704401454577151,0.101344728821151,4
0.55999755859375,-0.0291578881442547,2.83985805511475,1.17481637001038,-0.094676112580471,2.92507989413848,1.20146611391775,2071.539,2989.792,2908.313,933.3314,-0.09578485,0.003795022,0.05329587,-0.0026759747415781,-0.391505807638168,0.186533734202385,-0.17448465888317,-0.0750758741803766,0.108014315705644,5
0.580001831054688,-0.0294992923736572,2.83188247680664,1.17869853973389,-0.0982762614093182,2.92353085067394,1.20369477754168,2063.381,2985.478,2922.37,931.5399,-0.09338907,0.003716678,0.05874088,-0.0170701406896114,-0.398781508207321,0.1941077709198,-0.185490414529404,-0.0798113433697334,0.11482740272751,5
0.599998474121094,-0.0301415510475636,2.82377767562866,1.18273973464966,-0.102097262171133,2.92188678079254,1.20606015903275,2066.995,2984.311,2911.807,938.8783,-0.09049741,0.003537779,0.06411036,-0.0321131907403469,-0.40523424744606,0.202060490846634,-0.196709126405959,-0.0846384416756885,0.121772319800455,5
0.620002746582031,-0.0310958176851273,2.81556153297424,1.18694186210632,-0.106146271928021,2.92014460501038,1.20856668895334,2074.292,2986.995,2887.85,951.171,-0.08718071,0.003271818,0.069294,-0.0477130748331547,-0.410805195569992,0.210109308362007,-0.208139001499973,-0.0895563976148993,0.128847956964108,5
0.639999389648438,-0.0323715806007385,2.80725240707397,1.19130516052246,-0.110424235525481,2.91830391678686,1.21121495220784,2083.021,2990.992,2854.396,970.28,-0.08359236,0.002940883,0.07414376,-0.0637885108590126,-0.415459126234055,0.218167170882225,-0.219761081350814,-0.0945570538913933,0.136042578028218,5
0.660003662109375,-0.0339760594069958,2.79886913299561,1.19582223892212,-0.114938248900541,2.91636166293851,1.21400934151928,2087.822,3000.134,2827.999,980.8651,-0.08001361,0.002565942,0.0786053,-0.0802238807082176,-0.41916811466217,0.225851088762283,-0.231574097577923,-0.0996398647564507,0.143355397804799,5
0.680000305175781,-0.0359152145683765,2.79042959213257,1.20048773288727,-0.119688496929273,2.91431776391831,1.21694997133476,2087.832,3006.063,2805.188,997.1041,-0.0765973,0.00216887,0.08260339,-0.0969582051038742,-0.421973437070847,0.233274921774864,-0.243559016194652,-0.104796640417365,0.150774633349401,6
0.699996948242188,-0.0381929837167263,2.78195118904114,1.20529055595398,-0.124680083855354,2.91217002351282,1.22004000142426,2083.349,3016.573,2799.387,996.4324,-0.07356024,0.001757893,0.08620322,-0.113888144493103,-0.423919260501862,0.240139365196228,-0.255710395848158,-0.11002503961202,0.158296916205407,6
0.720001220703125,-0.0408129133284092,2.7734489440918,1.21022689342499,-0.129918284978346,2.90991617190799,1.22328269744952,2074.284,3019.501,2796.414,1006.807,-0.07086192,0.001346305,0.08939655,-0.130996108055115,-0.425111472606659,0.246815279126167,-0.268023157655716,-0.11532287703907,0.16591910230247,6
0.739997863769531,-0.0437769778072834,2.76493644714355,1.21528911590576,-0.135402141159277,2.90755662179454,1.22667746565781,2067.501,3028.705,2804.742,997.2457,-0.06859344,0.0009265335,0.09230611,-0.148203581571579,-0.425628542900085,0.25310868024826,-0.280478211503383,-0.120681938755799,0.173629373950669,6
0.760002136230469,-0.0470871813595295,2.75642490386963,1.22047591209412,-0.14113868194985,2.90508834855275,1.23022865767651,2055.886,3028.494,2811.678,1004.434,-0.06658968,0.0005082233,0.09494113,-0.165509834885597,-0.425578087568283,0.259338974952698,-0.293075466693575,-0.12610218573757,0.181427675003881,6
0.779998779296875,-0.0507445372641087,2.74792432785034,1.22578501701355,-0.147126184485884,2.90251209348295,1.23393520697061,2051.342,3033.917,2819.375,997.9516,-0.06483839,8.228855E-05,0.09737953,-0.182868301868439,-0.425031900405884,0.26545238494873,-0.305795832832518,-0.131575403921268,0.189302187598958,6
0.800003051757813,-0.0547498278319836,2.73944306373596,1.23121631145477,-0.153371683173492,2.89982482987671,1.2378014681726,2044.69,3034.372,2822.996,1002.844,-0.06322185,-0.0003456783,0.0996232,-0.200264528393745,-0.424061805009842,0.27156537771225,-0.318639638509124,-0.13710173468952,0.197253115148089,6
0.819999694824219,-0.059103187173605,2.73098874092102,1.23677015304565,-0.159872691993147,2.89702762739878,1.24182590231796,2043.643,3037.894,2821.755,1003.763,-0.06172195,-0.0007787083,0.1016837,-0.217668160796165,-0.422719091176987,0.277692586183548,-0.331587821991737,-0.142672976311719,0.205268657531342,6
0.839996337890625,-0.06380395591259,2.72256779670715,1.24244475364685,-0.166633637018892,2.89411858163313,1.24601124935738,2041.304,3040.567,2820.01,1007.023,-0.06033498,-0.001212271,0.1035622,-0.235038682818413,-0.421044677495956,0.283727765083313,-0.344636106234817,-0.148287288494656,0.213346167053785,6
0.860000610351563,-0.0688511580228806,2.71418619155884,1.24824047088623,-0.173659158941841,2.89109569582005,1.2503603820997,2040.767,3042.877,2813.171,1014.201,-0.05904601,-0.001639442,0.1052286,-0.252360105514526,-0.419082492589951,0.289784967899323,-0.357780475378537,-0.153942943326036,0.221483157706883,6
0.879997253417969,-0.0742427557706833,2.70584893226624,1.25415420532227,-0.180945630646592,2.88796053060595,1.25487105518773,2041.9,3048.519,2808.772,1013.573,-0.05794985,-0.002061819,0.1067042,-0.269579231739044,-0.416866153478622,0.295685291290283,-0.371001963495383,-0.159631780297098,0.229667888678032,6
0.900001525878906,-0.0799762606620789,2.69756007194519,1.26018357276917,-0.188500167066783,2.88471002463366,1.2595476731043,2038.585,3050.094,2805.716,1020.516,-0.05703532,-0.00246662,0.1079714,-0.286676228046417,-0.414442509412766,0.301467031240463,-0.384301823631742,-0.165354338558695,0.237901135662636,7
0.919998168945313,-0.0860487669706345,2.68932294845581,1.26632654666901,-0.196318384305134,2.8813460641717,1.26438752200817,2038.812,3054.261,2803.62,1020.641,-0.05634983,-0.002854376,0.1090459,-0.303625553846359,-0.411856979131699,0.307149469852448,-0.397661187980262,-0.171102499820431,0.246171218589148,7
0.94000244140625,-0.0924566388130188,2.68113994598389,1.27257895469666,-0.204407453948074,2.87786556348678,1.26939504145298,2035.853,3056.881,2807.5,1019.617,-0.05591466,-0.003219762,0.1099587,-0.320393025875092,-0.409155458211899,0.312623262405396,-0.411081631631503,-0.176876941799768,0.254479112513653,7
0.959999084472656,-0.0991964787244797,2.67301201820374,1.27894175052643,-0.212762239776093,2.87427073255068,1.27456705187416,2034.542,3058.069,2807.44,1023.17,-0.05567924,-0.003558516,0.1107008,-0.336991906166077,-0.406394749879837,0.318139255046844,-0.424544411524882,-0.18266959988136,0.262813214588797,7
0.980003356933594,-0.106263756752014,2.66493988037109,1.28540909290314,-0.221389982382338,2.87055845593844,1.2799080355438,2033.286,3061.726,2817.549,1013.56,-0.05570854,-0.003875965,0.1113479,-0.353365510702133,-0.403610080480576,0.323364645242691,-0.438051398499298,-0.18848127903492,0.271174682952979,7
1,-0.113655269145966,2.65692257881165,1.29198586940765,-0.230284798736574,2.86673126495361,1.28541435058594,2031.28,3059.48,2815.832,1023.938,-0.05584489,-0.004157727,0.1118408,-0.369574248790741,-0.400862991809845,0.328841626644135,-0.451584000205995,-0.194303979492187,0.279552008056641,7
1.01999664306641,-0.121365666389465,2.64895915985107,1.29866373538971,-0.239450461003889,2.86278753653895,1.29108833215045,2033.423,3065.378,2830.469,1004.34,-0.05624916,-0.004425108,0.1123054,-0.38552051782608,-0.398166626691818,0.33389276266098,-0.465139182559269,-0.200136395770846,0.2879433116562,7
1.04000091552734,-0.129392057657242,2.64104747772217,1.30545210838318,-0.24889099213045,2.8587255397331,1.29693247063265,2029.824,3058.988,2824.588,1025.662,-0.05663745,-0.004647749,0.11261,-0.401319891214371,-0.395585566759109,0.339421302080154,-0.478714054341683,-0.205977283860805,0.296346803950333,7
1.05999755859375,-0.137728631496429,2.63318538665771,1.31234037876129,-0.258599401509697,2.85454828239877,1.30294243851408,2038.453,3069.454,2839.96,994.4179,-0.05732561,-0.004865062,0.1129357,-0.416828572750092,-0.393108755350113,0.344415605068207,-0.492290296490434,-0.211818761581115,0.30475114456651,7
1.08000183105469,-0.146372556686401,2.62536931037903,1.31933963298798,-0.268583149539609,2.85025255453512,1.30912285413647,2031.308,3059.467,2832.204,1025.505,-0.05793174,-0.005030711,0.1130976,-0.432195752859116,-0.390803903341293,0.349964827299118,-0.50587040849135,-0.217661904390701,0.313157880805523,7
1.09999847412109,-0.155317634344101,2.61759638786316,1.32643759250641,-0.278834517009062,2.84584167750307,1.31546893894041,2043.082,3071.737,2849.686,987.6144,-0.0588484,-0.00519423,0.1133068,-0.447254538536072,-0.388642609119415,0.354898393154144,-0.519436284009554,-0.223498921639497,0.321555803983559,7
1.12000274658203,-0.164561331272125,2.60986256599426,1.33364760875702,-0.289361068555186,2.84131239645058,1.32198537579665,2035.342,3060.358,2839.853,1023.644,-0.05963883,-0.005300756,0.1133479,-0.462183922529221,-0.386696428060532,0.360503435134888,-0.532990631455731,-0.229330978680957,0.329946590735853,8
1.13999938964844,-0.174097001552582,2.60216403007507,1.3409548997879,-0.300154365346813,2.83666834237095,1.3286669406667,2049.155,3074.497,2861.237,978.2526,-0.0607744,-0.005409945,0.1134729,-0.476784408092499,-0.384921491146088,0.365362554788589,-0.546515580872639,-0.235150386571708,0.338319178707607,8
1.15999603271484,-0.183922588825226,2.59449601173401,1.3483761548996,-0.311217811600473,2.8319080505249,1.33551574092274,2039.69,3060.561,2848.916,1022.072,-0.06172195,-0.005455752,0.1134198,-0.491280108690262,-0.383400171995163,0.371062874794006,-0.560008885098767,-0.240956178420931,0.346672176798798,8
1.18000030517578,-0.194031000137329,2.5868546962738,1.35589218139648,-0.322555076427271,2.82702994219644,1.34253404791935,2055.45,3076.907,2877.33,965.6195,-0.063053,-0.005512211,0.1135031,-0.505420207977295,-0.382064908742905,0.375800609588623,-0.573468357077025,-0.246747413199059,0.355004231116904,8
1.19999694824219,-0.204421296715736,2.57923412322998,1.36352789402008,-0.334156660511822,2.8220381046756,1.34971598112778,2045.78,3059.947,2855.75,1023.36,-0.06408738,-0.005496765,0.1133703,-0.519514977931976,-0.381023228168488,0.381784677505493,-0.58687652428584,-0.252516572968185,0.36330452533874,8
1.22000122070313,-0.215085044503212,2.57163095474243,1.37125301361084,-0.346030421585499,2.81692915700008,1.35706640485806,2064.38,3081.706,2898.127,943.9709,-0.06563734,-0.005510613,0.1134755,-0.533186554908752,-0.380160808563232,0.386253952980042,-0.600236516861372,-0.258265004538453,0.371574997167698,8
1.23999786376953,-0.226023480296135,2.56403827667236,1.37910664081573,-0.358166167196084,2.81170748469733,1.36457900949675,2048.452,3054.976,2861.531,1034.958,-0.06664667,-0.005428588,0.1132659,-0.546923100948334,-0.379639267921448,0.39268285036087,-0.613531154887641,-0.263985315871967,0.379805011417393,8
1.26000213623047,-0.237226113677025,2.55645298957825,1.38704228401184,-0.370571882958536,2.80636965178032,1.3722587385199,2077.725,3089.2,2922.82,912.0283,-0.06840435,-0.005409945,0.1134441,-0.560131072998047,-0.379260927438736,0.396780729293823,-0.626763698705669,-0.269678909802388,0.38799658639423,8
1.27999877929688,-0.24869729578495,2.54886746406555,1.39511954784393,-0.383236695417198,2.80092033679326,1.3800988607405,2050.133,3047.533,2863.1,1055.524,-0.06928001,-0.005259211,0.1131524,-0.573561728000641,-0.379280120134354,0.403863549232483,-0.639917282339435,-0.275338529371412,0.396139281255613,8
1.30000305175781,-0.260423332452774,2.54128003120422,1.40326726436615,-0.396168722856641,2.79535604666509,1.38810440176341,2094.623,3099.975,2952.031,868.9382,-0.07126832,-0.005221926,0.1134588,-0.58630096912384,-0.379372388124466,0.407387554645538,-0.652995275331231,-0.280965624398954,0.404235181908735,8
1.31999969482422,-0.272413164377213,2.5336811542511,1.41157531738281,-0.409356423791328,2.7896817473746,1.39626821685929,2049.221,3036.249,2857.956,1090.463,-0.07188351,-0.004997688,0.1130545,-0.599491536617279,-0.379939913749695,0.415402799844742,-0.665981146317813,-0.286553081901244,0.412274054652251,8
1.33999633789063,-0.284647971391678,2.52607178688049,1.41993582248688,-0.422802873722428,2.78389611561957,1.40459220990988,2116.153,3115.758,2988.259,808.8923,-0.07417116,-0.004959871,0.1135543,-0.611739695072174,-0.380464494228363,0.418024212121964,-0.678873453515705,-0.29210028151913,0.420255006953505,8
1.36000061035156,-0.297143369913101,2.51844024658203,1.42848253250122,-0.436511415158101,2.77799771321212,1.41307845008695,2042.705,3018.761,2844.826,1146.441,-0.07436398,-0.004649879,0.1129835,-0.624770998954773,-0.381579220294952,0.427337437868118,-0.691670720740693,-0.297606588091785,0.42817712498415,9
1.37999725341797,-0.309873312711716,2.51079058647156,1.43705630302429,-0.450469530727146,2.77199192602736,1.42171918854144,2145.607,3139.252,3031.59,725.4078,-0.07706282,-0.004634433,0.1137509,-0.636496603488922,-0.382478833198547,0.428687900304794,-0.704356955827446,-0.303065120637236,0.436030508832034,9
1.40000152587891,-0.322862505912781,2.50310778617859,1.44585132598877,-0.464685685951852,2.76587511158757,1.43051966583492,2029.807,2994.812,2819.917,1228.186,-0.07667933,-0.004226969,0.1129451,-0.649461269378662,-0.384139358997345,0.439750969409943,-0.716935713767318,-0.308477408768949,0.443817359206152,9
1.41999816894531,-0.336074411869049,2.49540114402771,1.45463442802429,-0.47914673136562,2.75965292774086,1.43947174182117,2179.917,3170.23,3090.76,612.2803,-0.07995556,-0.004258395,0.1140884,-0.660593628883362,-0.385333895683289,0.439157962799072,-0.729391385793766,-0.313836736470737,0.451528013536465,9
1.44000244140625,-0.349547237157822,2.48765015602112,1.46369063854218,-0.493861275572861,2.75332167044526,1.4485807456364,2007.731,2959.829,2775.93,1351.125,-0.078706,-0.003724697,0.1129188,-0.673642456531525,-0.387554377317429,0.452808648347855,-0.741727567798258,-0.319144650954242,0.459164697851088,9
1.45999908447266,-0.363228410482407,2.47987151145935,1.47267591953278,-0.508815552717244,2.74688726276417,1.45783815555978,2226.683,3216.584,3172.104,446.5255,-0.08285414,-0.003845605,0.1146143,-0.68405681848526,-0.388930946588516,0.449261695146561,-0.753929052770513,-0.324394609067776,0.466717998286247,9
1.48000335693359,-0.377176523208618,2.47203660011292,1.48201084136963,-0.524018315758597,2.74034593854351,1.46724939009041,1968.778,2907.381,2702.073,1540.789,-0.08031294,-0.003138269,0.112885,-0.697404026985168,-0.39175021648407,0.466743737459183,-0.765999459475408,-0.329588167864767,0.474190155029787,9
1.5,-0.391314446926117,2.46417355537415,1.49118483066559,-0.539455198877605,2.73370387899399,1.4768055561018,2291.644,3286.034,3286.468,202.3128,-0.08578947,-0.003408313,0.1153947,-0.706897556781769,-0.393155008554459,0.458702236413956,-0.777924000354858,-0.334718964672088,0.481572013878822,9
1.51999664306641,-0.405731678009033,2.45624041557312,1.50082302093506,-0.555129074991064,2.72695984797977,1.48650843206629,1903.687,2829.052,2582.137,1832.318,-0.08132122,-0.002447445,0.1128053,-0.720860481262207,-0.396654367446899,0.481906980276108,-0.789701834723693,-0.339786637766398,0.488863054409188,9
1.54000091552734,-0.420320510864258,2.44827818870544,1.5102219581604,-0.571043070329722,2.72011250037111,1.49635995326965,2255.939,3486.244,3325.749,0,-0.08776927,-0.002424009,0.1167659,-0.729445099830627,-0.398116379976273,0.469948589801788,-0.801332006385301,-0.344790775723006,0.496062684689629,9
1.55999755859375,-0.435198068618774,2.44023633003235,1.52016484737396,-0.587181951496087,2.71316839067337,1.50635068951315,1887.203,2690.683,2454.77,2136.113,-0.08148368,-0.0008777779,0.1133326,-0.743879914283752,-0.402096509933472,0.497144639492035,-0.812800388649436,-0.349725300221754,0.503162159625937,9
1.58000183105469,-0.450237929821014,2.43216276168823,1.5298525094986,-0.60355483331529,2.70612359703193,1.51648628330776,2128.887,3719.521,3225.645,0,-0.08765102,0.0002141209,0.1182679,-0.751990854740143,-0.403683423995972,0.484385132789612,-0.824110582941666,-0.354591760855452,0.510163708672098,9
1.59999847412109,-0.465558767318726,2.42401337623596,1.54004299640656,-0.620145926473056,2.69898491314762,1.52675696031579,1996.02,2538.761,2437.961,2203.315,-0.08128393,0.002613185,0.1141193,-0.766041874885559,-0.407465994358063,0.509521782398224,-0.835248923368005,-0.359384277571697,0.517058871988737,9
1.62000274658203,-0.481035947799683,2.41583657264709,1.5499724149704,-0.636964489205914,2.69174835545992,1.53716845182668,2192.451,3671.524,3224.831,0,-0.08759243,0.004402271,0.1177724,-0.773858964443207,-0.408835858106613,0.496472507715225,-0.846218976345106,-0.364104384899943,0.523849857357655,9
1.63999938964844,-0.496779382228851,2.40759181976318,1.56035947799683,-0.653994195024907,2.68442094880091,1.54771065096602,2086.47,2519.367,2536.3,2043.95,-0.08262883,0.007115357,0.1126719,-0.78717452287674,-0.412233531475067,0.519350469112396,-0.857007552155828,-0.368746407673381,0.530528499715628,9
1.65999603271484,-0.512673497200012,2.39931917190552,1.57052290439606,-0.671237824488362,2.67700149677403,1.55838527903188,2196.881,3658.832,3248.81,0,-0.08953281,0.00919383,0.1152897,-0.794705331325531,-0.413631021976471,0.508170127868652,-0.867614155697522,-0.373310132863173,0.537094492570531,9
1.68000030517578,-0.528811156749725,2.3909797668457,1.5810729265213,-0.688698391434734,2.66948870260877,1.56919420173384,2132.313,2541.449,2707.611,1805.551,-0.08663636,0.01182386,0.1103582,-0.806883335113525,-0.416972488164902,0.527501106262207,-0.878038122530658,-0.377795274579551,0.543547424602645,9
1.69999694824219,-0.54509437084198,2.38260531425476,1.59143495559692,-0.706358800111611,2.66188992212981,1.58012683598675,2250.527,3519.858,3348.007,0,-0.09382369,0.01359615,0.1121834,-0.814162254333496,-0.418726146221161,0.518104076385498,-0.888267004546665,-0.382196476749158,0.549879589839776,9
1.72000122070313,-0.561605870723724,2.37415456771851,1.60215890407562,-0.724228658537036,2.6542010212754,1.5911891296115,2125.168,2610.724,2855.525,1599.042,-0.09188385,0.01572018,0.1079982,-0.825572669506073,-0.422536134719849,0.536197662353516,-0.898304216251578,-0.386515208538549,0.556093102023817,9
1.73999786376953,-0.578259408473969,2.36565566062927,1.61273145675659,-0.742290383213093,2.64642956573347,1.60237019758524,2265.739,3446.363,3415.367,0,-0.09856199,0.01690547,0.1101397,-0.832680225372314,-0.424949824810028,0.528630435466766,-0.908137821269591,-0.39074633405868,0.562180571969536,9
1.76000213623047,-0.595134019851685,2.35706615447998,1.6236686706543,-0.76055371708895,2.63857136338517,1.61367607125764,2102.423,2662.129,2907.915,1520.56,-0.0961545,0.01843243,0.10709,-0.843727588653564,-0.429473727941513,0.546862661838531,-0.917771149318994,-0.394891285994308,0.568144060931169,9
1.77999877929688,-0.612147510051727,2.34841775894165,1.63446366786957,-0.779000609654483,2.63063418086074,1.62509557650306,2298.353,3393.348,3439.829,0,-0.1018457,0.01894581,0.1099494,-0.850673794746399,-0.432423532009125,0.539752125740051,-0.927192788821983,-0.398945154262308,0.57397650459845,9
1.80000305175781,-0.629382848739624,2.33966732025146,1.64565396308899,-0.797640935141499,2.62261376955408,1.63663482594136,2073.49,2693.72,2858.402,1573.273,-0.09797344,0.01996426,0.1076357,-0.861769616603851,-0.437521696090698,0.559512495994568,-0.936405971974637,-0.402909329586356,0.579679903854719,9
1.81999969482422,-0.646752715110779,2.33085417747498,1.65669107437134,-0.816456197270346,2.61451808789761,1.64828236949435,2303.744,3426.756,3402.144,0,-0.1027842,0.02003301,0.1113793,-0.86849319934845,-0.440661460161209,0.551858365535736,-0.945399824400851,-0.406779133026206,0.585247526943151,9
1.83999633789063,-0.664347350597382,2.3219358921051,1.66814780235291,-0.835449117627072,2.60634596486888,1.66003989195343,2054.969,2688.837,2760.621,1700.859,-0.09749886,0.02082716,0.1093076,-0.879728853702545,-0.445909798145294,0.572834372520447,-0.954174163352093,-0.410554485950274,0.590679260733698,9
1.86000061035156,-0.682070732116699,2.31295943260193,1.67942273616791,-0.854622615239374,2.59809614449182,1.6719092003358,2301.345,3476.922,3355.792,0,-0.1019053,0.02075178,0.113557,-0.886168956756592,-0.448821544647217,0.563747227191925,-0.962728579444532,-0.414235212212131,0.595974851798267,9
1.87999725341797,-0.700021505355835,2.30388331413269,1.69113445281982,-0.873957566090845,2.58977685529642,1.6838784559643,2049.417,2665.194,2672.859,1826.144,-0.09574011,0.02157359,0.1111978,-0.897540330886841,-0.453806936740875,0.5855832695961,-0.971053025860989,-0.417816988947023,0.601128080678429,9
1.90000152587891,-0.718095481395721,2.29475784301758,1.70263922214508,-0.893464153455626,2.58138371570432,1.69595396277071,2275.417,3546.836,3314.937,0,-0.1001775,0.02164233,0.1156377,-0.903700470924377,-0.456262439489365,0.575235784053802,-0.979150439632688,-0.421301079877433,0.606140765536421,9
1.91999816894531,-0.73639589548111,2.28554391860962,1.71457612514496,-0.913122862707269,2.57292512231409,1.70812364027167,2058.438,2627.532,2637.865,1896.296,-0.09383328,0.02266114,0.1128366,-0.915022969245911,-0.460703730583191,0.596842527389526,-0.987011339258123,-0.424683405378145,0.611007036871143,9
1.94000244140625,-0.75481516122818,2.27629137039185,1.72629225254059,-0.932943991899774,2.5643966441608,1.72039386345315,2262.763,3574.308,3304.981,0,-0.09844268,0.02295836,0.1170309,-0.920965254306793,-0.46262601017952,0.585809290409088,-0.994638524886308,-0.427965170275055,0.615728628108227,9
1.95999908447266,-0.773456692695618,2.26696252822876,1.73842656612396,-0.952907658613767,2.55580683609405,1.73275232415044,2077.36,2604.816,2653.393,1888.6,-0.09237813,0.02414326,0.1138118,-0.932075262069702,-0.466445118188858,0.606718361377716,-1.00202309041976,-0.431142542523221,0.620300025949072,9
1.97999572753906,-0.792213380336761,2.25760459899902,1.75034093856812,-0.973016570682103,2.54715453300902,1.74520069864106,2256.074,3575.365,3314.44,0,-0.09711749,0.02459357,0.1176226,-0.937832117080688,-0.467896670103073,0.595717966556549,-1.00916501115878,-0.434215511495054,0.624721215103391,9
2,-0.81118506193161,2.24818134307861,1.76265442371368,-0.993273599084619,2.53843849960327,1.7577407641983,2093.896,2599.396,2696.04,1834.187,-0.09147106,0.02582139,0.1142081,-0.948581874370575,-0.471161901950836,0.615671813488007,-1.01606400046349,-0.437183953857422,0.628992018127441,9
2.01999664306641,-0.830267906188965,2.23873615264893,1.77475559711456,-1.01365835337184,2.52966750931758,1.77035989816261,2264.797,3548.47,3333.119,0,-0.09620456,0.02624947,0.1176413,-0.954146146774292,-0.472243815660477,0.605057716369629,-1.02271203275434,-0.440044416427654,0.633107466805174,9
2.04000091552734,-0.84955757856369,2.22923469543457,1.78724074363708,-1.0341813929022,2.52083701875502,1.78306463727984,2099.539,2612.581,2735.615,1770.991,-0.09085427,0.02736663,0.1142364,-0.96448278427124,-0.475086271762848,0.624259054660797,-1.02911152474823,-0.442797939051516,0.637069057199471,9
2.05999755859375,-0.868953466415405,2.21971702575684,1.79951798915863,-1.05482201812353,2.5119559343546,1.79584216754118,2272.527,3517.856,3351.856,0,-0.09545781,0.02762162,0.1174846,-0.969790160655975,-0.475877791643143,0.613864004611969,-1.03525504859546,-0.445441325732794,0.640872191117535,9
2.08000183105469,-0.88854855298996,2.21014881134033,1.81217527389526,-1.07559088172821,2.50301967256038,1.80869908347065,2091.655,2630.332,2748.819,1740.421,-0.0900516,0.02854598,0.1141925,-0.979762494564056,-0.478415459394455,0.632864594459534,-1.04114485287423,-0.447975543971863,0.644518260536375,9
2.09999847412109,-0.908243477344513,2.20056986808777,1.82462227344513,-1.09646699912883,2.4940372624541,1.82162239460902,2271.433,3507.277,3354.902,0,-0.09443622,0.028586,0.1175042,-0.984741568565369,-0.478943556547165,0.622347414493561,-1.04677411523768,-0.450397658303471,0.648003042098304,9
2.12000274658203,-0.928131461143494,2.19094562530518,1.83745098114014,-1.11746110947495,2.48500408327971,1.83461874900143,2076.992,2638.721,2731.844,1754.111,-0.0886806,0.02933731,0.1143144,-0.994400262832642,-0.481200367212296,0.641437888145447,-1.05214490868305,-0.452708560680417,0.651327819087362,9
2.13999938964844,-0.948111116886139,2.18131732940674,1.85005819797516,-1.138551967509,2.47592927627801,1.8476749948214,2266.649,3511.025,3344.279,0,-0.09284419,0.02920383,0.1177684,-0.998989641666412,-0.481414318084717,0.630359768867493,-1.05725102347782,-0.454905579228273,0.654488747383304,8
2.15999603271484,-0.968278467655182,2.17165088653564,1.8630518913269,-1.15974228854654,2.4668116731246,1.86079281297862,2062.168,2636.653,2694.677,1797.714,-0.08662624,0.02985264,0.1145412,-1.00836598873138,-0.483329117298126,0.649682939052582,-1.06209255378819,-0.456988754464129,0.657485885279498,8
2.18000030517578,-0.988528847694397,2.16198778152466,1.87580716609955,-1.18103490068612,2.45765005696766,1.87397395420079,2253.248,3530.551,3324.702,0,-0.09065187,0.02964362,0.1181189,-1.01251518726349,-0.483150541782379,0.637762010097504,-1.06666929835407,-0.458957999791384,0.660319108186354,7
2.19999694824219,-1.00896060466766,2.15229511260986,1.88895285129547,-1.20240821395574,2.44845371736898,1.88720505326679,2053.737,2624.815,2650.088,1851.21,-0.08405416,0.03027824,0.1146993,-1.02159142494202,-0.484633833169937,0.657284140586853,-1.07097597819164,-0.460811043810786,0.662985148161421,7
2.22000122070313,-1.02946591377258,2.14261507987976,1.90184116363525,-1.22387315175433,2.43921795429519,1.90049287228091,2234.1,3557.768,3302.073,0,-0.08809311,0.03009473,0.1183122,-1.02526116371155,-0.484005033969879,0.644417285919189,-1.07501419914593,-0.462548577472581,0.665484999299265,7
2.23999786376953,-1.05014479160309,2.13291549682617,1.91511631011963,-1.24540792547886,2.42995214277345,1.91382392305993,2048.521,2604.649,2618.71,1895.136,-0.08131856,0.0307861,0.1146068,-1.03394985198975,-0.484982043504715,0.663759589195251,-1.07877930973132,-0.464168599372462,0.667815782108711,5
2.26000213623047,-1.07088768482208,2.12323784828186,1.92811918258667,-1.26702351885107,2.42065155681516,1.92720500505083,2218.969,3575.143,3285.068,0,-0.08544166,0.03067757,0.1180912,-1.03713619709015,-0.483888387680054,0.650144219398499,-1.08227271937422,-0.465671715947234,0.669978369091845,4
2.27999877929688,-1.09179413318634,2.11355113983154,1.94149899482727,-1.28869796983554,2.41132564607061,1.9406225227075,2048.623,2588.18,2606.387,1909.242,-0.07872783,0.03142535,0.1140947,-1.04532957077026,-0.484338700771332,0.668990433216095,-1.08549040888332,-0.467056197851165,0.67197027217779,3
2.30000305175781,-1.11275458335876,2.10389494895935,1.95459628105164,-1.31044231452835,2.40196966201596,1.95408330789913,2208.25,3578.264,3277.266,0,-0.08297398,0.03136692,0.1173517,-1.04802286624908,-0.482814997434616,0.654866993427277,-1.08843358680109,-0.468322565086307,0.673792239511894,0
2.31999969482422,-1.13386726379395,2.09423923492432,1.96805810928345,-1.33223444283894,2.39259311800549,1.96757367342642,2047.529,2579.595,2608.208,1900.627,-0.07644498,0.03212177,0.113138,-1.05563521385193,-0.482789605855942,0.673089921474457,-1.09109887036509,-0.469469362144493,0.675442177003072,0
2.33999633789063,-1.15502369403839,2.08462119102478,1.98123073577881,-1.35407709248145,2.38319483607731,1.98109531406483,2200.197,3571.079,3275.857,0,-0.08078966,0.0320505,0.1161769,-1.0578191280365,-0.480906814336777,0.65863311290741,-1.09348640563071,-0.470496651869278,0.67692017506657,0
2.36000061035156,-1.17631983757019,2.07501125335693,1.99475562572479,-1.37597305876702,2.37377361348711,1.99464996024512,2040.609,2577.15,2615.171,1884.799,-0.07441085,0.03275226,0.1118567,-1.06480443477631,-0.480492115020752,0.676244854927063,-1.09559602313537,-0.471404361345641,0.678226128796969,0
2.37999725341797,-1.19764924049377,2.06544470787048,2.00798749923706,-1.39790005743958,2.36433903852774,2.00822381695123,2197.922,3558.236,3272.961,0,-0.07877897,0.03259532,0.1147317,-1.06647288799286,-0.478323698043823,0.66159588098526,-1.09742530100382,-0.472191448508328,0.679358538938131,0
2.40000152587891,-1.21910560131073,2.05589246749878,2.02156114578247,-1.4198692197338,2.35488632173988,2.02182377494768,2028.978,2580.834,2616.44,1871.859,-0.07247899,0.0331885,0.1103986,-1.07281708717346,-0.477599412202835,0.678678870201111,-1.09897493039424,-0.472858210743393,0.680317833349887,0
2.41999816894531,-1.24058425426483,2.04638886451721,2.03483414649963,-1.44185817738692,2.34542508756209,2.03543598721428,2195.49,3542.216,3271.877,0,-0.07682528,0.03289052,0.1131883,-1.07394051551819,-0.475188493728638,0.663646936416626,-1.10024313330221,-0.473403883025206,0.681102911362803,0
2.44000244140625,-1.26217830181122,2.03690457344055,2.04844617843628,-1.46387808506052,2.33595053645515,2.04906735901791,2011.539,2585.547,2602.669,1878.736,-0.07041132,0.03335506,0.1088465,-1.0796959400177,-0.474215894937515,0.680603861808777,-1.10123038958312,-0.473828671822132,0.681714070030222,0
2.45999908447266,-1.28378319740295,2.02747297286987,2.06174731254578,-1.48590651627916,2.32647231790489,2.06270400730194,2184.238,3543.862,3260.519,0,-0.07470647,0.03293183,0.1116892,-1.0802526473999,-0.471585750579834,0.665060222148895,-1.10193556692257,-0.474132089930926,0.682150608395601,0
2.47999572753906,-1.30549204349518,2.01806545257568,2.07538652420044,-1.50794623031618,2.31698924467309,2.07634764018804,1993.444,2582.05,2575.909,1906.986,-0.06806561,0.03330578,0.1073212,-1.08544158935547,-0.470373511314392,0.68195503950119,-1.10235882472314,-0.474314205938057,0.682412625136718,0
2.5,-1.32720041275024,2.00871539115906,2.08869981765747,-1.52999999932945,2.30750012397766,2.08999997377396,2172.81,3547.889,3246.246,0,-0.07231015,0.0327987,0.1102114,-1.0854150056839,-0.467502981424332,0.665666043758392,-1.10250000050292,-0.474374949932098,0.682500019669533,0
2.51999664306641,-1.34900164604187,1.99939465522766,2.10235381126404,-1.55204535801192,2.29801462201262,2.10364710096447,1979.399,2574.169,2538.936,1946.233,-0.06540617,0.03312562,0.1057089,-1.09006667137146,-0.466027110815048,0.682694256305695,-1.10235893238473,-0.47431425226183,0.68241269178437,0
2.54000091552734,-1.37079048156738,1.99013686180115,2.11566591262817,-1.57409348237975,2.28852793005043,2.11729594024597,2153.628,3566.697,3224.479,0,-0.06968161,0.0326064,0.1086523,-1.0894421339035,-0.462898552417755,0.66560298204422,-1.10193556692257,-0.474132089930926,0.682150608395601,0
2.55999755859375,-1.39266073703766,1.98091447353363,2.12931513786316,-1.59612191359838,2.27904971150017,2.13093258853001,1967.359,2557.517,2507.751,1985.82,-0.06261518,0.03294568,0.103965,-1.09351146221161,-0.46112334728241,0.682463824748993,-1.10123038958312,-0.473828671822132,0.681714070030222,0
2.58000183105469,-1.41450667381287,1.97175991535187,2.14260816574097,-1.61814182127198,2.26957516039323,2.14456396033363,2141.179,3575.75,3206.24,0,-0.06696359,0.03245069,0.1068276,-1.09229755401611,-0.457724004983902,0.664654672145844,-1.10024313330221,-0.473403883025206,0.681102911362804,0
2.59999847412109,-1.43642127513885,1.96264731884003,2.15623140335083,-1.64013077892511,2.26011392621545,2.15817617260023,1959.342,2544.205,2488.713,2005.618,-0.05989769,0.03280574,0.1019279,-1.09573101997375,-0.455636441707611,0.681167900562286,-1.09897493039424,-0.472858210743393,0.680317833349887,0
2.62000274658203,-1.45829999446869,1.95360743999481,2.16948795318604,-1.66209994121933,2.25066120942759,2.17177613059669,2129.909,3578.87,3193.06,0,-0.06436115,0.03232791,0.1046464,-1.09393107891083,-0.45198854804039,0.662833571434021,-1.09742530100382,-0.472191448508328,0.679358538938131,0
2.63999938964844,-1.48023343086243,1.94461512565613,2.18306517601013,-1.68402693989188,2.24122663446822,2.18534998730279,1950.85,2535.826,2480.967,2008.957,-0.05741243,0.03267286,0.09959002,-1.09667646884918,-0.449622750282288,0.678861796855927,-1.09559602313537,-0.471404361345641,0.67822612879697,0
2.65999603271484,-1.50211930274963,1.9356997013092,2.19626784324646,-1.70591456353497,2.23180900148401,2.19889946898997,2121.827,3572.219,3186.408,0,-0.06198508,0.03217135,0.1021555,-1.09429275989532,-0.445773929357529,0.660130739212036,-1.09348726343002,-0.470497020956359,0.676920706085208,0
2.68000030517578,-1.52404594421387,1.92683601379395,2.20978164672852,-1.72776555581996,2.22240712994983,2.2124262741215,1937.872,2532.64,2479.161,2005.193,-0.05513809,0.03246533,0.09702242,-1.09633231163025,-0.443191111087799,0.675695478916168,-1.09109887036509,-0.469469362144494,0.675442177003072,0
2.69999694824219,-1.54591369628906,1.91805195808411,2.2229163646698,-1.74955768413056,2.21303058593937,2.22591663964878,2118.039,3561.938,3178.892,0,-0.05976187,0.03188968,0.0994756,-1.09337985515594,-0.439194828271866,0.65673565864563,-1.08843358680109,-0.468322565086308,0.673792239511893,0
2.72000122070313,-1.56780803203583,1.90932297706604,2.23635387420654,-1.77130202882336,2.20367460188472,2.23937742484041,1921.955,2534.583,2474.851,2001.234,-0.0529772,0.03209141,0.09434911,-1.09471535682678,-0.43645116686821,0.671875774860382,-1.08549040888332,-0.467056197851165,0.671970272177789,0
2.73999786376953,-1.58963191509247,1.90067625045776,2.24940466880798,-1.79297647980783,2.19434869114016,2.25279494249708,2115.357,3546.369,3175.017,0,-0.05761056,0.03139629,0.09674091,-1.09119296073914,-0.432338654994965,0.652545273303986,-1.08227271937422,-0.465671715947234,0.669978369091845,0
2.76000213623047,-1.61146950721741,1.89208674430847,2.26275730133057,-1.81459207318004,2.18504810518187,2.26617602448799,1901.895,2538.281,2459.196,2011.646,-0.05072683,0.03148574,0.09162413,-1.09188175201416,-0.429474949836731,0.667631506919861,-1.07877930973132,-0.464168599372462,0.667815782108711,0
2.77999877929688,-1.63322520256042,1.88358151912689,2.27571439743042,-1.83612684690458,2.17578229366013,2.27950707526701,2104.815,3546.449,3162.629,0,-0.05533729,0.03068329,0.09407758,-1.08779358863831,-0.425260245800018,0.647856593132019,-1.07501419914593,-0.462548577472581,0.665484999299265,0
2.79999542236328,-1.65498268604279,1.87513589859009,2.28897309303284,-1.85758361379882,2.16655004629821,2.2927898361021,1881.836,2534.978,2433.25,2039.237,-0.04825861,0.03069091,0.08896392,-1.08786904811859,-0.422275334596634,0.662934184074402,-1.07097756992209,-0.460811728687929,0.662986133518392,0
2.81999969482422,-1.6766471862793,1.86677718162537,2.30182337760925,-1.87896509797278,2.15735019098767,2.30602599334712,2095.282,3546.754,3148.718,0,-0.05283765,0.02981271,0.09146796,-1.08322286605835,-0.417935341596603,0.642514407634735,-1.06666929835407,-0.458957999791384,0.660319108186353,0
2.83999633789063,-1.69830167293549,1.85848140716553,2.31497883796692,-1.90024960698239,2.14819206138118,2.31920211834584,1865.782,2528.432,2398.635,2075.452,-0.04552567,0.02977009,0.08626286,-1.08272349834442,-0.414799630641937,0.657775461673737,-1.06209435025759,-0.456989527434725,0.657486997379635,0
2.86000061035156,-1.71985197067261,1.85027515888214,2.32771229743958,-1.9214480311499,2.13907097167731,2.33232495272651,2078.878,3560.773,3127.78,0,-0.0501388,0.02887501,0.08882786,-1.07752418518066,-0.410311877727509,0.636678040027618,-1.05725102347782,-0.454905579228273,0.654488747383304,0
2.87999725341797,-1.74138081073761,1.84213519096375,2.34074926376343,-1.94253888918396,2.12999616467562,2.34538119854648,1851.194,2514.537,2369.162,2111.999,-0.04268035,0.02883318,0.08349526,-1.07642841339111,-0.406990617513657,0.651843905448914,-1.05214490868305,-0.452708560680416,0.651327819087361,0
2.90000152587891,-1.76279437541962,1.83408832550049,2.35335183143616,-1.96353299953007,2.12096298550123,2.3583775529389,2068.924,3565.354,3110.498,0,-0.04735953,0.02794977,0.08600403,-1.07069420814514,-0.402338474988937,0.63013231754303,-1.04677411523767,-0.450397658303471,0.648003042098304,0
2.91999816894531,-1.78417420387268,1.82611203193665,2.36625337600708,-1.98440911693069,2.11198057539494,2.37130086407726,1839.746,2504.272,2349.519,2132.008,-0.03988616,0.02791144,0.08052029,-1.06897532939911,-0.398817807435989,0.645078182220459,-1.04114485287423,-0.447975543971863,0.644518260536375,0
2.94000244140625,-1.80542850494385,1.8182315826416,2.37871170043945,-2.00517798053537,2.10304431360073,2.38415778000673,2059.27,3566.167,3097.132,0,-0.04466707,0.02703517,0.08292896,-1.06271624565125,-0.394014686346054,0.62291431427002,-1.03525504859546,-0.445441325732794,0.640872191117535,0
2.95999908447266,-1.82663536071777,1.81042516231537,2.3914623260498,-2.02581860575671,2.0941632292003,2.39693531026807,1827.448,2498.147,2338.699,2139.514,-0.03726934,0.02698222,0.07734472,-1.06034648418427,-0.390319317579269,0.637531995773315,-1.02911152474823,-0.442797939051516,0.637069057199471,0
2.97999572753906,-1.84770679473877,1.8027172088623,2.40376257896423,-2.04633384260397,2.08533609591429,2.40963521915279,2052.375,3558.954,3089.172,0,-0.04214665,0.02608175,0.07964963,-1.05357253551483,-0.385398685932159,0.615011274814606,-1.02271452148052,-0.440045487257004,0.633109007445237,0
3,-1.86871767044067,1.79508590698242,2.41634941101074,-2.06672639957428,2.07656174835205,2.42225918334961,1811.169,2496.296,2332.01,2142.461,-0.03480219,0.02598384,0.07402909,-1.05055153369904,-0.381572067737579,0.629338502883911,-1.01606400046349,-0.437183953857422,0.628992018127441,0
3.01999664306641,-1.88958346843719,1.78755450248718,2.42848134040833,-2.08697572864857,2.06784902775215,2.4347944826559,2048.85,3549.557,3080.001,0,-0.0397285,0.02502105,0.07626668,-1.04328262805939,-0.376568555831909,0.606593370437622,-1.00916768936771,-0.434216663853534,0.624722873042298,0
3.04000091552734,-1.91037595272064,1.78010153770447,2.44089460372925,-2.10709234004513,2.05919341186127,2.44724762339747,1792.831,2498.241,2322.552,2146.156,-0.03240428,0.02484912,0.07067288,-1.03962433338165,-0.372645169496536,0.62066650390625,-1.00202309041976,-0.43114254252322,0.620300025949072,0
3.05999755859375,-1.93101322650909,1.77275013923645,2.45284581184387,-2.12705600675913,2.05060360379452,2.45960608409476,2046.136,3535.846,3073.972,0,-0.03734817,0.02379218,0.07288004,-1.03187227249146,-0.367576211690903,0.597559332847595,-0.994638524886308,-0.427965170275055,0.615728628108227,0
3.08000183105469,-1.95156586170197,1.76547849178314,2.46507954597473,-2.14687713595163,2.04207512564123,2.47187630727625,1771.969,2501.025,2303.843,2161.454,-0.02991795,0.02353145,0.06730476,-1.02762651443481,-0.363574743270874,0.611686229705811,-0.987011339258122,-0.424683405378145,0.611007036871143,0
3.09999847412109,-1.97195398807526,1.75830984115601,2.47684264183044,-2.16653584520328,2.033616532251,2.4840459847772,2036.81,3535.389,3060.776,0,-0.03485971,0.02239466,0.06957556,-1.01940715312958,-0.358441174030304,0.588160276412964,-0.979150439632689,-0.421301079877433,0.606140765536421,0
3.12000274658203,-1.99224615097046,1.75122284889221,2.48888969421387,-2.18604243256806,2.0252233926589,2.49612149158362,1751.837,2497.548,2277.72,2189.592,-0.02725958,0.02207188,0.06400745,-1.01460647583008,-0.35434901714325,0.602347195148468,-0.971053025860989,-0.417816988947023,0.601128080678429,0
3.13999938964844,-2.01236510276794,1.74424028396606,2.50045537948608,-2.20537738341953,2.01690410346351,2.50809074721212,2030.023,3534.287,3045.59,0,-0.03220401,0.02088068,0.06631394,-1.00594222545624,-0.349128663539886,0.578279197216034,-0.962728579444533,-0.414235212212131,0.595974851798267,0
3.15999603271484,-2.03237724304199,1.73734188079834,2.51230621337891,-2.22454360124808,2.00865741537402,2.51995554906156,1733.787,2491.918,2249.382,2220.421,-0.02444036,0.02051947,0.06068916,-1.00060892105103,-0.344915509223938,0.592546880245209,-0.95417746870157,-0.410555908149813,0.590681306902481,0
3.18000030517578,-2.05220770835876,1.73055005073547,2.52366471290588,-2.24354380138856,2.00048216005771,2.53171757805356,2019.855,3537.805,3029.317,0,-0.02941781,0.01930856,0.06300868,-0.99151486158371,-0.339588105678558,0.567920923233032,-0.94539982440085,-0.406779133026206,0.58524752694315,0
3.19999694824219,-2.07192039489746,1.72384548187256,2.53530955314636,-2.2623590635174,1.99238647840124,2.54336512160655,1719.965,2484.606,2221.548,2248.307,-0.02155935,0.01893166,0.05729056,-0.985652804374695,-0.335232436656952,0.582242369651794,-0.936405971974636,-0.402909329586355,0.579679903854719,0
3.22000122070313,-2.09144330024719,1.71724963188171,2.54645085334778,-2.28099938900442,1.98436606709459,2.55490437104486,2008.63,3541.745,3013.839,0,-0.02663108,0.01772594,0.0595944,-0.976139783859253,-0.329793661832809,0.557062745094299,-0.927192788821982,-0.398945154262308,0.573976504598449,0
3.23999786376953,-2.11083817481995,1.71074366569519,2.55787658691406,-2.29944628156995,1.97642888457015,2.56632387629027,1704.911,2476.014,2201.394,2270.958,-0.01874865,0.01735076,0.05378306,-0.969739973545074,-0.325297325849533,0.571285367012024,-0.917771149318993,-0.394891285994308,0.568144060931169,0
3.26000213623047,-2.13003492355347,1.70434844493866,2.56879019737244,-2.31770961544581,1.96857068222185,2.57762974996267,2000.348,3540.21,3001.516,0,-0.02391199,0.01615453,0.05602846,-0.95982563495636,-0.319760113954544,0.545680344104767,-0.90813782126959,-0.39074633405868,0.562180571969535,0
3.27999877929688,-2.14909243583679,1.69804573059082,2.57998514175415,-2.33577134012187,1.96079922667992,2.58881081793642,1690.925,2471.146,2187.343,2282.717,-0.01606365,0.01577139,0.0501543,-0.952880918979645,-0.315140843391418,0.559743821620941,-0.898304216251578,-0.386515208538549,0.556093102023818,0
3.29999542236328,-2.16794371604919,1.69185519218445,2.59066104888916,-2.35363442159312,1.95311324175956,2.5998689163037,1994.38,3533.577,2992.287,0,-0.02131488,0.0145648,0.05233398,-0.942579209804535,-0.309528410434723,0.533798396587372,-0.888270870184445,-0.382198140025101,0.549881982853707,0
3.31999969482422,-2.18664574623108,1.68575859069824,2.60161542892456,-2.37130160722417,1.94551154534655,2.61080574581408,1674.275,2469.727,2176.169,2290.831,-0.01349637,0.01415361,0.04644169,-0.935093998908997,-0.304815322160721,0.547714531421661,-0.878038122530657,-0.377795274579551,0.543547424602645,0
3.33999633789063,-2.20513391494751,1.67977571487427,2.6120457649231,-2.38875555478454,1.93800159931817,2.62161057080077,1991.372,3524.709,2982.488,0,-0.01881151,0.01291006,0.04857406,-0.924423575401306,-0.29915064573288,0.521517753601074,-0.867618167158097,-0.373311858882592,0.53709697585572,0
3.36000061035156,-2.22346210479736,1.67388844490051,2.62275218963623,-2.406005803634,1.93057929915441,2.6322892965819,1656.067,2471.332,2163.281,2299.183,-0.01101004,0.01245048,0.04270493,-0.916413605213165,-0.294367849826813,0.535316228866577,-0.857007552155826,-0.36874640767338,0.530528499715627,0
3.37999725341797,-2.24156999588013,1.66811513900757,2.63292765617371,-2.42303550945299,1.9232518924954,2.64283149572124,1988.542,3513.195,2975.062,0,-0.01637684,0.01114941,0.04481695,-0.905392527580261,-0.288666814565659,0.508775472640991,-0.846218976345105,-0.364104384899943,0.523849857357654,0
3.40000152587891,-2.25950813293457,1.66243839263916,2.64338064193726,-2.43985407218584,1.9160153348077,2.65324298723213,1636.25,2473.268,2145.124,2314.696,-0.008516257,0.01063094,0.03897019,-0.896891891956329,-0.283829122781754,0.52265065908432,-0.835248923368004,-0.359384277571698,0.517058871988738,0
3.41999816894531,-2.27721905708313,1.65687644481659,2.65329551696777,-2.45644516534361,1.90887665092339,2.66351366424015,1981.861,3509.551,2963.51,0,-0.01391981,0.009280559,0.04112224,-0.885542511940002,-0.278094828128815,0.495738714933395,-0.824110582941664,-0.354591760855451,0.510163708672097,0
3.44000244140625,-2.29475069046021,1.65141248703003,2.66348958015442,-2.47281804716281,1.90183185728196,2.67364925803476,1617.487,2471.405,2122.533,2337.54,-0.005962817,0.008717929,0.03529385,-0.876582026481628,-0.273197412490845,0.509702205657959,-0.812800388649434,-0.349725300221754,0.503162159625937,0
3.45999908447266,-2.3120493888855,1.64606428146362,2.67313647270203,-2.48895692832918,1.89488774758421,2.68363999427827,1977.005,3505.344,2950.85,0,-0.01140738,0.007333312,0.0374695,-0.864931702613831,-0.267420709133148,0.482347637414932,-0.801332006385299,-0.344790775723006,0.496062684689628,0
3.47999572753906,-2.3291597366333,1.64081513881683,2.68306469917297,-2.50486489870395,1.88804299234919,2.69348778574196,1600.148,2468.288,2098.832,2361.816,-0.003360377,0.006741234,0.03162188,-0.855535209178925,-0.262450128793716,0.496413379907608,-0.789706299681989,-0.339788558913217,0.488865818431069,0
3.5,-2.34603214263916,1.63568258285522,2.69243693351746,-2.5205447997813,1.88129636896134,2.70319439144611,1970.121,3503.84,2937.887,0,-0.008864066,0.005344628,0.03380844,-0.843604445457458,-0.256623506546021,0.468609213829041,-0.777924000354857,-0.334718964672089,0.481572013878822,0
3.51999664306641,-2.36270785331726,1.63065099716187,2.70209240913391,-2.53598168290031,1.87465430941181,2.7127505574575,1585.846,2464.348,2075.648,2383.744,-0.0007728494,0.004737246,0.0279217,-0.833785831928253,-0.251572579145432,0.482769817113876,-0.765999459475408,-0.329588167864767,0.474190155029786,0
3.54000091552734,-2.37913942337036,1.62573719024658,2.7111828327179,-2.55118444594166,1.86811298519115,2.72216179198813,1962.652,3502.618,2925.645,0,-0.006375608,0.003344635,0.03010409,-0.821592092514038,-0.245699122548103,0.454524546861649,-0.753929052770513,-0.324394609067776,0.466717998286246,0
3.55999755859375,-2.39536666870117,1.62092566490173,2.72055673599243,-2.56613872308604,1.86167857751006,2.73141920191151,1570.639,2459.989,2057.241,2402.518,0.001715981,0.002734213,0.02418309,-0.811359643936157,-0.240577906370163,0.46869632601738,-0.741727567798258,-0.319144650954242,0.459164697851087,0
3.58000183105469,-2.41134524345398,1.61623239517212,2.7293586730957,-2.58085326729328,1.85534732021446,2.74052820572674,1957.008,3498.394,2915.322,0,-0.003986219,0.001350293,0.02634153,-0.798921942710876,-0.234672352671623,0.440097957849503,-0.729391385793765,-0.313836736470737,0.451528013536464,0
3.59999847412109,-2.42711091041565,1.61164224147797,2.73844361305237,-2.59531431270705,1.84912513636775,2.74948028171299,1555.793,2457.923,2042.813,2415.023,0.004071409,0.0007344334,0.02041059,-0.788284480571747,-0.229500159621239,0.454244554042816,-0.716935713767317,-0.308477408768949,0.443817359206151,0
3.6199951171875,-2.44262313842773,1.60717034339905,2.74695062637329,-2.60952509409627,1.84301063413925,2.75827743234631,1953.173,3490.863,2907.1,0,-0.001725196,-0.000650344,0.02254306,-0.775621652603149,-0.223582461476326,0.425354301929474,-0.704361775018033,-0.303067194200314,0.436033492140578,0
3.63999938964844,-2.45791530609131,1.60280287265778,2.75574040412903,-2.6234885835008,1.83700253474321,2.76692149746096,1539.589,2458.174,2030.229,2425.15,0.006302486,-0.001282046,0.01663245,-0.764594852924347,-0.218382954597473,0.439493536949158,-0.691670720740692,-0.297606588091786,0.428177124984152,0
3.65999603271484,-2.47294998168945,1.59855341911316,2.76395106315613,-2.63719194552437,1.83110636089208,2.77540453133521,1944.985,3486.966,2891.685,8.590541,0.000480276,-0.002657835,0.01876606,-0.75173157453537,-0.212469920516014,0.410538047552109,-0.678878353700696,-0.292102389931838,0.420258040401444,0
3.68000030517578,-2.4877564907074,1.59440851211548,2.77244019508362,-2.65064357486757,1.82531850058072,2.78373173068862,1526.968,2459.206,2019.343,2428.882,0.008432595,-0.003298059,0.01292234,-0.740334570407867,-0.207252502441406,0.424454599618912,-0.665981146317811,-0.286553081901244,0.412274054652249,0
3.69999694824219,-2.50230264663696,1.59038138389587,2.78035807609558,-2.66383127580226,1.81964420129024,2.79189554578451,1921.765,3486.871,2859.354,46.53574,0.002772677,-0.004599812,0.01504775,-0.72730565071106,-0.201350927352905,0.395892798900604,-0.65299527533123,-0.280965624398954,0.404235181908735,0
3.72000122070313,-2.51661396026611,1.58645951747894,2.78853750228882,-2.6767633032417,1.81407991116207,2.79990108680742,1527.419,2461.1,2016.678,2409.235,0.01050471,-0.005208078,0.009321298,-0.71555507183075,-0.196097910404205,0.408971339464188,-0.639917282339434,-0.275338529371411,0.396139281255611,0
3.73999786376953,-2.53066182136536,1.58265542984009,2.79616165161133,-2.68942811570037,1.808630596175,2.80774120902801,1900.669,3469.769,2819.64,108.6105,0.005137365,-0.006395315,0.01126131,-0.702392160892487,-0.190204456448555,0.381211459636688,-0.626763698705669,-0.269678909802388,0.38799658639423,0
3.76000213623047,-2.54446744918823,1.57895720005035,2.80402088165283,-2.70183383146282,1.803292763258,2.81542093805117,1536.637,2474.405,2027.304,2355.671,0.0124288,-0.006960438,0.005668127,-0.690287172794342,-0.184905782341957,0.392962068319321,-0.613531154887639,-0.263985315871967,0.379805011417393,0
3.77999877929688,-2.55800724029541,1.57537651062012,2.81134963035583,-2.7139695770734,1.79807109095524,2.82293354268985,1878.063,3442.502,2776.642,187.5145,0.007390877,-0.008025169,0.00730548,-0.676992654800415,-0.179036125540733,0.366436988115311,-0.60023651686137,-0.258265004538452,0.371574997167698,0
3.79999542236328,-2.57129788398743,1.57190203666687,2.81887865066528,-2.72583886061506,1.79296406983666,2.83028119461452,1547.384,2499.95,2051.747,2274.069,0.01402684,-0.008552476,0.001933036,-0.664526879787445,-0.173722639679909,0.376453280448914,-0.586881630238189,-0.252518769916838,0.363307686166475,0
3.81999969482422,-2.58431959152222,1.56854367256165,2.82590937614441,-2.73744492223163,1.78797030575888,2.83746589962856,1850.853,3404.828,2733.207,283.5296,0.009384442,-0.009501093,0.003235886,-0.651098668575287,-0.167923256754875,0.351537525653839,-0.573468357077023,-0.246747413199059,0.355004231116903,0
3.83999633789063,-2.59708547592163,1.56529068946838,2.83310151100159,-2.74877791451009,1.78309403578861,2.84448156171422,1559.252,2535.027,2084.924,2173.029,0.01526549,-0.01000443,-0.00180083,-0.63828831911087,-0.162649631500244,0.359605729579926,-0.560014026276881,-0.240958390526246,0.346675359432959,0
3.86000061035156,-2.60958027839661,1.56215119361877,2.83983278274536,-2.75984563331209,1.77833190558438,2.85133300688122,1821.856,3359.233,2688.492,391.881,0.01110672,-0.01085238,-0.0008133294,-0.624735832214355,-0.156971231102943,0.336565971374512,-0.546515580872635,-0.235150386571708,0.338319178707605,0
3.87999725341797,-2.62181282043457,1.5591151714325,2.84668445587158,-2.77063893010371,1.77368785150474,2.85801457175126,1570.163,2575.567,2121.64,2064.221,0.01624577,-0.0113424,-0.00542113,-0.611624717712402,-0.151784986257553,0.342579215764999,-0.532990631455729,-0.229330978680956,0.329946590735853,0
3.90000152587891,-2.6337718963623,1.55619072914124,2.85311627388,-2.78116548164984,1.76915857045225,2.8645310086075,1794.703,3308.047,2641.019,507.8987,0.0126734,-0.01210673,-0.004734568,-0.597970604896545,-0.146258905529976,0.321588903665543,-0.519436284009554,-0.223498921639498,0.32155580398356,0
3.91999816894531,-2.6454644203186,1.55336689949036,2.85962724685669,-2.79141684911929,1.7647476934202,2.87087709341145,1582.907,2619.794,2155.869,1952.931,0.01710967,-0.01259089,-0.008877381,-0.584616541862488,-0.141177758574486,0.325550436973572,-0.505870408491346,-0.2176619043907,0.313157880805522,0
