t,x_s1,x_s2,x_s3,x_s_d1,x_s_d2,x_s_d3,propellers_rpms1,propellers_rpms2,propellers_rpms3,propellers_rpms4,rollRad,pitchRad,yawRad,v_s1,v_s2,v_s3,v_s_d1,v_s_d2,v_s_d3,insideCount
0,-0.0599999986588955,2.94000005722046,1.17999994754791,-0.0599999986588955,2.94000005722046,1.17999994754791,0,0,0,0,0,0,0,0,0,0,-1.06581410364015E-15,4.44089209850063E-16,4.44089209850063E-16,0
0.019989013671875,-0.0599999986588955,2.94000005722046,1.17811644077301,-0.0600018659130177,2.93999925379318,1.18000110346716,0,0,0,0,-0.01635288,0.0001297794,-0.01587137,-1.10653664009419E-09,-7.76775763711157E-08,-0.0941759571433067,-0.000279680311988734,-0.000120338624884473,0.000173135436141649,9
0.0399932861328125,-0.0599999986588955,2.94000005722046,1.17242503166199,-0.060014863945674,2.93999366110285,1.18000914986856,0,0,0,0,-0.03270202,0.0005238493,-0.03175127,-1.08383135799528E-09,-7.60859677484405E-08,-0.284568399190903,-0.00111059898697896,-0.000477859717552347,0.000687513678106196,9
0.05999755859375,-0.0599058866500854,2.93990302085876,1.16596508026123,-0.0600498857373401,2.93997859220429,1.18003083002592,1868.354,3252.841,3183.737,1722.314,-0.04942294,0.000329806,-0.01369557,0.00470561534166336,-0.00484914472326636,-0.32299879193306,-0.00247936261166862,-0.00106680046642749,0.00153484356504269,9
0.0800018310546875,-0.0598203726112843,2.93960738182068,1.16000318527222,-0.0601175574246769,2.93994947496775,1.18007272202403,1925.478,2314.355,3252.169,2829.42,-0.07543564,-0.002136388,0.02094805,0.00427567213773727,-0.014778820797801,-0.298097044229507,-0.00437268608126799,-0.00188144466206175,0.00270690098422899,9
0.0999908447265625,-0.0599374547600746,2.93904495239258,1.15498673915863,-0.0602281370710988,2.93990189563514,1.18014117609281,980.0964,1498.883,3915.018,3896.587,-0.1032007,-0.008063519,0.06330951,-0.00585401896387339,-0.0281177312135696,-0.25082466006279,-0.00677536694902951,-0.00291525111632684,0.0041942748969354,8
0.1199951171875,-0.0604638755321503,2.93818354606628,1.15081346035004,-0.0603918861403606,2.93983143898525,1.18024254456713,346.0178,980.1927,4173.286,4613.497,-0.1214359,-0.0154229,0.104006,-0.0263210758566856,-0.0430709719657898,-0.208664610981941,-0.00967801353495435,-0.00416417885169243,0.00599115140585487,8
0.139999389648438,-0.0615636557340622,2.93704128265381,1.1472829580307,-0.0606185767455666,2.93973390035084,1.18038287685052,352.9745,747.1586,3975.09,4855.053,-0.1254024,-0.0211684,0.1351104,-0.0549890846014023,-0.057116162031889,-0.1765246540308,-0.0130660253322238,-0.00562194567796536,0.00808849210174802,7
0.159988403320313,-0.0633409321308136,2.93568086624146,1.14427483081818,-0.0609175312885481,2.93960526856281,1.18056794395381,821.1297,814.9834,3462.453,4692.479,-0.1184601,-0.0235253,0.1522726,-0.0888638496398926,-0.0680163130164146,-0.150403559207916,-0.0169234294955564,-0.00728167892605071,0.0104764090324936,7
0.17999267578125,-0.0658470541238785,2.9341721534729,1.14182531833649,-0.0612985250199726,2.93944133760391,1.18080379722281,1348.496,1083.136,3007.172,4255.248,-0.1079784,-0.02278068,0.1557796,-0.125306099653244,-0.0754325985908508,-0.122476495802402,-0.0212433804254414,-0.00914043312572283,0.0131506644458931,7
0.199996948242188,-0.0690851733088493,2.93255376815796,1.140061378479,-0.0617704296168641,2.93923829023936,1.18109592864822,1636.58,1381.371,2918.107,3666.323,-0.0998238,-0.02030128,0.1501555,-0.161906167864799,-0.0809164941310883,-0.0881941169500351,-0.0260104776919234,-0.0111915819022102,0.0161017247421801,7
0.220001220703125,-0.0730105489492416,2.93082594871521,1.13903534412384,-0.0623420644491781,2.93899233174064,1.18144979784016,1641.675,1580.896,3147.912,3112.963,-0.09583811,-0.01735475,0.1421851,-0.196268945932388,-0.086386501789093,-0.0512994378805161,-0.03121219533433,-0.0134297356845702,0.019321835755004,7
0.239990234375,-0.0775503292679787,2.92897343635559,1.13863289356232,-0.0630214373585105,2.93870001655724,1.18187036203406,1524.136,1624.287,3417.867,2777.301,-0.094759,-0.01467775,0.137729,-0.226989030838013,-0.0926253348588943,-0.0201202891767025,-0.0368316683029241,-0.015847637913056,0.022800557215184,7
0.259994506835938,-0.0826392844319344,2.92699217796326,1.13863551616669,-0.0638179029240226,2.93835731967507,1.18236341216003,1438.42,1500.553,3534.079,2744.198,-0.09439095,-0.0125893,0.1393012,-0.254447758197784,-0.09906055778265,0.000129921361804008,-0.0428651747123285,-0.0184436871643672,0.0265355850983733,7
0.279998779296875,-0.088245153427124,2.9249005317688,1.13885200023651,-0.0647390625194898,2.93796097043536,1.18293365383054,1400.692,1276.099,3476.247,2977.699,-0.09320851,-0.01110591,0.145685,-0.280293643474579,-0.104587085545063,0.0108242519199848,-0.0492963837173861,-0.0212108567320638,0.030516809833474,7
0.29998779296875,-0.0943709015846252,2.92273235321045,1.13920664787292,-0.0657918945890516,2.93750796620855,1.18358540703494,1351.099,1061.738,3344.545,3324.79,-0.09053203,-0.009934656,0.1533108,-0.306287497282028,-0.108407936990261,0.0177300870418549,-0.0561078595514081,-0.0241416444928383,0.0347334378503248,7
0.319992065429688,-0.101036250591278,2.92052555084229,1.1397248506546,-0.0669855955880233,2.93699435001684,1.18432436481717,1280.436,940.7252,3238.277,3590.712,-0.08597696,-0.008524246,0.1583618,-0.333267629146576,-0.110343515872955,0.0259103775024414,-0.0632980253096114,-0.0272353719486164,0.0391844929697465,7
0.339996337890625,-0.108251839876175,2.91831183433533,1.14046132564545,-0.068326768706371,2.93641728069206,1.18515461486636,1253.033,944.2374,3170.793,3650.048,-0.07944263,-0.006292517,0.1584778,-0.360779643058777,-0.110680609941483,0.0368248336017132,-0.0708499516420146,-0.0304847548730522,0.0438594951176439,7
0.360000610351563,-0.116003394126892,2.91611456871033,1.14145219326019,-0.0698225328270578,2.93577369517774,1.1860805641102,1320.192,1047.51,3120.178,3497.871,-0.07154582,-0.002961968,0.1534706,-0.387577593326569,-0.109857924282551,0.0495462417602539,-0.0787518717320621,-0.0338847303337087,0.0487511600740379,8
0.379989624023438,-0.124251767992973,2.91394948959351,1.14270722866058,-0.0714784451857985,2.93506120235061,1.1871056527423,1455.453,1181.706,3090.85,3231.156,-0.06361706,0.001259462,0.1450345,-0.412418901920319,-0.108256012201309,0.0627491101622581,-0.0869857157641562,-0.0374275233937465,0.0538483017622888,8
0.399993896484375,-0.132943600416183,2.91182613372803,1.14421713352203,-0.0733036822025899,2.9342758538535,1.18823556140379,1578.68,1273.232,3105.932,2981.868,-0.05701828,0.005825592,0.1357478,-0.434592366218567,-0.106166318058968,0.0754956007003784,-0.0955525119207663,-0.0411135764513579,0.0591515566763244,8
0.419998168945313,-0.142023950815201,2.90974998474121,1.14595746994019,-0.0753034649285836,2.93341540321397,1.18947352217404,1631.46,1288.725,3158.449,2844.924,-0.05243391,0.01017598,0.1278578,-0.454017549753189,-0.103803545236588,0.0870173200964928,-0.104434660908044,-0.0449353170220673,0.0646500300148815,8
0.44000244140625,-0.151446327567101,2.90772414207458,1.14789497852325,-0.077483988232608,2.93247718495301,1.19082336997196,1607.97,1238.407,3218.556,2842.478,-0.04965357,0.01397706,0.1224595,-0.471119076013565,-0.101289816200733,0.0968776792287827,-0.113620829717891,-0.048887868829098,0.0703367061060819,8
0.459991455078125,-0.161177009344101,2.9057514667511,1.14999628067017,-0.0798493430620752,2.93145943885026,1.19228763728888,1541.485,1158.18,3252.865,2938.307,-0.04789162,0.0171864,0.1193394,-0.486534625291824,-0.098637230694294,0.105067186057568,-0.123092454730403,-0.0529632444654124,0.0762000931848968,8
0.479995727539063,-0.171193897724152,2.9038360118866,1.1522388458252,-0.0824088828700873,2.93035814037613,1.19387211435783,1472.85,1085.7,3249.66,3067.504,-0.04629266,0.01998519,0.1173817,-0.500843822956085,-0.0957781001925468,0.112128093838692,-0.132852887402757,-0.0571628859694044,0.0822422659629699,8
0.5,-0.181481301784515,2.9019832611084,1.15461528301239,-0.085166398670376,2.92917165836334,1.1955791479969,1431.75,1046.384,3215.909,3169.921,-0.04432992,0.02264337,0.1152264,-0.514371454715729,-0.0926406383514404,0.118823982775211,-0.142884000065179,-0.0614789935111996,0.0884520025491718,8
0.519989013671875,-0.19202446937561,2.90019869804382,1.15713393688202,-0.0881248588203387,2.92789871561062,1.19741057576073,1425.077,1045.448,3176.444,3209.543,-0.04191443,0.02538121,0.1118829,-0.527158737182617,-0.0892269238829613,0.125932812690735,-0.153166947611899,-0.0659034585682559,0.0948176369253132,9
0.539993286132813,-0.202804788947105,2.89848589897156,1.15980935096741,-0.091293865515634,2.92653518056143,1.19937234186584,1444.868,1073.053,3149.814,3184.743,-0.03929068,0.02828936,0.1070499,-0.539015173912048,-0.085637554526329,0.133773565292358,-0.163706645289342,-0.0704383960337938,0.101342211863077,9
0.55999755859375,-0.213798046112061,2.89684534072876,1.16265225410461,-0.094676112580471,2.92507989413848,1.20146611391775,1483.828,1113.867,3138.331,3114.8,-0.03688212,0.03132801,0.101059,-0.549663007259369,-0.0820302367210388,0.142143547534943,-0.17448465888317,-0.0750758741803766,0.108014315705644,9
0.580001831054688,-0.224976301193237,2.8952739238739,1.16566717624664,-0.0982762614093182,2.92353085067394,1.20369477754168,1522.197,1149.105,3145.212,3034.129,-0.03512443,0.03434765,0.09464983,-0.558912456035614,-0.0785734951496124,0.150747135281563,-0.185490414529404,-0.0798113433697334,0.11482740272751,9
0.599990844726563,-0.23631089925766,2.8937656879425,1.16885077953339,-0.102095761416081,2.92188742652551,1.20605922999388,1540.626,1167.081,3163.419,2979.049,-0.03429672,0.03716219,0.08861243,-0.566731870174408,-0.075415700674057,0.159179508686066,-0.19670480600515,-0.0846365827279185,0.121769645266545,9
0.6199951171875,-0.247776210308075,2.8923122882843,1.17219436168671,-0.106144683970236,2.92014528826426,1.20856570593183,1533.141,1166.929,3183.574,2964.643,-0.03442562,0.03963081,0.08346081,-0.573265969753265,-0.0726642161607742,0.16718028485775,-0.208134604141382,-0.0895545055543457,0.128845234789665,9
0.639999389648438,-0.259351402521133,2.89090466499329,1.1756865978241,-0.110424235525481,2.91830391678686,1.21121495220784,1506.802,1156.366,3194.251,2987.293,-0.03534121,0.04169857,0.07929851,-0.578760027885437,-0.070380374789238,0.174610808491707,-0.219761081350814,-0.0945570538913933,0.136042578028218,9
0.659988403320313,-0.271021127700806,2.88953280448914,1.17931973934174,-0.114934715429503,2.91636318329238,1.21400715413238,1468.901,1144.636,3196.638,3029.935,-0.03677453,0.04338832,0.07590076,-0.583486139774323,-0.0685943141579628,0.181656017899513,-0.231565018351745,-0.0996359582190702,0.143349777331291,9
0.67999267578125,-0.282774090766907,2.88818645477295,1.18308925628662,-0.119686638739014,2.91431856344567,1.21694882102647,1427.969,1139.38,3191.67,3075.756,-0.03844433,0.04477626,0.07288671,-0.587647795677185,-0.0673227161169052,0.188477575778961,-0.243554411173546,-0.104794659005432,0.150771782621969,9
0.699996948242188,-0.294601023197174,2.88685512542725,1.18699169158936,-0.124680083855354,2.91217002351282,1.22004000142426,1403.738,1146.139,3176.858,3103.132,-0.0401658,0.0459668,0.06986038,-0.591346859931946,-0.0665720626711845,0.195122823119164,-0.255710395848158,-0.11002503961202,0.158296916205407,9
0.720001220703125,-0.306493252515793,2.88552808761597,1.19102776050568,-0.129918284978346,2.90991617190799,1.22328269744952,1395.347,1163.187,3162.783,3105.466,-0.04192774,0.04702354,0.06662198,-0.594611704349518,-0.0663561299443245,0.201805830001831,-0.268023157655716,-0.11532287703907,0.16591910230247,9
0.739990234375,-0.31844162940979,2.88419389724731,1.19519865512848,-0.135400001298574,2.90755754251682,1.2266761409821,1392.31,1185.234,3153.676,3093.89,-0.0438383,0.04795387,0.06321248,-0.597418665885925,-0.0667054802179337,0.208543539047241,-0.280473432677602,-0.12067988256057,0.173626415629864,9
0.759994506835938,-0.330436736345291,2.88284063339233,1.19950449466705,-0.14113644597991,2.90508931062815,1.2302272735046,1390.171,1207.307,3151.363,3075.418,-0.0460093,0.04873249,0.05981394,-0.599754691123962,-0.0676606819033623,0.215293079614639,-0.293070637251543,-0.126100107763583,0.181424685349205,9
0.779998779296875,-0.342469483613968,2.88145542144775,1.203941822052,-0.147126184485884,2.90251209348295,1.23393520697061,1387.65,1226.458,3150.136,3059.45,-0.04853611,0.04931856,0.05665092,-0.601637423038483,-0.0692551881074905,0.221868589520454,-0.305795832832518,-0.131575403921268,0.189302187598958,9
0.79998779296875,-0.354532390832901,2.88002514839172,1.20850777626038,-0.153366821193532,2.89982692185086,1.2377984583754,1376.819,1240.889,3153.071,3052.498,-0.05146559,0.04966438,0.05392744,-0.60314553976059,-0.0715177953243256,0.228299960494041,-0.318629798715703,-0.137097500901303,0.197247023847227,9
0.819992065429688,-0.366620123386383,2.87853574752808,1.21319818496704,-0.159870162197751,2.89702871589906,1.2418243362541,1350.774,1250.683,3157.495,3063.025,-0.0547482,0.04973834,0.05176367,-0.604388058185577,-0.0744663774967194,0.234521627426147,-0.33158286215529,-0.142670842232658,0.205265587156312,9
0.839996337890625,-0.378729850053787,2.87697386741638,1.2180061340332,-0.166633637018892,2.89411858163313,1.24601124935738,1326.067,1259.388,3155.188,3079.366,-0.05825185,0.04955903,0.05010618,-0.605484783649445,-0.0780949741601944,0.24039714038372,-0.344636106234817,-0.148287288494656,0.213346167053785,8
0.860000610351563,-0.390860855579376,2.87532615661621,1.22292768955231,-0.173659158941841,2.89109569582005,1.2503603820997,1302.457,1269.34,3151.133,3095.584,-0.06186949,0.04915391,0.04885533,-0.606551170349121,-0.08238784968853,0.246075376868248,-0.357780475378537,-0.153942943326036,0.221483157706883,8
0.879989624023438,-0.403014153242111,2.87357974052429,1.22795927524567,-0.18094280014554,2.88796174849148,1.25486930297274,1277.248,1281.146,3145.529,3113.449,-0.06552228,0.04855502,0.04791404,-0.607665300369263,-0.0873214080929756,0.251581132411957,-0.370996904517929,-0.159629603560431,0.229664756929996,8
0.899993896484375,-0.415191769599915,2.87172245979309,1.23309862613678,-0.18849723509595,2.8847112861788,1.25954585807468,1256.715,1294.942,3140.297,3124.947,-0.06912608,0.04780334,0.04718492,-0.60888135433197,-0.0928697511553764,0.256966829299927,-0.384296738353309,-0.165352150505452,0.237897987633041,8
0.919998168945313,-0.427396208047867,2.86974263191223,1.23834180831909,-0.196318384305134,2.8813460641717,1.26438752200817,1246.816,1310.765,3131.679,3128.305,-0.07266168,0.04693354,0.04661141,-0.610221564769745,-0.0989952981472015,0.262160569429398,-0.397661187980262,-0.171102499820431,0.246171218589148,8
0.939987182617188,-0.439630419015884,2.86762928962708,1.24368822574615,-0.204401181418416,2.87786826238106,1.26939115845832,1239.833,1326.879,3127.09,3126.085,-0.0761696,0.04595267,0.04622261,-0.611711025238037,-0.105672046542168,0.267319440841675,-0.411071375662203,-0.176872528942697,0.254472763580097,8
0.959991455078125,-0.451897829771042,2.86537170410156,1.24913704395294,-0.212759000778906,2.87427212620069,1.27456504678061,1224.887,1340.961,3127.154,3129.756,-0.07967592,0.04485193,0.04610474,-0.613370597362518,-0.112875692546368,0.272439211606979,-0.424539267042903,-0.182667386354485,0.262810029909387,8
0.979995727539063,-0.464202463626862,2.86296033859253,1.2546843290329,-0.22138664033507,2.87055989392801,1.27990596665734,1216.039,1353.146,3124.629,3132.199,-0.08314975,0.04364371,0.04627527,-0.615229785442352,-0.120568156242371,0.277365118265152,-0.438046240701377,-0.188479059778567,0.271171490030365,8
1,-0.476549208164215,2.86038589477539,1.26032876968384,-0.230284798736574,2.86673126495361,1.28541435058594,1207.374,1363.833,3124.198,3134.946,-0.08658735,0.04232892,0.04676549,-0.617338359355927,-0.128717243671417,0.282221883535385,-0.451584000205995,-0.194303979492187,0.279552008056641,8
1.01998901367188,-0.488943964242935,2.85764026641846,1.26606857776642,-0.239446912293295,2.86278906344998,1.29108613532954,1192.175,1372.583,3124.456,3145.829,-0.08997276,0.04090837,0.04759852,-0.619739472866058,-0.137283310294151,0.286988407373428,-0.46513400752272,-0.200134169097193,0.287940108062054,8
1.03999328613281,-0.501393556594849,2.8547158241272,1.27190220355988,-0.248887339851819,2.85872711120656,1.2969302096982,1176.744,1379.805,3125.445,3158.039,-0.09322662,0.03940353,0.04873145,-0.622480988502502,-0.146224737167358,0.29168027639389,-0.478708875293167,-0.205975055460915,0.29634359787259,8
1.05999755859375,-0.513905465602875,2.85160613059998,1.27782642841339,-0.258599401509697,2.85454828239877,1.30294243851408,1169.984,1387.355,3121.314,3167.155,-0.09629884,0.03784847,0.05008562,-0.625591337680817,-0.155481949448586,0.296211153268814,-0.492290296490434,-0.211818761581115,0.30475114456651,8
1.08000183105469,-0.526487410068512,2.84830594062805,1.28384172916412,-0.268583149539609,2.85025255453512,1.30912285413647,1165.433,1395.101,3119.411,3173.146,-0.0991921,0.03626161,0.0516201,-0.629100859165192,-0.165011435747147,0.300766497850418,-0.50587040849135,-0.217661904390701,0.313157880805523,8
1.09999084472656,-0.539147734642029,2.84481048583984,1.28994882106781,-0.278830554044452,2.84584338265603,1.31546648567654,1156.901,1402.095,3119.499,3182.559,-0.1019117,0.03465477,0.05332505,-0.633017003536224,-0.174767911434174,0.305352479219437,-0.519431110871131,-0.223496695782555,0.321552601564445,7
1.1199951171875,-0.551894664764404,2.84111642837524,1.29614841938019,-0.289357002179081,2.84131414609862,1.32198285851614,1150.104,1407.823,3122.055,3189.534,-0.104413,0.03304929,0.05517085,-0.637346923351288,-0.184708908200264,0.309982776641846,-0.532985466132485,-0.229328756186667,0.329943393154705,7
1.13999938964844,-0.564736366271973,2.8372209072113,1.30243909358978,-0.300154365346813,2.83666834237095,1.3286669406667,1152.938,1413.479,3120.075,3192.348,-0.1066868,0.03146873,0.05712204,-0.642081379890442,-0.194773241877556,0.314535737037659,-0.546515580872639,-0.235150386571708,0.338319178707607,7
1.15998840332031,-0.577680885791779,2.83312249183655,1.30882287025452,-0.31121353909136,2.83190988886621,1.33551309603608,1156.936,1418.275,3121.089,3193.333,-0.1087768,0.0299153,0.05918811,-0.647230505943298,-0.204921752214432,0.319188505411148,-0.560003743914979,-0.240953966313175,0.346668994161124,7
1.17999267578125,-0.59073680639267,2.82882022857666,1.31530225276947,-0.322550701230474,2.8270318247214,1.34253133946411,1151.237,1420.852,3126.3,3202.289,-0.1107007,0.02838282,0.0614041,-0.652793645858765,-0.215118184685707,0.32396987080574,-0.573463232144024,-0.246745208083563,0.355001058539242,7
1.19999694824219,-0.603912115097046,2.82431411743164,1.32187676429749,-0.334156660511822,2.8220381046756,1.34971598112778,1153.414,1422.49,3127.489,3208.447,-0.11242,0.02689519,0.0637165,-0.658764541149139,-0.225309446454048,0.328724324703217,-0.58687652428584,-0.252516572968185,0.36330452533874,7
1.22000122070313,-0.617215216159821,2.81960487365723,1.32854878902435,-0.346030421585499,2.81692915700008,1.35706640485806,1158.054,1423.804,3130.461,3211.703,-0.1139428,0.02546173,0.06610257,-0.665153861045837,-0.235460951924324,0.333603411912918,-0.600236516861372,-0.258265004538453,0.371574997167698,7
1.239990234375,-0.630654215812683,2.81469416618347,1.33532083034515,-0.358161486344149,2.81170949873715,1.36457611182642,1157.716,1424.079,3134.725,3219.94,-0.1152845,0.02408324,0.06856377,-0.671952128410339,-0.245534732937813,0.338602155447006,-0.613526094901141,-0.263983138701136,0.379801879044709,7
1.25999450683594,-0.644237339496613,2.80958414077759,1.34219539165497,-0.3705671011502,2.80637170925886,1.37225577835275,1157.617,1423.07,3140.635,3227.605,-0.1164073,0.02277371,0.07106528,-0.679153203964233,-0.25549641251564,0.343727856874466,-0.626758665639206,-0.269676744214496,0.387993470686331,7
1.27999877929688,-0.657971978187561,2.80427837371826,1.34917271137238,-0.383236695417198,2.80092033679326,1.3800988607405,1166.712,1422.786,3141.02,3231.3,-0.1173069,0.02155566,0.07355059,-0.686732470989227,-0.265294015407562,0.348863661289215,-0.639917282339435,-0.275338529371412,0.396139281255613,8
1.29998779296875,-0.67186564207077,2.79878044128418,1.35625660419464,-0.396158759015336,2.79536033382764,1.388098233671,1176.252,1422.303,3144.229,3232.954,-0.118034,0.02042916,0.07600954,-0.694685995578766,-0.274902671575546,0.354192554950714,-0.652985332144132,-0.280961346123326,0.404229026602261,8
1.31999206542969,-0.685925543308258,2.79309439659119,1.36345160007477,-0.409351342777246,2.78968393359302,1.39626507146953,1176.334,1420.107,3152.392,3240.607,-0.1186044,0.01938488,0.07846563,-0.70299232006073,-0.284304201602936,0.359751045703888,-0.665976209205206,-0.286550957599616,0.412270998344359,8
1.33999633789063,-0.700157821178436,2.78722524642944,1.37075853347778,-0.422802873722428,2.78389611561957,1.40459220990988,1184.929,1417.995,3155.671,3244.202,-0.1189922,0.01844375,0.08086897,-0.711615204811096,-0.293459594249725,0.36534857749939,-0.678873453515705,-0.29210028151913,0.420255006953505,8
1.36000061035156,-0.714568674564362,2.78117823600769,1.37818098068237,-0.436511415158101,2.77799771321212,1.41307845008695,1196.523,1415.857,3160.401,3244.039,-0.1192249,0.0176058,0.08321004,-0.720545053482056,-0.302350252866745,0.371122479438782,-0.691670720740693,-0.297606588091785,0.42817712498415,8
1.37998962402344,-0.729163825511932,2.77495908737183,1.38572239875793,-0.450464156928423,2.77199423822282,1.42171586190405,1202.174,1412.714,3166.825,3248.979,-0.1193389,0.01685996,0.0855126,-0.729754984378815,-0.310958176851273,0.37707108259201,-0.704352136620515,-0.303063047067127,0.436027525513373,8
1.39999389648438,-0.74394828081131,2.76857376098633,1.39338612556458,-0.464680216184654,2.76587746507559,1.43051627978847,1205.905,1408.213,3175.283,3254.599,-0.1193075,0.01620765,0.08776445,-0.739225029945374,-0.31927028298378,0.383189380168915,-0.716930938559026,-0.308475354130225,0.443814403124744,8
1.41999816894531,-0.758926689624786,2.76202869415283,1.40117263793945,-0.47914673136562,2.75965292774086,1.43947174182117,1218.011,1404.896,3177.272,3256.929,-0.1191317,0.01566426,0.08991896,-0.748917818069458,-0.327253788709641,0.389328688383102,-0.729391385793766,-0.313836736470737,0.451528013536465,8
1.43998718261719,-0.774103224277496,2.75533056259155,1.40908598899841,-0.49384995777978,2.75332654017544,1.44857373938334,1229.918,1401.538,3181.923,3257.338,-0.1188585,0.01522242,0.09197053,-0.758825898170471,-0.334903568029404,0.395668417215347,-0.741718206886022,-0.319140623215221,0.459158903000492,8
1.45999145507813,-0.789481580257416,2.74848604202271,1.41713070869446,-0.508809800712713,2.74688973769103,1.45783459479497,1231.533,1396.611,3191.528,3263.895,-0.1185,0.01486677,0.09394693,-0.76892215013504,-0.342222154140472,0.402236640453339,-0.753924423002454,-0.324392617007921,0.466715132239272,8
1.47999572753906,-0.805064857006073,2.74150228500366,1.42530703544617,-0.524012471663969,2.74034845309416,1.46724577231745,1241.574,1392.665,3194.995,3266.363,-0.1180297,0.01461513,0.09579864,-0.779159843921661,-0.349188983440399,0.4088194668293,-0.765994882555672,-0.329586198544069,0.474187321698441,8
1.5,-0.820855379104614,2.73438620567322,1.43361818790436,-0.539455198877605,2.73370387899399,1.4768055561018,1254.436,1389.077,3199.716,3264.699,-0.1174768,0.01446352,0.09751789,-0.789526343345642,-0.355803400278091,0.415556460618973,-0.777924000354858,-0.334718964672088,0.481572013878822,8
1.51998901367188,-0.836855173110962,2.72714495658875,1.44206714630127,-0.555123050061237,2.72696244033876,1.48650470234772,1260.773,1384.748,3206.395,3267.81,-0.1168797,0.01439505,0.09913546,-0.799989640712738,-0.362067848443985,0.422446310520172,-0.789697369743256,-0.339784716610053,0.488860290373601,8
1.53999328613281,-0.853065669536591,2.71978521347046,1.45065653324127,-0.571036956668503,2.72011513090874,1.49635616862212,1264.574,1379.316,3215.135,3271.513,-0.1162097,0.01440639,0.1006501,-0.810524225234985,-0.367988407611847,0.429470300674438,-0.801327600455846,-0.344788879974649,0.496059957209413,8
1.55999755859375,-0.869487404823303,2.71231412887573,1.45938563346863,-0.587181951496087,2.71316839067337,1.50635068951315,1276.814,1375.631,3216.513,3271.847,-0.1154677,0.01450895,0.1020244,-0.821086406707764,-0.3735491335392,0.436456829309464,-0.812800388649436,-0.349725300221754,0.503162159625937,8
1.58000183105469,-0.886120796203613,2.70473885536194,1.46825730800629,-0.60355483331529,2.70612359703193,1.51648628330776,1288.605,1372,3220.475,3270.228,-0.114705,0.01468996,0.1032629,-0.831670761108398,-0.37876033782959,0.443586468696594,-0.824110582941666,-0.354591760855452,0.510163708672098,8
1.59999084472656,-0.902965724468231,2.69706606864929,1.4772744178772,-0.620139554045575,2.69898765502515,1.52675301547962,1291.928,1367.445,3227.517,3274.016,-0.1139465,0.01493168,0.1043963,-0.842248976230621,-0.383638143539429,0.450853526592255,-0.835244706287931,-0.359382463079953,0.517056261415284,8
1.6199951171875,-0.920021712779999,2.68930220603943,1.48643863201141,-0.636958033083316,2.69175113334911,1.53716445517924,1293.47,1362.039,3236.377,3277.307,-0.1131412,0.01523465,0.1054182,-0.852795362472534,-0.38819807767868,0.458209335803986,-0.846214826007804,-0.364102599125749,0.523847288101157,8
1.63999938964844,-0.937287032604218,2.68145370483398,1.49574768543243,-0.653994195024907,2.68442094880091,1.54771065096602,1305.194,1358.927,3236.434,3276.328,-0.1122837,0.01561236,0.1062895,-0.86326390504837,-0.392427802085876,0.465455144643784,-0.857007552155828,-0.368746407673381,0.530528499715628,8
1.65998840332031,-0.954759955406189,2.67352700233459,1.50520348548889,-0.67123120513297,2.67700434489773,1.55838118133557,1317.138,1356.049,3238.734,3273.016,-0.1114325,0.01605057,0.1070189,-0.8736532330513,-0.396340727806091,0.472788482904434,-0.867610144209785,-0.373308406832068,0.537092009268528,8
1.67999267578125,-0.972438871860504,2.66552782058716,1.51480865478516,-0.688691692550512,2.66949158495151,1.56919005480539,1316.332,1351.37,3247.093,3277.136,-0.1106075,0.01652342,0.1076566,-0.883943855762482,-0.399964094161987,0.480259150266647,-0.878034183119987,-0.377793579561193,0.543544985919778,8
1.69999694824219,-0.990320682525635,2.65746188163757,1.52456116676331,-0.706358800111611,2.66188992212981,1.58012683598675,1322.332,1348.119,3248.911,3278.278,-0.109775,0.01704549,0.1081651,-0.894092082977295,-0.403301179409027,0.487628072500229,-0.888267004546665,-0.382196476749158,0.549879589839776,8
1.72000122070313,-1.00840246677399,2.64933443069458,1.53446161746979,-0.724228658537036,2.6542010212754,1.5911891296115,1331.449,1345.398,3251.814,3274.651,-0.1089499,0.01761219,0.1085398,-0.904095053672791,-0.406369060277939,0.495024114847183,-0.898304216251578,-0.386515208538549,0.556093102023817,8
1.739990234375,-1.02668106555939,2.64115071296692,1.54451036453247,-0.74228345468553,2.64643254688532,1.60236590849663,1334.06,1342.193,3256.232,3275.75,-0.1081579,0.01820483,0.1088184,-0.913929522037506,-0.409186035394669,0.502435326576233,-0.908134108040217,-0.390744736359816,0.562178273303667,8
1.75999450683594,-1.04515266418457,2.63291525840759,1.55470716953278,-0.760546715064628,2.63857437616062,1.61367173667103,1333.943,1338.161,3262.329,3277.609,-0.1073653,0.01881967,0.1090062,-0.923580288887024,-0.411772012710571,0.509841501712799,-0.917767514700581,-0.394889722119545,0.568141810929231,8
1.77999877929688,-1.06381297111511,2.62463283538818,1.56504845619202,-0.779000609654483,2.63063418086074,1.62509557650306,1342.268,1336.369,3260.224,3276.374,-0.1065722,0.01946716,0.1090692,-0.933012664318085,-0.414123803377151,0.517064213752747,-0.927192788821983,-0.398945154262308,0.57397650459845,8
1.79998779296875,-1.0826575756073,2.61630749702454,1.57553458213806,-0.797626646773287,2.62261991743975,1.63662598076079,1349.769,1334.712,3261.258,3272.915,-0.105826,0.02013454,0.1090161,-0.942235946655273,-0.416262328624725,0.524306118488312,-0.936399026186941,-0.402906341007953,0.579675604081262,7
1.81999206542969,-1.101682305336,2.60794305801392,1.58616650104523,-0.816448984455027,2.61452119137054,1.64827790441807,1344.872,1331.376,3268.289,3276.355,-0.1051267,0.02079951,0.1088961,-0.951237618923187,-0.418219417333603,0.531597256660461,-0.945396434568188,-0.406777674475912,0.585245428475252,7
1.83999633789063,-1.12088203430176,2.59954309463501,1.59694004058838,-0.835449117627072,2.60634596486888,1.66003989195343,1348.293,1329.822,3267.513,3276.296,-0.1044337,0.0214802,0.1086703,-0.959979116916656,-0.419999122619629,0.538674712181091,-0.954174163352093,-0.410554485950274,0.590679260733698,7
1.86000061035156,-1.14025139808655,2.59111070632935,1.60785388946533,-0.854622615239374,2.59809614449182,1.6719092003358,1355.464,1328.888,3267.751,3271.06,-0.1037658,0.02217234,0.1083368,-0.968468189239502,-0.421617418527603,0.545691847801208,-0.962728579444532,-0.414235212212131,0.595974851798267,7
1.87998962402344,-1.15978515148163,2.58264875411987,1.61890697479248,-0.873950157556149,2.58978004298193,1.6838738697284,1354.86,1327.365,3270.02,3271.538,-0.1031565,0.02285538,0.1079413,-0.97669130563736,-0.423094034194946,0.55265200138092,-0.971049893464309,-0.417815641164241,0.601126141575667,7
1.89999389648438,-1.17947816848755,2.57415986061096,1.63009774684906,-0.893456683142228,2.58138692997148,1.69594933829086,1350.899,1324.887,3274.498,3273.007,-0.1025637,0.02352703,0.1074919,-0.984643280506134,-0.424450725317001,0.559537947177887,-0.979147395688901,-0.421299770153459,0.606138881190213,7
1.91999816894531,-1.19932413101196,2.56564617156982,1.64142084121704,-0.913122862707269,2.57292512231409,1.70812364027167,1355.763,1324.629,3270.448,3271.378,-0.1019778,0.02420107,0.1069534,-0.992296874523163,-0.425683617591858,0.566154301166534,-0.987011339258123,-0.424683405378145,0.611007036871143,7
1.93998718261719,-1.21931743621826,2.55711007118225,1.65287506580353,-0.932928814964021,2.56440317437226,1.72038446820694,1360.769,1324.585,3269.445,3266.735,-0.1014403,0.02486672,0.1063336,-0.999670565128326,-0.42681023478508,0.572712957859039,-0.994632798067981,-0.427962706185118,0.615725082934877,7
1.95999145507813,-1.23945260047913,2.54855298995972,1.66445994377136,-0.952900013794853,2.55581012544606,1.73274759164336,1352.819,1322.896,3274.258,3269.857,-0.100954,0.02550307,0.1056858,-1.00675976276398,-0.427858382463455,0.579245448112488,-1.00202031904361,-0.431141350077486,0.620298310335216,7
1.97999572753906,-1.2597234249115,2.5399763584137,1.67616987228394,-0.973016570682103,2.54715453300902,1.74520069864106,1353.507,1322.852,3271.358,3269.351,-0.1004741,0.02613032,0.104969,-1.01353633403778,-0.4288290143013,0.585494995117188,-1.00916501115878,-0.434215511495054,0.624721215103391,7
2,-1.28012371063232,2.53138160705566,1.68800246715546,-0.993273599084619,2.53843849960327,1.7577407641983,1357.861,1323.363,3269.883,3263.556,-0.1000166,0.02674607,0.1041814,-1.02001643180847,-0.429734468460083,0.591627836227417,-1.01606400046349,-0.437183953857422,0.628992018127441,6
2.01998901367188,-1.30064761638641,2.52276992797852,1.69995522499084,-1.01365055070775,2.52967086658596,1.77035506794184,1354.218,1323.277,3270.349,3263.9,-0.09961128,0.02733188,0.1033698,-1.02619314193726,-0.430589646100998,0.597640872001648,-1.02270954399163,-0.440043345582587,0.633105926142498,6
2.03999328613281,-1.32128882408142,2.51414179801941,1.71202564239502,-1.03417354141348,2.52084039703127,1.78305977683431,1347.737,1322.215,3272.939,3264.977,-0.09921074,0.02788867,0.1025389,-1.03206861019135,-0.431410491466522,0.603519558906555,-1.02910913225408,-0.442796909628122,0.637067576131623,6
2.05999755859375,-1.34204149246216,2.50549793243408,1.72420716285706,-1.05482201812353,2.5119559343546,1.79584216754118,1350.642,1323.233,3267.078,3262.643,-0.09880434,0.02843271,0.1016526,-1.03762340545654,-0.43218731880188,0.609073400497437,-1.03525504859546,-0.445441325732794,0.640872191117535,6
2.08000183105469,-1.36289894580841,2.49683952331543,1.73649764060974,-1.07559088172821,2.50301967256038,1.80869908347065,1353.487,1324.377,3264.477,3257.552,-0.09843256,0.02895435,0.1007207,-1.04288148880005,-0.432931452989578,0.614523470401764,-1.04114485287423,-0.447975543971863,0.644518260536375,6
2.09999084472656,-1.38385558128357,2.48816633224487,1.74889481067657,-1.09645901288412,2.49404069871208,1.82161745074311,1346.43,1324.647,3265.047,3259.356,-0.09811565,0.02943757,0.09978605,-1.04783952236176,-0.433659821748734,0.619860053062439,-1.04677201701582,-0.450396755497224,0.648001743199023,5
2.1199951171875,-1.40490555763245,2.47947859764099,1.76139569282532,-1.11745308225396,2.48500753716864,1.83461377976925,1337.891,1323.999,3267.757,3260.341,-0.09778275,0.02988989,0.09884464,-1.05250036716461,-0.434386670589447,0.625043332576752,-1.0521429102862,-0.45270770082608,0.651326581984514,5
2.13999938964844,-1.4260425567627,2.47077679634094,1.77399277687073,-1.138551967509,2.47592927627801,1.8476749948214,1340.727,1325.529,3260.912,3257.053,-0.09741524,0.030331,0.09785774,-1.05684280395508,-0.435094922780991,0.629855930805206,-1.05725102347782,-0.454905579228273,0.654488747383304,4
2.15998840332031,-1.44726037979126,2.46206092834473,1.78668344020844,-1.15973418543027,2.46681515966915,1.86078779676364,1344.658,1327.271,3256.74,3250.659,-0.0970653,0.03075123,0.09683668,-1.06089186668396,-0.435788363218307,0.634534418582916,-1.06209075728,-0.456987981476842,0.657484773155346,4
2.17999267578125,-1.46855330467224,2.45333123207092,1.79946625232697,-1.18102676265167,2.45765355853653,1.8739689163698,1334.043,1327.231,3258.984,3253.475,-0.09675051,0.03112828,0.0958419,-1.06465303897858,-0.436484009027481,0.639141499996185,-1.06666760390386,-0.458957270716794,0.660318059240953,3
2.19999694824219,-1.48991560935974,2.44458770751953,1.81233465671539,-1.20240821395574,2.44845371736898,1.88720505326679,1331.324,1328.183,3254.295,3253.375,-0.09642081,0.03148468,0.0948291,-1.06810891628265,-0.437174767255783,0.643419623374939,-1.07097597819164,-0.460811043810786,0.662985148161421,1
2.22000122070313,-1.5113410949707,2.43583035469055,1.8252854347229,-1.22387315175433,2.43921795429519,1.90049287228091,1332.953,1329.594,3251.371,3247.194,-0.09607939,0.03182347,0.09378933,-1.07128202915192,-0.437864422798157,0.647540211677551,-1.07501419914593,-0.462548577472581,0.665484999299265,0
2.239990234375,-1.53282451629639,2.42705917358398,1.83831524848938,-1.24539969505118,2.42995568409656,1.91381882803312,1327.111,1330.487,3249.942,3247.177,-0.09575129,0.03213038,0.09276603,-1.07416927814484,-0.438556045293808,0.651489734649658,-1.07877792518082,-0.464168003639063,0.667814925005999,0
2.25999450683594,-1.55436015129089,2.41827416419983,1.85142040252686,-1.26701526177039,2.4206551096063,1.92719989352455,1319.338,1330.306,3250.424,3247.569,-0.0953875,0.03241008,0.09175926,-1.07677793502808,-0.439252972602844,0.655259966850281,-1.08227143928024,-0.465671165158559,0.669977576652695,0
2.27999877929688,-1.57594203948975,2.40947556495667,1.86459374427795,-1.28869796983554,2.41132564607061,1.9406225227075,1321.342,1331.809,3242.673,3244.606,-0.09498058,0.03267996,0.09072991,-1.0790947675705,-0.439934462308884,0.65867018699646,-1.08549040888332,-0.467056197851165,0.67197027217779,0
2.29998779296875,-1.5975649356842,2.40066361427307,1.87783288955688,-1.31042570636616,2.40197680804417,1.95407302665558,1323.294,1333.382,3238.535,3238.807,-0.09457577,0.0329329,0.08968591,-1.0811460018158,-0.440602868795395,0.661959528923035,-1.08843144721369,-0.468321644481621,0.673790915005368,0
2.31999206542969,-1.61922359466553,2.39183807373047,1.89113616943359,-1.33222611841886,2.3925966997709,1.96756852021384,1311.316,1333.331,3240.344,3241.864,-0.0941763,0.03315116,0.08868034,-1.08293509483337,-0.441269516944885,0.665163099765778,-1.09109790637238,-0.469468947365361,0.675441580245663,0
2.33999633789063,-1.6409125328064,2.38299989700317,1.90449655056,-1.35407709248145,2.38319483607731,1.98109531406483,1309.298,1334.123,3234.875,3240.587,-0.09372676,0.03336121,0.08766192,-1.08444559574127,-0.44191986322403,0.668018579483032,-1.09348640563071,-0.470496651869278,0.67692017506657,0
2.36000061035156,-1.66262650489807,2.37414884567261,1.91791069507599,-1.37597305876702,2.37377361348711,1.99464996024512,1312.07,1335.429,3230.743,3233.395,-0.09324046,0.03356503,0.08662379,-1.08569777011871,-0.442550390958786,0.670704662799835,-1.09559602313537,-0.471404361345641,0.678226128796969,0
2.37998962402344,-1.68436026573181,2.36528539657593,1.93137526512146,-1.39789168475144,2.36434264106153,2.00821863385843,1306.63,1336.101,3228.595,3232.89,-0.09275204,0.0337473,0.08561205,-1.08669006824493,-0.443159639835358,0.673230648040771,-1.09742465646102,-0.47219117117957,0.679358139935436,0
2.39999389648438,-1.70610868930817,2.35641098022461,1.94488704204559,-1.41986083522252,2.35488992936084,2.02181858453579,1298.428,1335.492,3228.818,3233.371,-0.09221728,0.03391143,0.08462708,-1.08743011951447,-0.443748384714127,0.675589084625244,-1.09897439291323,-0.472857979480329,0.680317500623536,0
2.41999816894531,-1.72786688804626,2.34752488136292,1.95843887329102,-1.44185817738692,2.34542508756209,2.03543598721428,1300.307,1336.295,3220.907,3230.342,-0.09161913,0.03407725,0.08362479,-1.08790528774261,-0.444293051958084,0.677589178085327,-1.10024313330221,-0.473403883025206,0.681102911362803,0
2.43998718261719,-1.74962973594666,2.33862900733948,1.97202837467194,-1.46386128162322,2.33595776650478,2.04905695688976,1302.894,1337.232,3216.744,3223.584,-0.09100021,0.034239,0.08261023,-1.08814013004303,-0.444793224334717,0.679478228092194,-1.10122974390336,-0.473828394004169,0.681713670323692,0
2.45999145507813,-1.77139246463776,2.32972383499146,1.9856538772583,-1.48589810917879,2.32647593524532,2.06269880290633,1291.384,1336.698,3217.746,3226.541,-0.09036957,0.03437914,0.08163709,-1.08813428878784,-0.445254504680634,0.681274175643921,-1.10193535162022,-0.474131997292339,0.68215047511319,0
2.47999572753906,-1.79314994812012,2.32081055641174,1.99930846691132,-1.50794623031618,2.31698924467309,2.07634764018804,1290.562,1336.712,3211.782,3224.534,-0.08967289,0.03452442,0.0806485,-1.08787429332733,-0.445659786462784,0.682730972766876,-1.10235882472314,-0.474314205938057,0.682412625136718,0
2.5,-1.81489753723145,2.31189036369324,2.01298928260803,-1.52999999932945,2.30750012397766,2.08999997377396,1293.928,1337.253,3207.588,3216.818,-0.0889288,0.03467549,0.07963925,-1.08737814426422,-0.446004718542099,0.684040069580078,-1.10250000050292,-0.474374949932098,0.682500019669533,0
2.51998901367188,-1.83663046360016,2.30296468734741,2.02669334411621,-1.5520369476803,2.29801824074336,2.10364189456856,1288.632,1337.166,3205.25,3216.325,-0.088173,0.03481716,0.07865467,-1.08664178848267,-0.446286171674728,0.685198664665222,-1.10235904000526,-0.474314298567936,0.682412758406603,0
2.53999328613281,-1.85834383964539,2.29403471946716,2.04041719436646,-1.57408507527774,2.28853154739156,2.11729073584934,1281.297,1335.788,3205.169,3216.251,-0.08735861,0.03495472,0.07768963,-1.0856716632843,-0.446503609418869,0.68619829416275,-1.10193578218388,-0.474132182551855,0.682150741652607,0
2.55999755859375,-1.88003277778625,2.28510212898254,2.05415439605713,-1.59612191359838,2.27904971150017,2.13093258853001,1284.23,1335.654,3197.479,3212.169,-0.08647018,0.03510694,0.07670106,-1.08445513248444,-0.44663417339325,0.686859846115112,-1.10123038958312,-0.473828671822132,0.681714070030222,0
2.57998657226563,-1.90169286727905,2.27616858482361,2.06790256500244,-1.61812503288753,2.26958238396605,2.14455356752391,1287.639,1335.715,3192.944,3205.116,-0.08555245,0.03526675,0.07569581,-1.08301091194153,-0.446675330400467,0.687411308288574,-1.1002439936861,-0.473404253224357,0.681103443981416,0
2.59999084472656,-1.92331981658936,2.26723575592041,2.08166027069092,-1.64012239440973,2.26011753383818,2.15817098218581,1277.435,1334.419,3193.654,3207.171,-0.08462034,0.03541741,0.07472439,-1.08133924007416,-0.446632444858551,0.687887012958527,-1.09897546783438,-0.47285844198887,0.680318166050934,0
2.6199951171875,-1.94490838050842,2.2583065032959,2.09542107582092,-1.66209156852628,2.2506648119635,2.17177094750084,1276.956,1333.396,3187.871,3205.007,-0.08362113,0.03558245,0.07373302,-1.07942652702332,-0.446490228176117,0.688042342662811,-1.09742594550583,-0.472191725819537,0.679358937915576,0
2.63999938964844,-1.96645402908325,2.24938130378723,2.10918211936951,-1.68402693989188,2.24122663446822,2.18534998730279,1281.056,1332.953,3183.555,3196.951,-0.08257025,0.03576415,0.07271217,-1.07728755474091,-0.446244746446609,0.688057661056519,-1.09559602313537,-0.471404361345641,0.67822612879697,0
2.65998840332031,-1.98795247077942,2.24046349525452,2.12294101715088,-1.70590622088595,2.23181259109281,2.19889430449282,1276.9,1332.03,3181.299,3195.393,-0.08150498,0.03594708,0.07170599,-1.07491755485535,-0.44589427113533,0.687942683696747,-1.09348812118877,-0.470497390025984,0.676921237078733,0
2.67999267578125,-2.00939893722534,2.23155474662781,2.13669443130493,-1.72775723139253,2.2224107117184,2.21242112090437,1270.18,1329.842,3180.888,3195.15,-0.08038326,0.03613517,0.07071185,-1.07231950759888,-0.445438385009766,0.687672674655914,-1.09109983431736,-0.469469776906228,0.675442773735451,0
2.69999694824219,-2.03078866004944,2.2226574420929,2.15043616294861,-1.74955768413056,2.21303058593937,2.22591663964878,1274.25,1328.699,3173.293,3190.178,-0.07918696,0.0363463,0.0696836,-1.06948256492615,-0.444857388734818,0.687081694602966,-1.08843358680109,-0.468322565086308,0.673792239511893,0
2.72000122070313,-2.05211734771729,2.21377468109131,2.1641640663147,-1.77130202882336,2.20367460188472,2.23937742484041,1278.345,1327.894,3168.787,3182.589,-0.07796564,0.03657257,0.06863073,-1.06642115116119,-0.44415020942688,0.68639463186264,-1.08549040888332,-0.467056197851165,0.671970272177789,0
2.739990234375,-2.07337975502014,2.20490837097168,2.17787599563599,-1.79296822271738,2.1943522439355,2.25278983096475,1272.125,1326.34,3166.93,3182.936,-0.07674964,0.03679926,0.06759267,-1.06313097476959,-0.443320244550705,0.685597896575928,-1.08227399942825,-0.465672266718727,0.669979161506271,0
2.75999450683594,-2.09457206726074,2.1960608959198,2.19156932830811,-1.81458384274179,2.18505164650952,2.26617092945464,1265.244,1323.667,3167.326,3182.001,-0.07547505,0.03703566,0.06655406,-1.05961608886719,-0.442371726036072,0.684664070606232,-1.07878069424208,-0.464169195088763,0.667816639186824,0
2.77999877929688,-2.11568927764893,2.18723487854004,2.20523738861084,-1.83612684690458,2.17578229366013,2.27950707526701,1269.554,1322.149,3159.911,3176.421,-0.07411897,0.0372996,0.06547311,-1.05586159229279,-0.441285669803619,0.683399260044098,-1.07501419914593,-0.462548577472581,0.665484999299265,0
2.79998779296875,-2.13672685623169,2.17843389511108,2.2188777923584,-1.85757544288233,2.1665535620153,2.29278477791556,1275.493,1321.041,3154.836,3167.42,-0.07273306,0.03758294,0.06435921,-1.05187904834747,-0.440059244632721,0.682024240493774,-1.07097916161324,-0.460812413548163,0.662987118851036,0
2.81999206542969,-2.15768027305603,2.16965985298157,2.23248934745789,-1.87895695992541,2.1573536925621,2.30602095550813,1267.353,1318.851,3154.43,3168.43,-0.07135088,0.03786595,0.06326712,-1.04766702651978,-0.4386987388134,0.680582642555237,-1.06667099276523,-0.458958728849171,0.660320157107579,0
2.83999633789063,-2.17854428291321,2.16091585159302,2.24606657028198,-1.90024960698239,2.14819206138118,2.31920211834584,1267.429,1316.483,3149.084,3165.62,-0.06992555,0.03816759,0.06214701,-1.04321753978729,-0.437197655439377,0.678864061832428,-1.06209435025759,-0.456989527434725,0.657486997379635,0
2.86000061035156,-2.19931507110596,2.15220475196838,2.2596070766449,-1.9214480311499,2.13907097167731,2.33232495272651,1271.098,1314.749,3145.465,3157.381,-0.06846455,0.03848887,0.06099141,-1.03854119777679,-0.435557723045349,0.677029311656952,-1.05725102347782,-0.454905579228273,0.654488747383304,0
2.87998962402344,-2.21998763084412,2.14352917671204,2.27310824394226,-1.94253086194772,2.12999961857111,2.34537622930486,1267.403,1312.772,3142.794,3155.53,-0.06699821,0.03881705,0.05983786,-1.03363144397736,-0.433779746294022,0.675054907798767,-1.05214690704168,-0.452709420518306,0.651329056166547,0
2.89999389648438,-2.24055767059326,2.13489174842834,2.28656697273254,-1.96352501326936,2.1209664217661,2.35837260906308,1262.848,1309.789,3141.789,3153.363,-0.06548446,0.03915617,0.05867875,-1.02849221229553,-0.431866616010666,0.672935724258423,-1.04677621342161,-0.450398561093403,0.648004340974112,0
2.91999816894531,-2.26101970672607,2.12629556655884,2.29997730255127,-1.98440911693069,2.11198057539494,2.37130086407726,1267.364,1307.655,3134.277,3147.735,-0.0639164,0.0395187,0.05747816,-1.02311372756958,-0.429805517196655,0.67051774263382,-1.04114485287423,-0.447975543971863,0.644518260536375,0
2.93998718261719,-2.28137016296387,2.11774349212646,2.31333756446838,-2.00516218376194,2.10305111051103,2.38414800105147,1272.005,1305.956,3129.649,3139.427,-0.06234034,0.03989686,0.05624496,-1.01750612258911,-0.427598655223846,0.668012142181396,-1.03525963910674,-0.445443300901551,0.640875032862689,0
2.95999145507813,-2.30160355567932,2.10923862457275,2.32664656639099,-2.02581075424974,2.0941666074844,2.39693044981124,1263.279,1303.415,3129.472,3140.273,-0.06077706,0.04027341,0.05502755,-1.01166820526123,-0.425255626440048,0.665444552898407,-1.02911391720548,-0.442798968459032,0.637070538244476,0
2.97999572753906,-2.32171511650085,2.10078310966492,2.33989834785461,-2.04633384260397,2.08533609591429,2.40963521915279,1263.804,1300.662,3123.86,3136.808,-0.05917224,0.04066876,0.05377396,-1.00559318065643,-0.422772794961929,0.662588596343994,-1.02271452148052,-0.440045487257004,0.633109007445237,0
3,-2.3417010307312,2.0923798084259,2.35309076309204,-2.06672639957428,2.07656174835205,2.42225918334961,1268.833,1298.731,3119.845,3127.084,-0.05753919,0.04108254,0.05247826,-0.999289751052856,-0.420152574777603,0.659619033336639,-1.01606400046349,-0.437183953857422,0.628992018127441,0
3.01998901367188,-2.36155605316162,2.08403158187866,2.36622095108032,-2.0869680292999,2.06785234056679,2.43478971639231,1265.379,1296.646,3116.75,3124.865,-0.05591786,0.041499,0.05118608,-0.99275141954422,-0.417397618293762,0.65651535987854,-1.00917036754089,-0.434217816196637,0.624724530959079,0
3.03999328613281,-2.38127565383911,2.07574129104614,2.37928628921509,-2.10708469520508,2.05919670122237,2.4472428908773,1260.89,1293.49,3115.4,3122.492,-0.05426989,0.04192173,0.0498896,-0.985984146595001,-0.41451370716095,0.653272092342377,-1.00202586176059,-0.431143734953757,0.620301741541063,0
3.05999755859375,-2.40085506439209,2.06751132011414,2.39228105545044,-2.12705600675913,2.05060360379452,2.45960608409476,1264.871,1291.035,3108.125,3116.796,-0.05258305,0.04236229,0.04855399,-0.978981971740723,-0.411493480205536,0.649744033813477,-0.994638524886308,-0.427965170275055,0.615728628108227,0
3.07998657226563,-2.42029047012329,2.05934476852417,2.40520358085632,-2.14686207530873,2.04208160581513,2.47186698402085,1269.016,1289.139,3103.647,3108.285,-0.0508994,0.04281305,0.04718796,-0.971753597259521,-0.408340901136398,0.646132111549377,-0.987017247723776,-0.424685947625853,0.611010694492843,0
3.09999084472656,-2.4395763874054,2.0512433052063,2.41805243492126,-2.16652837486666,2.03361974652815,2.48404136028297,1260.525,1286.659,3102.78,3108.819,-0.04923759,0.04325857,0.04583753,-0.96429830789566,-0.405065596103668,0.642445921897888,-0.979153483542501,-0.421302389586788,0.606142649861596,0
3.1199951171875,-2.45870876312256,2.04321002960205,2.43082213401794,-2.18603502400946,2.02522658035469,2.49611690533293,1261.382,1283.795,3097.218,3104.49,-0.04754488,0.04371755,0.04445257,-0.956614136695862,-0.401667565107346,0.638486206531525,-0.971056158224178,-0.417818336715394,0.601130019760458,0
3.13999938964844,-2.4776828289032,2.03524708747864,2.44351029396057,-2.20537738341953,2.01690410346351,2.50809074721212,1265.794,1281.843,3092.825,3095.165,-0.04583726,0.04418816,0.04303126,-0.948707580566406,-0.398149728775024,0.634409070014954,-0.962728579444533,-0.414235212212131,0.595974851798267,0
3.15998840332031,-2.49649429321289,2.02735686302185,2.45611429214478,-2.22453632143911,2.00866054767245,2.51995104251302,1262.668,1279.827,3089.352,3092.365,-0.04415255,0.04465676,0.04161401,-0.940575242042542,-0.394516378641129,0.630202829837799,-0.954180774018563,-0.410557330335374,0.590683353051152,0
3.17999267578125,-2.51513862609863,2.0195415019989,2.46863150596619,-2.24353658854737,2.00048526354177,2.53171311296128,1257.946,1276.882,3087.667,3089.844,-0.04245611,0.04512545,0.04019633,-0.932224154472351,-0.39077490568161,0.62586522102356,-0.945403214201559,-0.406780591562751,0.585249625391267,0
3.19999694824219,-2.53361177444458,2.011803150177,2.48105669021606,-2.2623590635174,1.99238647840124,2.54336512160655,1261.216,1274.406,3080.732,3084.028,-0.04073305,0.04560491,0.03874604,-0.923652052879333,-0.386921882629395,0.621257722377777,-0.936405971974636,-0.402909329586355,0.579679903854719,0
3.22000122070313,-2.55190896987915,2.00414395332336,2.49338793754578,-2.28099938900442,1.98436606709459,2.55490437104486,1264.888,1272.579,3076.139,3075.496,-0.03901904,0.04608845,0.03727185,-0.914865911006927,-0.382961004972458,0.616561889648438,-0.927192788821982,-0.398945154262308,0.573976504598449,0
3.239990234375,-2.57002639770508,1.99656581878662,2.50562310218811,-2.2994392795179,1.97643189735754,2.5663195416865,1259.809,1270.559,3073.042,3074.066,-0.03734391,0.04656377,0.03580989,-0.905865490436554,-0.378899812698364,0.611755311489105,-0.917774783907129,-0.394892849856044,0.568146310914365,0
3.25999450683594,-2.58795928955078,1.98907113075256,2.5177595615387,-2.31770268688992,1.96857366338589,2.57762546085652,1254.24,1267.71,3071.61,3071.744,-0.03565706,0.04703681,0.0343469,-0.896659553050995,-0.374747395515442,0.606820106506348,-0.90814153446928,-0.390747931744771,0.562182870617026,0
3.27999877929688,-2.60570454597473,1.98166084289551,2.52979183197021,-2.33577134012187,1.96079922667992,2.58881081793642,1257.68,1265.391,3064.587,3065.442,-0.03393826,0.04751931,0.03284937,-0.887246131896973,-0.370500445365906,0.601609468460083,-0.898304216251578,-0.386515208538549,0.556093102023818,0
3.29998779296875,-2.62325716018677,1.97433757781982,2.54171800613403,-2.35362764460945,1.95311615770631,2.59986472102797,1262.154,1263.808,3059.749,3055.994,-0.03222691,0.04800435,0.03132937,-0.877630233764648,-0.366161286830902,0.596311390399933,-0.888274735793772,-0.382199803288803,0.549884375850026,0
3.31999206542969,-2.64061331748962,1.96710312366486,2.55353665351868,-2.37129490830989,1.94551442770222,2.61080159886703,1254.82,1261.909,3057.565,3055.655,-0.03055391,0.04847621,0.02983506,-0.867812871932983,-0.361737132072449,0.59093177318573,-0.878042061913513,-0.37779696958594,0.54354986326829,0
3.33999633789063,-2.65776920318604,1.95995831489563,2.56524276733398,-2.38875555478454,1.93800159931817,2.62161057080077,1255.015,1259.228,3051.899,3051.603,-0.02887559,0.04894941,0.02832314,-0.857800245285034,-0.357232183218002,0.585310459136963,-0.867618167158097,-0.373311858882592,0.53709697585572,0
3.36000061035156,-2.67472100257874,1.95290517807007,2.57683491706848,-2.406005803634,1.93057929915441,2.6322892965819,1257.806,1257.505,3047.999,3042.792,-0.027201,0.04942263,0.02679281,-0.847599506378174,-0.352650970220566,0.579602003097534,-0.857007552155826,-0.36874640767338,0.530528499715627,0
3.37998962402344,-2.69146537780762,1.94594526290894,2.58831024169922,-2.42302905329872,1.92325467039821,2.6428274990542,1253.352,1255.839,3044.28,3040.779,-0.02555782,0.04988491,0.02528018,-0.837210595607758,-0.347998052835464,0.573762774467468,-0.846223126656603,-0.364106170663035,0.523852426598178,0
3.39999389648438,-2.70799827575684,1.93907976150513,2.59966611862183,-2.43984769972619,1.91601807669906,2.65323904237604,1249.463,1253.369,3041.784,3037.516,-0.02390879,0.05034166,0.02377251,-0.826643347740173,-0.343279808759689,0.567793488502502,-0.835253140422974,-0.35938609205264,0.51706148254665,0
3.41999816894531,-2.72431612014771,1.93230974674225,2.6108980178833,-2.45644516534361,1.90887665092339,2.66351366424015,1252.391,1251.29,3034.986,3031.439,-0.02224379,0.05079976,0.0222456,-0.815899670124054,-0.338494688272476,0.56158983707428,-0.824110582941664,-0.354591760855451,0.510163708672097,0
3.43998718261719,-2.74041604995728,1.92563700675964,2.62200427055359,-2.47280564474684,1.90183719369507,2.67364158034846,1255.201,1249.877,3030.335,3023.33,-0.02059955,0.0512532,0.02071133,-0.804984450340271,-0.333645224571228,0.55531257390976,-0.812809078412023,-0.349729039183832,0.50316753900293,0
3.45999145507813,-2.75629377365112,1.91906213760376,2.63298344612122,-2.48895081463434,1.8948903781363,2.68363620960993,1247.612,1248.278,3027.993,3023.162,-0.01899633,0.05169052,0.01920797,-0.79390162229538,-0.328738391399384,0.548961520195007,-0.80133641229185,-0.344792671461508,0.496065412155666,0
3.47999572753906,-2.77194714546204,1.91258668899536,2.64383125305176,-2.50486489870395,1.88804299234919,2.69348778574196,1247.657,1245.879,3022.666,3018.794,-0.01738725,0.05212577,0.01769414,-0.782660245895386,-0.323778927326202,0.54239296913147,-0.789706299681989,-0.339788558913217,0.488865818431069,0
3.5,-2.78737235069275,1.90621113777161,2.65454602241516,-2.5205447997813,1.88129636896134,2.70319439144611,1250.115,1244.462,3018.407,3010.558,-0.01578402,0.05255731,0.01617084,-0.771265387535095,-0.318769246339798,0.535736799240112,-0.777924000354857,-0.334718964672089,0.481572013878822,0
3.51998901367188,-2.80256676673889,1.89993679523468,2.66512537002563,-2.53597583877076,1.87465682397749,2.71274693966292,1246.541,1243.134,3014.516,3007.837,-0.01421436,0.05297611,0.01467031,-0.75971907377243,-0.313712984323502,0.528970718383789,-0.766004036374581,-0.329590137176618,0.474192988348404,0
3.53999328613281,-2.81752729415894,1.89376449584961,2.67556715011597,-2.55117869390181,1.86811546013321,2.72215823120146,1242.597,1241.091,3011.777,3004.864,-0.01264948,0.05338502,0.01318587,-0.748031437397003,-0.308615505695343,0.522093892097473,-0.753933682518821,-0.324396601119134,0.466720864320997,0
3.55999755859375,-2.83225154876709,1.8876953125,2.68586754798889,-2.56613872308604,1.86167857751006,2.73141920191151,1244.703,1239.174,3005.536,2999.316,-0.01107875,0.05379132,0.0116948,-0.736207842826843,-0.303477048873901,0.515015542507172,-0.741727567798258,-0.319144650954242,0.459164697851087,0
3.57998657226563,-2.84673690795898,1.88172912597656,2.69602513313293,-2.58084213759183,1.85535210901407,2.74052131591136,1246.753,1237.945,3001.053,2991.994,-0.009530921,0.05418954,0.01020662,-0.72425252199173,-0.298299223184586,0.507875084877014,-0.72940084364523,-0.31384080592,0.451533868397061,0
3.59999084472656,-2.86097979545593,1.87586760520935,2.7060387134552,-2.59530884290342,1.84912748987145,2.74947689564398,1239.977,1236.684,2998.641,2991.234,-0.008023039,0.05457101,0.008754807,-0.712170898914337,-0.293087393045425,0.500677645206451,-0.716940488958392,-0.308479463400265,0.4438203152769,0
3.6199951171875,-2.8749794960022,1.87011051177979,2.71590447425842,-2.60952509409627,1.84301063413925,2.75827743234631,1239.766,1234.524,2993.321,2987.459,-0.006515157,0.05494742,0.007303677,-0.69997376203537,-0.287845939397812,0.49328351020813,-0.704361775018033,-0.303067194200314,0.436033492140578,0
3.63999938964844,-2.88873291015625,1.86445879936218,2.72562098503113,-2.6234885835008,1.83700253474321,2.76692149746096,1242.239,1233.305,2989.4,2979.297,-0.005016863,0.0553177,0.005852455,-0.687665998935699,-0.282576441764832,0.485831409692764,-0.691670720740692,-0.297606588091786,0.428177124984152,0
3.65998840332031,-2.90223789215088,1.85891318321228,2.73518657684326,-2.63718676607487,1.8311085894645,2.77540132500924,1238.332,1232.246,2985.431,2977.364,-0.003556918,0.05567354,0.004433629,-0.675250768661499,-0.277281492948532,0.478284925222397,-0.678883253871145,-0.292104498338286,0.420261073840379,0
3.67999267578125,-2.91549253463745,1.85347414016724,2.74459958076477,-2.65063849381582,1.82532068681534,2.78372858527554,1235.159,1230.433,2982.62,2974.208,-0.002106028,0.05601894,0.003035362,-0.662739276885986,-0.271965891122818,0.470650851726532,-0.665986083416798,-0.286555206197011,0.41227711095171,0
3.69999694824219,-2.92849564552307,1.84814143180847,2.75385665893555,-2.66383127580226,1.81964420129024,2.79189554578451,1236.698,1228.786,2976.973,2969.164,-0.0006578008,0.05635908,0.001640927,-0.650138080120087,-0.266630530357361,0.462857455015182,-0.65299527533123,-0.280965624398954,0.404235181908735,0
3.72000122070313,-2.94124460220337,1.84291589260101,2.76295709609985,-2.6767633032417,1.81407991116207,2.79990108680742,1238.154,1227.738,2973.028,2962.467,0.0007661072,0.05669004,0.0002597143,-0.637450993061066,-0.261276394128799,0.455025106668472,-0.639917282339434,-0.275338529371411,0.396139281255611,0
3.739990234375,-2.95373821258545,1.83779788017273,2.77189946174622,-2.68942333385363,1.80863265367006,2.80773824883709,1233.978,1226.633,2969.411,2961.031,0.002144933,0.05700568,-0.001084972,-0.624684274196625,-0.255907416343689,0.447120130062103,-0.62676873176137,-0.26968107538565,0.387999702095468,0
3.75999450683594,-2.96597528457642,1.83278727531433,2.78068232536316,-2.70182915057228,1.80329477731443,2.81541804035694,1230.582,1224.973,2966.9,2958.179,0.003510952,0.05731064,-0.002406432,-0.61184960603714,-0.25052872300148,0.439147293567657,-0.613536214864365,-0.263987493038594,0.379808143784027,0
3.77999877929688,-2.97795438766479,1.82788443565369,2.78930306434631,-2.7139695770734,1.79807109095524,2.82293354268985,1231.804,1223.455,2961.787,2953.325,0.004875461,0.05761022,-0.003720436,-0.598954021930695,-0.245141372084618,0.431035965681076,-0.60023651686137,-0.258265004538452,0.371574997167698,0
3.79998779296875,-2.98967409133911,1.8230893611908,2.79776072502136,-2.72583438304408,1.79296599641037,2.83027842278479,1233.653,1222.469,2957.742,2946.822,0.006217098,0.05790125,-0.005018461,-0.586000502109528,-0.239745587110519,0.42288538813591,-0.586886736182787,-0.252520966862155,0.36331084698941,0
3.81999206542969,-3.00113391876221,1.81840252876282,2.80605483055115,-2.73744054699573,1.78797218830065,2.83746319114912,1229.106,1221.526,2954.879,2945.477,0.007515879,0.05817688,-0.006274407,-0.572995126247406,-0.234344184398651,0.414700329303741,-0.573473482003301,-0.246749618311662,0.355007403690404,0
3.83999633789063,-3.01233291625977,1.81382369995117,2.8141827583313,-2.74877791451009,1.78309403578861,2.84448156171422,1228.778,1219.738,2950.493,2942.22,0.008797204,0.05844437,-0.007512245,-0.559950113296509,-0.228941738605499,0.406397938728333,-0.560014026276881,-0.240958390526246,0.346675359432959,0
3.86000061035156,-3.02327060699463,1.80935275554657,2.82214426994324,-2.75984563331209,1.77833190558438,2.85133300688122,1230.024,1218.696,2947.165,2936.082,0.01005568,0.058703,-0.008732505,-0.546870470046997,-0.223539739847183,0.398074626922607,-0.546515580872635,-0.235150386571708,0.338319178707605,0
3.87998962402344,-3.03394556045532,1.80499005317688,2.82993841171265,-2.7706348636882,1.77368960116974,2.85801205444635,1226.744,1217.811,2943.818,2934.365,0.01127281,0.05894785,-0.009913883,-0.533762276172638,-0.218140855431557,0.389703422784805,-0.532995796775444,-0.22933320117373,0.329949788314816,0
3.89999389648438,-3.044358253479,1.80073523521423,2.83756399154663,-2.78116151864576,1.76916027562219,2.86452855531919,1224.626,1216.365,2941.125,2931.435,0.01247146,0.05918265,-0.01106703,-0.520636141300201,-0.212748944759369,0.381284564733505,-0.519441457145543,-0.223501147495394,0.321559006401168,0
3.91999816894531,-3.05450820922852,1.79658758640289,2.84501957893372,-2.79141684911929,1.7647476934202,2.87087709341145,1225.956,1215.033,2936.63,2926.999,0.01365506,0.05941034,-0.01220207,-0.50749945640564,-0.207365334033966,0.372778475284576,-0.505870408491346,-0.2176619043907,0.313157880805522,0
