t,x_s1,x_s2,x_s3,x_s_d1,x_s_d2,x_s_d3,propellers_rpms1,propellers_rpms2,propellers_rpms3,propellers_rpms4,rollRad,pitchRad,yawRad,v_s1,v_s2,v_s3,v_s_d1,v_s_d2,v_s_d3,insideCount
0,-0.0599999986588955,2.94000005722046,1.17999994754791,-0.0599999986588955,2.94000005722046,1.17999994754791,0,0,0,0,0,0,0,0,0,0,-1.06581410364015E-15,4.44089209850063E-16,4.44089209850063E-16,0
0.0199985504150391,-0.0599999986588955,2.94000005722046,1.17811644077301,-0.0600018685815247,2.93999925264499,1.1800011051191,0,0,0,0,-0.01635288,0.0001297794,-0.01587137,-1.10653664009419E-09,-7.76775763711157E-08,-0.0941759571433067,-0.000279946173977888,-0.000120453017871082,0.000173300017377699,9
0.0399990081787109,-0.0599999986588955,2.94000005722046,1.17242503166199,-0.0600148703014743,2.93999365836812,1.1800091538031,0,0,0,0,-0.03270202,0.0005238493,-0.03175127,-1.08383135799528E-09,-7.60859677484405E-08,-0.284568399190903,-0.0011109142447864,-0.000477995364179603,0.000687708837706811,9
0.0599994659423828,-0.0599058866500854,2.93990302085876,1.16596508026123,-0.0600498904664975,2.93997859016946,1.18003083295349,1868.179,3252.804,3183.867,1722.401,-0.04942188,0.0003295492,-0.01369504,0.00470568332821131,-0.00484921503812075,-0.322996646165848,-0.00247951833951941,-0.00106686747177115,0.00153493996800067,9
0.0799999237060547,-0.0598203726112843,2.93960738182068,1.16000306606293,-0.0601175490846357,2.93994947855624,1.18007271686115,1925.48,2314.35,3252.126,2829.458,-0.07543244,-0.002136388,0.0209481,0.00427572429180145,-0.0147785842418671,-0.298097997903824,-0.00437248097278563,-0.00188135640961186,0.00270677401230774,9
0.0999984741210938,-0.059937447309494,2.93904495239258,1.15498650074005,-0.0602281887669101,2.93990187339187,1.18014120809498,980.1759,1498.865,3914.958,3896.593,-0.1031964,-0.008062987,0.06330841,-0.00585372559726238,-0.0281168594956398,-0.250826388597488,-0.00677637982016689,-0.00291568692648091,0.00419490191241918,8
0.119998931884766,-0.0604638494551182,2.93818354606628,1.15081310272217,-0.0603919230601972,2.93983142309968,1.18024256742227,346.349,980.3419,4172.943,4613.387,-0.1214327,-0.0154213,0.1040026,-0.026320181787014,-0.0430688858032227,-0.20866858959198,-0.00967861374975049,-0.00416443710735115,0.00599152296740588,8
0.139999389648438,-0.0615636222064495,2.93704128265381,1.14728271961212,-0.0606185767455666,2.93973390035084,1.18038287685052,352.9046,747.0953,3975.343,4854.971,-0.1254013,-0.0211668,0.1351067,-0.0549886077642441,-0.0571142584085464,-0.17651903629303,-0.0130660253322238,-0.00562194567796536,0.00808849210174802,7
0.159999847412109,-0.0633408725261688,2.93568086624146,1.14427483081818,-0.0609177249752248,2.93960518522485,1.18056806385509,820.9825,814.9506,3462.683,4692.413,-0.118459,-0.02352423,0.1522703,-0.0888625383377075,-0.0680150538682938,-0.15039686858654,-0.0169257706321904,-0.00728268625174051,0.0104778583075938,7
0.179998397827148,-0.0658469274640083,2.9341721534729,1.1418251991272,-0.0612986465792905,2.93944128530034,1.18080387247382,1348.733,1083.391,3006.717,4255.206,-0.10798,-0.02278015,0.155778,-0.125302672386169,-0.0754308998584747,-0.122479185461998,-0.0212446806785156,-0.00914099258829578,0.0131514693644856,7
0.19999885559082,-0.0690850093960762,2.93255376815796,1.14006149768829,-0.0617704792283666,2.93923826889292,1.1810959593601,1636.417,1381.151,2918.519,3666.322,-0.09982699,-0.02030074,0.1501561,-0.161904186010361,-0.0809156373143196,-0.0881879329681396,-0.0260109531407025,-0.0111917864745373,0.0161020190676231,7
0.219999313354492,-0.0730103477835655,2.93082594871521,1.13903558254242,-0.0623420049171324,2.93899235735562,1.18144976098699,1641.425,1580.712,3148.174,3113.103,-0.09583864,-0.01735475,0.1421883,-0.196266949176788,-0.0863864868879318,-0.0512954443693161,-0.0312116790433783,-0.0134295135389972,0.0193215161463106,7
0.239999771118164,-0.077550083398819,2.92897343635559,1.1386331319809,-0.063021788625926,2.93869986541668,1.18187057948532,1524.15,1624.257,3417.72,2777.433,-0.09475634,-0.01467775,0.1377329,-0.22698675096035,-0.0926248580217361,-0.0201229732483625,-0.0368344480011416,-0.0158488339395432,0.022802277980796,7
0.259998321533203,-0.0826389789581299,2.92699217796326,1.13863551616669,-0.063818066443955,2.93835724931701,1.18236351338666,1438.972,1500.842,3533.262,2744.204,-0.09439041,-0.01258823,0.1393017,-0.25444495677948,-0.0990580469369888,0.000118577852845192,-0.04286636357961,-0.0184441987007453,0.0265363210638542,7
0.279998779296875,-0.0882448628544807,2.9249005317688,1.13885223865509,-0.0647390625194898,2.93796097043536,1.18293365383054,1400.456,1275.926,3476.761,2977.661,-0.09321064,-0.01110591,0.1456841,-0.280294150114059,-0.10458479821682,0.0108335241675377,-0.0492963837173861,-0.0212108567320638,0.030516809833474,7
0.299999237060547,-0.0943706333637238,2.92273235321045,1.13920712471008,-0.065792536715479,2.93750768991949,1.18358580454179,1350.611,1061.575,3345.089,3324.845,-0.09053203,-0.009935189,0.1533108,-0.306288212537766,-0.108407258987427,0.0177415683865547,-0.0561118672418845,-0.0241433688900884,0.0347359188016424,7
0.319999694824219,-0.101035937666893,2.92052555084229,1.13972520828247,-0.0669860785243584,2.93699414222283,1.18432466377777,1281.011,941.1786,3237.417,3590.51,-0.08597802,-0.008523713,0.15836,-0.33326518535614,-0.11034245043993,0.0259025972336531,-0.0633008373176985,-0.0272365818771378,0.0391862337367069,7
0.339998245239258,-0.108251512050629,2.91831207275391,1.1404618024826,-0.0683269038426322,2.9364172225467,1.18515469852215,1253.12,944.17,3171.041,3649.838,-0.07944635,-0.006291984,0.1584767,-0.360779106616974,-0.110679738223553,0.036829799413681,-0.0708506885691688,-0.0304850719522193,0.043859951310657,7
0.35999870300293,-0.116003066301346,2.91611480712891,1.14145290851593,-0.069822382620517,2.93577375980741,1.18608047112519,1319.577,1047.14,3120.828,3498.176,-0.07154848,-0.002963033,0.1534735,-0.387577742338181,-0.109858497977257,0.0495545826852322,-0.0787511019946779,-0.0338843991372162,0.0487506835699294,8
0.379999160766602,-0.124251425266266,2.91394972801208,1.14270782470703,-0.0714792747653362,2.93506084540571,1.18710616629155,1455.366,1181.673,3090.772,3231.287,-0.06361386,0.001259106,0.1450383,-0.412418216466904,-0.108256988227367,0.0627475529909134,-0.0869897229117765,-0.0374292475574207,0.0538507823775527,8
0.399999618530273,-0.132943212985992,2.91182637214661,1.14421737194061,-0.0733042289655903,2.93427561859665,1.18823589987613,1579.656,1273.688,3104.692,2981.702,-0.05701775,0.005826727,0.1357471,-0.434589624404907,-0.106165282428265,0.0754771903157234,-0.0955550080350531,-0.0411146504596022,0.0591531018899743,8
0.419998168945313,-0.142023578286171,2.90975022315979,1.14595794677734,-0.0753034649285836,2.93341540321397,1.18947352217404,1631.333,1288.612,3158.974,2844.746,-0.05243977,0.01017612,0.1278563,-0.454018503427505,-0.103801876306534,0.0870271548628807,-0.104434660908044,-0.0449353170220673,0.0646500300148815,8
0.439998626708984,-0.151445999741554,2.90772438049316,1.14789581298828,-0.0774835548069347,2.93247737144397,1.19082310166083,1606.754,1238.02,3219.579,2842.994,-0.04965783,0.01397521,0.1224622,-0.471121162176132,-0.101290434598923,0.0968948304653168,-0.113619049702587,-0.0488871029382406,0.0703356041918149,8
0.459999084472656,-0.161176696419716,2.90575170516968,1.14999711513519,-0.0798502821969742,2.93145903476675,1.19228821865812,1541.451,1158.213,3252.721,2938.33,-0.04788577,0.017186,0.1193416,-0.486535131931305,-0.0986390337347984,0.105065286159515,-0.123096124252221,-0.0529648233581361,0.0762023647937057,8
0.479999542236328,-0.171193525195122,2.90383625030518,1.15223920345306,-0.0824093896672336,2.93035792231548,1.19387242808941,1474.519,1086.235,3248.089,3066.904,-0.04628787,0.01998769,0.1173775,-0.500841319561005,-0.0957775413990021,0.112102255225182,-0.13285477482153,-0.0571636980729742,0.0822434343651008,8
0.499998092651367,-0.181480959057808,2.90198349952698,1.15461587905884,-0.0851661261416979,2.92917177562482,1.19557897928867,1431.762,1046.313,3216.428,3169.62,-0.04433471,0.02264417,0.1152227,-0.514371931552887,-0.0926386490464211,0.118833497166634,-0.142883031072219,-0.0614785765805993,0.0884514026963699,8
0.519998550415039,-0.192024171352386,2.9001989364624,1.15713489055634,-0.0881263195578599,2.92789808709608,1.19741148002684,1423.319,1044.977,3177.686,3210.465,-0.04192082,0.02537888,0.1118864,-0.527160346508026,-0.0892272144556046,0.125953197479248,-0.153171913786256,-0.0659055953743427,0.0948207112238116,9
0.539999008178711,-0.202804446220398,2.89848613739014,1.15981006622314,-0.0912948022612966,2.92653477750595,1.19937292175603,1445.682,1073.416,3148.734,3184.542,-0.03929228,0.02828956,0.1070495,-0.539013922214508,-0.085639014840126,0.133757844567299,-0.163709694677519,-0.0704397081003365,0.101344099579621,9
0.559999465942383,-0.213797718286514,2.89684557914734,1.16265296936035,-0.0946764453845371,2.92507975094219,1.20146631993932,1484.443,1113.944,3138.503,3114.021,-0.03688531,0.03132847,0.1010577,-0.549663960933685,-0.0820315629243851,0.142147928476334,-0.174485697560587,-0.0750763210942518,0.108014958696444,9
0.579998016357422,-0.224975988268852,2.89527416229248,1.16566801071167,-0.0982755538235842,2.92353115512831,1.2036943395124,1521.078,1148.773,3145.835,3034.929,-0.03512869,0.03434576,0.09465498,-0.558913767337799,-0.0785759314894676,0.150754362344742,-0.185488294752812,-0.0798104312890852,0.11482609048482,9
0.599998474121094,-0.236310660839081,2.8937656879425,1.16885161399841,-0.102097262171133,2.92188678079254,1.20606015903275,1540.301,1166.962,3163.491,2979.336,-0.03429246,0.03716082,0.08861789,-0.566733598709106,-0.0754186734557152,0.159178093075752,-0.196709126405959,-0.0846384416756885,0.121772319800455,9
0.619998931884766,-0.247775971889496,2.8923122882843,1.17219471931458,-0.106145477944935,2.92014494663912,1.20856619743999,1534.882,1167.304,3182.091,2964.033,-0.03441976,0.03963234,0.08345826,-0.573265850543976,-0.0726651549339294,0.167152568697929,-0.208136802817102,-0.0895554515830839,0.128846595874672,9
0.639999389648438,-0.259351193904877,2.89090466499329,1.17568719387054,-0.110424235525481,2.91830391678686,1.21121495220784,1506.859,1156.414,3194.778,2986.83,-0.03534494,0.04169877,0.07929576,-0.578762292861938,-0.0703799352049828,0.174622893333435,-0.219761081350814,-0.0945570538913933,0.136042578028218,9
0.659997940063477,-0.271020948886871,2.88953280448914,1.17932069301605,-0.114936923832667,2.9163622330782,1.21400852123914,1466.889,1144.345,3197.596,3031.209,-0.03678145,0.04338554,0.07590492,-0.583488643169403,-0.0685955509543419,0.181673914194107,-0.231570692856072,-0.099638399799755,0.143353290119784,9
0.679998397827148,-0.282773911952972,2.88818621635437,1.18308997154236,-0.119688032378415,2.91431796380157,1.21694968375564,1429.137,1139.621,3190.708,3075.218,-0.03844593,0.0447765,0.07288412,-0.587648928165436,-0.0673248097300529,0.188461527228355,-0.243557864937104,-0.104796145063404,0.150773920666137,9
0.69999885559082,-0.294600903987885,2.88685464859009,1.18699264526367,-0.124680571585341,2.91216981365623,1.22004030335236,1404.267,1146.23,3177.3,3102.167,-0.04016846,0.04596717,0.06985806,-0.59134966135025,-0.0665745735168457,0.195133835077286,-0.255711562515536,-0.1100255415964,0.15829763842809,9
0.719999313354492,-0.306493192911148,2.88552737236023,1.19102895259857,-0.129917773765869,2.90991639186844,1.22328238098464,1393.849,1162.918,3163.34,3106.616,-0.04193147,0.0470212,0.06662874,-0.594613969326019,-0.0663597211241722,0.201813250780106,-0.268021976505935,-0.115322368823317,0.165918371114489,9
0.739999771118164,-0.31844162940979,2.88419318199158,1.19519972801208,-0.13540267613015,2.90755639161152,1.22667779683026,1392.385,1185.116,3153.542,3093.974,-0.0438319,0.04795281,0.0632183,-0.59742134809494,-0.0667090341448784,0.208536937832832,-0.280479406212952,-0.12068245280595,0.173630113532805,9
0.759998321533203,-0.330436736345291,2.8828399181366,1.19950497150421,-0.141137563960274,2.90508882959244,1.2302279655877,1392.401,1207.592,3149.742,3074.589,-0.04600345,0.04873441,0.05981098,-0.599756002426147,-0.0676612928509712,0.215259537100792,-0.293073051970232,-0.126101146749576,0.181426180175103,9
0.779998779296875,-0.342469573020935,2.88145470619202,1.20394277572632,-0.147126184485884,2.90251209348295,1.23393520697061,1387.148,1226.501,3151.069,3059.178,-0.04854304,0.04931808,0.05665082,-0.601641535758972,-0.0692554488778114,0.221890419721603,-0.305795832832518,-0.131575403921268,0.189302187598958,9
0.799999237060547,-0.354532599449158,2.88002419471741,1.20850908756256,-0.153370467664426,2.8998253528763,1.23780071571459,1374.017,1240.604,3154.013,3054.503,-0.05147411,0.04966067,0.05393572,-0.603149652481079,-0.0715199857950211,0.228318601846695,-0.318637178554805,-0.1371006762399,0.197251592319181,9
0.819999694824219,-0.366620391607285,2.87853479385376,1.21319901943207,-0.159872691993147,2.89702762739878,1.24182590231796,1353.072,1250.88,3156.217,3061.707,-0.05474607,0.04973971,0.05175924,-0.604391396045685,-0.0744681879878044,0.234496504068375,-0.331587821991737,-0.142672976311719,0.205268657531342,9
0.839998245239258,-0.378730207681656,2.87697291374207,1.21800720691681,-0.166634294361289,2.89411829879707,1.24601165628363,1326.773,1259.577,3155.636,3078.193,-0.05825398,0.04956009,0.05010254,-0.605489552021027,-0.0780973806977272,0.240409761667252,-0.344637355311016,-0.148287825937249,0.213346940291454,8
0.85999870300293,-0.39086127281189,2.87532496452332,1.22292900085449,-0.173658476530939,2.8910959894424,1.25035995965485,1299.988,1269.076,3151.952,3097.434,-0.06187642,0.04915108,0.04886439,-0.606555342674255,-0.0823915675282478,0.246089726686478,-0.357779218042882,-0.153942402329629,0.221482379356217,8
0.879999160766602,-0.403014659881592,2.8735785484314,1.22796046733856,-0.180946338277887,2.88796022613197,1.25487149324521,1277.275,1280.931,3145.481,3113.535,-0.06551376,0.04855413,0.04792024,-0.60767012834549,-0.0873250961303711,0.251574784517288,-0.371003228241413,-0.159632324481982,0.229668671616073,8
0.899999618530273,-0.415192365646362,2.8717212677002,1.23309898376465,-0.188499434070438,2.88471034002151,1.25954721934464,1259.794,1295.223,3138.417,3123.54,-0.06911436,0.04780667,0.04717903,-0.608884871006012,-0.0928691774606705,0.256926506757736,-0.384300552311253,-0.165353791545005,0.237900348654692,8
0.919998168945313,-0.427396923303604,2.86974143981934,1.23834264278412,-0.196318384305134,2.8813460641717,1.26438752200817,1246.629,1310.933,3132.408,3127.873,-0.07266701,0.04693421,0.04660915,-0.610227346420288,-0.0989949926733971,0.262180238962173,-0.397661187980262,-0.171102499820431,0.246171218589148,8
0.939998626708984,-0.439631223678589,2.8676278591156,1.24368965625763,-0.204405885800988,2.87786623821667,1.26939407069523,1236.142,1326.585,3128.433,3128.606,-0.07618185,0.04594867,0.04623292,-0.611716747283936,-0.105674333870411,0.267348498106003,-0.411079067636589,-0.176875838584386,0.254477525278661,8
0.959999084472656,-0.451898753643036,2.86537027359009,1.24913787841797,-0.212762239776093,2.87427073255068,1.27456705187416,1227.154,1340.991,3125.902,3128.55,-0.07967379,0.04485299,0.0461016,-0.613375186920166,-0.112876728177071,0.27241250872612,-0.424544411524882,-0.18266959988136,0.262813214588797,8
0.979999542236328,-0.464203476905823,2.86295890808105,1.2546854019165,-0.221388311353785,2.87055917493534,1.27990700109753,1217.166,1353.389,3124.98,3130.657,-0.08315028,0.04364512,0.04627122,-0.615236461162567,-0.120570681989193,0.277377068996429,-0.438048819599778,-0.188480169406503,0.271173086491326,8
0.999998092651367,-0.476550310850143,2.86038446426392,1.26033008098602,-0.23028393740968,2.86673163555851,1.28541381738356,1204.977,1363.662,3124.8,3136.871,-0.08659481,0.04232622,0.04677469,-0.617343842983246,-0.128720641136169,0.282233953475952,-0.45158270821391,-0.194303423584087,0.279551208251994,8
1.01999855041504,-0.488945245742798,2.85763883590698,1.2660698890686,-0.239451348187707,2.86278715480854,1.29108888135949,1191.778,1372.284,3124.704,3146.131,-0.08996531,0.04090684,0.04760593,-0.619745790958405,-0.137286782264709,0.286988109350204,-0.465140476318736,-0.200136952439402,0.28794411255494,8
1.03999900817871,-0.501394927501678,2.85471439361572,1.27190268039703,-0.248890079057088,2.85872593260306,1.29693190539675,1179.898,1380.076,3123.428,3156.677,-0.09321436,0.03940686,0.04872528,-0.622485637664795,-0.14622275531292,0.291637778282166,-0.478712759579464,-0.205976726760794,0.296346002430842,8
1.05999946594238,-0.513906896114349,2.8516047000885,1.27782726287842,-0.258600340480156,2.85454787838601,1.30294301978152,1170.048,1387.568,3121.997,3166.49,-0.09630257,0.03784983,0.0500814,-0.625599145889282,-0.155481278896332,0.296231359243393,-0.492291591500725,-0.211819318787865,0.30475194623957,8
1.07999801635742,-0.526489078998566,2.84830451011658,1.2838431596756,-0.268581219802083,2.85025338484727,1.30912165953701,1161.881,1394.859,3120.683,3175.568,-0.09920435,0.03625815,0.05162849,-0.62910795211792,-0.165013566613197,0.300796121358871,-0.50586781946303,-0.217660790404144,0.31315627807366,8
1.09999847412109,-0.539149522781372,2.84480905532837,1.28995037078857,-0.278834517009062,2.84584167750307,1.31546893894041,1156.428,1401.79,3120,3182.57,-0.1019016,0.03465402,0.05332823,-0.633023738861084,-0.174771204590797,0.305359810590744,-0.519436284009554,-0.223498921639497,0.321555803983559,7
1.11999893188477,-0.551896512508392,2.84111499786377,1.29614901542664,-0.289359035362208,2.84131327127672,1.32198411715334,1154.281,1408.23,3119.622,3187.4,-0.1043916,0.03305536,0.05515769,-0.637349426746368,-0.184705138206482,0.30993315577507,-0.532988048794549,-0.229329867434001,0.329944991945551,7
1.13999938964844,-0.564738214015961,2.83721971511841,1.3024400472641,-0.300154365346813,2.83666834237095,1.3286669406667,1153.579,1413.734,3120.483,3191.411,-0.1066857,0.03147241,0.05711294,-0.642086327075958,-0.19476991891861,0.314549654722214,-0.546515580872639,-0.235150386571708,0.338319178707607,7
1.15999794006348,-0.577682912349701,2.83312129974365,1.30882441997528,-0.31121887973388,2.83190759093694,1.33551640214821,1153.02,1417.942,3122.496,3196.122,-0.1087912,0.0299123,0.0591962,-0.647234499454498,-0.204921334981918,0.319220095872879,-0.560010170393828,-0.240956731447489,0.346672972457667,7
1.17999839782715,-0.590738892555237,2.82881903648376,1.31530344486237,-0.322553982624406,2.82703041282926,1.34253337080327,1152.776,1420.789,3125.439,3201.499,-0.1107055,0.02838354,0.06140253,-0.652795553207397,-0.215116590261459,0.323953539133072,-0.573467075844405,-0.246746861920456,0.355003437972878,7
1.19999885559082,-0.603914201259613,2.82431292533875,1.32187819480896,-0.334157779891176,2.82203762303794,1.34971667407692,1153.987,1422.617,3128.013,3207.317,-0.1124243,0.02689592,0.06371504,-0.658769607543945,-0.225311025977135,0.328740268945694,-0.586877800774655,-0.252517122205661,0.363305315546124,7
1.21999931335449,-0.617217361927032,2.81960368156433,1.32855045795441,-0.346029276726411,2.81692964960096,1.35706569613575,1155.996,1423.601,3131.042,3213.286,-0.1139465,0.0254591,0.06611201,-0.665157914161682,-0.23546390235424,0.333614885807037,-0.600235245789198,-0.258264457631606,0.371574210313473,7
1.23999786376953,-0.630656540393829,2.81469297409058,1.33532226085663,-0.358166167196084,2.81170748469733,1.36457900949675,1157.894,1423.855,3134.534,3220.032,-0.1152728,0.0240826,0.06856956,-0.67195600271225,-0.245536223053932,0.338592827320099,-0.613531154887641,-0.263985315871967,0.379805011417393,7
1.2599983215332,-0.644239664077759,2.80958318710327,1.34219598770142,-0.370569492049568,2.80637068052165,1.37225725843336,1160.797,1423.513,3138.46,3226.262,-0.1163945,0.02277807,0.07105726,-0.679154992103577,-0.25549104809761,0.343685537576675,-0.626761182173783,-0.269677827009021,0.387995028541113,7
1.27999877929688,-0.657974421977997,2.80427742004395,1.34917378425598,-0.383236695417198,2.80092033679326,1.3800988607405,1166.158,1422.92,3141.883,3231.149,-0.1173138,0.02155706,0.07354496,-0.686739325523376,-0.265290945768356,0.348887324333191,-0.639917282339435,-0.275338529371412,0.396139281255613,8
1.29999923706055,-0.671868205070496,2.79877924919128,1.35625839233398,-0.396166231882091,2.79535711846185,1.3881028597315,1172.675,1421.937,3145.948,3235.035,-0.1180446,0.02042605,0.07601479,-0.694692373275757,-0.274904370307922,0.354230433702469,-0.652992789539212,-0.280964554832093,0.404233643085061,8
1.31999778747559,-0.685928046703339,2.79309320449829,1.36345291137695,-0.409355153534276,2.78968229393073,1.39626743050967,1179.05,1420.358,3150.814,3239.05,-0.1186028,0.01938792,0.07845791,-0.702993154525757,-0.284302979707718,0.359723448753357,-0.665979912040938,-0.286552550826386,0.412273290576068,8
1.33999824523926,-0.700160503387451,2.78722405433655,1.37076020240784,-0.42280416857195,2.783895558482,1.40459301148342,1185.664,1418.102,3156.294,3242.931,-0.1189948,0.01844575,0.0808646,-0.711619675159454,-0.293461233377457,0.365364819765091,-0.678874678563316,-0.292100808622893,0.420255765316334,8
1.35999870300293,-0.714571416378021,2.78117704391479,1.37818288803101,-0.436510095902056,2.77799828085114,1.41307763340462,1193.83,1415.483,3161.255,3246.164,-0.1192313,0.01760264,0.0832215,-0.720548093318939,-0.302353650331497,0.371137142181396,-0.691669505523675,-0.297606065217852,0.428176372706927,8
1.3799991607666,-0.729166567325592,2.77495789527893,1.38572418689728,-0.450470874182571,2.77199134797602,1.42172002020435,1202.171,1412.419,3166.689,3249.23,-0.1193277,0.01685856,0.08552095,-0.729757726192474,-0.310960352420807,0.377062350511551,-0.704358160626625,-0.303065639028665,0.436031254660118,8
1.39999771118164,-0.743951082229614,2.76857256889343,1.3933869600296,-0.464682951063699,2.76587628833354,1.43051797280888,1209.596,1408.863,3172.545,3253.107,-0.1192974,0.01621217,0.08775632,-0.739224970340729,-0.319264382123947,0.383139044046402,-0.716933326165324,-0.308476381450513,0.44381588116678,8
1.41999816894531,-0.758929669857025,2.76202750205994,1.40117418766022,-0.47914673136562,2.75965292774086,1.43947174182117,1217.026,1404.921,3178.697,3256.79,-0.1191418,0.01566462,0.08991434,-0.748925983905792,-0.327251553535461,0.389362901449203,-0.729391385793766,-0.313836736470737,0.451528013536465,8
1.43999862670898,-0.774106323719025,2.75532937049866,1.4090883731842,-0.4938584461112,2.75332288788357,1.44857899406484,1225.818,1401.024,3183.897,3259.759,-0.1188691,0.01521796,0.09197828,-0.758833169937134,-0.334907025098801,0.395709455013275,-0.741725227577294,-0.31914364402254,0.459163249142831,8
1.45999908447266,-0.789484679698944,2.74848484992981,1.41713237762451,-0.508815552717244,2.74688726276417,1.45783815555978,1234.905,1397.054,3189.349,3262.067,-0.1184942,0.01487032,0.09393822,-0.768921852111816,-0.342221617698669,0.402198642492294,-0.753929052770513,-0.324394609067776,0.466717998286247,8
1.47999954223633,-0.805068016052246,2.74150109291077,1.4253089427948,-0.524015393706918,2.74034719582071,1.46724758120123,1243.067,1392.893,3195.228,3264.688,-0.1180318,0.0146181,0.09579061,-0.779163956642151,-0.349189758300781,0.408828288316727,-0.76599717101811,-0.329587183205524,0.474188738365705,8
1.49999809265137,-0.820858597755432,2.73438501358032,1.43362057209015,-0.539453715106405,2.73370451741928,1.47680463757674,1251.277,1388.612,3201.095,3266.923,-0.1174891,0.01445954,0.09752857,-0.789530575275421,-0.355807542800903,0.415581911802292,-0.777922869861026,-0.334718478252175,0.481571314049288,8
1.51999855041504,-0.836858451366425,2.72714352607727,1.44206964969635,-0.555130581228843,2.72695919988774,1.48650936449923,1259.585,1384.253,3206.978,3268.646,-0.1168728,0.01439138,0.09914798,-0.799993455410004,-0.362073302268982,0.4224514067173,-0.789702950965343,-0.339787118053995,0.488863745415943,8
1.53999900817871,-0.853068888187408,2.71978378295898,1.45065784454346,-0.571041541911266,2.72011315800687,1.49635900710582,1268.633,1380.059,3211.922,3269.936,-0.1161959,0.0144103,0.1006442,-0.810522615909576,-0.36798506975174,0.429410994052887,-0.801330904905084,-0.34479030178684,0.496062002820904,8
1.55999946594238,-0.869490683078766,2.71231293678284,1.45938730239868,-0.587183501790833,2.71316772362485,1.50635164921945,1277.175,1375.813,3217.168,3271.039,-0.1154741,0.0145104,0.1020175,-0.821093440055847,-0.37354639172554,0.436474829912186,-0.812801474874933,-0.34972576759424,0.503162832051264,8
1.57999801635742,-0.886124312877655,2.70473766326904,1.46825993061066,-0.603551689586986,2.70612494969039,1.51648433719019,1284.329,1371.455,3222.681,3272.742,-0.1147199,0.01468482,0.1032702,-0.831679344177246,-0.378763526678085,0.443631649017334,-0.824108441976122,-0.354590839657789,0.510162383312438,8
1.59999847412109,-0.902969360351563,2.6970648765564,1.47727727890015,-0.620145926473056,2.69898491314762,1.52675696031579,1290.989,1367.04,3228.321,3274.169,-0.1139322,0.01492982,0.1044002,-0.842254519462585,-0.383644342422485,0.450866281986237,-0.835248923368005,-0.359384277571697,0.517058871988737,8
1.61999893188477,-0.920025229454041,2.68930101394653,1.48644006252289,-0.636961261140657,2.69174974440622,1.53716645350051,1298.703,1363.021,3232.552,3274.926,-0.1131156,0.01524261,0.1054016,-0.852790653705597,-0.388193875551224,0.458139419555664,-0.846216901179681,-0.364103492014234,0.523848572731403,8
1.63999938964844,-0.937290549278259,2.68145251274109,1.49574935436249,-0.653994195024907,2.68442094880091,1.54771065096602,1306.279,1359.168,3236.816,3275.12,-0.1122853,0.01561722,0.1062749,-0.863266170024872,-0.392422050237656,0.465466737747192,-0.857007552155828,-0.368746407673381,0.530528499715628,8
1.65999794006348,-0.95476371049881,2.6735258102417,1.50520610809326,-0.671239479331992,2.67700078474105,1.55838630345892,1312.263,1355.331,3241.34,3275.96,-0.1114517,0.0160455,0.1070263,-0.87365734577179,-0.396341234445572,0.472840338945389,-0.867615158565213,-0.373310564369123,0.537095113393405,8
1.67999839782715,-0.972442507743835,2.66552662849426,1.51481091976166,-0.688696716710861,2.66948942319567,1.56919316499998,1317.46,1351.523,3245.919,3276.742,-0.1106149,0.01652278,0.1076568,-0.883941173553467,-0.399964839220047,0.480242133140564,-0.878037137680598,-0.377794850826084,0.543546814933542,8
1.69999885559082,-0.990324318408966,2.6574604511261,1.52456367015839,-0.706360494347389,2.66188919314749,1.58012788479941,1323.658,1348.176,3249.218,3276.668,-0.1097776,0.01704621,0.1081634,-0.89409351348877,-0.403304100036621,0.487636208534241,-0.888267970958778,-0.382196892569292,0.54988018809491,8
1.71999931335449,-1.00840628147125,2.64933300018311,1.53446435928345,-0.724226945158621,2.65420175849427,1.59118806894864,1329.508,1345.03,3252.589,3276.119,-0.1089515,0.01760874,0.108551,-0.904096484184265,-0.406373560428619,0.495034873485565,-0.898303268694426,-0.386514800831178,0.556092515440802,8
1.73999786376953,-1.02668488025665,2.64114928245544,1.54451286792755,-0.742290383213093,2.64642956573347,1.60237019758524,1333.762,1341.942,3255.991,3276.376,-0.1081446,0.01820276,0.1088284,-0.913930118083954,-0.409188866615295,0.502423584461212,-0.908137821269591,-0.39074633405868,0.562180571969536,8
1.7599983215332,-1.04515635967255,2.6329140663147,1.55470860004425,-0.760550216073323,2.63857286977439,1.61367390396219,1337.392,1338.938,3259.416,3276.408,-0.1073542,0.01882352,0.1089983,-0.92357724905014,-0.411766469478607,0.509788870811462,-0.917769332013572,-0.394890504058555,0.568142935932543,8
1.77999877929688,-1.06381678581238,2.62463164329529,1.56505048274994,-0.779000609654483,2.63063418086074,1.62509557650306,1341.711,1336.425,3261.501,3275.936,-0.1065824,0.01946797,0.1090605,-0.933018743991852,-0.414119809865952,0.517094612121582,-0.927192788821983,-0.398945154262308,0.57397650459845,8
1.79999923706055,-1.08266174793243,2.61630630493164,1.5755375623703,-0.79763736303951,2.62261530652977,1.63663261464007,1345.622,1334.133,3263.691,3275.015,-0.1058367,0.02012997,0.1090199,-0.942242443561554,-0.416265428066254,0.524355471134186,-0.936404235539493,-0.402908582446823,0.579678828918647,7
1.81999778747559,-1.10168623924255,2.60794186592102,1.58616876602173,-0.816454394064092,2.61451886376689,1.64828125322378,1347.944,1331.944,3265.969,3274.818,-0.1051235,0.02080301,0.108886,-0.951233863830566,-0.418220430612564,0.531558871269226,-0.945398976945681,-0.406778768389922,0.585247002328031,7
1.83999824523926,-1.12088584899902,2.59954190254211,1.59694254398346,-0.835450937570646,2.606345181798,1.6600410185852,1349.718,1329.88,3268.181,3274.404,-0.1044353,0.02148306,0.1086626,-0.959980607032776,-0.420001655817032,0.538688838481903,-0.954174989692508,-0.410554841501469,0.590679772277779,7
1.85999870300293,-1.14025521278381,2.59110951423645,1.60785675048828,-0.854620778981102,2.59809693458245,1.67190806360445,1352.268,1328.323,3268.99,3273.513,-0.1037743,0.02216789,0.1083499,-0.968468546867371,-0.421622395515442,0.545710504055023,-0.962727774564036,-0.414234865894539,0.595974353538898,7
1.8799991607666,-1.15978908538818,2.58264756202698,1.61890959739685,-0.873959418228252,2.58977605837344,1.68387960252558,1354.501,1327.003,3269.921,3272.125,-0.1031458,0.02285276,0.1079537,-0.976690888404846,-0.423098474740982,0.552642345428467,-0.971053808954927,-0.417817325890467,0.60112856545088,7
1.89999771118164,-1.17948174476624,2.57415866851807,1.63009905815125,-0.893460418296025,2.58138532283915,1.69595165052899,1355.016,1325.754,3271.072,3271.556,-0.1025541,0.02353131,0.1074849,-0.984638452529907,-0.424446284770966,0.559475302696228,-0.979148917665041,-0.421300425017273,0.606139823365946,7
1.91999816894531,-1.19932794570923,2.56564497947693,1.64142286777496,-0.913122862707269,2.57292512231409,1.70812364027167,1354.941,1324.6,3272.184,3270.874,-0.1019911,0.02420083,0.106948,-0.992303550243378,-0.425681531429291,0.566192924976349,-0.987011339258123,-0.424683405378145,0.611007036871143,7
1.93999862670898,-1.21932148933411,2.55710864067078,1.65287804603577,-0.932940197657643,2.56439827671719,1.72039151463653,1355.858,1323.932,3271.904,3269.587,-0.1014531,0.02486072,0.1063434,-0.999677181243896,-0.426815390586853,0.572761654853821,-0.99463709319481,-0.4279645542582,0.615727741822989,7
1.95999908447266,-1.23945653438568,2.54855132102966,1.66446197032928,-0.952907658613767,2.55580683609405,1.73275232415044,1356.532,1323.492,3271.629,3267.94,-0.1009471,0.02550661,0.1056771,-1.00675690174103,-0.427860826253891,0.579199373722076,-1.00202309041976,-0.431142542523221,0.620300025949072,7
1.9799976348877,-1.25972747802734,2.53997468948364,1.67617201805115,-0.973018495512246,2.54715370480838,1.74520189020262,1355.587,1323.097,3271.627,3267.089,-0.1004752,0.02613389,0.1049598,-1.01353883743286,-0.42883163690567,0.585502862930298,-1.00916568071436,-0.434215799586116,0.624721629590192,7
1.99999809265137,-1.28012776374817,2.53137993812561,1.68800520896912,-0.993271661096953,2.53843933346522,1.75773956449162,1353.814,1322.724,3271.733,3266.367,-0.1000278,0.02674084,0.104196,-1.02001976966858,-0.42974066734314,0.591659247875214,-1.01606335446626,-0.437183675902864,0.628991618224387,6
2.01999855041504,-1.30065178871155,2.52276802062988,1.69995784759521,-1.01366030404084,2.52966666999921,1.77036110571964,1353.351,1322.828,3270.413,3264.84,-0.09959956,0.02732849,0.103384,-1.02619469165802,-0.430596053600311,0.597634136676788,-1.02271265493931,-0.440044684136465,0.633107851967309,6
2.03999900817871,-1.32129299640656,2.51413989067078,1.71202683448792,-1.03417943002831,2.52083786332482,1.7830634221674,1352.703,1323.107,3269.24,3262.907,-0.09919423,0.02789406,0.1025302,-1.03206515312195,-0.431407392024994,0.603450536727905,-1.02911092662815,-0.442797681697156,0.63706868693465,6
2.05999755859375,-1.342045545578,2.50549626350403,1.72420883178711,-1.05482201812353,2.5119559343546,1.79584216754118,1350.54,1323.395,3268.258,3261.868,-0.09881446,0.02843376,0.1016448,-1.03762996196747,-0.432184487581253,0.6091029047966,-1.03525504859546,-0.445441325732794,0.640872191117535,6
2.07999801635742,-1.36290335655212,2.4968376159668,1.73650050163269,-1.07558691007788,2.50302138145056,1.8086966248299,1347.812,1323.667,3267.419,3260.808,-0.09844961,0.02894758,0.1007318,-1.04288983345032,-0.43293622136116,0.614583253860474,-1.04114375428791,-0.447975071280863,0.644517580459114,6
2.09999847412109,-1.38386034965515,2.48816418647766,1.74889767169952,-1.09646699912883,2.4940372624541,1.82162239460902,1346.196,1324.302,3265.29,3259.206,-0.09809381,0.02943695,0.09978996,-1.04784286022186,-0.433666884899139,0.619860529899597,-1.04677411523768,-0.450397658303471,0.648003042098304,5
2.11999893188477,-1.40491008758545,2.47947645187378,1.76139688491821,-1.11745709586255,2.485005810225,1.83461626438416,1344.58,1325.055,3263.35,3257.103,-0.09774973,0.02990057,0.09882409,-1.05249345302582,-0.434382200241089,0.624958992004395,-1.0521439094894,-0.452708130755304,0.651327200538896,5
2.1399974822998,-1.4260470867157,2.47077465057373,1.77399432659149,-1.13854995096316,2.47593014394135,1.84767374648347,1341.547,1325.777,3261.583,3255.938,-0.09741843,0.03033602,0.0978434,-1.05684292316437,-0.435087651014328,0.629874050617218,-1.05725054902531,-0.454905375084611,0.654488453674597,4
2.15999794006348,-1.44726490974426,2.46205878257751,1.78668630123138,-1.15974431432775,2.46681080148754,1.86079406703369,1338.048,1326.419,3259.999,3254.763,-0.09708873,0.03074426,0.09685036,-1.06089437007904,-0.435788005590439,0.634600579738617,-1.06209300290918,-0.456988947708343,0.657486163306784,4
2.17999839782715,-1.46855783462524,2.45332908630371,1.79946851730347,-1.18103286617629,2.4576509323604,1.8739726947423,1335.859,1327.367,3257.193,3252.922,-0.0967553,0.03112823,0.0958423,-1.06464803218842,-0.436483561992645,0.639110624790192,-1.06666887474518,-0.458957817524312,0.66031884595227,3
2.19999885559082,-1.48991990089417,2.44458556175232,1.81233704090118,-1.20241025668069,2.44845283844151,1.88720631781084,1333.658,1328.375,3254.578,3250.724,-0.09641974,0.03148732,0.09482324,-1.0681095123291,-0.437175989151001,0.643428921699524,-1.07097637612794,-0.460811215031657,0.662985394502945,1
2.21999740600586,-1.51134562492371,2.43582820892334,1.82528817653656,-1.22386905090202,2.43921971877738,1.90049033365798,1330.169,1329.284,3252.276,3249.343,-0.09608418,0.03182014,0.09380107,-1.07128190994263,-0.437867224216461,0.647555828094482,-1.07501345493598,-0.46254825725983,0.665484538597853,0
2.23999786376953,-1.53282904624939,2.42705726623535,1.83831787109375,-1.24540792547886,2.42995214277345,1.91382392305993,1326.238,1330.044,3250.218,3247.993,-0.09573638,0.03212842,0.0927778,-1.07416927814484,-0.438558369874954,0.651486456394196,-1.07877930973132,-0.464168599372462,0.667815782108711,0
2.2599983215332,-1.55436432361603,2.41827201843262,1.85142171382904,-1.26701939030951,2.42065333321126,1.92720244928693,1323.775,1331.038,3246.863,3246.032,-0.09536993,0.03241576,0.09174925,-1.07677245140076,-0.439245671033859,0.655190885066986,-1.08227207933222,-0.465671440555045,0.66997797287536,0
2.27999877929688,-1.57594645023346,2.40947341918945,1.86459577083588,-1.28869796983554,2.41132564607061,1.9406225227075,1321.601,1332.041,3243.918,3243.323,-0.09498803,0.03268275,0.09071844,-1.07909834384918,-0.439927905797958,0.658703088760376,-1.08549040888332,-0.467056197851165,0.67197027217779,0
2.29999923706055,-1.59756934642792,2.40066146850586,1.8778361082077,-1.31043816248474,2.40197144852433,1.95408073758635,1317.734,1332.871,3241.11,3242.122,-0.09459335,0.0329278,0.08969402,-1.08114957809448,-0.44060292840004,0.662015616893768,-1.08843305191934,-0.468322334941636,0.673791908394614,0
2.31999778747559,-1.61922812461853,2.39183616638184,1.89113855361938,-1.33223236173323,2.39259401344714,1.96757238512285,1314.457,1333.601,3238.251,3240.258,-0.09417523,0.03315457,0.08867209,-1.08293080329895,-0.441268414258957,0.665124654769897,-1.0910986293707,-0.469469258451341,0.675442027816066,0
2.33999824523926,-1.64091694355011,2.38299775123596,1.90449929237366,-1.35407917814146,2.38319393867607,1.98109660518773,1310.959,1334.251,3235.577,3238.34,-0.09372729,0.03336457,0.08765441,-1.08444631099701,-0.441920965909958,0.66803514957428,-1.09348662008434,-0.470496744142684,0.676920307823584,0
2.35999870300293,-1.66263103485107,2.37414646148682,1.91791379451752,-1.37597096908363,2.3737745126195,1.99464866663155,1308.675,1335.015,3231.807,3236.06,-0.09324739,0.03356127,0.08663791,-1.08569693565369,-0.442553520202637,0.670722484588623,-1.09559583531025,-0.471404280529741,0.678226012524276,0
2.3799991607666,-1.68436479568481,2.36528348922729,1.93137812614441,-1.39790215061238,2.36433813789396,2.0082251127249,1306.454,1335.692,3228.469,3233.368,-0.09273873,0.0337454,0.08562429,-1.08668899536133,-0.44316178560257,0.673218786716461,-1.09742546213314,-0.472191517837776,0.679358638684859,0
2.39999771118164,-1.70611333847046,2.35640859603882,1.94488859176636,-1.41986502747765,2.35488812555058,2.02182117974142,1302.953,1336.178,3225.347,3231.754,-0.09220396,0.03391655,0.08461862,-1.08742535114288,-0.443741410970688,0.675520777702332,-1.09897466165884,-0.47285809511406,0.680317666989874,0
2.41999816894531,-1.72787141799927,2.3475227355957,1.95844125747681,-1.44185817738692,2.34542508756209,2.03543598721428,1299.424,1336.408,3222.775,3229.666,-0.09163085,0.03407768,0.08361927,-1.08791053295135,-0.444288581609726,0.677634358406067,-1.10024313330221,-0.473403883025206,0.681102911362803,0
2.43999862670898,-1.74963438510895,2.33862686157227,1.97203171253204,-1.46387388420027,2.33595234396796,2.0490647584853,1297.23,1336.744,3218.95,3227.248,-0.09101566,0.03423289,0.08262203,-1.08814418315887,-0.444794774055481,0.679525971412659,-1.10123022817855,-0.473828602374257,0.681713970113108,0
2.45999908447266,-1.77139687538147,2.32972168922424,1.98565626144409,-1.48590651627916,2.32647231790489,2.06270400730194,1295.641,1337.002,3215.311,3224.158,-0.09036106,0.03438351,0.08162592,-1.08813166618347,-0.445253521203995,0.681225955486298,-1.10193556692257,-0.474132089930926,0.682150608395601,0
2.4799976348877,-1.79315447807312,2.32080841064453,1.99931108951569,-1.50794833289881,2.31698833999053,2.07634894178684,1292.804,1337.058,3212.103,3221.972,-0.08967236,0.03452885,0.08063665,-1.08787560462952,-0.445659518241882,0.682742178440094,-1.10235885164239,-0.474314217520657,0.682412641801014,0
2.49999809265137,-1.81490206718445,2.31188821792603,2.01299262046814,-1.52999789647758,2.30750102877607,2.08999867200848,1289.468,1336.814,3209.272,3219.999,-0.08894159,0.03467096,0.07965318,-1.08737885951996,-0.446007668972015,0.684072434902191,-1.10250000050163,-0.474374949931546,0.682500019668738,0
2.51999855041504,-1.83663487434387,2.3029625415802,2.02669644355774,-1.5520474605947,2.29801371732999,2.10364840256337,1287.827,1336.635,3205.376,3217.21,-0.08816235,0.0348145,0.0786676,-1.08664166927338,-0.446289479732513,0.68519139289856,-1.10235890547318,-0.474314240682543,0.682412675124841,0
2.53999900817871,-1.85834813117981,2.29403257369995,2.04041910171509,-1.5740913806044,2.28852883438564,2.11729463914691,1286.592,1336.405,3201.737,3213.85,-0.0873405,0.03496057,0.07767951,-1.08566784858704,-0.446498543024063,0.686128616333008,-1.10193562074175,-0.474132113087814,0.682150641712234,0
2.55999755859375,-1.88003742694855,2.28509998321533,2.05415678024292,-1.59612191359838,2.27904971150017,2.13093258853001,1284.169,1335.95,3198.522,3211.358,-0.08647976,0.03510843,0.076694,-1.08445858955383,-0.446629375219345,0.686888873577118,-1.10123038958312,-0.473828671822132,0.681714070030222,0
2.57999801635742,-1.90169787406921,2.2761664390564,2.06790614128113,-1.6181376241771,2.2695769662859,2.14456136213196,1281.477,1335.206,3195.591,3208.948,-0.08557269,0.03525986,0.07570955,-1.08301544189453,-0.446676850318909,0.687468588352203,-1.10024334841354,-0.473403975581601,0.681103044526962,0
2.59999847412109,-1.92332434654236,2.2672336101532,2.08166313171387,-1.64013077892511,2.26011392621545,2.15817617260023,1280.459,1334.504,3191.633,3205.748,-0.08461609,0.03541924,0.07471863,-1.08133792877197,-0.44663268327713,0.687844932079315,-1.09897493039424,-0.472858210743393,0.680317833349887,0
2.61999893188477,-1.94491302967072,2.25830411911011,2.09542417526245,-1.66209575487342,2.25066301069528,2.17177353904914,1279.766,1333.743,3188,3201.993,-0.08361633,0.03558661,0.07372142,-1.0794290304184,-0.446491152048111,0.688048839569092,-1.09742562325992,-0.472191587166126,0.67935873843001,0
2.6399974822998,-1.96645867824554,2.24937915802002,2.10918569564819,-1.68402485020812,2.24122753360076,2.185348693689,1277.607,1332.753,3184.613,3199.555,-0.08257983,0.03576071,0.07272251,-1.07728862762451,-0.44624724984169,0.688079237937927,-1.09559621095794,-0.471404442160446,0.678226245068088,0
2.65999794006348,-1.987957239151,2.24046087265015,2.12294459342957,-1.70591664919621,2.23180810408224,2.19890076011363,1275.622,1331.496,3181.784,3196.471,-0.08149699,0.03594415,0.07171801,-1.07491886615753,-0.445897430181503,0.68794310092926,-1.093487048984,-0.470496928686224,0.676920573332903,0
2.67999839782715,-2.00940322875977,2.23155236244202,2.13669681549072,-1.7277634747138,2.22240802539167,2.21242498581764,1274.701,1330.28,3177.945,3193.16,-0.08036568,0.03613955,0.07070364,-1.07231736183167,-0.4454345703125,0.687611043453217,-1.09109911135695,-0.469469465836558,0.675442326188514,0
2.69999885559082,-2.03079295158386,2.22265529632568,2.15043878555298,-1.74955976015262,2.21302969268507,2.22591792480533,1274.602,1329.017,3174.029,3189.179,-0.07919229,0.03634771,0.06967645,-1.06948578357697,-0.444853335618973,0.687103807926178,-1.08843331936148,-0.468322450014513,0.673792073954033,0
2.71999740600586,-2.05212140083313,2.21377229690552,2.16416764259338,-1.77129788800495,2.2036763835632,2.23937486147656,1273.294,1327.584,3170.74,3185.869,-0.07798428,0.03656694,0.0686411,-1.06642484664917,-0.444150626659393,0.686439156532288,-1.08549099645889,-0.467056450668518,0.671970635915057,0
2.73999786376953,-2.07338428497314,2.20490574836731,2.17787981033325,-1.79297647980783,2.19434869114016,2.25279494249708,1271.215,1325.879,3167.807,3183.019,-0.07673685,0.03679765,0.06759752,-1.0631343126297,-0.443323791027069,0.685609936714172,-1.08227271937422,-0.465671715947234,0.669978369091845,0
2.7599983215332,-2.09457635879517,2.19605827331543,2.1915717124939,-1.81458795796224,2.18504987584512,2.26617347697213,1270.922,1324.195,3163.909,3179.196,-0.07544415,0.03704356,0.06653701,-1.0596125125885,-0.442367672920227,0.684590876102448,-1.07878000199166,-0.464168897232749,0.667816210650842,0
2.77999877929688,-2.11569356918335,2.18723297119141,2.20523977279663,-1.83612684690458,2.17578229366013,2.27950707526701,1271.134,1322.53,3160.166,3174.724,-0.07411417,0.03730467,0.06545938,-1.05586051940918,-0.441278845071793,0.683408558368683,-1.07501419914593,-0.462548577472581,0.665484999299265,0
2.79999732971191,-2.13673114776611,2.17843198776245,2.21888113021851,-1.85758565652604,2.16654916736975,2.29279110064756,1270.009,1320.709,3156.637,3171.414,-0.07275437,0.03757831,0.06436978,-1.05187737941742,-0.440055191516876,0.682064592838287,-1.07097717199316,-0.460811557470228,0.66298588718143,0
2.81999778747559,-2.15768432617188,2.16965818405151,2.23249244689941,-1.87896306346215,2.15735106638076,2.30602473388812,1268.64,1318.641,3153.675,3167.843,-0.07136047,0.03786552,0.06326605,-1.04766392707825,-0.438696056604385,0.680565476417542,-1.06666972196052,-0.458958182057406,0.660319370418926,0
2.83999824523926,-2.17854881286621,2.16091394424438,2.24607014656067,-1.90025163276617,2.14819118974301,2.3192033724025,1268.419,1316.63,3149.747,3163.882,-0.06992982,0.03816844,0.06214322,-1.04321789741516,-0.43719807267189,0.678881764411926,-1.06209390114388,-0.456989334193641,0.657486719356853,0
2.85999870300293,-2.19931936264038,2.15220308303833,2.25961089134216,-1.92144601460316,2.13907183934104,2.33232370438801,1268.711,1314.601,3146.104,3159.152,-0.06846721,0.03848623,0.06100075,-1.03854036331177,-0.435559868812561,0.677040696144104,-1.05725149792792,-0.454905783370899,0.65448904109052,0
2.87999725341797,-2.21999192237854,2.14352750778198,2.27311158180237,-1.94253888918396,2.12999616467562,2.34538119854648,1267.885,1312.485,3142.367,3155.593,-0.06698117,0.03881695,0.05984293,-1.03363001346588,-0.433780461549759,0.675035357475281,-1.05214490868305,-0.452708560680416,0.651327819087361,0
2.89999771118164,-2.24056196212769,2.13489031791687,2.28656911849976,-1.96352900640172,2.1209647036328,2.35837508100222,1266.918,1310.172,3139.294,3151.557,-0.06546742,0.03916112,0.05866771,-1.02848839759827,-0.431860953569412,0.672880828380585,-1.04677516433438,-0.450398109700476,0.648003691539142,0
2.91999816894531,-2.26102423667908,2.12629437446594,2.29997992515564,-1.98440911693069,2.11198057539494,2.37130086407726,1266.575,1307.918,3135.333,3147.567,-0.06392545,0.0395194,0.05747206,-1.02311325073242,-0.429799884557724,0.670546531677246,-1.04114485287423,-0.447975543971863,0.644518260536375,0
2.93999862670898,-2.28137421607971,2.11774253845215,2.31334090232849,-2.00517403134858,2.10304601282548,2.38415533527198,1267.07,1305.675,3131.512,3142.586,-0.06235898,0.03989215,0.05625349,-1.01750564575195,-0.427597433328629,0.668054699897766,-1.03525619623725,-0.445441819530995,0.640872901562472,0
2.95999717712402,-2.30160760879517,2.10923719406128,2.32664895057678,-2.02581664288168,2.09416407377059,2.39693409515492,1266.415,1303.399,3127.871,3138.503,-0.06077547,0.04027636,0.05501782,-1.01166498661041,-0.425254762172699,0.66540801525116,-1.029112122866,-0.442798196404884,0.637069427462863,0
2.9799976348877,-2.32171964645386,2.10078191757202,2.33990120887756,-2.04633579327653,2.08533525659438,2.40963642671202,1265.311,1300.936,3124.672,3134.44,-0.05917224,0.04067141,0.05376532,-1.00559234619141,-0.422773957252502,0.662609279155731,-1.0227138993024,-0.44004521955114,0.633108622287341,0
2.99999809265137,-2.34170532226563,2.09237885475159,2.35309386253357,-2.06672446158539,2.07656258221453,2.42225798364216,1265.287,1298.531,3120.41,3130.166,-0.05754718,0.04107912,0.05249064,-0.999286293983459,-0.420154750347137,0.659628033638,-1.01606464645845,-0.437184231811008,0.628992418029098,0
3.01999855041504,-2.36156034469604,2.08403062820435,2.36622381210327,-2.08697765348254,2.06784819954987,2.43479567421983,1265.938,1296.205,3116.555,3124.769,-0.05590614,0.04149858,0.0511927,-0.992749094963074,-0.417399376630783,0.656498670578003,-1.00916701981882,-0.434216375765357,0.624722458559645,0
3.03999710083008,-2.38127994537354,2.07574033737183,2.37928819656372,-2.10708851762775,2.05919505654068,2.44724525713902,1264.853,1293.848,3112.982,3120.723,-0.05425711,0.04192605,0.04988018,-0.985980272293091,-0.414510399103165,0.653219103813171,-1.00202447609459,-0.431143138740389,0.620300883747801,0
3.05999755859375,-2.40085935592651,2.06751084327698,2.39228367805481,-2.12705600675913,2.05060360379452,2.45960608409476,1263.735,1291.306,3109.478,3116.641,-0.05259424,0.0423621,0.04855084,-0.978981375694275,-0.411490768194199,0.649780035018921,-0.994638524886308,-0.427965170275055,0.615728628108227,0
3.07999801635742,-2.42029428482056,2.05934405326843,2.40520691871643,-2.14687337079936,2.04207674568107,2.47187397646763,1264.12,1288.889,3105.097,3111.74,-0.05091644,0.0428081,0.04719862,-0.971752643585205,-0.408341854810715,0.646165251731873,-0.987012816387451,-0.424684040945629,0.611007951284564,0
3.09999847412109,-2.43958020210266,2.05124282836914,2.41805505752563,-2.16653584520328,2.033616532251,2.4840459847772,1264.334,1286.577,3101.234,3106.426,-0.04923119,0.04326177,0.04582697,-0.964296281337738,-0.405066847801208,0.642407536506653,-0.979150439632689,-0.421301079877433,0.606140765536421,0
3.11999893188477,-2.45871257781982,2.04320931434631,2.43082499504089,-2.18603872829175,2.02522498650551,2.49611919846012,1263.036,1284.197,3097.473,3102.439,-0.04754488,0.04372047,0.04444253,-0.956612825393677,-0.401669234037399,0.638496458530426,-0.971054592046769,-0.41781766283301,0.601129050222034,0
3.1399974822998,-2.47768664360046,2.03524661064148,2.44351363182068,-2.20537554715972,2.0169048935548,2.50808961047982,1262.41,1281.723,3093.717,3097.747,-0.04585058,0.04418484,0.04304141,-0.948704838752747,-0.398152947425842,0.634427905082703,-0.962729384322967,-0.414235558528836,0.59597535005636,0
3.15999794006348,-2.49649810791016,2.02735614776611,2.45611763000488,-2.22454542119638,2.00865663230111,2.51995667569625,1261.718,1279.337,3089.754,3093.173,-0.04414828,0.04465429,0.04162434,-0.940573990345001,-0.394520878791809,0.630200624465942,-0.954176642367246,-0.410555552601238,0.590680795362169,0
3.17999839782715,-2.5151424407959,2.01954054832458,2.46863389015198,-2.24354199818069,2.00048293592768,2.53171646178199,1261.977,1277.024,3085.401,3087.949,-0.04244067,0.04512871,0.04018935,-0.932222008705139,-0.390775799751282,0.625810861587524,-0.945400671854024,-0.406779497661632,0.585248051557035,0
3.19999885559082,-2.53361511230469,2.01180219650269,2.48105931282043,-2.26236084956923,1.99238570991304,2.54336622725771,1261.623,1274.782,3081.306,3083.011,-0.04073571,0.04560561,0.0387412,-0.923651397228241,-0.386921465396881,0.621275544166565,-0.936405103758047,-0.402908956017012,0.579679366387291,0
3.21999740600586,-2.55191230773926,2.00414299964905,2.4933910369873,-2.28099585204123,1.98436758895103,2.55490218149615,1260.483,1272.492,3077.356,3078.665,-0.03903608,0.04608333,0.03728288,-0.914864957332611,-0.382962465286255,0.616591334342957,-0.927194566064376,-0.398945918960059,0.573977604796153,0
3.23999786376953,-2.57002973556519,1.99656510353088,2.50562620162964,-2.29944628156995,1.97642888457015,2.56632387629027,1259.153,1270.165,3073.673,3074.18,-0.03733592,0.04656204,0.03581404,-0.90586644411087,-0.378903537988663,0.611760914325714,-0.917771149318993,-0.394891285994308,0.568144060931169,0
3.2599983215332,-2.58796310424805,1.98907017707825,2.51776146888733,-2.31770615117141,1.96857217280235,2.57762760541179,1258.812,1267.924,3069.218,3069.341,-0.03563363,0.04704235,0.03433168,-0.896658062934875,-0.374747693538666,0.606762945652008,-0.908139677873146,-0.390747132903322,0.562181721295578,0
3.27999877929688,-2.60570764541626,1.98166012763977,2.52979397773743,-2.33577134012187,1.96079922667992,2.58881081793642,1258.852,1265.805,3064.995,3063.848,-0.033934,0.04752268,0.03283728,-0.887243509292603,-0.370498657226563,0.601622581481934,-0.898304216251578,-0.386515208538549,0.556093102023818,0
3.29999732971191,-2.62326049804688,1.97433686256409,2.5417206287384,-2.35363611583443,1.95311251277486,2.59986996511977,1257.746,1263.72,3060.864,3059.333,-0.03224342,0.04800097,0.03133789,-0.877625703811646,-0.366160452365875,0.596338272094727,-0.888269903777668,-0.382197724207263,0.549881384601876,0
3.31999778747559,-2.64061641693115,1.96710205078125,2.55353879928589,-2.37129993249841,1.94551226593426,2.61080470907906,1256.207,1261.534,3056.99,3055.029,-0.03055977,0.04847614,0.02983397,-0.867809355258942,-0.361737906932831,0.590911507606506,-0.87803910737898,-0.377795698332271,0.54354803427067,0
3.33999824523926,-2.65777230262756,1.95995736122131,2.56524538993835,-2.38875720963391,1.93800088728271,2.62161159523137,1255.844,1259.428,3052.506,3050.052,-0.02887879,0.04894962,0.02832144,-0.857798397541046,-0.357234477996826,0.585326731204987,-0.8676171642955,-0.373311427378832,0.537096355035999,0
3.35999870300293,-2.67472434043884,1.95290410518646,2.57683753967285,-2.40600416902084,1.93058000248278,2.63228828467848,1255.387,1257.471,3048.241,3044.892,-0.02720632,0.04941968,0.0268033,-0.847597122192383,-0.352654069662094,0.579606115818024,-0.857008572601967,-0.368746846742847,0.530529131420399,0
3.37999725341797,-2.69146871566772,1.94594419002533,2.58831262588501,-2.42303550945299,1.9232518924954,2.64283149572124,1253.949,1255.522,3044.165,3040.492,-0.02554611,0.04988458,0.02528481,-0.837209820747375,-0.348000943660736,0.573749423027039,-0.846218976345105,-0.364104384899943,0.523849857357654,0
3.39999771118164,-2.70800161361694,1.93907833099365,2.59966778755188,-2.43985088596004,1.91601670575165,2.65324101480657,1252.435,1253.514,3040.119,3036.161,-0.02389388,0.05034438,0.02376539,-0.826641738414764,-0.343279421329498,0.567752599716187,-0.835251031898626,-0.359385184813519,0.517060177269636,0
3.41999816894531,-2.72431945800781,1.93230843544006,2.61089992523193,-2.45644516534361,1.90887665092339,2.66351366424015,1252.09,1251.598,3035.684,3030.999,-0.02224645,0.05080012,0.02224227,-0.815897643566132,-0.338492840528488,0.561610221862793,-0.824110582941664,-0.354591760855451,0.510163708672097,0
3.43999862670898,-2.7404191493988,1.92563557624817,2.62200665473938,-2.47281494657125,1.90183319137989,2.67364733862088,1251.473,1249.814,3031.272,3026.06,-0.02061233,0.05124996,0.02071974,-0.80498206615448,-0.333644568920135,0.555335640907288,-0.812802561098952,-0.34972623496609,0.503163504475677,0
3.45999717712402,-2.75629687309265,1.91906094551086,2.63298535346985,-2.48895539990862,1.89488840522088,2.68363904811313,1250.091,1248.017,3027.125,3021.659,-0.01899366,0.05169221,0.01920163,-0.793900430202484,-0.32873871922493,0.548934996128082,-0.801333107864087,-0.344791249658555,0.496063366557468,0
3.4799976348877,-2.77195024490356,1.91258537769318,2.64383363723755,-2.50486640494811,1.88804234425441,2.69348871817885,1248.427,1246.203,3023.164,3017.363,-0.01738725,0.05212707,0.01768871,-0.782658815383911,-0.32377964258194,0.542408466339111,-0.78970518344449,-0.339788078627405,0.488865127426884,0
3.49999809265137,-2.78737545013428,1.90621018409729,2.65454864501953,-2.52054331600794,1.88129700738756,2.70319347291972,1247.524,1244.427,3018.797,3012.712,-0.01578988,0.05255529,0.01617888,-0.771262884140015,-0.318770438432693,0.535744845867157,-0.777925130847354,-0.334719451091428,0.481572713707531,0
3.51999855041504,-2.80256986618042,1.89993572235107,2.66512775421143,-2.53598314392723,1.87465368077274,2.71275146190277,1246.977,1242.766,3014.437,3007.719,-0.01420477,0.05297639,0.01467334,-0.759718000888824,-0.313714325428009,0.528958201408386,-0.765998315247401,-0.329587675535422,0.474189446698144,0
3.53999710083008,-2.81753039360046,1.89376330375671,2.67556881904602,-2.55118156992615,1.86811422266028,2.72216001159753,1245.708,1241.166,3010.345,3003.201,-0.0126367,0.05338849,0.01317757,-0.748029828071594,-0.308614671230316,0.522057712078094,-0.753931367647136,-0.324395605094516,0.466719431305148,0
3.55999755859375,-2.83225417137146,1.88769400119781,2.6858696937561,-2.56613872308604,1.86167857751006,2.73141920191151,1243.967,1239.502,3006.296,2999.197,-0.01108354,0.05379141,0.01169335,-0.73620480298996,-0.303475052118301,0.515038549900055,-0.741727567798258,-0.319144650954242,0.459164697851087,0
3.57999801635742,-2.8467390537262,1.88172793388367,2.69602751731873,-2.58085048488145,1.85534851740854,2.74052648328127,1243.32,1237.843,3001.826,2994.604,-0.009543171,0.05418651,0.01021645,-0.724249541759491,-0.298298329114914,0.50789338350296,-0.72939375026341,-0.313837753835969,0.451529477255809,0
3.59999847412109,-2.86098265647888,1.87586605548859,2.70604038238525,-2.59531431270705,1.84912513636775,2.74948028171299,1242.527,1236.368,2997.773,2989.729,-0.00801931,0.05457248,0.008750186,-0.712170004844666,-0.29308757185936,0.500649333000183,-0.716935713767317,-0.308477408768949,0.443817359206151,0
3.61999702453613,-2.87498188018799,1.87010908126831,2.71590638160706,-2.60952643755859,1.84301005608494,2.75827826401348,1240.636,1234.885,2993.718,2986.003,-0.006515157,0.0549484,0.007299846,-0.699972331523895,-0.287845939397812,0.493297278881073,-0.70436057022192,-0.303066675810204,0.43603274631439,0
3.6399974822998,-2.88873529434204,1.86445784568787,2.72562313079834,-2.62348726424244,1.83700310238323,2.76692068077719,1239.429,1233.318,2989.756,2981.666,-0.005024852,0.05531538,0.005862217,-0.687663853168488,-0.282576680183411,0.48583984375,-0.691671935956746,-0.297607110965304,0.428177877260776,0
3.65999794006348,-2.90224027633667,1.85891175270081,2.73518848419189,-2.6371932403809,1.83110580375149,2.77540533291308,1238.722,1231.863,2985.377,2977.279,-0.003549461,0.05567338,0.004437053,-0.675250709056854,-0.277282238006592,0.478272914886475,-0.67887712865581,-0.292101862829246,0.420257282040303,0
3.67999839782715,-2.9154953956604,1.85347282886505,2.74460101127625,-2.65064230460817,1.82531904713786,2.78373094433754,1238.031,1230.509,2981.538,2972.422,-0.002093245,0.05602183,0.00302777,-0.662739157676697,-0.271965205669403,0.470622986555099,-0.665982380593835,-0.286553612975735,0.412274818727906,0
3.69999694824219,-2.9284975528717,1.84814023971558,2.7538583278656,-2.66383127580226,1.81964420129024,2.79189554578451,1236.119,1229.116,2977.345,2969.238,-0.0006604639,0.05635944,0.001639327,-0.65013587474823,-0.266628354787827,0.462871372699738,-0.65299527533123,-0.280965624398954,0.404235181908735,0
3.71999740600586,-2.94124674797058,1.84291458129883,2.76295924186707,-2.67676086214623,1.81408096149726,2.79989957565303,1235.458,1227.669,2973.729,2964.436,0.0007556802,0.05668778,0.0002669198,-0.637448728084564,-0.261274814605713,0.455041646957397,-0.639919784131907,-0.275339605822821,0.396140829984331,0
3.73999786376953,-2.95374035835266,1.83779668807983,2.77190160751343,-2.68942811570037,1.808630596175,2.80774120902801,1233.946,1226.378,2969.667,2960.887,0.002150578,0.0570058,-0.001083907,-0.624683976173401,-0.255907028913498,0.447119563817978,-0.626763698705669,-0.269678909802388,0.38799658639423,0
3.7599983215332,-2.96597743034363,1.83278608322144,2.78068399429321,-2.70183149102237,1.80329377028414,2.81541948920704,1233.427,1224.979,2965.703,2956.534,0.003526409,0.05731405,-0.002416552,-0.611849188804626,-0.25052735209465,0.439115256071091,-0.613533684877225,-0.263986404455806,0.379806577601466,0
3.77999687194824,-2.97795629501343,1.82788336277008,2.78930497169495,-2.71396843221189,1.79807158355717,2.82293283396604,1232.325,1223.757,2961.991,2952.518,0.004878324,0.05761217,-0.003726295,-0.598950684070587,-0.245138257741928,0.431043863296509,-0.600237787932998,-0.258265551445064,0.371575784021584,0
3.79999732971191,-2.9896764755249,1.82308864593506,2.79776287078857,-2.72583998000171,1.79296358819586,2.83028188756818,1230.759,1222.465,2958.319,2949.097,0.006206545,0.05789951,-0.005011004,-0.585996031761169,-0.239742487668991,0.422899752855301,-0.586880353750828,-0.252518220679987,0.363306895959991,0
3.81999778747559,-3.001136302948,1.81840181350708,2.8060564994812,-2.73744382842632,1.78797077639275,2.83746522251097,1230.133,1221.139,2954.486,2945.105,0.007514038,0.05817735,-0.006275473,-0.572992861270905,-0.234342455863953,0.414682269096375,-0.573469638309223,-0.246747964477482,0.355005024260668,0
3.83999824523926,-3.01233506202698,1.81382298469543,2.81418466567993,-2.74877898265085,1.78309357619748,2.84448222294423,1229.526,1219.968,2950.84,2940.975,0.008796777,0.0584452,-0.007515441,-0.559947669506073,-0.228940322995186,0.406408578157425,-0.560012740982885,-0.240957837500146,0.346674563774748,0
3.85999870300293,-3.02327275276184,1.80935192108154,2.82214617729187,-2.75984459091511,1.77833235409867,2.85133236158783,1228.281,1218.794,2947.268,2937.559,0.01005093,0.0587021,-0.008727712,-0.546867668628693,-0.223538681864738,0.398078233003616,-0.546516869536602,-0.235150941047811,0.338319976451988,0
3.87999725341797,-3.03394794464111,1.80498909950256,2.8299400806427,-2.77063893010371,1.77368785150474,2.85801457175126,1227.207,1217.566,2943.884,2934.005,0.01127881,0.05894842,-0.00991335,-0.533760786056519,-0.218140244483948,0.389696717262268,-0.532990631455729,-0.229330978680956,0.329946590735853,0
3.89999771118164,-3.04436063766479,1.80073404312134,2.83756542205811,-2.78116350015273,1.7691594230351,2.8645297819664,1226.246,1216.379,2940.382,2930.588,0.01248048,0.05918454,-0.01107129,-0.520634472370148,-0.21274745464325,0.381263494491577,-0.519438870577852,-0.223500034567577,0.321557405192552,0
