t,x_s1,x_s2,x_s3,x_s_d1,x_s_d2,x_s_d3,propellers_rpms1,propellers_rpms2,propellers_rpms3,propellers_rpms4,rollRad,pitchRad,yawRad,v_s1,v_s2,v_s3,v_s_d1,v_s_d2,v_s_d3,insideCount
0,-0.0599999986588955,2.94000005722046,1.17999994754791,-0.0599999986588955,2.94000005722046,1.17999994754791,0,0,0,0,0,0,0,0,0,0,-1.06581410364015E-15,4.44089209850063E-16,4.44089209850063E-16,0
0.0199966430664063,-0.0599999986588955,2.94000005722046,1.17811644077301,-0.0600018680476204,2.93999925287472,1.18000110478858,0,0,0,0,-0.01635288,0.0001297794,-0.01587137,-1.10653664009419E-09,-7.76775763711157E-08,-0.0941759571433067,-0.000279892991557604,-0.000120430134961378,0.000173267094926113,9
0.0400009155273438,-0.0599999986588955,2.94000005722046,1.17242503166199,-0.0600148724204753,2.93999365745638,1.18000915511487,0,0,0,0,-0.03270202,0.0005238493,-0.03175127,-1.08383135799528E-09,-7.60859677484405E-08,-0.284568399190903,-0.00111101934050116,-0.00047804058392963,0.00068777389696065,9
0.05999755859375,-0.0599058866500854,2.93990302085876,1.16596508026123,-0.0600498857373401,2.93997859220429,1.18003083002592,1868.27,3252.824,3183.801,1722.357,-0.04942241,0.0003296775,-0.01369504,0.00470564980059862,-0.00484918104484677,-0.322997689247131,-0.00247936261166862,-0.00106680046642749,0.00153484356504269,9
0.0799942016601563,-0.0598203726112843,2.93960738182068,1.16000318527222,-0.0601175240668593,2.93994948932069,1.18007270137395,1925.364,2314.317,3252.246,2829.49,-0.07543351,-0.002136388,0.02094843,0.00427573919296265,-0.0147787891328335,-0.298095911741257,-0.00437186567523228,-0.00188109166426407,0.00270639311381153,9
0.0999984741210938,-0.059937447309494,2.93904495239258,1.15498661994934,-0.0602281887669101,2.93990187339187,1.18014120809498,980.1031,1498.849,3914.997,3896.622,-0.1031964,-0.008063519,0.06330916,-0.00585377309471369,-0.0281171686947346,-0.250825703144073,-0.00677637982016689,-0.00291568692648091,0.00419490191241918,8
0.1199951171875,-0.0604638494551182,2.93818354606628,1.15081322193146,-0.0603918861403606,2.93983143898525,1.18024254456713,346.4892,980.4031,4172.742,4613.381,-0.1214327,-0.0154213,0.1040028,-0.0263200327754021,-0.0430687293410301,-0.208672165870667,-0.00967801353495435,-0.00416417885169243,0.00599115140585487,8
0.139999389648438,-0.0615636333823204,2.93704128265381,1.14728283882141,-0.0606185767455666,2.93973390035084,1.18038287685052,352.8315,747.0094,3975.496,4854.986,-0.1254008,-0.02116734,0.1351068,-0.0549891479313374,-0.0571143850684166,-0.176517948508263,-0.0130660253322238,-0.00562194567796536,0.00808849210174802,7
0.159996032714844,-0.06334088742733,2.93568086624146,1.14427483081818,-0.0609176604100223,2.93960521300545,1.18056802388615,821.0301,815.0285,3462.574,4692.389,-0.118459,-0.02352423,0.1522699,-0.0888627767562866,-0.0680150836706161,-0.150397837162018,-0.0169249902365933,-0.00728235046931681,0.0104773752055438,7
0.180000305175781,-0.0658469498157501,2.9341721534729,1.14182531833649,-0.0612986871007165,2.9394412678651,1.18080389755851,1348.66,1083.321,3006.871,4255.193,-0.10798,-0.02278015,0.155778,-0.125303313136101,-0.0754312127828598,-0.122477695345879,-0.0212451141043368,-0.00914117907931815,0.0131517376757159,7
0.199996948242188,-0.0690850242972374,2.93255376815796,1.14006149768829,-0.0617704296168641,2.93923829023936,1.18109592864822,1636.534,1381.274,2918.279,3666.318,-0.09982699,-0.02030128,0.1501557,-0.161903962492943,-0.080915592610836,-0.0881911218166351,-0.0260104776919234,-0.0111915819022102,0.0161017247421801,7
0.220001220703125,-0.0730103701353073,2.93082594871521,1.13903558254242,-0.0623420644491781,2.93899233174064,1.18144979784016,1641.338,1580.62,3148.378,3113.09,-0.09583918,-0.01735529,0.1421884,-0.196267515420914,-0.0863867178559303,-0.0512934774160385,-0.03121219533433,-0.0134297356845702,0.019321835755004,7
0.239997863769531,-0.0775501057505608,2.92897343635559,1.1386331319809,-0.0630217183703222,2.93869989564571,1.18187053599376,1524.187,1624.306,3417.613,2777.448,-0.0947574,-0.01467775,0.137733,-0.226986765861511,-0.0926251709461212,-0.0201246552169323,-0.0368338920540454,-0.0158485947310391,0.02280193382306,7
0.259994506835938,-0.0826390162110329,2.92699217796326,1.13863551616669,-0.0638179029240226,2.93835731967507,1.18236341216003,1438.878,1500.763,3533.441,2744.201,-0.09439041,-0.01258876,0.1393024,-0.254445523023605,-0.0990586951375008,0.000120313838124275,-0.0428651747123285,-0.0184436871643672,0.0265355850983733,7
0.279998779296875,-0.0882449001073837,2.9249005317688,1.1388521194458,-0.0647390625194898,2.93796097043536,1.18293365383054,1400.388,1275.877,3476.786,2977.733,-0.09320904,-0.01110645,0.1456853,-0.280294418334961,-0.104585483670235,0.0108324699103832,-0.0492963837173861,-0.0212108567320638,0.030516809833474,7
0.299995422363281,-0.0943706631660461,2.92273235321045,1.13920676708221,-0.0657923226682404,2.93750778201804,1.18358567203635,1350.87,1061.724,3344.705,3324.829,-0.09053096,-0.009934656,0.1533106,-0.306287795305252,-0.108407005667686,0.0177353117614985,-0.0561105313314725,-0.0241427940851591,0.0347350918094591,7
0.319999694824219,-0.101035982370377,2.92052555084229,1.1397248506546,-0.0669860785243584,2.93699414222283,1.18432466377777,1280.917,941.0844,3237.647,3590.497,-0.08597749,-0.008523713,0.1583592,-0.333266049623489,-0.110342025756836,0.0259050987660885,-0.0633008373176985,-0.0272365818771378,0.0391862337367069,7
0.339996337890625,-0.108251556754112,2.91831207275391,1.14046144485474,-0.068326768706371,2.93641728069206,1.18515461486636,1253.118,944.2393,3170.952,3649.855,-0.07944689,-0.006291984,0.1584755,-0.360779285430908,-0.110679417848587,0.0368294566869736,-0.0708499516420146,-0.0304847548730522,0.0438594951176439,7
0.360000610351563,-0.116003111004829,2.91611480712891,1.14145255088806,-0.0698225328270578,2.93577369517774,1.1860805641102,1319.54,1047.127,3120.987,3498.07,-0.07154848,-0.002963033,0.1534724,-0.387578248977661,-0.109858572483063,0.0495579987764359,-0.0787518717320621,-0.0338847303337087,0.0487511600740379,8
0.379997253417969,-0.124251469969749,2.91394972801208,1.14270746707916,-0.0714791088463715,2.935060916796,1.18710606357981,1455.477,1181.749,3090.598,3231.271,-0.0636144,0.001258999,0.1450375,-0.412417680025101,-0.108257241547108,0.0627454742789268,-0.0869889214763108,-0.0374289027221294,0.0538502862508218,8
0.399993896484375,-0.132943257689476,2.91182637214661,1.14421713352203,-0.0733036822025899,2.9342758538535,1.18823556140379,1579.522,1273.58,3104.968,2981.678,-0.05701828,0.005826247,0.1357478,-0.434589892625809,-0.106165863573551,0.075481154024601,-0.0955525119207663,-0.0411135764513579,0.0591515566763244,8
0.419998168945313,-0.142023622989655,2.90975022315979,1.14595770835876,-0.0753034649285836,2.93341540321397,1.18947352217404,1631.03,1288.452,3159.171,2844.977,-0.05243711,0.01017544,0.1278588,-0.454018533229828,-0.103802777826786,0.0870281904935837,-0.104434660908044,-0.0449353170220673,0.0646500300148815,8
0.439994812011719,-0.151446014642715,2.90772438049316,1.14789533615112,-0.0774831213880516,2.93247755793201,1.19082283335389,1607.325,1238.251,3218.848,2842.92,-0.04965464,0.01397569,0.122462,-0.47111976146698,-0.101290181279182,0.0968827605247498,-0.11361726969793,-0.0488863370519643,0.070334502284139,8
0.459999084472656,-0.161176726222038,2.90575170516968,1.14999675750732,-0.0798502821969742,2.93145903476675,1.19228821865812,1541.439,1158.166,3252.972,2938.199,-0.04788524,0.01718624,0.1193404,-0.486535459756851,-0.0986379012465477,0.105069532990456,-0.123096124252221,-0.0529648233581361,0.0762023647937057,8
0.479995727539063,-0.171193540096283,2.90383625030518,1.1522388458252,-0.0824088828700873,2.93035814037613,1.19387211435783,1474.271,1086.227,3248.116,3067.122,-0.04628893,0.01998745,0.1173764,-0.500841021537781,-0.0957766473293304,0.112103670835495,-0.132852887402757,-0.0571628859694044,0.0822422659629699,8
0.5,-0.181480973958969,2.90198349952698,1.15461564064026,-0.085166398670376,2.92917165836334,1.1955791479969,1431.573,1046.279,3216.77,3169.485,-0.04433471,0.02264398,0.1152217,-0.514372289180756,-0.0926384404301643,0.118841260671616,-0.142884000065179,-0.0614789935111996,0.0884520025491718,8
0.519996643066406,-0.192024141550064,2.9001989364624,1.15713453292847,-0.0881260274065667,2.92789821280061,1.19741129917127,1423.678,1045.11,3177.227,3210.408,-0.04192029,0.02537941,0.1118847,-0.527158796787262,-0.0892270877957344,0.125945970416069,-0.153170920546857,-0.0659051680111775,0.0948200963613094,9
0.540000915527344,-0.202804386615753,2.89848613739014,1.15980982780457,-0.0912951145137283,2.92653464315245,1.19937311505516,1445.737,1073.376,3148.999,3184.302,-0.03929335,0.02828978,0.1070489,-0.53901344537735,-0.0856388062238693,0.133762925863266,-0.163710711144578,-0.0704401454577151,0.101344728821151,9
0.55999755859375,-0.21379765868187,2.89684557914734,1.16265273094177,-0.094676112580471,2.92507989413848,1.20146611391775,1484.303,1113.907,3138.364,3114.323,-0.03688798,0.03132814,0.1010589,-0.549662530422211,-0.0820315703749657,0.142144590616226,-0.17448465888317,-0.0750758741803766,0.108014315705644,9
0.579994201660156,-0.224975913763046,2.89527416229248,1.16566789150238,-0.0982748462459366,2.92353145957921,1.20369390148813,1520.893,1148.699,3146.14,3034.885,-0.03512976,0.03434508,0.09465704,-0.55891364812851,-0.0785762369632721,0.150760024785995,-0.185486174984119,-0.0798095192118365,0.114824778247021,9
0.599998474121094,-0.236310571432114,2.8937656879425,1.16885149478912,-0.102097262171133,2.92188678079254,1.20606015903275,1539.93,1166.85,3163.567,2979.692,-0.0342898,0.03715997,0.08862094,-0.566733360290527,-0.0754192471504211,0.159177497029305,-0.196709126405959,-0.0846384416756885,0.121772319800455,9
0.6199951171875,-0.247775867581367,2.8923122882843,1.17219436168671,-0.106144683970236,2.92014528826426,1.20856570593183,1535.678,1167.472,3181.44,2963.721,-0.0344155,0.03963295,0.08345705,-0.573264956474304,-0.0726647451519966,0.167140513658524,-0.208134604141382,-0.0895545055543457,0.128845234789665,9
0.639999389648438,-0.259351134300232,2.89090466499329,1.17568695545197,-0.110424235525481,2.91830391678686,1.21121495220784,1506.774,1156.405,3195.097,2986.667,-0.03534334,0.04169917,0.07929425,-0.578762412071228,-0.0703786686062813,0.174629345536232,-0.219761081350814,-0.0945570538913933,0.136042578028218,9
0.659996032714844,-0.271020889282227,2.88953280448914,1.17932033538818,-0.114936482147704,2.9163624231229,1.21400824781511,1466.671,1144.358,3197.435,3031.557,-0.03678198,0.0433856,0.0759036,-0.583487689495087,-0.0685942620038986,0.181671217083931,-0.231569557951997,-0.0996379114822372,0.143352587560098,9
0.680000305175781,-0.282773852348328,2.88818621635437,1.18308973312378,-0.119688496929273,2.91431776391831,1.21694997133476,1429.2,1139.655,3190.969,3074.873,-0.03844646,0.04477688,0.07288192,-0.587648570537567,-0.0673238784074783,0.1884685754776,-0.243559016194652,-0.104796640417365,0.150774633349401,9
0.699996948242188,-0.294600814580917,2.88685464859009,1.1869922876358,-0.124680083855354,2.91217002351282,1.22004000142426,1404.348,1146.262,3177.088,3102.25,-0.04017005,0.04596743,0.06985664,-0.591348171234131,-0.0665740072727203,0.195130199193954,-0.255710395848158,-0.11002503961202,0.158296916205407,9
0.719993591308594,-0.306493043899536,2.88552737236023,1.19102871417999,-0.129916240141956,2.90991705174396,1.22328143159838,1393.666,1162.862,3163.748,3106.461,-0.04193254,0.04702102,0.06662936,-0.594613313674927,-0.0663598030805588,0.201821461319923,-0.268018433064612,-0.115320844179508,0.165916177555513,9
0.739997863769531,-0.318441450595856,2.88419318199158,1.19519948959351,-0.135402141159277,2.90755662179454,1.22667746565781,1391.624,1184.95,3153.775,3094.599,-0.04382924,0.04795167,0.06322251,-0.597420394420624,-0.0667094960808754,0.20853865146637,-0.280478211503383,-0.120681938755799,0.173629373950669,9
0.759994506835938,-0.330436527729034,2.8828399181366,1.19950425624847,-0.14113644597991,2.90508931062815,1.2302272735046,1393.496,1207.68,3148.918,3074.209,-0.04599599,0.0487353,0.05981005,-0.599754214286804,-0.0676603689789772,0.21524116396904,-0.293070637251543,-0.126100107763583,0.181424685349205,9
0.779998779296875,-0.342469364404678,2.8814549446106,1.20394206047058,-0.147126184485884,2.90251209348295,1.23393520697061,1387.523,1226.582,3151.14,3058.755,-0.04853931,0.04931878,0.05664847,-0.601640462875366,-0.0692533329129219,0.221892461180687,-0.305795832832518,-0.131575403921268,0.189302187598958,9
0.799995422363281,-0.354532301425934,2.88002467155457,1.20850837230682,-0.153369252164744,2.89982587587186,1.23779996326238,1373.58,1240.615,3153.88,3055.081,-0.05147784,0.0496606,0.05393453,-0.603147685527802,-0.0715173184871674,0.228316709399223,-0.318634718604462,-0.13709961779199,0.197250069492735,9
0.819999694824219,-0.366620093584061,2.87853527069092,1.2131986618042,-0.159872691993147,2.89702762739878,1.24182590231796,1352.502,1250.842,3156.868,3061.657,-0.0547498,0.04973922,0.05175815,-0.604390621185303,-0.0744670405983925,0.234512031078339,-0.331587821991737,-0.142672976311719,0.205268657531342,9
0.839996337890625,-0.37872987985611,2.87697339057922,1.21800673007965,-0.166633637018892,2.89411858163313,1.24601124935738,1326.825,1259.602,3155.387,3078.289,-0.05825505,0.04956023,0.05010062,-0.605487585067749,-0.0780967548489571,0.240405514836311,-0.344636106234817,-0.148287288494656,0.213346167053785,8
0.860000610351563,-0.390860915184021,2.87532567977905,1.22292852401733,-0.173659158941841,2.89109569582005,1.2503603820997,1300.527,1269.111,3152.062,3096.771,-0.06187482,0.04915179,0.04886172,-0.606553554534912,-0.0823914781212807,0.246092304587364,-0.357780475378537,-0.153942943326036,0.221483157706883,8
0.879997253417969,-0.403014242649078,2.87357926368713,1.22795987129211,-0.180945630646592,2.88796053060595,1.25487105518773,1277.537,1280.956,3145.021,3113.728,-0.06551643,0.04855433,0.04791949,-0.607666969299316,-0.0873243659734726,0.251564532518387,-0.371001963495383,-0.159631780297098,0.229667888678032,8
0.899993896484375,-0.415191948413849,2.87172198295593,1.23309862613678,-0.18849723509595,2.8847112861788,1.25954585807468,1259.344,1295.151,3138.974,3123.547,-0.06911968,0.04780557,0.04718141,-0.608883202075958,-0.0928697437047958,0.2569380402565,-0.384296738353309,-0.165352150505452,0.237897987633041,8
0.919998168945313,-0.427396416664124,2.86974215507507,1.23834240436554,-0.196318384305134,2.8813460641717,1.26438752200817,1245.224,1310.764,3132.802,3128.945,-0.07266861,0.04693167,0.04661575,-0.610225915908813,-0.0989964976906776,0.262186497449875,-0.397661187980262,-0.171102499820431,0.246171218589148,8
0.939994812011719,-0.439630746841431,2.86762857437134,1.24368894100189,-0.204404317663683,2.87786691294234,1.26939309994354,1237.827,1326.658,3127.396,3127.835,-0.07617439,0.0459497,0.04623032,-0.611714839935303,-0.105673849582672,0.267324835062027,-0.4110765036434,-0.176874735369747,0.254475938044738,8
0.959999084472656,-0.451898247003555,2.86537098884583,1.24913740158081,-0.212762239776093,2.87427073255068,1.27456705187416,1227.475,1341.132,3126.184,3127.938,-0.07967006,0.04485399,0.04609806,-0.613374590873718,-0.11287634819746,0.272420197725296,-0.424544411524882,-0.18266959988136,0.262813214588797,8
0.979995727539063,-0.46420294046402,2.86295962333679,1.25468492507935,-0.22138664033507,2.87055989392801,1.27990596665734,1216.523,1353.403,3124.784,3131.476,-0.08315348,0.04364491,0.04627039,-0.615234136581421,-0.120569437742233,0.277373820543289,-0.438046240701377,-0.188479059778567,0.271171490030365,8
1,-0.47654977440834,2.86038517951965,1.26032984256744,-0.230284798736574,2.86673126495361,1.28541435058594,1204.66,1363.595,3125.445,3136.602,-0.08659641,0.04232594,0.04677342,-0.61734277009964,-0.128721177577972,0.282247990369797,-0.451584000205995,-0.194303979492187,0.279552008056641,8
1.01999664306641,-0.488944619894028,2.85763955116272,1.26606941223145,-0.239450461003889,2.86278753653895,1.29108833215045,1192.26,1372.357,3124.111,3146.119,-0.08996637,0.04090734,0.04760338,-0.619742810726166,-0.137286394834518,0.286976456642151,-0.465139182559269,-0.200136395770846,0.2879433116562,8
1.04000091552734,-0.501394271850586,2.85471510887146,1.27190232276917,-0.24889099213045,2.8587255397331,1.29693247063265,1179.999,1380.074,3123.914,3156.149,-0.09321596,0.03940692,0.04872422,-0.622484028339386,-0.146224066615105,0.291648268699646,-0.478714054341683,-0.205977283860805,0.296346803950333,8
1.05999755859375,-0.513906180858612,2.85160541534424,1.27782678604126,-0.258599401509697,2.85454828239877,1.30294243851408,1169.788,1387.558,3121.637,3167.088,-0.09630736,0.03784876,0.05008387,-0.625596106052399,-0.155481979250908,0.296223342418671,-0.492290296490434,-0.211818761581115,0.30475114456651,8
1.07999420166016,-0.526488304138184,2.84830498695374,1.28384292125702,-0.268579290074434,2.85025421515517,1.30912046494367,1161.679,1394.761,3121.162,3175.4,-0.09920754,0.03625676,0.05163197,-0.629107058048248,-0.165015995502472,0.30080458521843,-0.50586523043438,-0.217659676417445,0.313154675341593,8
1.09999847412109,-0.53914874792099,2.84480953216553,1.28995013237,-0.278834517009062,2.84584167750307,1.31546893894041,1155.576,1401.701,3120.125,3183.3,-0.1019005,0.03465198,0.0533342,-0.633022844791412,-0.174773722887039,0.305360376834869,-0.519436284009554,-0.223498921639497,0.321555803983559,7
1.1199951171875,-0.55189573764801,2.84111547470093,1.29614841938019,-0.289357002179081,2.84131414609862,1.32198285851614,1155.733,1408.314,3118.714,3186.76,-0.1043847,0.03305606,0.05515598,-0.637348055839539,-0.18470498919487,0.309912025928497,-0.532985466132485,-0.229328756186667,0.329943393154705,7
1.13999938964844,-0.564737498760223,2.83721995353699,1.30243957042694,-0.300154365346813,2.83666834237095,1.3286669406667,1153.481,1413.82,3120.832,3191.186,-0.1066825,0.0314726,0.05711098,-0.642086863517761,-0.194770231842995,0.314557582139969,-0.546515580872639,-0.235150386571708,0.338319178707607,7
1.15999603271484,-0.577682077884674,2.83312153816223,1.30882394313812,-0.311217811600473,2.8319080505249,1.33551574092274,1152.678,1417.982,3122.29,3196.617,-0.1087923,0.02991217,0.05919478,-0.647233307361603,-0.204920589923859,0.319216728210449,-0.560008885098767,-0.240956178420931,0.346672176798798,7
1.18000030517578,-0.590737998485565,2.82881927490234,1.31530320644379,-0.322555076427271,2.82702994219644,1.34253404791935,1152.811,1420.765,3125.859,3201.078,-0.110706,0.02838361,0.06140001,-0.652795195579529,-0.215117245912552,0.32396274805069,-0.573468357077025,-0.246747413199059,0.355004231116904,7
1.19999694824219,-0.603913426399231,2.82431316375732,1.32187783718109,-0.334156660511822,2.8220381046756,1.34971598112778,1154.27,1422.698,3127.668,3207.282,-0.1124264,0.02689612,0.06371316,-0.658767402172089,-0.225310951471329,0.328734427690506,-0.58687652428584,-0.252516572968185,0.36330452533874,7
1.21999359130859,-0.61721658706665,2.81960391998291,1.32855033874512,-0.346025842163694,2.81693112739735,1.35706356997782,1155.561,1423.494,3131.643,3213.244,-0.1139497,0.02545819,0.06611378,-0.665157079696655,-0.235465824604034,0.333626121282578,-0.600231432569387,-0.258262816909651,0.371571849748761,7
1.23999786376953,-0.630655586719513,2.81469321250916,1.33532226085663,-0.358166167196084,2.81170748469733,1.36457900949675,1156.708,1423.647,3134.898,3220.947,-0.1152696,0.02408054,0.06857603,-0.67195451259613,-0.245538502931595,0.338596403598785,-0.613531154887641,-0.263985315871967,0.379805011417393,7
1.25999450683594,-0.644238650798798,2.80958342552185,1.34219539165497,-0.3705671011502,2.80637170925886,1.37225577835275,1162.846,1423.677,3137.04,3225.443,-0.1163849,0.02277983,0.07105447,-0.679151475429535,-0.255488812923431,0.343654185533524,-0.626758665639206,-0.269676744214496,0.387993470686331,7
1.27999877929688,-0.657973349094391,2.80427765846252,1.34917330741882,-0.383236695417198,2.80092033679326,1.3800988607405,1166.258,1423.014,3142.258,3230.752,-0.1173117,0.02155797,0.07354205,-0.686739265918732,-0.265289276838303,0.348895668983459,-0.639917282339435,-0.275338529371412,0.396139281255613,8
1.29999542236328,-0.671867191791534,2.79877972602844,1.35625791549683,-0.396163740917024,2.79535819025452,1.38810131770546,1171.739,1421.949,3145.95,3235.943,-0.118051,0.02042534,0.07601481,-0.694690823554993,-0.274902433156967,0.354232221841812,-0.652990303744023,-0.280963485263868,0.404232104259424,8
1.31999969482422,-0.685927033424377,2.79309368133545,1.36345267295837,-0.409356423791328,2.7896817473746,1.39626821685929,1178.463,1420.202,3151.638,3238.915,-0.1186049,0.01938721,0.07845748,-0.702993214130402,-0.284303992986679,0.359739691019058,-0.665981146317813,-0.286553081901244,0.412274054652251,8
1.33999633789063,-0.7001593708992,2.78722453117371,1.37075960636139,-0.422802873722428,2.78389611561957,1.40459220990988,1186.649,1418.286,3155.461,3242.535,-0.1189938,0.01844671,0.08086105,-0.711616337299347,-0.293460518121719,0.365349441766739,-0.678873453515705,-0.29210028151913,0.420255006953505,8
1.36000061035156,-0.714570224285126,2.78117752075195,1.37818253040314,-0.436511415158101,2.77799771321212,1.41307845008695,1193.999,1415.449,3161.714,3245.654,-0.1192318,0.01760292,0.08322035,-0.720546841621399,-0.302354425191879,0.371145248413086,-0.691670720740693,-0.297606588091785,0.42817712498415,8
1.37999725341797,-0.729165375232697,2.77495837211609,1.38572359085083,-0.450469530727146,2.77199192602736,1.42171918854144,1201.919,1412.432,3166.296,3249.85,-0.1193336,0.0168574,0.08552404,-0.729754507541656,-0.310960173606873,0.37705385684967,-0.704356955827446,-0.303065120637236,0.436030508832034,8
1.39999389648438,-0.743949890136719,2.76857304573059,1.39338660240173,-0.464680216184654,2.76587746507559,1.43051627978847,1209.092,1408.67,3173.214,3253.139,-0.1193022,0.0162101,0.08776153,-0.739225029945374,-0.319266557693481,0.383149772882462,-0.716930938559026,-0.308475354130225,0.443814403124744,8
1.41999816894531,-0.75892835855484,2.76202797889709,1.40117383003235,-0.47914673136562,2.75965292774086,1.43947174182117,1216.098,1404.767,3178.893,3257.56,-0.1191397,0.01566206,0.08992162,-0.748925745487213,-0.327254176139832,0.389363497495651,-0.729391385793766,-0.313836736470737,0.451528013536465,8
1.43999481201172,-0.774104952812195,2.75532984733582,1.40908753871918,-0.493855616658466,2.75332410531803,1.44857724249882,1227.532,1401.271,3182.679,3259.005,-0.1188606,0.01521881,0.09197626,-0.758831381797791,-0.334906011819839,0.395684242248535,-0.7417228873516,-0.319142637088802,0.459161800431646,8
1.45999908447266,-0.789483428001404,2.74848532676697,1.41713166236877,-0.508815552717244,2.74688726276417,1.45783815555978,1234.821,1397.096,3189.764,3261.828,-0.118491,0.01487063,0.09393543,-0.768923461437225,-0.342220991849899,0.402206540107727,-0.753929052770513,-0.324394609067776,0.466717998286247,8
1.47999572753906,-0.805066645145416,2.74150156974792,1.42530822753906,-0.524012471663969,2.74034845309416,1.46724577231745,1242.663,1392.971,3195.032,3265.205,-0.1180345,0.01461795,0.09578823,-0.779163420200348,-0.349188327789307,0.40882608294487,-0.765994882555672,-0.329586198544069,0.474187321698441,8
1.5,-0.820857346057892,2.73438549041748,1.43362021446228,-0.539455198877605,2.73370387899399,1.4768055561018,1250.863,1388.469,3201.939,3266.622,-0.1174891,0.0144592,0.09752642,-0.789531767368317,-0.355808675289154,0.41559824347496,-0.777924000354858,-0.334718964672088,0.481572013878822,8
1.51999664306641,-0.836857199668884,2.72714400291443,1.44206893444061,-0.555129074991064,2.72695984797977,1.48650843206629,1260.39,1384.466,3206.089,3268.473,-0.1168728,0.01439254,0.09914449,-0.799990236759186,-0.362072497606277,0.422435760498047,-0.789701834723693,-0.339786637766398,0.488863054409188,8
1.53999328613281,-0.853067576885223,2.71978425979614,1.4506573677063,-0.571036956668503,2.72011513090874,1.49635616862212,1268.658,1379.951,3212.525,3269.499,-0.116198,0.01441028,0.1006436,-0.810522198677063,-0.367985904216766,0.429421335458755,-0.801327600455846,-0.344788879974649,0.496059957209413,8
1.55999755859375,-0.86948949098587,2.71231317520142,1.4593870639801,-0.587181951496087,2.71316839067337,1.50635068951315,1275.431,1375.469,3217.919,3272.27,-0.1154731,0.01450766,0.1020254,-0.821092665195465,-0.373548716306686,0.436484813690186,-0.812800388649436,-0.349725300221754,0.503162159625937,8
1.57999420166016,-0.88612300157547,2.70473790168762,1.46825909614563,-0.603548545866849,2.70612630234534,1.51648239107766,1285.756,1371.624,3221.415,3272.326,-0.1147103,0.01468569,0.103271,-0.831675410270691,-0.378762155771255,0.443604707717896,-0.824106301004481,-0.354589918457504,0.510161057949003,8
1.59999847412109,-0.902968108654022,2.69706511497498,1.47727632522583,-0.620145926473056,2.69898491314762,1.52675696031579,1291.752,1367.177,3228.15,3273.578,-0.1139258,0.0149312,0.104397,-0.842253565788269,-0.383641213178635,0.450862288475037,-0.835248923368005,-0.359384277571697,0.517058871988737,8
1.6199951171875,-0.920023858547211,2.68930125236511,1.48643910884857,-0.636958033083316,2.69175113334911,1.53716445517924,1298.342,1363.15,3232.374,3275.403,-0.113121,0.01524298,0.1053988,-0.852789163589478,-0.388189882040024,0.45813849568367,-0.846214826007804,-0.364102599125749,0.523847288101157,8
1.63999938964844,-0.93728905916214,2.68145275115967,1.49574899673462,-0.653994195024907,2.68442094880091,1.54771065096602,1305.077,1358.916,3238.139,3275.224,-0.1122901,0.01561601,0.1062747,-0.863267660140991,-0.392421931028366,0.465492755174637,-0.857007552155828,-0.368746407673381,0.530528499715628,8
1.65999603271484,-0.95476222038269,2.67352604866028,1.5052056312561,-0.671237824488362,2.67700149677403,1.55838527903188,1312.561,1355.433,3240.812,3275.954,-0.1114512,0.01604571,0.1070252,-0.873654127120972,-0.396340906620026,0.472830981016159,-0.867614155697522,-0.373310132863173,0.537094492570531,8
1.68000030517578,-0.972440898418427,2.66552686691284,1.5148104429245,-0.688698391434734,2.66948870260877,1.56919420173384,1318.4,1351.557,3245.83,3275.9,-0.1106112,0.01652415,0.1076548,-0.883938670158386,-0.399964362382889,0.480238348245621,-0.878038122530658,-0.377795274579551,0.543547424602645,8
1.69999694824219,-0.990322768688202,2.65746092796326,1.52456295490265,-0.706358800111611,2.66188992212981,1.58012683598675,1324.037,1348.316,3248.558,3276.88,-0.109783,0.01704638,0.1081641,-0.894089460372925,-0.40330183506012,0.487623035907745,-0.888267004546665,-0.382196476749158,0.549879589839776,8
1.71999359130859,-1.0084046125412,2.64933347702026,1.53446400165558,-0.72422180503422,2.6542039701462,1.59118488696678,1328.347,1344.737,3253.614,3276.586,-0.1089606,0.01760613,0.1085569,-0.904096901416779,-0.406373918056488,0.495051950216293,-0.898300426012065,-0.386513577704374,0.556090755685004,8
1.73999786376953,-1.0266832113266,2.6411497592926,1.54451274871826,-0.742290383213093,2.64642956573347,1.60237019758524,1332.039,1341.569,3256.833,3277.438,-0.108143,0.0181989,0.1088384,-0.913931012153625,-0.409191578626633,0.502434909343719,-0.908137821269591,-0.39074633405868,0.562180571969536,8
1.75999450683594,-1.04515469074249,2.63291454315186,1.55470776557922,-0.760546715064628,2.63857437616062,1.61367173667103,1339.772,1339.383,3257.409,3275.51,-0.1073419,0.01882576,0.1089955,-0.92357349395752,-0.411764413118362,0.509749233722687,-0.917767514700581,-0.394889722119545,0.568141810929231,8
1.77999877929688,-1.06381511688232,2.62463212013245,1.5650497674942,-0.779000609654483,2.63063418086074,1.62509557650306,1342.433,1336.555,3261.75,3275.056,-0.1065765,0.01947022,0.109054,-0.933019816875458,-0.414116591215134,0.517098486423492,-0.927192788821983,-0.398945154262308,0.57397650459845,8
1.79999542236328,-1.08266007900238,2.6163067817688,1.57553696632385,-0.797633790944145,2.62261684350262,1.63663040334288,1344.647,1334.195,3263.712,3275.944,-0.1058436,0.02012976,0.1090171,-0.942241549491882,-0.416261941194534,0.524357795715332,-0.936402499096495,-0.402907835303912,0.579677753977713,7
1.81999969482422,-1.10168480873108,2.60794234275818,1.58616864681244,-0.816456197270346,2.61451808789761,1.64828236949435,1347.046,1331.683,3267.21,3274.68,-0.1051267,0.02080193,0.108885,-0.951235353946686,-0.418220669031143,0.531582295894623,-0.945399824400851,-0.406779133026206,0.585247526943151,7
1.83999633789063,-1.12088429927826,2.59954237937927,1.5969420671463,-0.835449117627072,2.60634596486888,1.66003989195343,1350.603,1330.112,3267.151,3274.22,-0.1044359,0.02148397,0.1086598,-0.959976494312286,-0.42000088095665,0.538670003414154,-0.954174163352093,-0.410554485950274,0.590679260733698,7
1.86000061035156,-1.14025354385376,2.59110999107361,1.60785639286041,-0.854622615239374,2.59809614449182,1.6719092003358,1352.714,1328.24,3269.474,3272.757,-0.1037749,0.02216844,0.108349,-0.968467473983765,-0.421622663736343,0.545717179775238,-0.962728579444532,-0.414235212212131,0.595974851798267,7
1.87999725341797,-1.15978741645813,2.58264803886414,1.6189090013504,-0.873957566090845,2.58977685529642,1.6838784559643,1354.204,1327.04,3269.402,3272.903,-0.1031533,0.02285143,0.1079579,-0.976687431335449,-0.423097789287567,0.552630841732025,-0.971053025860989,-0.417816988947023,0.601128080678429,7
1.89999389648438,-1.17948007583618,2.57415914535522,1.63009870052338,-0.893456683142228,2.58138692997148,1.69594933829086,1354.377,1325.499,3271.903,3271.624,-0.1025605,0.02352861,0.1074915,-0.984639465808868,-0.424447894096375,0.559487879276276,-0.979147395688901,-0.421299770153459,0.606138881190213,7
1.91999816894531,-1.19932627677917,2.56564545631409,1.64142251014709,-0.913122862707269,2.57292512231409,1.70812364027167,1353.823,1324.398,3272.462,3271.774,-0.1019884,0.02419783,0.1069569,-0.992304444313049,-0.425683945417404,0.566193699836731,-0.987011339258123,-0.424683405378145,0.611007036871143,7
1.93999481201172,-1.21931982040405,2.55710911750793,1.65287709236145,-0.932936403420974,2.56439990927123,1.72038916582329,1357.8,1324.281,3270.385,3268.795,-0.1014441,0.02486217,0.106341,-0.999675750732422,-0.426814019680023,0.572730600833893,-0.994635661494588,-0.427963938237592,0.615726855532351,7
1.95999908447266,-1.23945486545563,2.5485520362854,1.66446125507355,-0.952907658613767,2.55580683609405,1.73275232415044,1356.596,1323.534,3272.143,3267.485,-0.1009429,0.02550764,0.1056729,-1.00675964355469,-0.42785906791687,0.579208135604858,-1.00202309041976,-0.431142542523221,0.620300025949072,7
1.97999572753906,-1.25972557067871,2.53997540473938,1.67617118358612,-0.973016570682103,2.54715453300902,1.74520069864106,1355.033,1323.209,3271.342,3267.815,-0.1004784,0.0261339,0.1049561,-1.01353859901428,-0.428829163312912,0.585498809814453,-1.00916501115878,-0.434215511495054,0.624721215103391,7
2,-1.28012609481812,2.53138065338135,1.68800461292267,-0.993273599084619,2.53843849960327,1.7577407641983,1353.838,1322.666,3272.461,3265.687,-0.1000305,0.0267413,0.104191,-1.02002143859863,-0.429740607738495,0.591674447059631,-1.01606400046349,-0.437183953857422,0.628992018127441,6
2.01999664306641,-1.30064988136292,2.52276873588562,1.69995713233948,-1.01365835337184,2.52966750931758,1.77035989816261,1353.551,1322.944,3270.018,3264.885,-0.09960435,0.02732886,0.1033813,-1.02619278430939,-0.430596321821213,0.597627818584442,-1.02271203275434,-0.440044416427654,0.633107466805174,6
2.03999328613281,-1.3212913274765,2.51414060592651,1.71202635765076,-1.03417354141348,2.52084039703127,1.78305977683431,1352.433,1322.898,3269.998,3262.644,-0.09919795,0.02789324,0.1025324,-1.03206527233124,-0.431409925222397,0.603462398052216,-1.02910913225408,-0.442796909628122,0.637067576131623,6
2.05999755859375,-1.34204387664795,2.50549674034119,1.72420847415924,-1.05482201812353,2.5119559343546,1.79584216754118,1349.127,1323.058,3268.724,3263.02,-0.0988102,0.02843111,0.1016548,-1.03762924671173,-0.432187736034393,0.609105229377747,-1.03525504859546,-0.445441325732794,0.640872191117535,6
2.07999420166016,-1.36290156841278,2.49683809280396,1.73649930953979,-1.07558293843174,2.50302309033894,1.80869416619175,1350.15,1323.995,3265.405,3260.134,-0.09843896,0.0289492,0.1007313,-1.04288554191589,-0.432934165000916,0.614540994167328,-1.0411426556922,-0.447974598585819,0.644516900376035,6
2.09999847412109,-1.38385844230652,2.4881649017334,1.74889671802521,-1.09646699912883,2.4940372624541,1.82162239460902,1346.352,1324.356,3265.813,3258.694,-0.09809274,0.02943731,0.09978767,-1.04784452915192,-0.43366402387619,0.61987042427063,-1.04677411523768,-0.450397658303471,0.648003042098304,5
2.1199951171875,-1.40490818023682,2.4794774055481,1.7613959312439,-1.11745308225396,2.48500753716864,1.83461377976925,1343.224,1325.102,3263.37,3258.373,-0.09775878,0.02989886,0.09882419,-1.05249357223511,-0.434379547834396,0.624962151050568,-1.0521429102862,-0.45270770082608,0.651326581984514,5
2.13999938964844,-1.42604517936707,2.47077560424805,1.77399384975433,-1.138551967509,2.47592927627801,1.8476749948214,1340.911,1325.596,3262.734,3255.528,-0.09742057,0.03033528,0.0978413,-1.05684578418732,-0.435088813304901,0.629897117614746,-1.05725102347782,-0.454905579228273,0.654488747383304,4
2.15999603271484,-1.44726288318634,2.46205973625183,1.78668546676636,-1.15974228854654,2.4668116731246,1.86079281297862,1339.237,1326.699,3258.886,3254.325,-0.09708714,0.0307463,0.09684441,-1.06089174747467,-0.435788124799728,0.634580314159393,-1.06209255378819,-0.456988754464129,0.657485885279498,4
2.18000030517578,-1.46855580806732,2.45333003997803,1.79946780204773,-1.18103490068612,2.45765005696766,1.87397395420079,1336.406,1327.32,3257.744,3251.991,-0.09675477,0.03112959,0.09583886,-1.06464779376984,-0.436484843492508,0.639119565486908,-1.06666929835407,-0.458957999791384,0.660319108186354,3
2.19999694824219,-1.48991799354553,2.44458651542664,1.81233620643616,-1.20240821395574,2.44845371736898,1.88720505326679,1333.234,1328.388,3254.084,3251.635,-0.09642827,0.03148617,0.09482685,-1.06810641288757,-0.437176495790482,0.64341801404953,-1.07097597819164,-0.460811043810786,0.662985148161421,1
2.21999359130859,-1.51134347915649,2.43582916259766,1.82528758049011,-1.22386495005255,2.43922148325834,1.90048779503681,1329.494,1329.011,3253.161,3249.412,-0.09609111,0.03181762,0.09380811,-1.07128310203552,-0.437870234251022,0.647570013999939,-1.07501271071614,-0.462547937042828,0.665484077890325,0
2.23999786376953,-1.53282701969147,2.42705798149109,1.8383172750473,-1.24540792547886,2.42995214277345,1.91382392305993,1325.019,1329.847,3250.458,3249.019,-0.09573531,0.03212517,0.09278796,-1.07417047023773,-0.438562214374542,0.651487171649933,-1.07877930973132,-0.464168599372462,0.667815782108711,0
2.25999450683594,-1.55436229705811,2.41827297210693,1.85142052173615,-1.26701526177039,2.4206551096063,1.92719989352455,1325.818,1331.296,3245.428,3245.14,-0.09536034,0.03241714,0.09174812,-1.07677209377289,-0.439246028661728,0.655160069465637,-1.08227143928024,-0.465671165158559,0.669977576652695,0
2.27999877929688,-1.57594454288483,2.40947437286377,1.86459469795227,-1.28869796983554,2.41132564607061,1.9406225227075,1321.619,1332.122,3244.318,3242.986,-0.09498377,0.03268331,0.09071572,-1.0791015625,-0.439927577972412,0.658710300922394,-1.08549040888332,-0.467056197851165,0.67197027217779,0
2.29999542236328,-1.59756731987,2.40066242218018,1.87783491611481,-1.31043401044317,2.40197323503182,1.95407816727483,1317.22,1332.984,3240.812,3242.827,-0.09459655,0.03292785,0.08969117,-1.0811505317688,-0.440601706504822,0.662011325359344,-1.08843251702753,-0.468322104792631,0.6737915772711,0
2.31999969482422,-1.6192262172699,2.39183712005615,1.89113783836365,-1.33223444283894,2.39259311800549,1.96757367342642,1313.976,1333.472,3239.309,3239.806,-0.09417576,0.03315453,0.08866873,-1.08293402194977,-0.441269934177399,0.665145993232727,-1.09109887036509,-0.469469362144493,0.675442177003072,0
2.33999633789063,-1.64091491699219,2.38299870491028,1.90449821949005,-1.35407709248145,2.38319483607731,1.98109531406483,1311.729,1334.452,3234.616,3238.271,-0.09372782,0.03336601,0.08764975,-1.08444452285767,-0.441921234130859,0.668017446994781,-1.09348640563071,-0.470496651869278,0.67692017506657,0
2.35999298095703,-1.66262888908386,2.37414765357971,1.91791296005249,-1.37596470003558,2.37377721001573,1.99464478579218,1308.97,1334.927,3232.513,3235.245,-0.09324952,0.03356199,0.08663593,-1.08569777011871,-0.442555516958237,0.670735418796539,-1.09559527181965,-0.471404038075479,0.678225663696753,0
2.37999725341797,-1.6843626499176,2.36528444290161,1.93137753009796,-1.39790005743958,2.36433903852774,2.00822381695123,1304.334,1335.385,3229.16,3234.992,-0.09273873,0.03374282,0.08563337,-1.08668899536133,-0.44316503405571,0.67322838306427,-1.09742530100382,-0.472191448508328,0.679358538938131,0
2.39999389648438,-1.70611119270325,2.35640954971313,1.94488728046417,-1.41986083522252,2.35488992936084,2.02181858453579,1304.693,1336.24,3224.016,3231.194,-0.09219384,0.03391758,0.08461936,-1.0874228477478,-0.443741321563721,0.675489664077759,-1.09897439291323,-0.472857979480329,0.680317500623536,0
2.41999816894531,-1.72786927223206,2.3475239276886,1.95843994617462,-1.44185817738692,2.34542508756209,2.03543598721428,1300.269,1336.553,3222.696,3228.917,-0.09162553,0.03407923,0.08361645,-1.08791089057922,-0.444286853075027,0.677632570266724,-1.10024313330221,-0.473403883025206,0.681102911362803,0
2.43999481201172,-1.74963223934174,2.33862805366516,1.97203040122986,-1.46386968334064,2.3359541514805,2.04906215795307,1296.619,1336.876,3218.668,3228.067,-0.09102258,0.03423272,0.08262063,-1.08814358711243,-0.444791972637177,0.679523169994354,-1.10123006676374,-0.473828532921971,0.681713870189648,0
2.45999908447266,-1.77139484882355,2.32972288131714,1.98565554618835,-1.48590651627916,2.32647231790489,2.06270400730194,1294.391,1336.809,3216.681,3224.204,-0.09036798,0.03438226,0.0816261,-1.08813428878784,-0.445254594087601,0.681254863739014,-1.10193556692257,-0.474132089930926,0.682150608395601,0
2.47999572753906,-1.7931524515152,2.32080960273743,1.99931013584137,-1.50794623031618,2.31698924467309,2.07634764018804,1292.947,1337.117,3211.596,3222.123,-0.08967289,0.03452913,0.08063539,-1.08787453174591,-0.445660889148712,0.68273264169693,-1.10235882472314,-0.474314205938057,0.682412625136718,0
2.5,-1.81490015983582,2.31188941001892,2.01299142837524,-1.52999999932945,2.30750012397766,2.08999997377396,1290.702,1336.845,3209.249,3218.803,-0.0889368,0.03467263,0.07964944,-1.08737850189209,-0.446009248495102,0.684069991111755,-1.10250000050292,-0.474374949932098,0.682500019669533,0
2.51999664306641,-1.83663296699524,2.3029637336731,2.02669501304626,-1.55204535801192,2.29801462201262,2.10364710096447,1288.272,1336.774,3204.641,3217.443,-0.08816661,0.03481525,0.07866734,-1.08663928508759,-0.446289271116257,0.685176372528076,-1.10235893238473,-0.47431425226183,0.68241269178437,0
2.53999328613281,-1.85834610462189,2.29403400421143,2.04041790962219,-1.57408507527774,2.28853154739156,2.11729073584934,1285.473,1336.193,3202.75,3214.23,-0.08735009,0.03495846,0.07768537,-1.08566904067993,-0.44650062918663,0.686147570610046,-1.10193578218388,-0.474132182551855,0.682150741652607,0
2.55999755859375,-1.88003540039063,2.28510093688965,2.0541558265686,-1.59612191359838,2.27904971150017,2.13093258853001,1282.056,1335.652,3199.225,3212.878,-0.08648083,0.03510468,0.07670522,-1.0844601392746,-0.446633458137512,0.686899602413177,-1.10123038958312,-0.473828671822132,0.681714070030222,0
2.57999420166016,-1.901695728302,2.27616763114929,2.06790447235107,-1.61813342708139,2.26957877217893,2.14455876392979,1284.17,1335.409,3193.921,3207.643,-0.08555991,0.03526203,0.07570636,-1.08301472663879,-0.446677327156067,0.687431752681732,-1.10024356351463,-0.47340406813359,0.681103177684783,0
2.59999847412109,-1.92332243919373,2.26723504066467,2.08166146278381,-1.64013077892511,2.26011392621545,2.15817617260023,1281.167,1334.713,3191.792,3204.893,-0.08460969,0.0354212,0.07471322,-1.0813399553299,-0.44663193821907,0.687849283218384,-1.09897493039424,-0.472858210743393,0.680317833349887,0
2.6199951171875,-1.94491112232208,2.258305311203,2.0954225063324,-1.66209156852628,2.2506648119635,2.17177094750084,1278.782,1333.831,3187.786,3203.149,-0.08362326,0.03558662,0.07371967,-1.07942891120911,-0.446489453315735,0.688047051429749,-1.09742594550583,-0.472191725819537,0.679358937915576,0
2.63999938964844,-1.96645677089691,2.24938035011292,2.10918474197388,-1.68402693989188,2.24122663446822,2.18534998730279,1276.748,1332.566,3185.895,3199.297,-0.08258409,0.03576034,0.0727215,-1.07729113101959,-0.446248948574066,0.688106417655945,-1.09559602313537,-0.471404361345641,0.67822612879697,0
2.65999603271484,-1.98795521259308,2.24046230316162,2.12294316291809,-1.70591456353497,2.23180900148401,2.19889946898997,1276.211,1331.613,3180.93,3196.509,-0.08149806,0.03594526,0.07171555,-1.07491743564606,-0.445898592472076,0.68792724609375,-1.09348726343002,-0.470497020956359,0.676920706085208,0
2.68000030517578,-2.00940155982971,2.23155355453491,2.13669562339783,-1.72776555581996,2.22240712994983,2.2124262741215,1275.36,1330.242,3178.385,3192.183,-0.08036621,0.0361407,0.07070171,-1.07231795787811,-0.445436894893646,0.687619149684906,-1.09109887036509,-0.469469362144494,0.675442177003072,0
2.69999694824219,-2.03079128265381,2.22265648841858,2.15043759346008,-1.74955768413056,2.21303058593937,2.22591663964878,1274.284,1329.045,3173.552,3189.95,-0.07919868,0.03634704,0.06968012,-1.06948447227478,-0.444854885339737,0.687094211578369,-1.08843358680109,-0.468322565086308,0.673792239511893,0
2.71999359130859,-2.05211973190308,2.21377348899841,2.16416668891907,-1.77129374718429,2.20367816524265,2.23937229811132,1272.708,1327.387,3171.458,3185.945,-0.07799014,0.03656496,0.06864738,-1.06642663478851,-0.444153875112534,0.68645191192627,-1.08549158402443,-0.467056703481556,0.671970999646117,0
2.73999786376953,-2.07338237762451,2.20490694046021,2.17787885665894,-1.79297647980783,2.19434869114016,2.25279494249708,1270.067,1325.746,3167.958,3184.023,-0.07673526,0.03679518,0.06760587,-1.06313633918762,-0.4433274269104,0.685611069202423,-1.08227271937422,-0.465671715947234,0.669978369091845,0
2.75999450683594,-2.09457492828369,2.19605946540833,2.19157004356384,-1.81458384274179,2.18505164650952,2.26617092945464,1272.977,1324.342,3162.676,3178.213,-0.07543457,0.03704536,0.06653389,-1.0596137046814,-0.442368417978287,0.684563636779785,-1.07878069424208,-0.464169195088763,0.667816639186824,0
2.77999877929688,-2.1156919002533,2.18723392486572,2.20523834228516,-1.83612684690458,2.17578229366013,2.27950707526701,1271.075,1322.671,3160.632,3174.339,-0.07410991,0.0373056,0.06545571,-1.05586385726929,-0.441279232501984,0.683420598506927,-1.07501419914593,-0.462548577472581,0.665484999299265,0
2.79999542236328,-2.13672947883606,2.17843294143677,2.21887969970703,-1.85758361379882,2.16655004629821,2.2927898361021,1269.447,1320.779,3156.406,3172.128,-0.07275703,0.03757861,0.06436754,-1.05187845230103,-0.44005486369133,0.682062685489655,-1.07097756992209,-0.460811728687929,0.662986133518392,0
2.81999969482422,-2.1576828956604,2.16965889930725,2.23249125480652,-1.87896509797278,2.15735019098767,2.30602599334712,1268.696,1318.59,3154.254,3167.271,-0.07136206,0.03786607,0.06326266,-1.04766607284546,-0.438697189092636,0.680579125881195,-1.06666929835407,-0.458957999791384,0.660319108186353,0
2.83999633789063,-2.17854738235474,2.1609148979187,2.24606871604919,-1.90024960698239,2.14819206138118,2.31920211834584,1268.644,1316.704,3149.39,3163.915,-0.06993301,0.03816905,0.06214141,-1.04321801662445,-0.437199175357819,0.67887681722641,-1.06209435025759,-0.456989527434725,0.657486997379635,0
2.85999298095703,-2.19931793212891,2.15220355987549,2.25960969924927,-1.92143996495749,2.13907444233456,2.33231995936916,1268.357,1314.484,3146.692,3159.058,-0.06846987,0.0384857,0.0610029,-1.03854167461395,-0.435562461614609,0.677052557468414,-1.0572529212638,-0.454906395792563,0.654489922203231,0
2.87999725341797,-2.21999073028564,2.14352798461914,2.27311062812805,-1.94253888918396,2.12999616467562,2.34538119854648,1266.551,1312.278,3142.855,3156.536,-0.06697743,0.03881524,0.05985123,-1.03363132476807,-0.433783829212189,0.675043165683746,-1.05214490868305,-0.452708560680416,0.651327819087361,0
2.89999389648438,-2.24056053161621,2.13489079475403,2.2865674495697,-1.96352501326936,2.1209664217661,2.35837260906308,1269.031,1310.225,3137.697,3150.95,-0.0654557,0.03916286,0.05866666,-1.02848780155182,-0.431860655546188,0.672843933105469,-1.04677621342161,-0.450398561093403,0.648004340974112,0
2.91999816894531,-2.26102256774902,2.12629461288452,2.29997849464417,-1.98440911693069,2.11198057539494,2.37130086407726,1267.143,1308.073,3135.66,3146.73,-0.06392119,0.0395207,0.05746904,-1.02311527729034,-0.429798364639282,0.670556128025055,-1.04114485287423,-0.447975543971863,0.644518260536375,0
2.93999481201172,-2.28137302398682,2.11774301528931,2.3133397102356,-2.00517008215741,2.10304771205211,2.38415289053452,1265.715,1305.745,3131.493,3143.89,-0.06236644,0.039891,0.05625512,-1.01750636100769,-0.427595496177673,0.668059170246124,-1.03525734386973,-0.445442313325187,0.640873612001643,0
2.95999908447266,-2.30160617828369,2.10923767089844,2.32664823532104,-2.02581860575671,2.0941632292003,2.39693531026807,1265.567,1303.238,3128.829,3138.487,-0.0607792,0.04027525,0.05501844,-1.01166760921478,-0.425255089998245,0.665429472923279,-1.02911152474823,-0.442797939051516,0.637069057199471,0
2.97999572753906,-2.32171821594238,2.1007821559906,2.33990001678467,-2.04633384260397,2.08533609591429,2.40963521915279,1266.38,1301.044,3123.812,3134.033,-0.05917011,0.04067285,0.05376095,-1.00559258460999,-0.422773748636246,0.662593126296997,-1.02271452148052,-0.440045487257004,0.633109007445237,0
3,-2.34170365333557,2.09237933158875,2.35309290885925,-2.06672639957428,2.07656174835205,2.42225918334961,1265.883,1298.575,3120.91,3129.13,-0.05754505,0.04108046,0.05248734,-0.999287545681,-0.420155227184296,0.659639954566956,-1.01606400046349,-0.437183953857422,0.628992018127441,0
3.01999664306641,-2.36155891418457,2.08403134346008,2.36622262001038,-2.08697572864857,2.06784902775215,2.4347944826559,1265.5,1296.214,3116.014,3125.73,-0.05591147,0.04149789,0.05119546,-0.992748141288757,-0.417398989200592,0.656488001346588,-1.00916768936771,-0.434216663853534,0.624722873042298,0
3.03999328613281,-2.38127851486206,2.07574081420898,2.3792872428894,-2.10708469520508,2.05919670122237,2.4472428908773,1264.53,1293.681,3113.632,3120.589,-0.05426297,0.04192461,0.04988432,-0.98598176240921,-0.414511322975159,0.653231680393219,-1.00202586176059,-0.431143734953757,0.620301741541063,0
3.05999755859375,-2.40085792541504,2.06751155853271,2.39228296279907,-2.12705600675913,2.05060360379452,2.45960608409476,1262.427,1291.213,3109.772,3117.637,-0.0525953,0.0423598,0.0485584,-0.978983402252197,-0.411492437124252,0.649786412715912,-0.994638524886308,-0.427965170275055,0.615728628108227,0
3.07999420166016,-2.42029333114624,2.05934453010559,2.40520572662354,-2.14686960564145,2.04207836572333,2.47187164565552,1265.777,1288.901,3104.067,3111.053,-0.05090845,0.0428093,0.04719657,-0.971754252910614,-0.408341825008392,0.646140813827515,-0.987014293508169,-0.424684676509408,0.611008865692653,0
3.09999847412109,-2.43957924842834,2.0512433052063,2.41805410385132,-2.16653584520328,2.033616532251,2.4840459847772,1264.623,1286.734,3101.611,3105.741,-0.04922587,0.04326282,0.04582341,-0.964299023151398,-0.405066192150116,0.642418324947357,-0.979150439632689,-0.421301079877433,0.606140765536421,0
3.1199951171875,-2.45871162414551,2.04320979118347,2.430823802948,-2.18603502400946,2.02522658035469,2.49611690533293,1262.434,1284.263,3097.111,3103.33,-0.04754595,0.04372042,0.04444105,-0.956613481044769,-0.401667565107346,0.638491153717041,-0.971056158224178,-0.417818336715394,0.601130019760458,0
3.13999938964844,-2.47768545150757,2.03524708747864,2.44351267814636,-2.20537738341953,2.01690410346351,2.50809074721212,1262.291,1281.656,3094.419,3097.248,-0.04585005,0.04418504,0.04303867,-0.948706448078156,-0.398152261972427,0.634443879127502,-0.962728579444533,-0.414235212212131,0.595974851798267,0
3.15999603271484,-2.49649715423584,2.02735662460327,2.45611643791199,-2.22454360124808,2.00865741537402,2.51995554906156,1262.206,1279.415,3089.08,3093.243,-0.04414935,0.04465525,0.04162089,-0.940573573112488,-0.394519746303558,0.630188405513763,-0.95417746870157,-0.410555908149813,0.590681306902481,0
3.17999267578125,-2.51514148712158,2.01954102516174,2.46863293647766,-2.24353658854737,2.00048526354177,2.53171311296128,1262.033,1277.006,3086.028,3087.355,-0.04244333,0.04512905,0.04018798,-0.932222485542297,-0.390775710344315,0.625825822353363,-0.945403214201559,-0.406780591562751,0.585249625391267,0
3.19999694824219,-2.53361415863037,2.01180267333984,2.4810585975647,-2.2623590635174,1.99238647840124,2.54336512160655,1259.748,1274.662,3081.758,3084.454,-0.04073678,0.04560384,0.03874816,-0.923651397228241,-0.386922270059586,0.621285498142242,-0.936405971974636,-0.402909329586355,0.579679903854719,0
3.21999359130859,-2.55191135406494,2.00414323806763,2.49338984489441,-2.28099231507127,1.9843691108104,2.55489999194326,1262.134,1272.35,3076.436,3077.999,-0.03902596,0.04608492,0.03728157,-0.914864659309387,-0.382961958646774,0.61656665802002,-0.927196343299057,-0.398946683654493,0.573978704989081,0
3.23999786376953,-2.57002902030945,1.99656534194946,2.50562500953674,-2.29944628156995,1.97642888457015,2.56632387629027,1260.139,1270.338,3073.628,3073.214,-0.03732846,0.0465639,0.03581023,-0.90586644411087,-0.37890151143074,0.611762464046478,-0.917771149318993,-0.394891285994308,0.568144060931169,0
3.25999450683594,-2.58796215057373,1.98907065391541,2.51776027679443,-2.31770268688992,1.96857366338589,2.57762546085652,1258.062,1268.015,3068.964,3070.299,-0.03563789,0.04704211,0.03433176,-0.896656692028046,-0.374744564294815,0.606761276721954,-0.90814153446928,-0.390747931744771,0.562182870617026,0
3.27999877929688,-2.60570669174194,1.98166060447693,2.52979302406311,-2.33577134012187,1.96079922667992,2.58881081793642,1257.987,1265.72,3065.814,3063.966,-0.03393932,0.04752199,0.03283793,-0.887243330478668,-0.370496809482574,0.601642608642578,-0.898304216251578,-0.386515208538549,0.556093102023818,0
3.29999542236328,-2.6232590675354,1.97433733940125,2.54171967506409,-2.35363442159312,1.95311324175956,2.5998689163037,1257.729,1263.721,3060.584,3059.526,-0.03224555,0.04800097,0.03133671,-0.877625048160553,-0.366159379482269,0.596334218978882,-0.888270870184445,-0.382198140025101,0.549881982853707,0
3.31999969482422,-2.64061546325684,1.96710252761841,2.55353808403015,-2.37130160722417,1.94551154534655,2.61080574581408,1257.069,1261.562,3057.121,3054.026,-0.03055711,0.04847731,0.02983031,-0.867808938026428,-0.361737340688705,0.590915143489838,-0.878038122530657,-0.377795274579551,0.543547424602645,0
3.33999633789063,-2.65777111053467,1.95995783805847,2.56524443626404,-2.38875555478454,1.93800159931817,2.62161057080077,1255.999,1259.491,3052.045,3050.32,-0.02888145,0.04894995,0.02832073,-0.857796788215637,-0.35723352432251,0.58531790971756,-0.867618167158097,-0.373311858882592,0.53709697585572,0
3.35999298095703,-2.67472338676453,1.95290493965149,2.57683682441711,-2.40599926516969,1.93058211247293,2.63228524896102,1254.929,1257.407,3048.792,3044.904,-0.02721165,0.04941856,0.02680613,-0.847596347332001,-0.35265389084816,0.579618394374847,-0.857011633930453,-0.36874816394697,0.530531026528563,0
3.37999725341797,-2.69146728515625,1.94594502449036,2.58831191062927,-2.42303550945299,1.9232518924954,2.64283149572124,1252.345,1255.416,3044.442,3041.819,-0.02554877,0.04988237,0.02529197,-0.837209641933441,-0.348001539707184,0.573755085468292,-0.846218976345105,-0.364104384899943,0.523849857357654,0
3.39999389648438,-2.70800018310547,1.93907940387726,2.59966659545898,-2.43984769972619,1.91601807669906,2.65323904237604,1254.454,1253.427,3039.207,3035.093,-0.02388589,0.05034576,0.0237616,-0.826642096042633,-0.343279331922531,0.567728638648987,-0.835253140422974,-0.35938609205264,0.51706148254665,0
3.41999816894531,-2.72431802749634,1.93230962753296,2.61089897155762,-2.45644516534361,1.90887665092339,2.66351366424015,1252.489,1251.844,3035.882,3030.306,-0.02224379,0.05080109,0.0222379,-0.815897703170776,-0.338491916656494,0.561618983745575,-0.824110582941664,-0.354591760855451,0.510163708672097,0
3.43999481201172,-2.74041795730591,1.92563652992249,2.62200570106506,-2.4728118459714,1.90183452548138,2.67364541920187,1250.526,1249.855,3031.115,3027.116,-0.02061873,0.05124936,0.02071936,-0.804980874061584,-0.333643525838852,0.555334806442261,-0.812804733542555,-0.349727169707881,0.503164849321754,0
3.45999908447266,-2.75629591941833,1.91906201839447,2.63298463821411,-2.48895692832918,1.89488774758421,2.68363999427827,1249.713,1247.94,3027.892,3021.326,-0.01899739,0.05169176,0.01920099,-0.79390013217926,-0.328739166259766,0.548952639102936,-0.801332006385299,-0.344790775723006,0.496062684689628,0
3.47999572753906,-2.77194881439209,1.91258633136749,2.64383244514465,-2.50486489870395,1.88804299234919,2.69348778574196,1248.703,1246.203,3022.598,3017.576,-0.01738884,0.05212719,0.01768723,-0.782658040523529,-0.323780536651611,0.542396306991577,-0.789706299681989,-0.339788558913217,0.488865818431069,0
3.5,-2.78737425804138,1.90621101856232,2.65454745292664,-2.5205447997813,1.88129636896134,2.70319439144611,1248.24,1244.449,3019.133,3011.705,-0.01578988,0.05255567,0.01617684,-0.771262407302856,-0.318771928548813,0.535752475261688,-0.777924000354857,-0.334718964672089,0.481572013878822,0
3.51999664306641,-2.80256867408752,1.89993667602539,2.66512656211853,-2.53598168290031,1.87465430941181,2.7127505574575,1246.474,1242.795,3014.095,3008.531,-0.01421063,0.05297514,0.01467665,-0.759716928005219,-0.313715875148773,0.52895176410675,-0.765999459475408,-0.329588167864767,0.474190155029786,0
3.53999328613281,-2.81752920150757,1.89376449584961,2.6755678653717,-2.55117869390181,1.86811546013321,2.72215823120146,1245.477,1241.063,3010.743,3003.148,-0.01264149,0.05338671,0.01318173,-0.748030006885529,-0.308616906404495,0.522065341472626,-0.753933682518821,-0.324396601119134,0.466720864320997,0
3.55999755859375,-2.83225297927856,1.88769483566284,2.68586874008179,-2.56613872308604,1.86167857751006,2.73141920191151,1243.097,1239.482,3006.294,3000.021,-0.01108567,0.05378929,0.01169865,-0.73620593547821,-0.303477644920349,0.515038967132568,-0.741727567798258,-0.319144650954242,0.459164697851087,0
3.57999420166016,-2.84673810005188,1.88172888755798,2.69602632522583,-2.58084770246059,1.8553497146065,2.74052476083022,1244.599,1237.799,3001.411,2993.773,-0.009537845,0.05418661,0.01021431,-0.724251508712769,-0.298300683498383,0.507882118225098,-0.729396114728537,-0.313838771199258,0.451530940972359,0
3.59999847412109,-2.86098170280457,1.87586677074432,2.70603942871094,-2.59531431270705,1.84912513636775,2.74948028171299,1242.418,1236.549,2997.913,2989.593,-0.008016648,0.05457232,0.008748498,-0.712171375751495,-0.293089240789413,0.500656008720398,-0.716935713767317,-0.308477408768949,0.443817359206151,0
3.6199951171875,-2.87498092651367,1.87011003494263,2.71590518951416,-2.60952509409627,1.84301063413925,2.75827743234631,1240.498,1234.877,2993.513,2986.347,-0.00651569,0.05494804,0.007298474,-0.699973106384277,-0.287847280502319,0.493293255567551,-0.704361775018033,-0.303067194200314,0.436033492140578,0
3.63999938964844,-2.88873434066772,1.86445868015289,2.72562217712402,-2.6234885835008,1.83700253474321,2.76692149746096,1239.594,1233.321,2989.989,2981.296,-0.005025918,0.05531521,0.005859859,-0.68766450881958,-0.28257828950882,0.485846072435379,-0.691670720740692,-0.297606588091786,0.428177124984152,0
3.65999603271484,-2.90223932266235,1.85891270637512,2.73518753051758,-2.63719194552437,1.83110636089208,2.77540453133521,1238.662,1231.893,2985.27,2977.41,-0.00355319,0.05567307,0.004436004,-0.675251066684723,-0.277284145355225,0.478272557258606,-0.678878353700696,-0.292102389931838,0.420258040401444,0
3.67999267578125,-2.9154942035675,1.85347306728363,2.74460005760193,-2.65063849381582,1.82532068681534,2.78372858527554,1237.65,1230.496,2981.905,2972.448,-0.002096973,0.05602093,0.003028957,-0.6627396941185,-0.271967738866806,0.470632433891296,-0.665986083416798,-0.286555206197011,0.41227711095171,0
3.69999694824219,-2.92849683761597,1.84814071655273,2.75385761260986,-2.66383127580226,1.81964420129024,2.79189554578451,1235.423,1229.07,2977.621,2969.636,-0.0006599313,0.05635818,0.001643759,-0.650136888027191,-0.266631335020065,0.462877631187439,-0.65299527533123,-0.280965624398954,0.404235181908735,0
3.71999359130859,-2.94124555587769,1.84291505813599,2.76295804977417,-2.6767584210412,1.81408201183655,2.79989806449274,1236.641,1227.517,2972.927,2964.175,0.0007627113,0.05668814,0.0002665842,-0.637450397014618,-0.261277377605438,0.45501896739006,-0.639922285921447,-0.275340682272968,0.396142378711232,0
3.73999786376953,-2.95373916625977,1.83779692649841,2.77190041542053,-2.68942811570037,1.808630596175,2.80774120902801,1234.736,1226.507,2969.784,2959.986,0.002154903,0.05700597,-0.001085504,-0.624685049057007,-0.255908399820328,0.447124242782593,-0.626763698705669,-0.269678909802388,0.38799658639423,0
3.75999450683594,-2.96597671508789,1.8327864408493,2.78068280220032,-2.70182915057228,1.80329477731443,2.81541804035694,1232.341,1225.061,2965.612,2957.643,0.003521059,0.05731282,-0.002412824,-0.611849546432495,-0.250528186559677,0.439117044210434,-0.613536214864365,-0.263987493038594,0.379808143784027,0
3.77999877929688,-2.97795557975769,1.82788348197937,2.78930401802063,-2.7139695770734,1.79807109095524,2.82293354268985,1231.804,1223.665,2962.474,2952.617,0.004874766,0.05761087,-0.003724164,-0.598951935768127,-0.245139688253403,0.431055217981339,-0.60023651686137,-0.258265004538452,0.371574997167698,0
3.79999542236328,-2.98967552185059,1.82308864593506,2.79776191711426,-2.72583886061506,1.79296406983666,2.83028119461452,1231.14,1222.466,2958.056,2948.925,0.006207335,0.05789945,-0.005012602,-0.585997998714447,-0.239744320511818,0.422895163297653,-0.586881630238189,-0.252518769916838,0.363307686166475,0
3.81999969482422,-3.0011351108551,1.81840205192566,2.80605578422546,-2.73744492223163,1.78797030575888,2.83746589962856,1230.542,1221.217,2954.653,2944.487,0.00751676,0.05817763,-0.006277071,-0.572994470596313,-0.234344199299812,0.414688229560852,-0.573468357077023,-0.246747413199059,0.355004231116903,0
3.83999633789063,-3.01233434677124,1.81382298469543,2.81418371200562,-2.74877791451009,1.78309403578861,2.84448156171422,1229.513,1219.959,2950.477,2941.359,0.008796399,0.05844502,-0.007515441,-0.559948861598969,-0.228941768407822,0.406401038169861,-0.560014026276881,-0.240958390526246,0.346675359432959,0
3.85999298095703,-3.02327156066895,1.80935215950012,2.82214546203613,-2.75984146370944,1.77833369964791,2.85133042569855,1228.251,1218.776,2947.643,2937.276,0.01004969,0.05870151,-0.008726646,-0.546868681907654,-0.223540097475052,0.398087620735168,-0.546520735526767,-0.235152604475377,0.338322369684062,0
3.87999725341797,-3.0339469909668,1.80498957633972,2.82993936538696,-2.77063893010371,1.77368785150474,2.85801457175126,1226.195,1217.559,2943.92,2934.931,0.01127718,0.05894727,-0.00990909,-0.533762097358704,-0.218141719698906,0.389699339866638,-0.532990631455729,-0.229330978680956,0.329946590735853,0
3.89999389648438,-3.04435968399048,1.8007345199585,2.83756446838379,-2.78116151864576,1.76916027562219,2.86452855531919,1227.36,1216.228,2940.006,2929.982,0.01248506,0.05918528,-0.01107342,-0.520636737346649,-0.212748989462852,0.381251990795135,-0.519441457145543,-0.223501147495394,0.321559006401168,0
3.91999816894531,-3.05450940132141,1.79658722877502,2.84502029418945,-2.79141684911929,1.7647476934202,2.87087709341145,1226.06,1215.403,2937.04,2926.326,0.01365707,0.05941132,-0.01220527,-0.507497251033783,-0.2073635160923,0.37279400229454,-0.505870408491346,-0.2176619043907,0.313157880805522,0
