t,x_s1,x_s2,x_s3,x_s_d1,x_s_d2,x_s_d3,propellers_rpms1,propellers_rpms2,propellers_rpms3,propellers_rpms4,rollRad,pitchRad,yawRad,v_s1,v_s2,v_s3,v_s_d1,v_s_d2,v_s_d3,insideCount
0,-0.0599999986588955,2.94000005722046,1.17999994754791,-0.0599999986588955,2.94000005722046,1.17999994754791,0,0,0,0,0,0,0,0,0,0,-1.06581410364015E-15,4.44089209850063E-16,4.44089209850063E-16,0
0.0199966430664063,-0.0599999986588955,2.94000005722046,1.17811644077301,-0.0600018680476204,2.93999925287472,1.18000110478858,0,0,0,0,-0.01635288,0.0001297794,-0.01587137,-1.10653664009419E-09,-7.76775763711157E-08,-0.0941759571433067,-0.000279892991557604,-0.000120430134961378,0.000173267094926113,9
0.0400009155273438,-0.0599999986588955,2.94000005722046,1.17242503166199,-0.0600148724204753,2.93999365745638,1.18000915511487,0,0,0,0,-0.03270202,0.0005238493,-0.03175127,-1.08383135799528E-09,-7.60859677484405E-08,-0.284568399190903,-0.00111101934050116,-0.00047804058392963,0.00068777389696065,9
0.05999755859375,-0.0599058866500854,2.93990302085876,1.16596508026123,-0.0600498857373401,2.93997859220429,1.18003083002592,1868.27,3252.824,3183.801,1722.357,-0.04942241,0.0003296775,-0.01369504,0.00470564980059862,-0.00484918104484677,-0.322997689247131,-0.00247936261166862,-0.00106680046642749,0.00153484356504269,9
0.0800018310546875,-0.0598203726112843,2.93960738182068,1.16000318527222,-0.0601175574246769,2.93994947496775,1.18007272202403,1925.364,2314.317,3252.246,2829.49,-0.07543351,-0.002136388,0.02094843,0.00427573919296265,-0.0147787891328335,-0.298095911741257,-0.00437268608126799,-0.00188144466206175,0.00270690098422899,9
0.0999984741210938,-0.059937447309494,2.93904495239258,1.15498661994934,-0.0602281887669101,2.93990187339187,1.18014120809498,980.2372,1498.911,3914.859,3896.574,-0.1031975,-0.008062987,0.06330875,-0.00585373677313328,-0.028117036446929,-0.250827461481094,-0.00677637982016689,-0.00291568692648091,0.00419490191241918,8
0.120002746582031,-0.0604638569056988,2.93818354606628,1.15081322193146,-0.0603919599823235,2.93983140721312,1.18024259027882,346.2787,980.289,4173.038,4613.417,-0.1214337,-0.0154213,0.1040033,-0.0263204667717218,-0.0430692881345749,-0.208667814731598,-0.00967921398219614,-0.00416469537060396,0.00599189453988277,8
0.139999389648438,-0.0615636333823204,2.93704128265381,1.14728283882141,-0.0606185767455666,2.93973390035084,1.18038287685052,352.9575,747.1484,3975.234,4854.973,-0.1254024,-0.02116734,0.1351073,-0.0549887754023075,-0.0571146532893181,-0.176520526409149,-0.0130660253322238,-0.00562194567796536,0.00808849210174802,7
0.159996032714844,-0.0633409023284912,2.93568086624146,1.14427495002747,-0.0609176604100223,2.93960521300545,1.18056802388615,820.8972,814.8675,3462.845,4692.421,-0.1184595,-0.02352477,0.1522712,-0.0888633653521538,-0.0680158063769341,-0.150395348668098,-0.0169249902365933,-0.00728235046931681,0.0104773752055438,7
0.180000305175781,-0.0658469721674919,2.9341721534729,1.14182531833649,-0.0612986871007165,2.9394412678651,1.18080389755851,1348.66,1083.334,3006.788,4255.246,-0.1079789,-0.02278015,0.1557793,-0.125303462147713,-0.0754317790269852,-0.122479155659676,-0.0212451141043368,-0.00914117907931815,0.0131517376757159,7
0.199996948242188,-0.0690850540995598,2.93255376815796,1.14006149768829,-0.0617704296168641,2.93923829023936,1.18109592864822,1636.627,1381.324,2918.125,3666.335,-0.09982593,-0.02030074,0.150156,-0.161904141306877,-0.0809156224131584,-0.0881936848163605,-0.0260104776919234,-0.0111915819022102,0.0161017247421801,7
0.220001220703125,-0.0730104148387909,2.93082594871521,1.13903558254242,-0.0623420644491781,2.93899233174064,1.18144979784016,1641.366,1580.628,3148.367,3113.078,-0.09583864,-0.01735475,0.1421877,-0.196268141269684,-0.0863863527774811,-0.0512935556471348,-0.03121219533433,-0.0134297356845702,0.019321835755004,7
0.239997863769531,-0.0775501653552055,2.92897343635559,1.1386331319809,-0.0630217183703222,2.93869989564571,1.18187053599376,1524.152,1624.317,3417.667,2777.419,-0.09475687,-0.01467775,0.1377317,-0.226987481117249,-0.0926248654723167,-0.0201228652149439,-0.0368338920540454,-0.0158485947310391,0.02280193382306,7
0.260002136230469,-0.0826390832662582,2.92699217796326,1.13863551616669,-0.0638182299684225,2.938357178957,1.18236361461609,1438.859,1500.792,3533.48,2744.145,-0.09439041,-0.01258876,0.1393011,-0.254445999860764,-0.099058598279953,0.000122185796499252,-0.0428675524613532,-0.0184447102433459,0.0265370570382875,7
0.279998779296875,-0.0882449597120285,2.9249005317688,1.1388521194458,-0.0647390625194898,2.93796097043536,1.18293365383054,1400.634,1276.051,3476.474,2977.635,-0.0932117,-0.01110591,0.1456835,-0.280293941497803,-0.104585222899914,0.0108295204117894,-0.0492963837173861,-0.0212108567320638,0.030516809833474,7
0.300003051757813,-0.0943707376718521,2.92273235321045,1.13920700550079,-0.0657927507678135,2.93750759781875,1.18358593705038,1350.533,1061.475,3345.308,3324.824,-0.09053309,-0.009935189,0.1533112,-0.306288987398148,-0.108407892286777,0.0177437849342823,-0.0561132031658829,-0.0241439437008635,0.0347367458022363,7
0.319999694824219,-0.101036041975021,2.92052555084229,1.13972496986389,-0.0669860785243584,2.93699414222283,1.18432466377777,1281.019,941.2034,3237.292,3590.598,-0.08597963,-0.008523713,0.1583608,-0.333265364170074,-0.110343188047409,0.0259002298116684,-0.0633008373176985,-0.0272365818771378,0.0391862337367069,7
0.339996337890625,-0.108251646161079,2.91831183433533,1.14046156406403,-0.068326768706371,2.93641728069206,1.18515461486636,1253.009,944.0767,3171.252,3649.841,-0.07944742,-0.006292517,0.1584782,-0.360780388116837,-0.110680781304836,0.0368322730064392,-0.0708499516420146,-0.0304847548730522,0.0438594951176439,7
0.360000610351563,-0.116003222763538,2.91611456871033,1.14145267009735,-0.0698225328270578,2.93577369517774,1.1860805641102,1319.457,1047.057,3120.939,3498.248,-0.07154635,-0.002963566,0.1534757,-0.387578934431076,-0.109859757125378,0.0495551489293575,-0.0787518717320621,-0.0338847303337087,0.0487511600740379,8
0.379997253417969,-0.124251589179039,2.91394948959351,1.14270746707916,-0.0714791088463715,2.935060916796,1.18710606357981,1455.702,1181.858,3090.252,3231.291,-0.06361173,0.001258827,0.1450387,-0.412418276071548,-0.108257263898849,0.0627394169569016,-0.0869889214763108,-0.0374289027221294,0.0538502862508218,8
0.400001525878906,-0.132943406701088,2.91182613372803,1.14421701431274,-0.0733044112230977,2.93427554017634,1.18823601270221,1579.611,1273.631,3104.89,2981.649,-0.05701668,0.005826324,0.1357467,-0.434591203927994,-0.106164917349815,0.0754801779985428,-0.0955558400788823,-0.0411150084648172,0.0591536169647403,8
0.419998168945313,-0.142023786902428,2.90974998474121,1.14595758914948,-0.0753034649285836,2.93341540321397,1.18947352217404,1631.266,1288.658,3158.901,2844.839,-0.0524403,0.01017563,0.1278551,-0.454019457101822,-0.103801526129246,0.0870272293686867,-0.104434660908044,-0.0449353170220673,0.0646500300148815,8
0.44000244140625,-0.151446253061295,2.90772414207458,1.1478955745697,-0.077483988232608,2.93247718495301,1.19082336997196,1606.691,1238.03,3219.782,2842.847,-0.04965837,0.01397491,0.1224607,-0.471122652292252,-0.101290501654148,0.0969004109501839,-0.113620829717891,-0.048887868829098,0.0703367061060819,8
0.459999084472656,-0.161176949739456,2.9057514667511,1.14999687671661,-0.0798502821969742,2.93145903476675,1.19228821865812,1541.566,1158.276,3252.559,2938.303,-0.04788683,0.01718596,0.1193404,-0.486535519361496,-0.098639503121376,0.105063870549202,-0.123096124252221,-0.0529648233581361,0.0762023647937057,8
0.479995727539063,-0.171193793416023,2.9038360118866,1.15223908424377,-0.0824088828700873,2.93035814037613,1.19387211435783,1474.404,1086.15,3248.379,3066.824,-0.0462884,0.01998704,0.1173779,-0.500842392444611,-0.0957783907651901,0.112107574939728,-0.132852887402757,-0.0571628859694044,0.0822422659629699,8
0.5,-0.181481242179871,2.9019832611084,1.15461575984955,-0.085166398670376,2.92917165836334,1.1955791479969,1431.387,1046.138,3216.635,3169.922,-0.04433205,0.0226432,0.1152256,-0.514372646808624,-0.092639833688736,0.118834964931011,-0.142884000065179,-0.0614789935111996,0.0884520025491718,8
0.519996643066406,-0.192024439573288,2.90019869804382,1.15713453292847,-0.0881260274065667,2.92789821280061,1.19741129917127,1424.045,1045.201,3176.866,3210.336,-0.04191709,0.02537931,0.1118862,-0.527159512042999,-0.0892272442579269,0.125939324498177,-0.153170920546857,-0.0659051680111775,0.0948200963613094,9
0.540000915527344,-0.202804714441299,2.89848589897156,1.15980982780457,-0.0912951145137283,2.92653464315245,1.19937311505516,1445.684,1073.375,3149.033,3184.357,-0.03929228,0.02828936,0.1070487,-0.539014935493469,-0.0856380239129066,0.133763879537582,-0.163710711144578,-0.0704401454577151,0.101344728821151,9
0.55999755859375,-0.213798016309738,2.89684534072876,1.16265285015106,-0.094676112580471,2.92507989413848,1.20146611391775,1484.059,1113.911,3138.529,3114.395,-0.03688744,0.03132777,0.1010575,-0.549664318561554,-0.0820307955145836,0.142149463295937,-0.17448465888317,-0.0750758741803766,0.108014315705644,9
0.580001831054688,-0.224976301193237,2.8952739238739,1.16566812992096,-0.0982762614093182,2.92353085067394,1.20369477754168,1520.867,1148.745,3146.206,3034.777,-0.03512869,0.03434535,0.09465454,-0.558915019035339,-0.0785758495330811,0.150763481855392,-0.185490414529404,-0.0798113433697334,0.11482740272751,9
0.599998474121094,-0.236310958862305,2.89376544952393,1.16885149478912,-0.102097262171133,2.92188678079254,1.20606015903275,1540.721,1167.075,3162.99,2979.273,-0.03429193,0.03716135,0.08861614,-0.566733121871948,-0.0754187628626823,0.159169808030128,-0.196709126405959,-0.0846384416756885,0.121772319800455,9
0.620002746582031,-0.247776299715042,2.89231204986572,1.17219471931458,-0.106146271928021,2.92014460501038,1.20856668895334,1535.003,1167.294,3182.386,2963.676,-0.03442029,0.03963258,0.08345731,-0.573266327381134,-0.0726650878787041,0.167159184813499,-0.208139001499973,-0.0895563976148993,0.128847956964108,9
0.639999389648438,-0.259351521730423,2.89090442657471,1.17568707466125,-0.110424235525481,2.91830391678686,1.21121495220784,1506.668,1156.373,3194.596,2987.229,-0.03534814,0.04169839,0.07929706,-0.578761756420135,-0.0703800022602081,0.174618855118752,-0.219761081350814,-0.0945570538913933,0.136042578028218,9
0.659996032714844,-0.27102130651474,2.88953256607056,1.17932069301605,-0.114936482147704,2.9163624231229,1.21400824781511,1466.722,1144.288,3197.936,3031.104,-0.03678305,0.0433849,0.075907,-0.583489537239075,-0.0685960724949837,0.181681200861931,-0.231569557951997,-0.0996379114822372,0.143352587560098,9
0.680000305175781,-0.282774299383163,2.88818597793579,1.18308997154236,-0.119688496929273,2.91431776391831,1.21694997133476,1428.623,1139.505,3190.814,3075.686,-0.03844433,0.04477547,0.07288778,-0.587649762630463,-0.0673256367444992,0.188462093472481,-0.243559016194652,-0.104796640417365,0.150774633349401,9
0.699996948242188,-0.294601321220398,2.88685441017151,1.18699240684509,-0.124680083855354,2.91217002351282,1.22004000142426,1405.199,1146.367,3176.623,3101.774,-0.04016367,0.04596794,0.06985679,-0.591349959373474,-0.0665744543075562,0.19512090086937,-0.255710395848158,-0.11002503961202,0.158296916205407,9
0.720001220703125,-0.306493580341339,2.88552713394165,1.19102883338928,-0.129918284978346,2.90991617190799,1.22328269744952,1393.781,1162.932,3163.674,3106.411,-0.04192934,0.04702142,0.06662743,-0.59461522102356,-0.0663589462637901,0.201820984482765,-0.268023157655716,-0.11532287703907,0.16591910230247,9
0.739997863769531,-0.318442046642303,2.884192943573,1.19519948959351,-0.135402141159277,2.90755662179454,1.22667746565781,1392.145,1185.123,3153.335,3094.397,-0.04383244,0.04795263,0.0632174,-0.59742134809494,-0.0667079612612724,0.208533599972725,-0.280478211503383,-0.120681938755799,0.173629373950669,9
0.760002136230469,-0.330437183380127,2.88283967971802,1.19950485229492,-0.14113868194985,2.90508834855275,1.23022865767651,1392.285,1207.586,3150.178,3074.285,-0.04600291,0.04873426,0.05980961,-0.599756896495819,-0.0676607862114906,0.21527037024498,-0.293075466693575,-0.12610218573757,0.181427675003881,9
0.779998779296875,-0.342469990253448,2.88145446777344,1.20394241809845,-0.147126184485884,2.90251209348295,1.23393520697061,1387.471,1226.561,3150.571,3059.265,-0.04854357,0.04931841,0.05664888,-0.60164076089859,-0.0692547485232353,0.221881344914436,-0.305795832832518,-0.131575403921268,0.189302187598958,9
0.800003051757813,-0.354532986879349,2.88002395629883,1.20850896835327,-0.153371683173492,2.89982482987671,1.2378014681726,1374.065,1240.6,3154.462,3054.064,-0.05147571,0.04966057,0.05393498,-0.603149950504303,-0.0715199112892151,0.228329360485077,-0.318639638509124,-0.13710173468952,0.197253115148089,9
0.819999694824219,-0.366620779037476,2.87853455543518,1.21319878101349,-0.159872691993147,2.89702762739878,1.24182590231796,1352.777,1250.839,3155.955,3062.272,-0.0547498,0.04973895,0.0517614,-0.604390621185303,-0.0744682475924492,0.234491169452667,-0.331587821991737,-0.142672976311719,0.205268657531342,9
0.839996337890625,-0.378730595111847,2.87697267532349,1.21800720691681,-0.166633637018892,2.89411858163313,1.24601124935738,1326.686,1259.522,3156.032,3077.95,-0.05825612,0.04955896,0.05010515,-0.605490386486053,-0.0780984312295914,0.240418523550034,-0.344636106234817,-0.148287288494656,0.213346167053785,8
0.860000610351563,-0.390861749649048,2.87532472610474,1.22292900085449,-0.173659158941841,2.89109569582005,1.2503603820997,1299.291,1268.984,3152.004,3098.103,-0.06187482,0.04914961,0.04886907,-0.606556117534637,-0.0823926627635956,0.2460897564888,-0.357780475378537,-0.153942943326036,0.221483157706883,8
0.879997253417969,-0.40301513671875,2.87357831001282,1.22796022891998,-0.180945630646592,2.88796053060595,1.25487105518773,1278.518,1281.008,3144.747,3112.949,-0.0655079,0.0485548,0.04791833,-0.607670664787292,-0.0873246416449547,0.251559048891068,-0.371001963495383,-0.159631780297098,0.229667888678032,8
0.900001525878906,-0.415192902088165,2.87172102928162,1.23309898376465,-0.188500167066783,2.88471002463366,1.2595476731043,1259.658,1295.292,3138.777,3123.337,-0.06911223,0.0478069,0.04717735,-0.608886301517487,-0.0928685963153839,0.256936132907867,-0.384301823631742,-0.165354338558695,0.237901135662636,8
0.919998168945313,-0.427397429943085,2.86974120140076,1.23834252357483,-0.196318384305134,2.8813460641717,1.26438752200817,1246.305,1310.94,3132.159,3128.416,-0.07266861,0.04693411,0.04660789,-0.610227346420288,-0.0989936962723732,0.262176394462585,-0.397661187980262,-0.171102499820431,0.246171218589148,8
0.94000244140625,-0.439631760120392,2.86762762069702,1.24368965625763,-0.204407453948074,2.87786556348678,1.26939504145298,1236.306,1326.599,3128.805,3128.078,-0.07618239,0.04594912,0.04623,-0.611717522144318,-0.105674088001251,0.267358630895615,-0.411081631631503,-0.176876941799768,0.254479112513653,8
0.959999084472656,-0.451899260282516,2.86537003517151,1.24913787841797,-0.212762239776093,2.87427073255068,1.27456705187416,1227.224,1341.042,3125.638,3128.675,-0.07967645,0.04485329,0.04609988,-0.613374471664429,-0.112876370549202,0.272409200668335,-0.424544411524882,-0.18266959988136,0.262813214588797,8
0.979995727539063,-0.464203953742981,2.86295866966248,1.25468564033508,-0.22138664033507,2.87055989392801,1.27990596665734,1216.875,1353.327,3125.5,3130.503,-0.08315241,0.04364448,0.0462722,-0.615236580371857,-0.120571799576283,0.277388721704483,-0.438046240701377,-0.188479059778567,0.271171490030365,8
1,-0.476550817489624,2.86038422584534,1.26033043861389,-0.230284798736574,2.86673126495361,1.28541435058594,1203.925,1363.511,3125.049,3137.728,-0.08659268,0.04232479,0.04678005,-0.617343544960022,-0.128722041845322,0.282237380743027,-0.451584000205995,-0.194303979492187,0.279552008056641,8
1.01999664306641,-0.488945752382278,2.8576385974884,1.26606965065002,-0.239450461003889,2.86278753653895,1.29108833215045,1193.581,1372.339,3123.575,3145.382,-0.08995679,0.04090839,0.04760328,-0.619744598865509,-0.137285187840462,0.286962270736694,-0.465139182559269,-0.200136395770846,0.2879433116562,8
1.04000091552734,-0.501395404338837,2.85471415519714,1.27190256118774,-0.24889099213045,2.8587255397331,1.29693247063265,1179.985,1380.188,3123.784,3156.27,-0.09321223,0.03940767,0.04872303,-0.622486293315887,-0.146221503615379,0.291647583246231,-0.478714054341683,-0.205977283860805,0.296346803950333,8
1.05999755859375,-0.513907372951508,2.85160446166992,1.27782714366913,-0.258599401509697,2.85454828239877,1.30294243851408,1169.196,1387.565,3121.885,3167.439,-0.09630736,0.03784903,0.05008205,-0.6255983710289,-0.155479446053505,0.296231120824814,-0.492290296490434,-0.211818761581115,0.30475114456651,8
1.08000183105469,-0.526489555835724,2.848304271698,1.28384339809418,-0.268583149539609,2.85025255453512,1.30912285413647,1161.503,1394.77,3121.394,3175.295,-0.09920595,0.0362577,0.05162806,-0.629108726978302,-0.165013983845711,0.300812214612961,-0.50587040849135,-0.217661904390701,0.313157880805523,8
1.09999847412109,-0.539150059223175,2.84480881690979,1.28995037078857,-0.278834517009062,2.84584167750307,1.31546893894041,1157.107,1401.896,3119.301,3182.428,-0.1019016,0.03465477,0.05332553,-0.63302218914032,-0.174770176410675,0.305347055196762,-0.519436284009554,-0.223498921639497,0.321555803983559,7
1.12000274658203,-0.551896989345551,2.84111475944519,1.29614925384521,-0.289361068555186,2.84131239645058,1.32198537579665,1154.471,1408.23,3120.063,3186.841,-0.1043922,0.03305566,0.05515626,-0.637349426746368,-0.184705689549446,0.309943050146103,-0.532990631455731,-0.229330978680957,0.329946590735853,7
1.13999938964844,-0.564738690853119,2.83721947669983,1.3024400472641,-0.300154365346813,2.83666834237095,1.3286669406667,1153.334,1413.739,3120.113,3192.004,-0.10669,0.03147163,0.05711507,-0.64208459854126,-0.194769471883774,0.314542442560196,-0.546515580872639,-0.235150386571708,0.338319178707607,7
1.15999603271484,-0.577683448791504,2.83312106132507,1.30882465839386,-0.311217811600473,2.8319080505249,1.33551574092274,1152.711,1417.823,3123.036,3196.023,-0.1087944,0.02991094,0.05919966,-0.647234976291656,-0.204922839999199,0.319230496883392,-0.560008885098767,-0.240956178420931,0.346672176798798,7
1.18000030517578,-0.59073930978775,2.82881879806519,1.31530380249023,-0.322555076427271,2.82702994219644,1.34253404791935,1151.875,1420.687,3125.573,3202.276,-0.1107039,0.0283816,0.06140823,-0.652795732021332,-0.215118184685707,0.323955029249191,-0.573468357077025,-0.246747413199059,0.355004231116904,7
1.19999694824219,-0.603914737701416,2.82431268692017,1.32187819480896,-0.334156660511822,2.8220381046756,1.34971598112778,1155.558,1422.737,3127.066,3206.562,-0.1124168,0.02689707,0.06371245,-0.658769071102142,-0.225309744477272,0.328719943761826,-0.58687652428584,-0.252516572968185,0.36330452533874,7
1.22000122070313,-0.617217898368835,2.81960344314575,1.32855069637299,-0.346030421585499,2.81692915700008,1.35706640485806,1155.831,1423.674,3131.427,3213.107,-0.1139439,0.0254594,0.06610961,-0.665159463882446,-0.235463336110115,0.333624303340912,-0.600236516861372,-0.258265004538453,0.371574997167698,7
1.23999786376953,-0.630657017230988,2.814692735672,1.33532249927521,-0.358166167196084,2.81170748469733,1.36457900949675,1157.583,1423.899,3134.285,3220.532,-0.1152744,0.02408261,0.0685675,-0.671955466270447,-0.245534539222717,0.338589608669281,-0.613531154887641,-0.263985315871967,0.379805011417393,7
1.26000213623047,-0.644240081310272,2.80958294868469,1.34219646453857,-0.370571882958536,2.80636965178032,1.3722587385199,1160.843,1423.482,3138.926,3225.795,-0.1163956,0.02277822,0.07105409,-0.67915552854538,-0.25549104809761,0.343696624040604,-0.626763698705669,-0.269678909802388,0.38799658639423,7
1.27999877929688,-0.657974898815155,2.80427718162537,1.34917414188385,-0.383236695417198,2.80092033679326,1.3800988607405,1166.4,1423.01,3141.545,3231.135,-0.117317,0.02155736,0.07354282,-0.686737656593323,-0.265290439128876,0.348882913589478,-0.639917282339435,-0.275338529371412,0.396139281255613,8
1.29999542236328,-0.671868741512299,2.79877901077271,1.35625898838043,-0.396163740917024,2.79535819025452,1.38810131770546,1172.248,1421.807,3146.577,3234.975,-0.1180483,0.02042522,0.07601652,-0.694692254066467,-0.274906128644943,0.354242652654648,-0.652990303744023,-0.280963485263868,0.404232104259424,8
1.31999969482422,-0.685928523540497,2.79309296607971,1.3634535074234,-0.409356423791328,2.7896817473746,1.39626821685929,1177.855,1420.125,3151.202,3239.969,-0.1185996,0.01938573,0.07846485,-0.70299232006073,-0.284305334091187,0.359727770090103,-0.665981146317813,-0.286553081901244,0.412274054652251,8
1.33999633789063,-0.70016086101532,2.78722381591797,1.37076020240784,-0.422802873722428,2.78389611561957,1.40459220990988,1187.728,1418.316,3154.758,3242.166,-0.1189858,0.01844721,0.08086229,-0.711616456508636,-0.293458849191666,0.36533260345459,-0.678873453515705,-0.29210028151913,0.420255006953505,8
1.36000061035156,-0.714571833610535,2.78117680549622,1.37818312644958,-0.436511415158101,2.77799771321212,1.41307845008695,1193.933,1415.562,3161.637,3245.778,-0.1192297,0.01760324,0.08321872,-0.720548927783966,-0.302351742982864,0.371145933866501,-0.691670720740693,-0.297606588091785,0.42817712498415,8
1.37999725341797,-0.72916704416275,2.77495765686035,1.38572442531586,-0.450469530727146,2.77199192602736,1.42171918854144,1201.174,1412.434,3166.729,3250.159,-0.1193341,0.01685756,0.08552092,-0.729757070541382,-0.310958385467529,0.377065807580948,-0.704356955827446,-0.303065120637236,0.436030508832034,8
1.40000152587891,-0.743951499462128,2.76857233047485,1.39338755607605,-0.464685685951852,2.76587511158757,1.43051966583492,1208.992,1408.69,3173.466,3252.901,-0.119299,0.01621123,0.08775584,-0.739226102828979,-0.319265633821487,0.383157789707184,-0.716935713767318,-0.308477408768949,0.443817359206152,8
1.41999816894531,-0.758930027484894,2.76202726364136,1.4011744260788,-0.47914673136562,2.75965292774086,1.43947174182117,1218.069,1405.141,3177.745,3256.411,-0.1191402,0.0156656,0.08991088,-0.748922884464264,-0.327250838279724,0.389346152544022,-0.729391385793766,-0.313836736470737,0.451528013536465,8
1.44000244140625,-0.774106681346893,2.75532913208008,1.40908873081207,-0.493861275572861,2.75332167044526,1.4485807456364,1226.087,1400.981,3184.325,3259.201,-0.1188697,0.01521813,0.09197701,-0.758832454681396,-0.334907561540604,0.395716995000839,-0.741727567798258,-0.319144650954242,0.459164697851088,8
1.45999908447266,-0.789485037326813,2.74848461151123,1.41713261604309,-0.508815552717244,2.74688726276417,1.45783815555978,1234.594,1397.07,3188.977,3262.734,-0.1185011,0.01486897,0.09394146,-0.768919229507446,-0.342221349477768,0.402191430330276,-0.753929052770513,-0.324394609067776,0.466717998286247,8
1.47999572753906,-0.80506831407547,2.74150085449219,1.42530941963196,-0.524012471663969,2.74034845309416,1.46724577231745,1242.45,1392.672,3195.98,3264.772,-0.1180377,0.01461567,0.09579615,-0.779164850711823,-0.349191963672638,0.408841162919998,-0.765994882555672,-0.329586198544069,0.474187321698441,8
1.5,-0.820858895778656,2.73438453674316,1.4336211681366,-0.539455198877605,2.73370387899399,1.4768055561018,1250.017,1388.366,3201.566,3267.812,-0.1174854,0.01445651,0.09753694,-0.789531469345093,-0.355810761451721,0.415587246417999,-0.777924000354858,-0.334718964672088,0.481572013878822,8
1.51999664306641,-0.836858689785004,2.72714304924011,1.44206953048706,-0.555129074991064,2.72695984797977,1.48650843206629,1261.849,1384.634,3205.22,3267.73,-0.1168606,0.01439324,0.09914454,-0.799991011619568,-0.362071424722672,0.422416806221008,-0.789701834723693,-0.339786637766398,0.488863054409188,8
1.54000091552734,-0.853069245815277,2.71978330612183,1.45065784454346,-0.571043070329722,2.72011250037111,1.49635995326965,1268.941,1380.164,3212.26,3269.389,-0.1161916,0.01441171,0.1006389,-0.810524523258209,-0.367982774972916,0.429418206214905,-0.801332006385301,-0.344790775723006,0.496062684689629,8
1.55999755859375,-0.869491100311279,2.71231245994568,1.45938742160797,-0.587181951496087,2.71316839067337,1.50635068951315,1276.25,1375.853,3217.239,3271.869,-0.1154805,0.01450999,0.1020151,-0.821093559265137,-0.373544067144394,0.436479181051254,-0.812800388649436,-0.349725300221754,0.503162159625937,8
1.58000183105469,-0.886124730110168,2.70473718643188,1.4682605266571,-0.60355483331529,2.70612359703193,1.51648628330776,1283.58,1371.227,3223.785,3272.559,-0.1147221,0.01468401,0.103269,-0.831681191921234,-0.378764808177948,0.443653672933578,-0.824110582941666,-0.354591760855452,0.510163708672098,8
1.59999847412109,-0.902969717979431,2.69706439971924,1.47727751731873,-0.620145926473056,2.69898491314762,1.52675696031579,1291.997,1367.27,3227.319,3273.854,-0.1139311,0.01493106,0.1043971,-0.842251062393188,-0.383643925189972,0.450848966836929,-0.835248923368005,-0.359384277571697,0.517058871988737,8
1.62000274658203,-0.92002546787262,2.68930053710938,1.48644042015076,-0.636964489205914,2.69174835545992,1.53716845182668,1299.032,1362.936,3232.989,3274.34,-0.1131167,0.01524306,0.1054012,-0.85278993844986,-0.388194501399994,0.458146333694458,-0.846218976345106,-0.364104384899943,0.523849857357655,8
1.63999938964844,-0.937290728092194,2.68145203590393,1.49574959278107,-0.653994195024907,2.68442094880091,1.54771065096602,1305.968,1359.183,3236.39,3275.844,-0.1122922,0.0156158,0.1062795,-0.863263547420502,-0.392421752214432,0.465458303689957,-0.857007552155828,-0.368746407673381,0.530528499715628,8
1.65999603271484,-0.954763948917389,2.67352509498596,1.50520670413971,-0.671237824488362,2.67700149677403,1.55838527903188,1311.575,1355.073,3242.146,3276.097,-0.1114575,0.01604288,0.1070333,-0.873658895492554,-0.396343261003494,0.472853630781174,-0.867614155697522,-0.373310132863173,0.537094492570531,8
1.68000030517578,-0.972442805767059,2.66552567481995,1.5148116350174,-0.688698391434734,2.66948870260877,1.56919420173384,1316.468,1351.322,3246.214,3277.5,-0.1106117,0.01652,0.1076657,-0.883942663669586,-0.399967700242996,0.48024445772171,-0.878038122530658,-0.377795274579551,0.543547424602645,8
1.69999694824219,-0.990324735641479,2.65745973587036,1.52456378936768,-0.706358800111611,2.66188992212981,1.58012683598675,1325.499,1348.515,3247.776,3275.909,-0.1097675,0.0170476,0.1081621,-0.894092679023743,-0.403303056955338,0.487607955932617,-0.888267004546665,-0.382196476749158,0.549879589839776,8
1.72000122070313,-1.00840663909912,2.64933228492737,1.53446459770203,-0.724228658537036,2.6542010212754,1.5911891296115,1329.553,1345.07,3252.923,3275.854,-0.1089467,0.01760955,0.1085478,-0.904099345207214,-0.406371682882309,0.495040625333786,-0.898304216251578,-0.386515208538549,0.556093102023817,8
1.73999786376953,-1.02668535709381,2.64114856719971,1.54451298713684,-0.742290383213093,2.64642956573347,1.60237019758524,1333.405,1342.066,3255.77,3276.847,-0.1081467,0.01820295,0.1088246,-0.913930892944336,-0.409186094999313,0.502422153949738,-0.908137821269591,-0.39074633405868,0.562180571969536,8
1.76000213623047,-1.0451568365097,2.63291335105896,1.55470907688141,-0.76055371708895,2.63857136338517,1.61367607125764,1337.141,1338.857,3260.185,3275.979,-0.1073563,0.01882379,0.1089941,-0.923579692840576,-0.411766141653061,0.509805858135223,-0.917771149318994,-0.394891285994308,0.568144060931169,8
1.77999877929688,-1.06381726264954,2.62463092803955,1.56505084037781,-0.779000609654483,2.63063418086074,1.62509557650306,1342.029,1336.552,3261.11,3275.841,-0.1065856,0.01946866,0.1090575,-0.933017492294312,-0.41411966085434,0.517089784145355,-0.927192788821983,-0.398945154262308,0.57397650459845,8
1.79999542236328,-1.0826621055603,2.61630535125732,1.57553815841675,-0.797633790944145,2.62261684350262,1.63663040334288,1345.392,1333.931,3264.391,3274.764,-0.1058388,0.02012971,0.1090218,-0.942242980003357,-0.416267216205597,0.524367153644562,-0.936402499096495,-0.402907835303912,0.579677753977713,7
1.81999969482422,-1.10168671607971,2.60794115066528,1.58616936206818,-0.816456197270346,2.61451808789761,1.64828236949435,1346.728,1331.603,3266.456,3275.768,-0.1051176,0.0208008,0.1088955,-0.951233565807343,-0.418222695589066,0.531562507152557,-0.945399824400851,-0.406779133026206,0.585247526943151,7
1.83999633789063,-1.1208860874176,2.59954118728638,1.59694230556488,-0.835449117627072,2.60634596486888,1.66003989195343,1351.805,1330.249,3266.088,3274.023,-0.1044263,0.02148481,0.1086627,-0.959976196289063,-0.419998198747635,0.538647055625916,-0.954174163352093,-0.410554485950274,0.590679260733698,7
1.86000061035156,-1.14025545120239,2.59110879898071,1.60785675048828,-0.854622615239374,2.59809614449182,1.6719092003358,1352.446,1328.347,3269.574,3272.946,-0.1037738,0.0221687,0.1083473,-0.968470990657806,-0.421618431806564,0.545722484588623,-0.962728579444532,-0.414235212212131,0.595974851798267,7
1.87999725341797,-1.15978956222534,2.58264684677124,1.61890971660614,-0.873957566090845,2.58977685529642,1.6838784559643,1353.08,1327.015,3270.147,3273.279,-0.1031549,0.02285144,0.1079538,-0.976692080497742,-0.423095345497131,0.552650690078735,-0.971053025860989,-0.417816988947023,0.601128080678429,7
1.90000152587891,-1.1794821023941,2.57415795326233,1.63009965419769,-0.893464153455626,2.58138371570432,1.69595396277071,1354.365,1325.539,3272.204,3271.192,-0.1025546,0.02353062,0.1074838,-0.98464173078537,-0.424447059631348,0.559498131275177,-0.979150439632688,-0.421301079877433,0.606140765536421,7
1.91999816894531,-1.19932818412781,2.56564426422119,1.64142298698425,-0.913122862707269,2.57292512231409,1.70812364027167,1356.376,1324.93,3270.871,3270.346,-0.1019863,0.02420311,0.1069429,-0.992300689220428,-0.425680339336395,0.566169798374176,-0.987011339258123,-0.424683405378145,0.611007036871143,7
1.94000244140625,-1.21932172775269,2.55710792541504,1.65287840366364,-0.932943991899774,2.5643966441608,1.72039386345315,1356.427,1323.89,3272.333,3268.775,-0.1014526,0.02486203,0.1063407,-0.999677240848541,-0.426814526319504,0.572768688201904,-0.994638524886308,-0.427965170275055,0.615728628108227,7
1.95999908447266,-1.23945677280426,2.5485508441925,1.66446220874786,-0.952907658613767,2.55580683609405,1.73275232415044,1355.941,1323.488,3271.266,3268.914,-0.1009556,0.02550548,0.1056811,-1.00675475597382,-0.427859216928482,0.579192459583282,-1.00202309041976,-0.431142542523221,0.620300025949072,7
1.97999572753906,-1.25972747802734,2.53997421264648,1.6761726140976,-0.973016570682103,2.54715453300902,1.74520069864106,1354.744,1322.806,3272.563,3267.272,-0.1004827,0.02613143,0.1049665,-1.01354098320007,-0.428832679986954,0.585519194602966,-1.00916501115878,-0.434215511495054,0.624721215103391,7
2,-1.28012788295746,2.53137946128845,1.68800580501556,-0.993273599084619,2.53843849960327,1.7577407641983,1352.8,1322.531,3272.01,3267.136,-0.1000251,0.02673829,0.1042043,-1.02002167701721,-0.429742783308029,0.591661751270294,-1.01606400046349,-0.437183953857422,0.628992018127441,6
2.01999664306641,-1.30065178871155,2.52276754379272,1.69995784759521,-1.01365835337184,2.52966750931758,1.77035989816261,1355.4,1323.168,3268.854,3263.989,-0.09958944,0.02733064,0.1033813,-1.02619409561157,-0.430594325065613,0.597603023052216,-1.02271203275434,-0.440044416427654,0.633107466805174,6
2.04000091552734,-1.32129311561584,2.51413941383362,1.71202707290649,-1.0341813929022,2.52083701875502,1.78306463727984,1352.835,1323.155,3269.709,3262.433,-0.09918997,0.02789562,0.1025261,-1.03206849098206,-0.431405067443848,0.603459477424622,-1.02911152474823,-0.442797939051516,0.637069057199471,6
2.05999755859375,-1.34204578399658,2.50549554824829,1.72420907020569,-1.05482201812353,2.5119559343546,1.79584216754118,1349.906,1323.489,3268.023,3262.647,-0.09881819,0.02843418,0.1016422,-1.03763067722321,-0.432181358337402,0.609100818634033,-1.03525504859546,-0.445441325732794,0.640872191117535,6
2.08000183105469,-1.3629035949707,2.49683713912964,1.73650109767914,-1.07559088172821,2.50301967256038,1.80869908347065,1347.671,1323.573,3268.215,3260.25,-0.09845227,0.0289481,0.1007284,-1.04289245605469,-0.432935535907745,0.614600539207458,-1.04114485287423,-0.447975543971863,0.644518260536375,6
2.09999847412109,-1.38386034965515,2.48816347122192,1.74889814853668,-1.09646699912883,2.4940372624541,1.82162239460902,1346.487,1324.431,3264.742,3259.287,-0.09809754,0.02943777,0.09978767,-1.04784178733826,-0.433666080236435,0.619852006435394,-1.04677411523768,-0.450397658303471,0.648003042098304,5
2.1199951171875,-1.40491020679474,2.47947597503662,1.76139760017395,-1.11745308225396,2.48500753716864,1.83461377976925,1344.464,1324.877,3264.137,3256.64,-0.09775186,0.02990044,0.09882566,-1.05249500274658,-0.434383541345596,0.624972999095917,-1.0521429102862,-0.45270770082608,0.651326581984514,5
2.13999938964844,-1.42604720592499,2.47077417373657,1.77399516105652,-1.138551967509,2.47592927627801,1.8476749948214,1339.954,1325.46,3262.019,3257.276,-0.09741364,0.03033392,0.09785308,-1.05684340000153,-0.435089617967606,0.629877209663391,-1.05725102347782,-0.454905579228273,0.654488747383304,4
2.15999603271484,-1.44726490974426,2.46205854415894,1.78668630123138,-1.15974228854654,2.4668116731246,1.86079281297862,1340.483,1326.728,3258.001,3253.992,-0.09707808,0.03074689,0.09684847,-1.0608913898468,-0.435784786939621,0.634559214115143,-1.06209255378819,-0.456988754464129,0.657485885279498,4
2.18000030517578,-1.46855807304382,2.45332884788513,1.79946875572205,-1.18103490068612,2.45765005696766,1.87397395420079,1336.02,1327.442,3257.736,3252.367,-0.09675424,0.03112964,0.09583849,-1.06465065479279,-0.436479836702347,0.639122366905212,-1.06666929835407,-0.458957999791384,0.660319108186354,3
2.19999694824219,-1.48992013931274,2.44458532333374,1.81233751773834,-1.20240821395574,2.44845371736898,1.88720505326679,1332.225,1328.405,3254.723,3251.959,-0.09642933,0.03148644,0.09482266,-1.06811058521271,-0.437172919511795,0.643435597419739,-1.07097597819164,-0.460811043810786,0.662985148161421,1
2.22000122070313,-1.51134598255157,2.43582773208618,1.82528913021088,-1.22387315175433,2.43921795429519,1.90049287228091,1329.512,1329.083,3253.443,3248.942,-0.09608525,0.03181998,0.09379938,-1.07128524780273,-0.437867999076843,0.647579669952393,-1.07501419914593,-0.462548577472581,0.665484999299265,0
2.23999786376953,-1.53282928466797,2.42705678939819,1.8383184671402,-1.24540792547886,2.42995214277345,1.91382392305993,1327.555,1330.302,3249.025,3247.525,-0.09573265,0.03213066,0.09277278,-1.07416701316833,-0.438557535409927,0.651464223861694,-1.07877930973132,-0.464168599372462,0.667815782108711,0
2.26000213623047,-1.55436456203461,2.41827154159546,1.85142242908478,-1.26702351885107,2.42065155681516,1.92720500505083,1324.376,1331.002,3247.285,3245.173,-0.09536886,0.03241742,0.09174673,-1.07677245140076,-0.439245343208313,0.655197501182556,-1.08227271937422,-0.465671715947234,0.669978369091845,0
2.27999877929688,-1.57594656944275,2.40947318077087,1.86459624767303,-1.28869796983554,2.41132564607061,1.9406225227075,1321.095,1332.053,3243.433,3244.316,-0.09499656,0.03268183,0.09072248,-1.07909607887268,-0.439926475286484,0.658692896366119,-1.08549040888332,-0.467056197851165,0.67197027217779,0
2.29999542236328,-1.5975695848465,2.4006609916687,1.87783682346344,-1.31043401044317,2.40197323503182,1.95407816727483,1316.94,1332.619,3242.006,3242.27,-0.09460134,0.03292541,0.08970053,-1.08115148544312,-0.440604031085968,0.662031173706055,-1.08843251702753,-0.468322104792631,0.6737915772711,0
2.31999969482422,-1.61922824382782,2.3918354511261,1.8911395072937,-1.33223444283894,2.39259311800549,1.96757367342642,1312.773,1333.333,3238.943,3241.337,-0.09417204,0.0331515,0.08868214,-1.08293342590332,-0.441271305084229,0.66513454914093,-1.09109887036509,-0.469469362144493,0.675442177003072,0
2.33999633789063,-1.64091718196869,2.38299703598022,1.90449941158295,-1.35407709248145,2.38319483607731,1.98109531406483,1313.612,1334.584,3233.58,3237.288,-0.09371237,0.03336724,0.08765057,-1.08444499969482,-0.441918939352036,0.667992830276489,-1.09348640563071,-0.470496651869278,0.67692017506657,0
2.36000061035156,-1.66263103485107,2.37414598464966,1.9179140329361,-1.37597305876702,2.37377361348711,1.99464996024512,1309.436,1335.194,3232.095,3235.08,-0.09324046,0.03356392,0.08663102,-1.08569943904877,-0.442550122737885,0.670728623867035,-1.09559602313537,-0.471404361345641,0.678226128796969,0
2.37999725341797,-1.6843649148941,2.36528277397156,1.93137836456299,-1.39790005743958,2.36433903852774,2.00822381695123,1305.277,1335.782,3228.359,3234.601,-0.09274618,0.03374527,0.08562176,-1.08668911457062,-0.443157613277435,0.673219621181488,-1.09742530100382,-0.472191448508328,0.679358538938131,0
2.40000152587891,-1.70611333847046,2.35640788078308,1.94488930702209,-1.4198692197338,2.35488632173988,2.02182377494768,1302.032,1335.946,3226.733,3231.474,-0.09220822,0.03391613,0.0846172,-1.08742809295654,-0.443741172552109,0.6755490899086,-1.09897493039424,-0.472858210743393,0.680317833349887,0
2.41999816894531,-1.72787165641785,2.34752202033997,1.95844161510468,-1.44185817738692,2.34542508756209,2.03543598721428,1300.214,1336.566,3221.804,3229.571,-0.09163192,0.03407898,0.0836165,-1.08790826797485,-0.444287598133087,0.677616059780121,-1.10024313330221,-0.473403883025206,0.681102911362803,0
2.44000244140625,-1.74963450431824,2.33862590789795,1.97203230857849,-1.46387808506052,2.33595053645515,2.04906735901791,1297.832,1336.673,3219.451,3226.307,-0.09101513,0.03423396,0.08262111,-1.08814430236816,-0.44479501247406,0.679533898830414,-1.10123038958312,-0.473828671822132,0.681714070030222,0
2.45999908447266,-1.77139699459076,2.32972097396851,1.98565661907196,-1.48590651627916,2.32647231790489,2.06270400730194,1295.343,1337.024,3214.745,3224.999,-0.09036744,0.03438284,0.08163112,-1.08812963962555,-0.445252686738968,0.681213617324829,-1.10193556692257,-0.474132089930926,0.682150608395601,0
2.47999572753906,-1.7931547164917,2.32080793380737,1.99931168556213,-1.50794623031618,2.31698924467309,2.07634764018804,1292.186,1336.835,3212.806,3222.123,-0.08967822,0.03452678,0.0806442,-1.08787751197815,-0.445660442113876,0.682753324508667,-1.10235882472314,-0.474314205938057,0.682412625136718,0
2.5,-1.81490206718445,2.31188774108887,2.0129930973053,-1.52999999932945,2.30750012397766,2.08999997377396,1288.197,1336.661,3209.475,3221.09,-0.08894052,0.03466834,0.07966222,-1.08738136291504,-0.446009129285812,0.684073626995087,-1.10250000050292,-0.474374949932098,0.682500019669533,0
2.51999664306641,-1.83663487434387,2.30296206474304,2.02669644355774,-1.55204535801192,2.29801462201262,2.10364710096447,1289.876,1336.855,3204.104,3216.192,-0.08815276,0.03481676,0.07866392,-1.08664309978485,-0.446287900209427,0.685164213180542,-1.10235893238473,-0.47431425226183,0.68241269178437,0
2.54000091552734,-1.8583482503891,2.29403209686279,2.04041934013367,-1.57409348237975,2.28852793005043,2.11729594024597,1286.61,1336.533,3202.256,3213.342,-0.08733517,0.03496229,0.07767456,-1.08567190170288,-0.446496874094009,0.686140537261963,-1.10193556692257,-0.474132089930926,0.682150608395601,0
2.55999755859375,-1.88003754615784,2.28509950637817,2.0541570186615,-1.59612191359838,2.27904971150017,2.13093258853001,1283.669,1336.043,3198.203,3212.076,-0.08648136,0.03510929,0.07669037,-1.08445954322815,-0.446626782417297,0.686884343624115,-1.10123038958312,-0.473828671822132,0.681714070030222,0
2.58000183105469,-1.90169787406921,2.27616596221924,2.06790661811829,-1.61814182127198,2.26957516039323,2.14456396033363,1281.609,1335.145,3196.227,3208.264,-0.08557429,0.0352612,0.07570484,-1.08301758766174,-0.446676045656204,0.687482416629791,-1.10024313330221,-0.473403883025206,0.681102911362804,0
2.59999847412109,-1.92332458496094,2.26723337173462,2.08166337013245,-1.64013077892511,2.26011392621545,2.15817617260023,1280.675,1334.595,3191.219,3205.831,-0.08462088,0.03542025,0.07471628,-1.08133733272552,-0.446631848812103,0.687838494777679,-1.09897493039424,-0.472858210743393,0.680317833349887,0
2.6199951171875,-1.94491314888,2.25830364227295,2.09542465209961,-1.66209156852628,2.2506648119635,2.17177094750084,1279.288,1333.574,3188.739,3201.922,-0.08362113,0.03558629,0.07372392,-1.079430103302,-0.446492433547974,0.688062369823456,-1.09742594550583,-0.472191725819537,0.679358937915576,0
2.63999938964844,-1.96645903587341,2.24937868118286,2.10918641090393,-1.68402693989188,2.24122663446822,2.18534998730279,1276.144,1332.491,3185.123,3200.633,-0.0825761,0.0357589,0.0727318,-1.07728958129883,-0.446249574422836,0.688085496425629,-1.09559602313537,-0.471404361345641,0.67822612879697,0
2.65999603271484,-1.987957239151,2.24046087265015,2.12294435501099,-1.70591456353497,2.23180900148401,2.19889946898997,1277.954,1331.63,3179.991,3195.756,-0.08148527,0.03594657,0.07171676,-1.07491731643677,-0.445895373821259,0.687902331352234,-1.09348726343002,-0.470497020956359,0.676920706085208,0
2.68000030517578,-2.0094039440155,2.23155212402344,2.13669681549072,-1.72776555581996,2.22240712994983,2.2124262741215,1275.217,1330.435,3178.209,3192.452,-0.08036248,0.03614119,0.07069986,-1.07231950759888,-0.445431500673294,0.68761795759201,-1.09109887036509,-0.469469362144494,0.675442177003072,0
2.69999694824219,-2.03079342842102,2.22265529632568,2.15043902397156,-1.74955768413056,2.21303058593937,2.22591663964878,1273.096,1329.074,3174.17,3190.494,-0.07920135,0.03634704,0.06967652,-1.06948685646057,-0.444850325584412,0.687110781669617,-1.08843358680109,-0.468322565086308,0.673792239511893,0
2.72000122070313,-2.05212187767029,2.21377229690552,2.16416835784912,-1.77130202882336,2.20367460188472,2.23937742484041,1272.446,1327.418,3171.801,3185.735,-0.07798748,0.03656654,0.06863971,-1.06642758846283,-0.444150745868683,0.686461985111237,-1.08549040888332,-0.467056197851165,0.671970272177789,0
2.73999786376953,-2.07338452339172,2.20490574836731,2.17788004875183,-1.79297647980783,2.19434869114016,2.25279494249708,1272.526,1326.053,3166.794,3182.457,-0.07673366,0.03680015,0.067591,-1.06313323974609,-0.443322986364365,0.68559056520462,-1.08227271937422,-0.465671715947234,0.669978369091845,0
2.76000213623047,-2.09457683563232,2.19605827331543,2.19157195091248,-1.81459207318004,2.18504810518187,2.26617602448799,1271.595,1324.226,3164.361,3178.163,-0.07544309,0.0370458,0.06653236,-1.05961263179779,-0.442367643117905,0.684600234031677,-1.07877930973132,-0.464168599372462,0.667815782108711,0
2.77999877929688,-2.11569404602051,2.18723297119141,2.20524001121521,-1.83612684690458,2.17578229366013,2.27950707526701,1270.583,1322.533,3159.72,3175.726,-0.07412163,0.03730421,0.06546215,-1.05585825443268,-0.4412781894207,0.683399498462677,-1.07501419914593,-0.462548577472581,0.665484999299265,0
2.79999542236328,-2.13673162460327,2.17843151092529,2.21888160705566,-1.85758361379882,2.16655004629821,2.2927898361021,1269.388,1320.486,3157.458,3171.442,-0.07276129,0.03757656,0.06437555,-1.05187809467316,-0.440056622028351,0.682079672813416,-1.07097756992209,-0.460811728687929,0.662986133518392,0
2.81999969482422,-2.15768456459045,2.16965770721436,2.23249292373657,-1.87896509797278,2.15735019098767,2.30602599334712,1267.373,1318.493,3153.969,3168.822,-0.07135993,0.03786306,0.0632754,-1.04766511917114,-0.438698410987854,0.680569767951965,-1.06666929835407,-0.458957999791384,0.660319108186353,0
2.83999633789063,-2.17854881286621,2.16091370582581,2.24606990814209,-1.90024960698239,2.14819206138118,2.31920211834584,1270.433,1316.729,3148.439,3163.037,-0.0699197,0.03816962,0.06214212,-1.04321813583374,-0.437197625637054,0.678851544857025,-1.06209435025759,-0.456989527434725,0.657486997379635,0
2.86000061035156,-2.19931983947754,2.15220260620117,2.25961089134216,-1.9214480311499,2.13907097167731,2.33232495272651,1269.039,1314.764,3146.328,3158.607,-0.06846188,0.03848718,0.0609978,-1.03854274749756,-0.435558497905731,0.67704701423645,-1.05725102347782,-0.454905579228273,0.654488747383304,0
2.87999725341797,-2.21999216079712,2.14352703094482,2.27311158180237,-1.94253888918396,2.12999616467562,2.34538119854648,1267.062,1312.564,3142.219,3156.497,-0.06698543,0.03881664,0.05984192,-1.03363084793091,-0.433778405189514,0.675035178661346,-1.05214490868305,-0.452708560680416,0.651327819087361,0
2.90000152587891,-2.24056220054626,2.13488960266113,2.28656959533691,-1.96353299953007,2.12096298550123,2.3583775529389,1266.717,1310.114,3139.968,3151.133,-0.06547062,0.03916119,0.05866502,-1.02849042415619,-0.431860566139221,0.672896504402161,-1.04677411523767,-0.450397658303471,0.648003042098304,0
2.91999816894531,-2.26102423667908,2.12629389762878,2.2999804019928,-1.98440911693069,2.11198057539494,2.37130086407726,1266.893,1307.999,3134.993,3147.458,-0.06392812,0.03952013,0.05746946,-1.02311336994171,-0.429799795150757,0.670541524887085,-1.04114485287423,-0.447975543971863,0.644518260536375,0
2.93999481201172,-2.28137445449829,2.11774182319641,2.31334161758423,-2.00517008215741,2.10304771205211,2.38415289053452,1266.96,1305.6,3132.009,3142.292,-0.06236005,0.03989203,0.05625415,-1.01750659942627,-0.427598625421524,0.668064296245575,-1.03525734386973,-0.445442313325187,0.640873612001643,0
2.95999908447266,-2.30160808563232,2.10923671722412,2.3266499042511,-2.02581860575671,2.0941632292003,2.39693531026807,1265.121,1303.214,3128.263,3139.494,-0.06077174,0.04027464,0.05502508,-1.01166570186615,-0.425256371498108,0.665412902832031,-1.02911152474823,-0.442797939051516,0.637069057199471,0
2.97999572753906,-2.32171964645386,2.10078096389771,2.33990144729614,-2.04633384260397,2.08533609591429,2.40963521915279,1267.34,1300.946,3123.156,3133.884,-0.05916159,0.04067323,0.05376353,-1.00559139251709,-0.422772288322449,0.662572503089905,-1.02271452148052,-0.440045487257004,0.633109007445237,0
3,-2.34170532226563,2.09237813949585,2.35309433937073,-2.06672639957428,2.07656174835205,2.42225918334961,1265.799,1298.683,3120.923,3129.189,-0.05754399,0.04108013,0.05248773,-0.999287843704224,-0.420152366161346,0.659641206264496,-1.01606400046349,-0.437183953857422,0.628992018127441,0
3.01999664306641,-2.3615608215332,2.08403015136719,2.36622428894043,-2.08697572864857,2.06784902775215,2.4347944826559,1264.357,1296.256,3116.399,3126.421,-0.05591413,0.04149717,0.05119548,-0.992748916149139,-0.417396456003189,0.656498551368713,-1.00916768936771,-0.434216663853534,0.624722873042298,0
3.04000091552734,-2.38128018379211,2.07573986053467,2.37928891181946,-2.10709234004513,2.05919341186127,2.44724762339747,1264.422,1293.689,3113.854,3120.383,-0.05425978,0.04192534,0.04987993,-0.985982239246368,-0.414509564638138,0.653236865997314,-1.00202309041976,-0.43114254252322,0.620300025949072,0
3.05999755859375,-2.40085983276367,2.06751012802124,2.39228415489197,-2.12705600675913,2.05060360379452,2.45960608409476,1264.654,1291.433,3108.673,3116.325,-0.05259264,0.04236357,0.04854641,-0.97898131608963,-0.411489605903625,0.649764180183411,-0.994638524886308,-0.427965170275055,0.615728628108227,0
3.08000183105469,-2.42029476165771,2.0593433380127,2.40520763397217,-2.14687713595163,2.04207512564123,2.47187630727625,1264.525,1288.922,3105.639,3110.851,-0.05091485,0.04280929,0.04719552,-0.971753358840942,-0.408341407775879,0.646176815032959,-0.987011339258122,-0.424683405378145,0.611007036871143,0
3.09999847412109,-2.4395809173584,2.0512421131134,2.41805553436279,-2.16653584520328,2.033616532251,2.4840459847772,1263.919,1286.572,3100.757,3107.3,-0.04923546,0.04326133,0.04582932,-0.964295029640198,-0.405065774917603,0.642396748065948,-0.979150439632689,-0.421301079877433,0.606140765536421,0
3.1199951171875,-2.45871329307556,2.04320859909058,2.43082571029663,-2.18603502400946,2.02522658035469,2.49611690533293,1262.856,1284.05,3098.056,3102.208,-0.04754755,0.04371943,0.0444461,-0.956613481044769,-0.401669204235077,0.638506412506104,-0.971056158224178,-0.417818336715394,0.601130019760458,0
3.13999938964844,-2.47768712043762,2.03524565696716,2.44351434707642,-2.20537738341953,2.01690410346351,2.50809074721212,1260.893,1281.621,3094.05,3098.925,-0.04584845,0.04418281,0.04304916,-0.948705911636353,-0.398153334856033,0.634433388710022,-0.962728579444533,-0.414235212212131,0.595974851798267,0
3.15999603271484,-2.49649858474731,2.0273551940918,2.45611763000488,-2.22454360124808,2.00865741537402,2.51995554906156,1263.888,1279.337,3088.529,3092.186,-0.04413657,0.04465617,0.0416208,-0.940574407577515,-0.394519120454788,0.630169987678528,-0.95417746870157,-0.410555908149813,0.590681306902481,0
3.18000030517578,-2.51514339447021,2.01953983306885,2.46863412857056,-2.24354380138856,2.00048216005771,2.53171757805356,1262.478,1277.243,3085.682,3087.132,-0.04243481,0.04512993,0.04018476,-0.9322230219841,-0.390772819519043,0.625819742679596,-0.94539982440085,-0.406779133026206,0.58524752694315,0
3.19999694824219,-2.533616065979,2.01180148124695,2.48105955123901,-2.2623590635174,1.99238647840124,2.54336512160655,1260.411,1274.831,3081.134,3084.347,-0.04074104,0.04560515,0.03874104,-0.923650622367859,-0.38691782951355,0.62127423286438,-0.936405971974636,-0.402909329586355,0.579679903854719,0
3.22000122070313,-2.55191326141357,2.00414228439331,2.49339175224304,-2.28099938900442,1.98436606709459,2.55490437104486,1260.092,1272.375,3078.232,3078.27,-0.03903821,0.04608351,0.03728113,-0.914865434169769,-0.382960498332977,0.616610288619995,-0.927192788821982,-0.398945154262308,0.573976504598449,0
3.23999786376953,-2.5700306892395,1.99656426906586,2.5056266784668,-2.29944628156995,1.97642888457015,2.56632387629027,1259.684,1270.221,3073.029,3074.159,-0.03733539,0.04656336,0.03581046,-0.90586519241333,-0.378901541233063,0.611747920513153,-0.917771149318993,-0.394891285994308,0.568144060931169,0
3.26000213623047,-2.58796358108521,1.98906946182251,2.51776218414307,-2.31770961544581,1.96857068222185,2.57762974996267,1259.322,1267.934,3069.665,3068.442,-0.03563203,0.04704351,0.03432887,-0.896657168865204,-0.374746233224869,0.606772541999817,-0.90813782126959,-0.39074633405868,0.562180571969535,0
3.27999877929688,-2.605708360672,1.98165941238403,2.52979445457458,-2.33577134012187,1.96079922667992,2.58881081793642,1258.575,1265.805,3064.5,3064.602,-0.03393773,0.04752259,0.03283938,-0.887241184711456,-0.37049674987793,0.60161167383194,-0.898304216251578,-0.386515208538549,0.556093102023818,0
3.29999542236328,-2.62326073646545,1.97433614730835,2.54172134399414,-2.35363442159312,1.95311324175956,2.5998689163037,1257.506,1263.605,3061.419,3059.159,-0.03224768,0.0479999,0.03134158,-0.877624928951263,-0.366159439086914,0.596348643302917,-0.888270870184445,-0.382198140025101,0.549881982853707,0
3.31999969482422,-2.64061713218689,1.96710157394409,2.55353951454163,-2.37130160722417,1.94551154534655,2.61080574581408,1255.056,1261.478,3057.101,3056.027,-0.03056084,0.04847419,0.02984084,-0.867809116840363,-0.361737340688705,0.59091329574585,-0.878038122530657,-0.377795274579551,0.543547424602645,0
3.33999633789063,-2.6577730178833,1.95995676517487,2.56524562835693,-2.38875555478454,1.93800159931817,2.62161057080077,1257.255,1259.374,3051.748,3049.421,-0.02887239,0.04895022,0.02831967,-0.857798635959625,-0.357233077287674,0.585306227207184,-0.867618167158097,-0.373311858882592,0.53709697585572,0
3.36000061035156,-2.67472505569458,1.95290374755859,2.57683801651001,-2.406005803634,1.93057929915441,2.6322892965819,1255.573,1257.653,3048.562,3044.314,-0.02720206,0.04942025,0.02680029,-0.847597658634186,-0.352651983499527,0.579615533351898,-0.857007552155826,-0.36874640767338,0.530528499715627,0
3.37999725341797,-2.69146919250488,1.94594359397888,2.58831286430359,-2.42303550945299,1.9232518924954,2.64283149572124,1253.396,1255.568,3043.802,3041.345,-0.0255477,0.04988464,0.02528322,-0.837208926677704,-0.347998291254044,0.573742389678955,-0.846218976345105,-0.364104384899943,0.523849857357654,0
3.40000152587891,-2.7080020904541,1.93907833099365,2.59966802597046,-2.43985407218584,1.9160153348077,2.65324298723213,1252.827,1253.495,3040.621,3035.317,-0.02389441,0.05034501,0.02376134,-0.826641261577606,-0.343277454376221,0.567763686180115,-0.835248923368004,-0.359384277571698,0.517058871988738,0
3.41999816894531,-2.72431993484497,1.93230843544006,2.61090016365051,-2.45644516534361,1.90887665092339,2.66351366424015,1251.883,1251.66,3035.297,3031.506,-0.02225124,0.05080021,0.02224034,-0.815895974636078,-0.338491141796112,0.561603248119354,-0.824110582941664,-0.354591760855451,0.510163708672097,0
3.43999481201172,-2.74041938781738,1.92563605308533,2.62200713157654,-2.4728118459714,1.90183452548138,2.67364541920187,1251.394,1249.766,3031.875,3025.607,-0.02061606,0.05124963,0.02071906,-0.804980993270874,-0.333644151687622,0.555348455905914,-0.812804733542555,-0.349727169707881,0.503164849321754,0
3.45999908447266,-2.75629758834839,1.91906094551086,2.63298583030701,-2.48895692832918,1.89488774758421,2.68363999427827,1248.768,1247.96,3027.267,3022.798,-0.01899473,0.05169102,0.01920606,-0.793899238109589,-0.328739106655121,0.548937261104584,-0.801332006385299,-0.344790775723006,0.496062684689628,0
3.47999572753906,-2.77195072174072,1.91258549690247,2.64383363723755,-2.50486489870395,1.88804299234919,2.69348778574196,1250.286,1246.069,3022.461,3016.314,-0.01737926,0.05212859,0.01768524,-0.782657980918884,-0.32377952337265,0.542387127876282,-0.789706299681989,-0.339788558913217,0.488865818431069,0
3.5,-2.78737592697144,1.90620994567871,2.65454864501953,-2.5205447997813,1.88129636896134,2.70319439144611,1247.768,1244.614,3018.903,3012.304,-0.01578722,0.05255593,0.01617693,-0.77126145362854,-0.318769454956055,0.535749495029449,-0.777924000354857,-0.334718964672089,0.481572013878822,0
3.51999664306641,-2.80257034301758,1.89993572235107,2.66512775421143,-2.53598168290031,1.87465430941181,2.7127505574575,1246.234,1242.767,3014.319,3008.581,-0.01420956,0.05297545,0.01467536,-0.759715914726257,-0.313713043928146,0.528956294059753,-0.765999459475408,-0.329588167864767,0.474190155029786,0
3.54000091552734,-2.81753063201904,1.89376330375671,2.6755690574646,-2.55118444594166,1.86811298519115,2.72216179198813,1245.207,1241.098,3010.838,3003.256,-0.01264043,0.05338727,0.01317937,-0.748028695583344,-0.308614134788513,0.522068321704865,-0.753929052770513,-0.324394609067776,0.466717998286246,0
3.55999755859375,-2.8322548866272,1.88769388198853,2.6858696937561,-2.56613872308604,1.86167857751006,2.73141920191151,1244.426,1239.505,3005.84,2999.138,-0.01108514,0.0537913,0.01169215,-0.736203968524933,-0.303474754095078,0.515028178691864,-0.741727567798258,-0.319144650954242,0.459164697851087,0
3.58000183105469,-2.84673976898193,1.88172781467438,2.6960277557373,-2.58085326729328,1.85534732021446,2.74052820572674,1243.434,1237.922,3002.227,2994.06,-0.009543704,0.05418634,0.01021524,-0.724248886108398,-0.298298418521881,0.507903456687927,-0.729391385793765,-0.313836736470737,0.451528013536464,0
3.59999847412109,-2.86098289489746,1.87586617469788,2.70604062080383,-2.59531431270705,1.84912513636775,2.74948028171299,1242.206,1236.365,2997.442,2990.349,-0.008021974,0.05457199,0.00875121,-0.712168991565704,-0.293087750673294,0.500641524791718,-0.716935713767317,-0.308477408768949,0.443817359206151,0
3.6199951171875,-2.87498235702515,1.87010955810547,2.71590662002563,-2.60952509409627,1.84301063413925,2.75827743234631,1240.934,1234.834,2993.984,2985.513,-0.00651569,0.05494828,0.007299592,-0.699971795082092,-0.28784653544426,0.49330148100853,-0.704361775018033,-0.303067194200314,0.436033492140578,0
3.63999938964844,-2.8887357711792,1.86445772647858,2.72562336921692,-2.6234885835008,1.83700253474321,2.76692149746096,1238.635,1233.346,2989.737,2982.418,-0.005025918,0.05531448,0.005864441,-0.687663316726685,-0.28257742524147,0.485839754343033,-0.691670720740692,-0.297606588091786,0.428177124984152,0
3.65999603271484,-2.90224051475525,1.85891222953796,2.73518872261047,-2.63719194552437,1.83110636089208,2.77540453133521,1239.716,1231.784,2985.182,2976.553,-0.003545733,0.05567404,0.00443466,-0.675250589847565,-0.277282983064651,0.47826561331749,-0.678878353700696,-0.292102389931838,0.420258040401444,0
3.68000030517578,-2.91549587249756,1.85347270965576,2.74460124969482,-2.65064357486757,1.82531850058072,2.78373173068862,1237.802,1230.624,2981.558,2972.56,-0.002092712,0.05602189,0.003026948,-0.662738382816315,-0.271965444087982,0.470625072717667,-0.665981146317811,-0.286553081901244,0.412274054652249,0
3.69999694824219,-2.92849826812744,1.84814012050629,2.75385856628418,-2.66383127580226,1.81964420129024,2.79189554578451,1236.165,1229.084,2977.304,2969.263,-0.0006615292,0.05635944,0.001638659,-0.650134921073914,-0.266628503799438,0.462869614362717,-0.65299527533123,-0.280965624398954,0.404235181908735,0
3.72000122070313,-2.94124698638916,1.84291481971741,2.76295948028564,-2.6767633032417,1.81407991116207,2.79990108680742,1235.218,1227.682,2973.927,2964.47,0.0007542403,0.05668742,0.0002672964,-0.637447774410248,-0.261275172233582,0.455046445131302,-0.639917282339434,-0.275338529371411,0.396139281255611,0
3.73999786376953,-2.95374059677124,1.83779656887054,2.77190160751343,-2.68942811570037,1.808630596175,2.80774120902801,1234.217,1226.337,2969.365,2960.939,0.002148794,0.05700568,-0.001084439,-0.624683260917664,-0.255907535552979,0.4471116065979,-0.626763698705669,-0.269678909802388,0.38799658639423,0
3.75999450683594,-2.96597766876221,1.83278584480286,2.78068423271179,-2.70182915057228,1.80329477731443,2.81541804035694,1233.339,1225.039,2966.132,2956.17,0.003524224,0.0573137,-0.002415487,-0.611848473548889,-0.250528216362,0.439126163721085,-0.613536214864365,-0.263987493038594,0.379808143784027,0
3.77999877929688,-2.97795701026917,1.82788288593292,2.78930521011353,-2.7139695770734,1.79807109095524,2.82293354268985,1231.117,1223.744,2962.115,2953.539,0.004877149,0.05761087,-0.003720969,-0.598950326442719,-0.245139420032501,0.431046694517136,-0.60023651686137,-0.258265004538452,0.371574997167698,0
3.79999542236328,-2.98967671394348,1.82308828830719,2.79776287078857,-2.72583886061506,1.79296406983666,2.83028119461452,1232.121,1222.285,2957.839,2948.365,0.006214014,0.05790009,-0.005013134,-0.585996687412262,-0.239743426442146,0.422882974147797,-0.586881630238189,-0.252518769916838,0.363307686166475,0
3.81999969482422,-3.00113677978516,1.81840133666992,2.8060564994812,-2.73744492223163,1.78797030575888,2.83746589962856,1230.626,1221.309,2954.469,2944.561,0.007518718,0.05817774,-0.006277071,-0.572992503643036,-0.234342232346535,0.414683848619461,-0.573468357077023,-0.246747413199059,0.355004231116903,0
3.83999633789063,-3.01233577728271,1.8138222694397,2.81418466567993,-2.74877791451009,1.78309403578861,2.84448156171422,1228.87,1220,2950.728,2941.728,0.008794146,0.05844455,-0.007514375,-0.559946596622467,-0.228939563035965,0.406407117843628,-0.560014026276881,-0.240958390526246,0.346675359432959,0
3.86000061035156,-3.02327299118042,1.80935180187225,2.82214641571045,-2.75984563331209,1.77833190558438,2.85133300688122,1227.861,1218.757,2947.752,2937.524,0.01004888,0.05870127,-0.008726646,-0.546866834163666,-0.223538130521774,0.398089319467545,-0.546515580872635,-0.235150386571708,0.338319178707605,0
3.87999725341797,-3.03394794464111,1.80498921871185,2.8299400806427,-2.77063893010371,1.77368785150474,2.85801457175126,1227.254,1217.529,2943.522,2934.295,0.01127882,0.05894842,-0.009913883,-0.533760488033295,-0.218140080571175,0.389687895774841,-0.532990631455729,-0.229330978680956,0.329946590735853,0
3.90000152587891,-3.04436063766479,1.80073404312134,2.83756542205811,-2.78116548164984,1.76915857045225,2.8645310086075,1227.068,1216.413,2940.492,2929.668,0.01248262,0.05918546,-0.01107555,-0.5206338763237,-0.21274733543396,0.381265968084335,-0.519436284009554,-0.223498921639498,0.32155580398356,0
3.91999816894531,-3.05451107025146,1.79658675193787,2.84502124786377,-2.79141684911929,1.7647476934202,2.87087709341145,1225.528,1215.316,2936.781,2927.138,0.01365182,0.05941101,-0.01220367,-0.507494568824768,-0.207362532615662,0.372785776853561,-0.505870408491346,-0.2176619043907,0.313157880805522,0
