t,x_s1,x_s2,x_s3,x_s_d1,x_s_d2,x_s_d3,propellers_rpms1,propellers_rpms2,propellers_rpms3,propellers_rpms4,rollRad,pitchRad,yawRad,v_s1,v_s2,v_s3,v_s_d1,v_s_d2,v_s_d3,insideCount
0,-0.0599999986588955,2.94000005722046,1.17999994754791,-0.0599999986588955,2.94000005722046,1.17999994754791,0,0,0,0,0,0,0,0,0,0,-1.06581410364015E-15,4.44089209850063E-16,4.44089209850063E-16,0
0.019989013671875,-0.0599999986588955,2.94000005722046,1.17811644077301,-0.0600018659130177,2.93999925379318,1.18000110346716,0,0,0,0,-0.01635288,0.0001297794,-0.01587137,-1.10653664009419E-09,-7.76775763711157E-08,-0.0941759571433067,-0.000279680311988734,-0.000120338624884473,0.000173135436141649,9
0.0399932861328125,-0.0599999986588955,2.94000005722046,1.17242503166199,-0.060014863945674,2.93999366110285,1.18000914986856,0,0,0,0,-0.03270202,0.0005238493,-0.03175127,-1.08383135799528E-09,-7.60859677484405E-08,-0.284568399190903,-0.00111059898697896,-0.000477859717552347,0.000687513678106196,9
0.05999755859375,-0.0599058866500854,2.93990302085876,1.16596508026123,-0.0600498857373401,2.93997859220429,1.18003083002592,1868.354,3252.841,3183.737,1722.314,-0.04942294,0.000329806,-0.01369557,0.00470561534166336,-0.00484914472326636,-0.32299879193306,-0.00247936261166862,-0.00106680046642749,0.00153484356504269,9
0.079986572265625,-0.0598203726112843,2.93960738182068,1.16000318527222,-0.0601174907153006,2.93994950367094,1.18007268072775,1925.478,2314.355,3252.169,2829.42,-0.07543564,-0.002136388,0.02094805,0.00427567213773727,-0.014778820797801,-0.298097044229507,-0.00437104534358026,-0.00188073869847162,0.00270588528944111,9
0.0999908447265625,-0.0599374547600746,2.93904495239258,1.15498673915863,-0.0602281370710988,2.93990189563514,1.18014117609281,979.8283,1498.76,3915.294,3896.684,-0.1031986,-0.008064052,0.06331035,-0.00585409160703421,-0.028117997571826,-0.250821143388748,-0.00677536694902951,-0.00291525111632684,0.0041942748969354,8
0.1199951171875,-0.0604638569056988,2.93818354606628,1.15081322193146,-0.0603918861403606,2.93983143898525,1.18024254456713,346.4391,980.4211,4172.694,4613.423,-0.1214343,-0.01542183,0.1040048,-0.0263201668858528,-0.0430697575211525,-0.208673357963562,-0.00967801353495435,-0.00416417885169243,0.00599115140585487,8
0.139999389648438,-0.061563640832901,2.93704128265381,1.14728271961212,-0.0606185767455666,2.93973390035084,1.18038287685052,352.9913,747.085,3975.225,4855.024,-0.1254029,-0.02116734,0.1351083,-0.0549892820417881,-0.0571149438619614,-0.176523879170418,-0.0130660253322238,-0.00562194567796536,0.00808849210174802,7
0.159988403320313,-0.063340924680233,2.93568086624146,1.14427471160889,-0.0609175312885481,2.93960526856281,1.18056794395381,820.9889,814.9572,3462.693,4692.408,-0.1184611,-0.02352477,0.1522709,-0.088864266872406,-0.0680159479379654,-0.150398120284081,-0.0169234294955564,-0.00728167892605071,0.0104764090324936,7
0.17999267578125,-0.0658470392227173,2.9341721534729,1.1418251991272,-0.0612985250199726,2.93944133760391,1.18080379722281,1348.431,1083.154,3007.24,4255.203,-0.1079795,-0.02278068,0.1557794,-0.125305712223053,-0.0754329711198807,-0.122474029660225,-0.0212433804254414,-0.00914043312572283,0.0131506644458931,7
0.199996948242188,-0.0690851435065269,2.93255376815796,1.14006125926971,-0.0617704296168641,2.93923829023936,1.18109592864822,1636.609,1381.373,2918.039,3666.351,-0.09982433,-0.02030128,0.1501567,-0.161905124783516,-0.0809169486165047,-0.0881956964731216,-0.0260104776919234,-0.0111915819022102,0.0161017247421801,7
0.219985961914063,-0.0730105042457581,2.93082594871521,1.13903522491455,-0.0623415882203848,2.93899253664859,1.18144950303185,1641.709,1580.855,3147.846,3113.043,-0.09583811,-0.01735475,0.142187,-0.196268036961555,-0.086386613547802,-0.0513021871447563,-0.031208065114187,-0.0134279585662277,0.0193192789519858,7
0.239990234375,-0.0775502920150757,2.92897343635559,1.13863289356232,-0.0630214373585105,2.93870001655724,1.18187036203406,1523.726,1623.949,3418.416,2777.482,-0.09475474,-0.01467828,0.1377322,-0.226989656686783,-0.0926257967948914,-0.0201156493276358,-0.0368316683029241,-0.015847637913056,0.022800557215184,7
0.259994506835938,-0.0826392024755478,2.92699217796326,1.13863515853882,-0.0638179029240226,2.93835731967507,1.18236341216003,1439.018,1500.979,3533.013,2744.219,-0.09438669,-0.01258876,0.1393006,-0.254445791244507,-0.0990586876869202,0.000114655122160912,-0.0428651747123285,-0.0184436871643672,0.0265355850983733,7
0.279998779296875,-0.0882450789213181,2.9249005317688,1.13885164260864,-0.0647390625194898,2.93796097043536,1.18293365383054,1400.898,1276.167,3476.259,2977.502,-0.09320957,-0.01110485,0.1456811,-0.280293971300125,-0.1045843064785,0.0108252549543977,-0.0492963837173861,-0.0212108567320638,0.030516809833474,7
0.29998779296875,-0.0943708568811417,2.92273235321045,1.13920652866364,-0.0657918945890516,2.93750796620855,1.18358540703494,1350.656,1061.58,3345.191,3324.748,-0.09053576,-0.009934656,0.1533076,-0.30628889799118,-0.108406603336334,0.0177424009889364,-0.0561078595514081,-0.0241416444928383,0.0347334378503248,7
0.319992065429688,-0.101036205887794,2.92052555084229,1.1397248506546,-0.0669855955880233,2.93699435001684,1.18432436481717,1280.252,940.726,3238.492,3590.62,-0.08597856,-0.008524246,0.1583609,-0.333267569541931,-0.110344052314758,0.0259164161980152,-0.0632980253096114,-0.0272353719486164,0.0391844929697465,7
0.339996337890625,-0.108251765370369,2.91831183433533,1.14046132564545,-0.068326768706371,2.93641728069206,1.18515461486636,1253.246,944.3047,3170.563,3649.969,-0.07944209,-0.006291984,0.1584789,-0.360777795314789,-0.110681414604187,0.0368208102881908,-0.0708499516420146,-0.0304847548730522,0.0438594951176439,7
0.3599853515625,-0.116003274917603,2.91611456871033,1.1414520740509,-0.0698213312158394,2.93577421219747,1.18607982025561,1320.382,1047.492,3119.948,3497.949,-0.07154582,-0.002961968,0.153473,-0.387575477361679,-0.109857872128487,0.0495396256446838,-0.0787457139191101,-0.0338820807988248,0.0487473480944833,8
0.379989624023438,-0.124251648783684,2.91394948959351,1.14270722866058,-0.0714784451857985,2.93506120235061,1.1871056527423,1454.755,1181.21,3091.69,3231.497,-0.06361227,0.001258399,0.1450396,-0.412419408559799,-0.108255945146084,0.0627564340829849,-0.0869857157641562,-0.0374275233937465,0.0538483017622888,8
0.399993896484375,-0.132943421602249,2.91182613372803,1.14421665668488,-0.0733036822025899,2.9342758538535,1.18823556140379,1579.411,1273.709,3104.524,2982.032,-0.05701349,0.005826219,0.1357478,-0.434589058160782,-0.106164239346981,0.075473427772522,-0.0955525119207663,-0.0411135764513579,0.0591515566763244,8
0.419998168945313,-0.142023757100105,2.90975022315979,1.14595711231232,-0.0753034649285836,2.93341540321397,1.18947352217404,1631.985,1288.945,3158.404,2844.35,-0.05243604,0.01017718,0.1278524,-0.454017221927643,-0.103799700737,0.0870200246572495,-0.104434660908044,-0.0449353170220673,0.0646500300148815,8
0.439987182617188,-0.151446148753166,2.90772438049316,1.14789497852325,-0.0774822545706558,2.93247793089932,1.19082229675263,1607.031,1238.145,3219.438,2842.795,-0.0496605,0.01397613,0.1224565,-0.471119672060013,-0.101287588477135,0.0968935340642929,-0.113613709720558,-0.0488848052931553,0.0703322984885602,8
0.459991455078125,-0.161176860332489,2.90575170516968,1.14999675750732,-0.0798493430620752,2.93145943885026,1.19228763728888,1540.338,1157.806,3254.07,2938.488,-0.0478879,0.01718517,0.119341,-0.48653581738472,-0.098638080060482,0.105087488889694,-0.123092454730403,-0.0529632444654124,0.0762000931848968,8
0.479995727539063,-0.171193644404411,2.90383625030518,1.15223860740662,-0.0824088828700873,2.93035814037613,1.19387211435783,1474.46,1086.25,3247.699,3067.207,-0.04628254,0.01998747,0.1173786,-0.500838398933411,-0.0957778170704842,0.112093649804592,-0.132852887402757,-0.0571628859694044,0.0822422659629699,8
0.5,-0.18148098886013,2.90198349952698,1.15461492538452,-0.085166398670376,2.92917165836334,1.1955791479969,1433.098,1046.656,3215.464,3168.953,-0.04432992,0.02264614,0.11522,-0.514367878437042,-0.0926371291279793,0.118816457688808,-0.142884000065179,-0.0614789935111996,0.0884520025491718,8
0.519989013671875,-0.192024141550064,2.9001989364624,1.15713393688202,-0.0881248588203387,2.92789871561062,1.19741057576073,1423.6,1045.019,3177.547,3210.406,-0.04192615,0.02537963,0.1118843,-0.527156949043274,-0.0892241522669792,0.125949680805206,-0.153166947611899,-0.0659034585682559,0.0948176369253132,9
0.539993286132813,-0.202804386615753,2.89848613739014,1.15980958938599,-0.091293865515634,2.92653518056143,1.19937234186584,1443.88,1072.894,3150.359,3185.231,-0.0392992,0.02828684,0.1070546,-0.539014101028442,-0.0856378376483917,0.133784756064415,-0.163706645289342,-0.0704383960337938,0.101342211863077,9
0.55999755859375,-0.213797643780708,2.89684557914734,1.1626523733139,-0.094676112580471,2.92507989413848,1.20146611391775,1484.167,1113.933,3138.079,3114.556,-0.03688212,0.03132712,0.1010623,-0.549661815166473,-0.0820321142673492,0.142138615250587,-0.17448465888317,-0.0750758741803766,0.108014315705644,9
0.579986572265625,-0.224975869059563,2.89527416229248,1.16566705703735,-0.0982734311149,2.92353206847056,1.2036930254546,1522.888,1149.177,3144.761,3033.832,-0.0351207,0.03434779,0.09465139,-0.558911144733429,-0.0785747095942497,0.150735750794411,-0.185481935470438,-0.0798076950675377,0.114822153786096,9
0.599990844726563,-0.236310511827469,2.89376592636108,1.16885089874268,-0.102095761416081,2.92188742652551,1.20605922999388,1539.587,1166.724,3164.328,2979.541,-0.0342882,0.03716094,0.0886177,-0.566732585430145,-0.0754161402583122,0.159190058708191,-0.19670480600515,-0.0846365827279185,0.121769645266545,9
0.6199951171875,-0.2477757781744,2.89231276512146,1.17219376564026,-0.106144683970236,2.92014528826426,1.20856570593183,1534.479,1167.273,3181.725,2964.766,-0.03441603,0.03963228,0.08345782,-0.573262691497803,-0.0726621374487877,0.16714346408844,-0.208134604141382,-0.0895545055543457,0.128845234789665,9
0.639999389648438,-0.259350925683975,2.89090514183044,1.17568612098694,-0.110424235525481,2.91830391678686,1.21121495220784,1508.027,1156.702,3194.276,2985.931,-0.03534228,0.04170097,0.07928829,-0.578759014606476,-0.0703758746385574,0.174616664648056,-0.219761081350814,-0.0945570538913933,0.136042578028218,9
0.659988403320313,-0.271020621061325,2.88953328132629,1.17931973934174,-0.114934715429503,2.91636318329238,1.21400715413238,1466.82,1144.421,3197.839,3031.036,-0.03678784,0.04338672,0.07589895,-0.583485066890717,-0.0685917064547539,0.181681394577026,-0.231565018351745,-0.0996359582190702,0.143349777331291,9
0.67999267578125,-0.282773554325104,2.88818669319153,1.1830894947052,-0.119686638739014,2.91431856344567,1.21694882102647,1427.336,1139.308,3192.084,3075.892,-0.03845178,0.04477505,0.07288671,-0.58764636516571,-0.0673235207796097,0.188487708568573,-0.243554411173546,-0.104794659005432,0.150771782621969,9
0.699996948242188,-0.294600456953049,2.88685512542725,1.18699181079865,-0.124680083855354,2.91217002351282,1.22004000142426,1404.553,1146.184,3176.609,3102.448,-0.04016367,0.04596729,0.06986006,-0.591344773769379,-0.0665742754936218,0.195116609334946,-0.255710395848158,-0.11002503961202,0.158296916205407,9
0.719985961914063,-0.306492626667023,2.88552808761597,1.19102764129639,-0.129914195341611,2.90991793156443,1.22328016576956,1396.02,1163.171,3162.396,3105.233,-0.04192455,0.04702395,0.06662437,-0.594609022140503,-0.0663575604557991,0.201793536543846,-0.2680137084949,-0.11531881132915,0.165913252821798,9
0.739990234375,-0.318440973758698,2.88419389724731,1.19519877433777,-0.135400001298574,2.90755754251682,1.2266761409821,1390.644,1184.853,3154.688,3094.917,-0.0438319,0.04795146,0.0632228,-0.597417950630188,-0.0667065158486366,0.208556070923805,-0.280473432677602,-0.12067988256057,0.173626415629864,9
0.759994506835938,-0.330436021089554,2.88284063339233,1.19950366020203,-0.14113644597991,2.90508931062815,1.2302272735046,1391.835,1207.478,3149.261,3075.611,-0.04599865,0.04873351,0.05981402,-0.599751174449921,-0.0676582008600235,0.215246230363846,-0.293070637251543,-0.126100107763583,0.181424685349205,9
0.779998779296875,-0.342468738555908,2.88145565986633,1.20394122600555,-0.147126184485884,2.90251209348295,1.23393520697061,1389.297,1226.817,3150.263,3057.587,-0.04853611,0.04932093,0.05664198,-0.601637005805969,-0.0692508816719055,0.221876621246338,-0.305795832832518,-0.131575403921268,0.189302187598958,9
0.79998779296875,-0.354531645774841,2.8800253868103,1.20850777626038,-0.153366821193532,2.89982692185086,1.2377984583754,1374.002,1240.781,3154.139,3054.353,-0.05148103,0.04966196,0.05392873,-0.603144526481628,-0.0715151950716972,0.228324994444847,-0.318629798715703,-0.137097500901303,0.197247023847227,9
0.819992065429688,-0.366619348526001,2.87853598594666,1.21319842338562,-0.159870162197751,2.89702871589906,1.2418243362541,1350.278,1250.591,3157.974,3062.962,-0.05475566,0.04973715,0.05176318,-0.604387402534485,-0.0744669586420059,0.23453277349472,-0.33158286215529,-0.142670842232658,0.205265587156312,9
0.839996337890625,-0.37872901558876,2.87697410583496,1.21800625324249,-0.166633637018892,2.89411858163313,1.24601124935738,1326.997,1259.452,3154.966,3078.517,-0.05824866,0.04955991,0.05010344,-0.60548347234726,-0.0780966803431511,0.240391507744789,-0.344636106234817,-0.148287288494656,0.213346167053785,8
0.8599853515625,-0.390860021114349,2.87532639503479,1.22292745113373,-0.173653699721778,2.89109804476993,1.25035700258242,1303.304,1269.365,3150.708,3095.182,-0.06186523,0.04915504,0.04885468,-0.606548845767975,-0.0823886692523956,0.24606254696846,-0.357770416714212,-0.153938615363784,0.221476930914505,8
0.879989624023438,-0.403013288974762,2.87357997894287,1.22795939445496,-0.18094280014554,2.88796174849148,1.25486930297274,1275.236,1280.836,3146.697,3114.596,-0.06551536,0.04855317,0.0479232,-0.607664465904236,-0.0873227491974831,0.251598536968231,-0.370996904517929,-0.159629603560431,0.229664756929996,8
0.899993896484375,-0.415190875530243,2.87172269821167,1.23309767246246,-0.18849723509595,2.8847112861788,1.25954585807468,1258.758,1294.997,3138.033,3125.019,-0.06911382,0.04780516,0.04718323,-0.60887736082077,-0.0928658172488213,0.256913274526596,-0.384296738353309,-0.165352150505452,0.237897987633041,8
0.919998168945313,-0.427395284175873,2.86974287033081,1.23834109306335,-0.196318384305134,2.8813460641717,1.26438752200817,1248.838,1311.113,3131.827,3126.105,-0.07266062,0.04693649,0.04660114,-0.610220968723297,-0.0989908277988434,0.262168228626251,-0.397661187980262,-0.171102499820431,0.246171218589148,8
0.939987182617188,-0.439629435539246,2.86762952804565,1.24368810653687,-0.204401181418416,2.87786826238106,1.26939115845832,1236.453,1326.846,3128.222,3128.375,-0.07618878,0.04594984,0.04622646,-0.611709594726563,-0.105670012533665,0.267348229885101,-0.411071375662203,-0.176872528942697,0.254472763580097,8
0.959991455078125,-0.451896846294403,2.86537194252014,1.24913716316223,-0.212759000778906,2.87427212620069,1.27456504678061,1224.206,1340.748,3127.742,3129.855,-0.07968551,0.04484983,0.04610706,-0.613369584083557,-0.112876906991005,0.272450685501099,-0.424539267042903,-0.182667386354485,0.262810029909387,8
0.979995727539063,-0.464201390743256,2.86296057701111,1.2546843290329,-0.22138664033507,2.87055989392801,1.27990596665734,1217.133,1353.207,3124.342,3131.239,-0.08314655,0.04364408,0.04627401,-0.615228414535522,-0.120570182800293,0.277357697486877,-0.438046240701377,-0.188479059778567,0.271171490030365,8
1,-0.476548135280609,2.86038613319397,1.26032841205597,-0.230284798736574,2.86673126495361,1.28541435058594,1208.318,1363.897,3123.67,3134.517,-0.08658256,0.04232952,0.04676554,-0.617336332798004,-0.128717944025993,0.282207101583481,-0.451584000205995,-0.194303979492187,0.279552008056641,8
1.01998901367188,-0.488942921161652,2.85764050483704,1.26606798171997,-0.239446912293295,2.86278906344998,1.29108613532954,1192.206,1372.55,3124.269,3146.112,-0.08997437,0.04090769,0.04760212,-0.619737982749939,-0.137282997369766,0.286980807781219,-0.46513400752272,-0.200134169097193,0.287940108062054,8
1.03999328613281,-0.501392483711243,2.85471606254578,1.27190160751343,-0.248887339851819,2.85872711120656,1.2969302096982,1176.048,1379.727,3125.649,3158.64,-0.09323354,0.03940162,0.04873715,-0.622481167316437,-0.146224856376648,0.291682809591293,-0.478708875293167,-0.205975055460915,0.29634359787259,8
1.05999755859375,-0.513904333114624,2.85160636901855,1.27782595157623,-0.258599401509697,2.85454828239877,1.30294243851408,1169.442,1387.314,3121.554,3167.455,-0.09630416,0.03784648,0.05008985,-0.625592947006226,-0.155483201146126,0.296215832233429,-0.492290296490434,-0.211818761581115,0.30475114456651,8
1.07998657226563,-0.526486456394196,2.84830617904663,1.28384125232697,-0.268575430648764,2.85025587575821,1.30911807577533,1165.554,1395.141,3119.414,3172.935,-0.09919156,0.03626099,0.05162074,-0.629103064537048,-0.165013149380684,0.300766378641129,-0.50586005237609,-0.217657448443621,0.313151469876847,8
1.09999084472656,-0.539146780967712,2.84481072425842,1.28994882106781,-0.278830554044452,2.84584338265603,1.31546648567654,1154.809,1401.866,3120.887,3183.383,-0.1018984,0.03465308,0.05332997,-0.633020520210266,-0.174772039055824,0.30537685751915,-0.519431110871131,-0.223496695782555,0.321552601564445,7
1.1199951171875,-0.551893651485443,2.84111666679382,1.296147108078,-0.289357002179081,2.84131414609862,1.32198285851614,1153.744,1408.092,3119.093,3188.496,-0.1043879,0.03305469,0.05515889,-0.637343406677246,-0.184703201055527,0.309916168451309,-0.532985466132485,-0.229328756186667,0.329943393154705,7
1.13999938964844,-0.564735352993011,2.83722138404846,1.30243790149689,-0.300154365346813,2.83666834237095,1.3286669406667,1155.755,1413.926,3119.919,3189.704,-0.1066809,0.03147497,0.05710317,-0.642081260681152,-0.194766685366631,0.314537286758423,-0.546515580872639,-0.235150386571708,0.338319178707607,7
1.15998840332031,-0.577679932117462,2.83312296867371,1.30882239341736,-0.31121353909136,2.83190988886621,1.33551309603608,1152.806,1418.171,3122.634,3196.115,-0.1088024,0.02991288,0.05919069,-0.647229254245758,-0.204919189214706,0.319227278232574,-0.560003743914979,-0.240953966313175,0.346668994161124,7
1.17999267578125,-0.590735793113708,2.82882046699524,1.31530225276947,-0.322550701230474,2.8270318247214,1.34253133946411,1149.666,1420.41,3127.46,3202.873,-0.1107183,0.02837945,0.06141025,-0.652792036533356,-0.21512071788311,0.323992878198624,-0.573463232144024,-0.246745208083563,0.355001058539242,7
1.19999694824219,-0.603910982608795,2.82431411743164,1.3218766450882,-0.334156660511822,2.8220381046756,1.34971598112778,1154.479,1422.462,3127.238,3207.476,-0.1124179,0.02689439,0.06372003,-0.658762097358704,-0.225313067436218,0.328717440366745,-0.58687652428584,-0.252516572968185,0.36330452533874,7
1.21998596191406,-0.617214024066925,2.81960487365723,1.32854831218719,-0.34602126278068,2.81693309777792,1.35706073512159,1159.431,1423.906,3129.559,3211.157,-0.1139354,0.02546186,0.06610669,-0.665151000022888,-0.235461980104446,0.333580583333969,-0.600226348268632,-0.258260629277074,0.371568702324394,7
1.239990234375,-0.630653142929077,2.81469416618347,1.33532071113586,-0.358161486344149,2.81170949873715,1.36457611182642,1155.242,1423.671,3135.984,3221.563,-0.1152733,0.0240796,0.0685776,-0.67195338010788,-0.245536878705025,0.33861830830574,-0.613526094901141,-0.263983138701136,0.379801879044709,7
1.25999450683594,-0.644236087799072,2.80958437919617,1.34219396114349,-0.3705671011502,2.80637170925886,1.37225577835275,1160.249,1423.382,3137.714,3227.499,-0.1163903,0.02277622,0.07106186,-0.679149031639099,-0.255488187074661,0.343664795160294,-0.626758665639206,-0.269676744214496,0.387993470686331,7
1.27999877929688,-0.65797084569931,2.80427861213684,1.34917140007019,-0.383236695417198,2.80092033679326,1.3800988607405,1168.862,1423.255,3141.079,3229.018,-0.1173069,0.02156022,0.073534,-0.686735272407532,-0.265286326408386,0.348872035741806,-0.639917282339435,-0.275338529371412,0.396139281255613,8
1.29998779296875,-0.671864628791809,2.79878067970276,1.35625624656677,-0.396158759015336,2.79536033382764,1.388098233671,1172.447,1422.224,3146.139,3234.961,-0.1180558,0.02042702,0.07600744,-0.694688618183136,-0.274901032447815,0.354239732027054,-0.652985332144132,-0.280961346123326,0.404229026602261,8
1.31999206542969,-0.685924470424652,2.79309463500977,1.36345171928406,-0.409351342777246,2.78968393359302,1.39626507146953,1175.362,1419.788,3153.369,3240.63,-0.1186135,0.01938347,0.07846557,-0.702991664409637,-0.284307301044464,0.359770834445953,-0.665976209205206,-0.286550957599616,0.412270998344359,8
1.33999633789063,-0.700156629085541,2.78722548484802,1.37075841426849,-0.422802873722428,2.78389611561957,1.40459220990988,1186.746,1418.056,3154.985,3242.886,-0.1189842,0.01844548,0.08086721,-0.711610972881317,-0.293462038040161,0.365331947803497,-0.678873453515705,-0.29210028151913,0.420255006953505,8
1.3599853515625,-0.714567482471466,2.78117847442627,1.37818038463593,-0.436500861174643,2.77800225429635,1.41307191666844,1197.882,1415.956,3159.441,3243.66,-0.1192196,0.01760738,0.08321227,-0.72053998708725,-0.302349328994751,0.371098190546036,-0.69166099897751,-0.297602405088682,0.428171106749628,8
1.37998962402344,-0.729162514209747,2.77495932579041,1.38572227954865,-0.450464156928423,2.77199423822282,1.42171586190405,1198.88,1412.056,3168.693,3251.059,-0.1193325,0.0168555,0.08552873,-0.729755640029907,-0.310959935188293,0.377097278833389,-0.704352136620515,-0.303063047067127,0.436027525513373,8
1.39999389648438,-0.743946969509125,2.76857399940491,1.39338481426239,-0.464680216184654,2.76587746507559,1.43051627978847,1208.256,1408.62,3172.27,3254.699,-0.1192947,0.01620946,0.08776378,-0.739218711853027,-0.319262266159058,0.383127927780151,-0.716930938559026,-0.308475354130225,0.443814403124744,8
1.41999816894531,-0.758925378322601,2.76202917098999,1.40117144584656,-0.47914673136562,2.75965292774086,1.43947174182117,1220.396,1405.389,3177.197,3254.495,-0.1191317,0.01566857,0.08990339,-0.748919606208801,-0.327245950698853,0.389334231615067,-0.729391385793766,-0.313836736470737,0.451528013536465,8
1.43998718261719,-0.774101853370667,2.75533103942871,1.40908575057983,-0.49384995777978,2.75332654017544,1.44857373938334,1226.376,1401.405,3183.792,3259.186,-0.1188798,0.01522009,0.09196847,-0.758828520774841,-0.334901660680771,0.395712584257126,-0.741718206886022,-0.319140623215221,0.459158903000492,8
1.45999145507813,-0.789480328559875,2.74848651885986,1.41713082790375,-0.508809800712713,2.74688973769103,1.45783459479497,1230.578,1396.31,3192.506,3263.898,-0.1185091,0.01486516,0.0939472,-0.768921613693237,-0.342225462198257,0.40225625038147,-0.753924423002454,-0.324392617007921,0.466715132239272,8
1.47999572753906,-0.805063426494598,2.74150276184082,1.42530691623688,-0.524012471663969,2.74034845309416,1.46724577231745,1243.206,1392.739,3194.312,3265.215,-0.1180222,0.01461647,0.09579781,-0.779155373573303,-0.349191814661026,0.408802926540375,-0.765994882555672,-0.329586198544069,0.474187321698441,8
1.5,-0.820853769779205,2.73438668251038,1.43361759185791,-0.539455198877605,2.73370387899399,1.4768055561018,1255.792,1389.192,3198.726,3264.333,-0.117472,0.01446481,0.09752018,-0.789520978927612,-0.355802804231644,0.415531605482101,-0.777924000354858,-0.334718964672088,0.481572013878822,8
1.51998901367188,-0.836853563785553,2.7271454334259,1.44206643104553,-0.555123050061237,2.72696244033876,1.48650470234772,1260.339,1384.661,3206.304,3268.567,-0.1168877,0.01439291,0.0991431,-0.799987435340881,-0.362066000699997,0.422440499067307,-0.789697369743256,-0.339784716610053,0.488860290373601,8
1.53999328613281,-0.853064000606537,2.71978569030762,1.45065605640411,-0.571036956668503,2.72011513090874,1.49635616862212,1263.178,1379.122,3215.752,3272.476,-0.1162225,0.01440216,0.1006595,-0.810526132583618,-0.367988586425781,0.429481238126755,-0.801327600455846,-0.344788879974649,0.496059957209413,8
1.55999755859375,-0.869485795497894,2.71231460571289,1.45938539505005,-0.587181951496087,2.71316839067337,1.50635068951315,1276.224,1375.572,3216.881,3272.007,-0.1154731,0.01450595,0.1020297,-0.82109010219574,-0.373551726341248,0.436464309692383,-0.812800388649436,-0.349725300221754,0.503162159625937,8
1.57998657226563,-0.886119306087494,2.7047393321991,1.46825695037842,-0.603542258451077,2.7061290076447,1.51647849886779,1289.233,1372.139,3220.209,3269.661,-0.1146997,0.01469009,0.1032619,-0.831673800945282,-0.378763020038605,0.443580865859985,-0.82410201904291,-0.354588076049064,0.510158407210813,8
1.59999084472656,-0.902964353561401,2.69706654548645,1.47727453708649,-0.620139554045575,2.69898765502515,1.52675301547962,1289.922,1366.9,3229.323,3274.652,-0.1139236,0.01493053,0.1044006,-0.842254638671875,-0.383643239736557,0.450878232717514,-0.835244706287931,-0.359382463079953,0.517056261415284,8
1.6199951171875,-0.920020163059235,2.68930268287659,1.48643708229065,-0.636958033083316,2.69175113334911,1.53716445517924,1297.526,1362.951,3232.147,3276.514,-0.113113,0.01524182,0.1054042,-0.852786958217621,-0.388190031051636,0.458127170801163,-0.846214826007804,-0.364102599125749,0.523847288101157,8
1.63999938964844,-0.937285363674164,2.68145442008972,1.49574625492096,-0.653994195024907,2.68442094880091,1.54771065096602,1308.027,1359.489,3236.182,3273.758,-0.1122842,0.01561992,0.1062657,-0.863263487815857,-0.392416805028915,0.465456962585449,-0.857007552155828,-0.368746407673381,0.530528499715628,8
1.65998840332031,-0.954758524894714,2.67352771759033,1.50520324707031,-0.67123120513297,2.67700434489773,1.55838118133557,1312.285,1355.554,3241.584,3275.608,-0.1114661,0.01604692,0.1070182,-0.873655498027802,-0.396337777376175,0.472850322723389,-0.867610144209785,-0.373308406832068,0.537092009268528,8
1.67999267578125,-0.972437381744385,2.66552829742432,1.51480913162231,-0.688691692550512,2.66949158495151,1.56919005480539,1314.222,1350.789,3248.734,3277.777,-0.1106251,0.01651883,0.1076642,-0.8839430809021,-0.399969875812531,0.48029163479805,-0.878034183119987,-0.377793579561193,0.543544985919778,8
1.69999694824219,-0.990319013595581,2.65746212005615,1.5245612859726,-0.706358800111611,2.66188992212981,1.58012683598675,1324.311,1348.154,3247.961,3276.965,-0.1097664,0.0170457,0.1081707,-0.894086420536041,-0.403307259082794,0.487605005502701,-0.888267004546665,-0.382196476749158,0.549879589839776,8
1.71998596191406,-1.00840079784393,2.64933466911316,1.53446102142334,-0.724214951560321,2.65420691900456,1.59118064433996,1333.599,1345.615,3250.179,3274.045,-0.1089398,0.01761335,0.1085462,-0.9040886759758,-0.406369507312775,0.494984447956085,-0.898296635743475,-0.386511946857687,0.556088409328192,8
1.739990234375,-1.02667939662933,2.6411509513855,1.54451024532318,-0.74228345468553,2.64643254688532,1.60236590849663,1330.738,1341.378,3258.267,3277.905,-0.1081472,0.01819949,0.1088374,-0.913932204246521,-0.40918704867363,0.502459466457367,-0.908134108040217,-0.390744736359816,0.562178273303667,8
1.75999450683594,-1.04515087604523,2.63291573524475,1.5547057390213,-0.760546715064628,2.63857437616062,1.61367173667103,1336.037,1338.877,3258.794,3278.192,-0.107352,0.01882086,0.1090053,-0.923574149608612,-0.411763042211533,0.509774267673492,-0.917767514700581,-0.394889722119545,0.568141810929231,8
1.77999877929688,-1.06381130218506,2.62463355064392,1.56504726409912,-0.779000609654483,2.63063418086074,1.62509557650306,1344.78,1336.974,3260.295,3273.589,-0.1065749,0.01947227,0.1090478,-0.93301659822464,-0.414113998413086,0.517074942588806,-0.927192788821983,-0.398945154262308,0.57397650459845,8
1.79998779296875,-1.08265614509583,2.61630845069885,1.57553446292877,-0.797626646773287,2.62261991743975,1.63662598076079,1345.952,1334.482,3263.737,3274.514,-0.1058484,0.0201326,0.1090081,-0.942241072654724,-0.416260153055191,0.524362087249756,-0.936399026186941,-0.402906341007953,0.579675604081262,7
1.81999206542969,-1.10168087482452,2.60794401168823,1.5861668586731,-0.816448984455027,2.61452119137054,1.64827790441807,1343.93,1331.073,3269.33,3276.238,-0.1051336,0.02079883,0.1088926,-0.951237082481384,-0.418224096298218,0.531618177890778,-0.945396434568188,-0.406777674475912,0.585245428475252,7
1.83999633789063,-1.1208803653717,2.59954404830933,1.59693992137909,-0.835449117627072,2.60634596486888,1.66003989195343,1350.525,1329.921,3266.543,3274.819,-0.1044236,0.02148322,0.1086674,-0.959972620010376,-0.420003324747086,0.538651168346405,-0.954174163352093,-0.410554485950274,0.590679260733698,7
1.8599853515625,-1.14024949073792,2.59111166000366,1.60785317420959,-0.854607925216182,2.59810246519841,1.67190010651166,1356.97,1328.976,3266.595,3270.792,-0.1037621,0.0221741,0.1083402,-0.968460381031036,-0.421617269515991,0.545661926269531,-0.962722140342816,-0.41423244164655,0.595970865687568,7
1.87998962402344,-1.15978348255157,2.58264970779419,1.61890685558319,-0.873950157556149,2.58978004298193,1.6838738697284,1350.957,1326.386,3272.546,3273.885,-0.1031517,0.02284962,0.1079621,-0.976692199707031,-0.423096269369125,0.552686095237732,-0.971049893464309,-0.417815641164241,0.601126141575667,7
1.89999389648438,-1.17947602272034,2.57416081428528,1.6300961971283,-0.893456683142228,2.58138692997148,1.69594933829086,1353.061,1325.52,3270.771,3273.723,-0.1025519,0.02352789,0.1074946,-0.984634160995483,-0.424443662166595,0.559465050697327,-0.979147395688901,-0.421299770153459,0.606138881190213,7
1.91999816894531,-1.19932198524475,2.56564736366272,1.64141941070557,-0.913122862707269,2.57292512231409,1.70812364027167,1358.894,1325.253,3270.239,3268.246,-0.1019799,0.0242059,0.106935,-0.992298364639282,-0.425674766302109,0.5661581158638,-0.987011339258123,-0.424683405378145,0.611007036871143,7
1.93998718261719,-1.21931552886963,2.55711126327515,1.65287470817566,-0.932928814964021,2.56440317437226,1.72038446820694,1356.699,1324.379,3271.769,3268.749,-0.1014659,0.02486402,0.10633,-0.999674260616302,-0.426808178424835,0.572765350341797,-0.994632798067981,-0.427962706185118,0.615725082934877,7
1.95999145507813,-1.2394505739212,2.54855394363403,1.66446006298065,-0.952900013794853,2.55581012544606,1.73274759164336,1351.539,1322.563,3275.451,3269.953,-0.1009642,0.02550129,0.1056858,-1.00676000118256,-0.427863478660583,0.579269051551819,-1.00202031904361,-0.431141350077486,0.620298310335216,7
1.97999572753906,-1.25972127914429,2.53997731208801,1.67616951465607,-0.973016570682103,2.54715453300902,1.74520069864106,1355.583,1322.946,3270.531,3267.861,-0.1004646,0.02613262,0.1049674,-1.0135315656662,-0.42883437871933,0.585474193096161,-1.00916501115878,-0.434215511495054,0.624721215103391,7
1.99998474121094,-1.28012132644653,2.53138256072998,1.68800139427185,-0.99325809521779,2.53844517048404,1.75773116656619,1359.588,1323.503,3268.636,3263.09,-0.1000102,0.02674788,0.104184,-1.02000999450684,-0.429735511541367,0.591595768928528,-1.01605883242245,-0.437181730193742,0.628988818863851,6
2.01998901367188,-1.30064523220062,2.52277064323425,1.69995486736298,-1.01365055070775,2.52967086658596,1.77035506794184,1350.566,1322.401,3272.746,3266.048,-0.09960329,0.0273268,0.1033889,-1.02619469165802,-0.430592447519302,0.597672939300537,-1.02270954399163,-0.440043345582587,0.633105926142498,6
2.03999328613281,-1.32128643989563,2.51414251327515,1.71202373504639,-1.03417354141348,2.52084039703127,1.78305977683431,1350.066,1322.824,3269.18,3265.613,-0.09919795,0.02789017,0.1025403,-1.03206026554108,-0.43140372633934,0.603444576263428,-1.02910913225408,-0.442796909628122,0.637067576131623,6
2.05999755859375,-1.34203910827637,2.5054988861084,1.72420537471771,-1.05482201812353,2.5119559343546,1.79584216754118,1353.655,1323.809,3267.01,3259.562,-0.09880647,0.02843747,0.1016347,-1.03762543201447,-0.432178914546967,0.609079301357269,-1.03525504859546,-0.445441325732794,0.640872191117535,6
2.07998657226563,-1.36289668083191,2.49684023857117,1.736496925354,-1.07557499515204,2.50302650811029,1.80868924892322,1349.144,1324.185,3266.822,3259.797,-0.09845919,0.02895078,0.1007188,-1.0428854227066,-0.432929754257202,0.614577114582062,-1.04114045847258,-0.4479736531836,0.644515540192423,6
2.09999084472656,-1.38385367393494,2.48816680908203,1.74889540672302,-1.09645901288412,2.49404069871208,1.82161745074311,1341.953,1323.55,3268.788,3260.677,-0.09810872,0.02943241,0.09979717,-1.04784464836121,-0.433669179677963,0.619924545288086,-1.04677201701582,-0.450396755497224,0.648001743199023,5
2.1199951171875,-1.40490341186523,2.47947907447815,1.76139402389526,-1.11745308225396,2.48500753716864,1.83461377976925,1344.166,1324.869,3262.33,3258.29,-0.09774227,0.02989883,0.09883298,-1.05248594284058,-0.434384316205978,0.624930500984192,-1.0521429102862,-0.45270770082608,0.651326581984514,5
2.13999938964844,-1.42603993415833,2.47077751159668,1.77399039268494,-1.138551967509,2.47592927627801,1.8476749948214,1346.613,1326.327,3259.11,3252.94,-0.09740192,0.03034203,0.09783439,-1.0568345785141,-0.435083538293839,0.629819869995117,-1.05725102347782,-0.454905579228273,0.654488747383304,4
2.15998840332031,-1.44725775718689,2.46206188201904,1.78668212890625,-1.15973418543027,2.46681515966915,1.86078779676364,1338.908,1326.875,3259.235,3254.659,-0.09710737,0.03074577,0.09684524,-1.06088924407959,-0.435780793428421,0.634588241577148,-1.06209075728,-0.456987981476842,0.657484773155346,4
2.17999267578125,-1.46855092048645,2.45333194732666,1.7994658946991,-1.18102676265167,2.45765355853653,1.8739689163698,1329.662,1326.434,3261.459,3255.761,-0.0967878,0.03111871,0.09586032,-1.06465363502502,-0.436487257480621,0.639191508293152,-1.06666760390386,-0.458957270716794,0.660318059240953,3
2.19999694824219,-1.48991298675537,2.44458842277527,1.81233417987823,-1.20240821395574,2.44845371736898,1.88720505326679,1332.322,1328.077,3254.206,3252.14,-0.09642081,0.03148168,0.09483824,-1.06810867786407,-0.437183022499084,0.643415212631226,-1.07097597819164,-0.460811043810786,0.662985148161421,1
2.21998596191406,-1.51133871078491,2.43583106994629,1.82528412342072,-1.22385674836213,2.4392250122166,1.90048271779974,1336.089,1329.944,3249.53,3245.55,-0.09606075,0.03182588,0.09379064,-1.07127928733826,-0.437868654727936,0.647496283054352,-1.07501122224684,-0.462547296596067,0.665483156456917,0
2.239990234375,-1.53282201290131,2.42705988883972,1.83831417560577,-1.24539969505118,2.42995568409656,1.91381882803312,1325.121,1330.022,3251.333,3248.364,-0.09572732,0.03212893,0.0927776,-1.0741720199585,-0.438558518886566,0.651502192020416,-1.07877792518082,-0.464168003639063,0.667814925005999,0
2.25999450683594,-1.55435752868652,2.41827511787415,1.8514176607132,-1.26701526177039,2.4206551096063,1.92719989352455,1322.171,1330.942,3246.412,3248.113,-0.0953694,0.0324141,0.09175336,-1.07677090167999,-0.439243227243423,0.655176937580109,-1.08227143928024,-0.465671165158559,0.669977576652695,0
2.27999877929688,-1.57593941688538,2.40947675704956,1.86459147930145,-1.28869796983554,2.41132564607061,1.9406225227075,1323.672,1332.309,3243.193,3241.79,-0.09498856,0.03268534,0.09070832,-1.07909798622131,-0.439924091100693,0.658689737319946,-1.08549040888332,-0.467056197851165,0.67197027217779,0
2.29998779296875,-1.59756243228912,2.40066480636597,1.87783205509186,-1.31042570636616,2.40197680804417,1.95407302665558,1317.822,1333.158,3241.415,3241.612,-0.09461039,0.03292878,0.0896847,-1.08115029335022,-0.440601319074631,0.66202849149704,-1.08843144721369,-0.468321644481621,0.673790915005368,0
2.31999206542969,-1.61922121047974,2.39183902740479,1.89113581180573,-1.33222611841886,2.3925966997709,1.96756852021384,1310.125,1332.902,3241.574,3241.814,-0.09418855,0.03314925,0.08868176,-1.08293557167053,-0.441276103258133,0.665187418460846,-1.09109790637238,-0.469468947365361,0.675441580245663,0
2.33999633789063,-1.64091014862061,2.38300085067749,1.90449559688568,-1.35407709248145,2.38319483607731,1.98109531406483,1312.177,1334.192,3233.765,3238.592,-0.09371344,0.03336447,0.08766052,-1.08444142341614,-0.441926240921021,0.667990028858185,-1.09348640563071,-0.470496651869278,0.67692017506657,0
2.3599853515625,-1.6626238822937,2.37414979934692,1.91790890693665,-1.37595634130987,2.37378080654189,1.99463961134278,1314.112,1335.56,3229.279,3232.896,-0.09323195,0.03356729,0.0866279,-1.08569228649139,-0.442551612854004,0.670666694641113,-1.09559452046326,-0.471403714787811,0.678225198571351,0
2.37998962402344,-1.68435776233673,2.36528635025024,1.93137419223785,-1.39789168475144,2.36434264106153,2.00821863385843,1302.537,1335.357,3230.89,3235.49,-0.09274725,0.03374141,0.0856344,-1.08669257164001,-0.443162232637405,0.67326432466507,-1.09742465646102,-0.47219117117957,0.679358139935436,0
2.39999389648438,-1.70610630512238,2.35641169548035,1.94488453865051,-1.41986083522252,2.35488992936084,2.02181858453579,1300.437,1335.855,3225.332,3234.279,-0.09220609,0.03391181,0.08463039,-1.08742535114288,-0.443741917610168,0.675516307353973,-1.09897439291323,-0.472857979480329,0.680317500623536,0
2.41999816894531,-1.72786450386047,2.34752607345581,1.95843660831451,-1.44185817738692,2.34542508756209,2.03543598721428,1303.547,1336.858,3221.06,3226.804,-0.09161966,0.03408191,0.0836063,-1.08791017532349,-0.444286048412323,0.677601039409637,-1.10024313330221,-0.473403883025206,0.681102911362803,0
2.43998718261719,-1.74962747097015,2.33863019943237,1.97202718257904,-1.46386128162322,2.33595776650478,2.04905695688976,1298.425,1337.275,3218.692,3226.103,-0.09102525,0.03423594,0.0826079,-1.08814477920532,-0.44479176402092,0.679528832435608,-1.10122974390336,-0.473828394004169,0.681713670323692,0
2.45999145507813,-1.77138996124268,2.32972502708435,1.98565304279327,-1.48589810917879,2.32647593524532,2.06269880290633,1290.504,1336.375,3218.788,3226.395,-0.09037916,0.0343782,0.08163504,-1.08813631534576,-0.445259094238281,0.681295096874237,-1.10193535162022,-0.474131997292339,0.68215047511319,0
2.47999572753906,-1.79314756393433,2.32081174850464,1.99930727481842,-1.50794623031618,2.31698924467309,2.07634764018804,1292.707,1336.771,3211.085,3222.914,-0.08966384,0.03452723,0.08064426,-1.08787250518799,-0.445664823055267,0.682713329792023,-1.10235882472314,-0.474314205938057,0.682412625136718,0
2.49998474121094,-1.81489491462708,2.31189155578613,2.01298761367798,-1.5299831765145,2.30750736236496,2.08998955965012,1295.471,1337.331,3206.616,3216.323,-0.08892295,0.03467732,0.07964052,-1.08737480640411,-0.446006625890732,0.684014618396759,-1.10250000042077,-0.474374949896755,0.682500019618683,0
2.51998901367188,-1.83662796020508,2.30296564102173,2.02669239044189,-1.5520369476803,2.29801824074336,2.10364189456856,1284.782,1336.49,3207.473,3218.631,-0.08816715,0.03481214,0.07867397,-1.08664417266846,-0.446290045976639,0.685233175754547,-1.10235904000526,-0.474314298567936,0.682412758406603,0
2.53999328613281,-1.85834133625031,2.29403567314148,2.04041481018066,-1.57408507527774,2.28853154739156,2.11729073584934,1283.907,1336.078,3201.596,3216.726,-0.08734369,0.03495629,0.0776912,-1.08566641807556,-0.446498394012451,0.686121463775635,-1.10193578218388,-0.474132182551855,0.682150741652607,0
2.55999755859375,-1.88003063201904,2.28510308265686,2.05415201187134,-1.59612191359838,2.27904971150017,2.13093258853001,1287.615,1336.187,3197.401,3208.787,-0.08646911,0.03511157,0.07668411,-1.08445823192596,-0.4466273188591,0.68686580657959,-1.10123038958312,-0.473828671822132,0.681714070030222,0
2.57998657226563,-1.90169084072113,2.27616930007935,2.06790137290955,-1.61812503288753,2.26958238396605,2.14455356752391,1282.817,1335.748,3194.972,3207.944,-0.08558068,0.03526258,0.07569746,-1.08301484584808,-0.446673661470413,0.687464594841003,-1.1002439936861,-0.473404253224357,0.681103443981416,0
2.59999084472656,-1.92331767082214,2.26723670959473,2.08165955543518,-1.64012239440973,2.26011753383818,2.15817098218581,1275.982,1334.023,3194.856,3207.473,-0.0846326,0.03541441,0.07472698,-1.08134174346924,-0.446637004613876,0.687911510467529,-1.09897546783438,-0.47285844198887,0.680318166050934,0
2.6199951171875,-1.94490623474121,2.25830674171448,2.09542012214661,-1.66209156852628,2.2506648119635,2.17177094750084,1279.142,1333.441,3187.083,3203.406,-0.083611,0.0355843,0.07373004,-1.07942605018616,-0.446495205163956,0.68802273273468,-1.09742594550583,-0.472191725819537,0.679358937915576,0
2.63999938964844,-1.96645200252533,2.24938178062439,2.10918068885803,-1.68402693989188,2.24122663446822,2.18534998730279,1283.05,1333.091,3182.63,3195.901,-0.08256012,0.03576643,0.07271177,-1.07728588581085,-0.446246653795242,0.688034057617188,-1.09559602313537,-0.471404361345641,0.67822612879697,0
2.65998840332031,-1.98795056343079,2.2404637336731,2.12293934822083,-1.70590622088595,2.23181259109281,2.19889430449282,1276.317,1331.973,3180.987,3196.52,-0.08151084,0.03594517,0.07171439,-1.07491672039032,-0.44589376449585,0.687932908535004,-1.09348812118877,-0.470497390025984,0.676921237078733,0
2.67999267578125,-2.00939679145813,2.23155498504639,2.13669300079346,-1.72775723139253,2.2224107117184,2.21242112090437,1268.798,1329.658,3181.484,3196.145,-0.08039657,0.03613074,0.0707227,-1.07232260704041,-0.445439070463181,0.687684774398804,-1.09109983431736,-0.469469776906228,0.675442773735451,0
2.69999694824219,-2.03078627586365,2.22265768051147,2.15043497085571,-1.74955768413056,2.21303058593937,2.22591663964878,1273.227,1328.638,3173.735,3190.698,-0.07919496,0.03634226,0.06969132,-1.06948816776276,-0.444860249757767,0.687093019485474,-1.08843358680109,-0.468322565086308,0.673792239511893,0
2.71998596191406,-2.05211472511292,2.21377468109131,2.1641628742218,-1.77128546553625,2.20368172860443,2.23936717137667,1278.912,1327.986,3168.629,3181.995,-0.07796191,0.03657155,0.06863082,-1.06642735004425,-0.444153755903244,0.686392486095428,-1.08549275912543,-0.467057209094684,0.671971727089609,0
2.739990234375,-2.07337760925293,2.20490837097168,2.17787551879883,-1.79296822271738,2.1943522439355,2.25278983096475,1269.982,1326.07,3168.696,3183.474,-0.0767278,0.03679794,0.06759784,-1.06313908100128,-0.44332566857338,0.685629427433014,-1.08227399942825,-0.465672266718727,0.669979161506271,0
2.75999450683594,-2.09456992149353,2.1960608959198,2.19156694412231,-1.81458384274179,2.18505164650952,2.26617092945464,1269.623,1324.069,3163.265,3181.193,-0.07544202,0.03704261,0.06654023,-1.05961346626282,-0.442366480827332,0.684574604034424,-1.07878069424208,-0.464169195088763,0.667816639186824,0
2.77999877929688,-2.11568737030029,2.18723559379578,2.20523500442505,-1.83612684690458,2.17578229366013,2.27950707526701,1273.492,1322.679,3159.703,3172.792,-0.07411204,0.03730758,0.06544859,-1.05586290359497,-0.441276580095291,0.683401465415955,-1.07501419914593,-0.462548577472581,0.665484999299265,0
2.79998779296875,-2.13672471046448,2.17843461036682,2.2188766002655,-1.85757544288233,2.1665535620153,2.29278477791556,1269.575,1320.997,3156.992,3171.358,-0.07277034,0.03757876,0.0643631,-1.05187964439392,-0.440054506063461,0.68208235502243,-1.07097916161324,-0.460812413548163,0.662987118851036,0
2.81999206542969,-2.15767812728882,2.16966032981873,2.23248887062073,-1.87895695992541,2.1573536925621,2.30602095550813,1264.955,1318.23,3156.161,3169.315,-0.07137538,0.03786121,0.06327519,-1.04766845703125,-0.438701957464218,0.68061900138855,-1.06667099276523,-0.458958728849171,0.660320157107579,0
2.83999633789063,-2.17854261398315,2.16091680526733,2.24606585502625,-1.90024960698239,2.14819206138118,2.31920211834584,1269.143,1316.389,3148.694,3164.113,-0.06992023,0.03816773,0.06214971,-1.04321825504303,-0.437203615903854,0.678853452205658,-1.06209435025759,-0.456989527434725,0.657486997379635,0
2.8599853515625,-2.1993134021759,2.15220522880554,2.25960564613342,-1.92143189875059,2.13907791299805,2.33231496600284,1273.415,1314.881,3143.984,3156.485,-0.06845123,0.03849083,0.060993,-1.03854048252106,-0.435560375452042,0.676992774009705,-1.05725481901126,-0.454907212340279,0.654491096999312,0
2.87998962402344,-2.21998596191406,2.14352989196777,2.27310729026794,-1.94253086194772,2.12999961857111,2.34537622930486,1264.863,1312.447,3144.329,3156.96,-0.06698383,0.03881425,0.05985192,-1.03363466262817,-0.433781802654266,0.675079643726349,-1.05214690704168,-0.452709420518306,0.651329056166547,0
2.89999389648438,-2.24055600166321,2.13489294052124,2.28656458854675,-1.96352501326936,2.1209664217661,2.35837260906308,1264.972,1309.928,3138.571,3154.212,-0.06546902,0.03915797,0.05867769,-1.02848982810974,-0.431860536336899,0.672863841056824,-1.04677621342161,-0.450398561093403,0.648004340974112,0
2.91999816894531,-2.2610182762146,2.12629652023315,2.29997515678406,-1.98440911693069,2.11198057539494,2.37130086407726,1270.349,1308.114,3134.477,3144.532,-0.0639164,0.03952329,0.05745931,-1.0231169462204,-0.429797947406769,0.67053085565567,-1.04114485287423,-0.447975543971863,0.644518260536375,0
2.93998718261719,-2.28136825561523,2.11774492263794,2.31333661079407,-2.00516218376194,2.10305111051103,2.38414800105147,1267.052,1306.147,3131.672,3142.194,-0.0623691,0.03989358,0.05624453,-1.01750874519348,-0.427595853805542,0.668071031570435,-1.03525963910674,-0.445443300901551,0.640875032862689,0
2.95999145507813,-2.30160188674927,2.10923981666565,2.32664585113525,-2.02581075424974,2.0941666074844,2.39693044981124,1262.001,1303.022,3130.414,3140.635,-0.06078931,0.04027189,0.05502728,-1.01166951656342,-0.425258576869965,0.665464341640472,-1.02911391720548,-0.442798968459032,0.637070538244476,0
2.97999572753906,-2.32171368598938,2.10078406333923,2.3398973941803,-2.04633384260397,2.08533609591429,2.40963521915279,1266.333,1300.652,3123.313,3134.708,-0.05916212,0.04067177,0.05376796,-1.00559294223785,-0.422777086496353,0.662574052810669,-1.02271452148052,-0.440045487257004,0.633109007445237,0
2.99998474121094,-2.34169960021973,2.09238123893738,2.35308933258057,-2.0667108956286,2.07656841926675,2.42224958566868,1270.372,1298.827,3118.919,3126.516,-0.05753067,0.04108467,0.05247811,-0.999287366867065,-0.420154452323914,0.659595787525177,-1.01606916835995,-0.437186177458897,0.628995217301535,0
3.01998901367188,-2.36155414581299,2.08403348922729,2.36622023582458,-2.0869680292999,2.06785234056679,2.43478971639231,1262.088,1296.255,3118.231,3127.104,-0.05591254,0.04149559,0.05120212,-0.992751479148865,-0.417399346828461,0.656539976596832,-1.00917036754089,-0.434217816196637,0.624724530959079,0
3.03999328613281,-2.38127374649048,2.0757429599762,2.37928438186646,-2.10708469520508,2.05919670122237,2.4472428908773,1263.275,1293.458,3112.497,3122.899,-0.05425818,0.0419234,0.04988907,-0.985981047153473,-0.414509683847427,0.653204500675201,-1.00202586176059,-0.431143734953757,0.620301741541063,0
3.05999755859375,-2.40085363388062,2.06751298904419,2.39227962493896,-2.12705600675913,2.05060360379452,2.45960608409476,1267.689,1291.489,3108.497,3113.551,-0.05258412,0.04236594,0.04853844,-0.978983700275421,-0.411488622426987,0.649761080741882,-0.994638524886308,-0.427965170275055,0.615728628108227,0
3.07998657226563,-2.42028856277466,2.05934643745422,2.40520310401917,-2.14686207530873,2.04208160581513,2.47186698402085,1264.063,1289.356,3105.2,3111.454,-0.0509271,0.04280916,0.04719141,-0.971754133701324,-0.408339560031891,0.646179795265198,-0.987017247723776,-0.424685947625853,0.611010694492843,0
3.09999084472656,-2.43957448005676,2.05124521255493,2.41805219650269,-2.16652837486666,2.03361974652815,2.48404136028297,1259.846,1286.268,3103.575,3108.768,-0.04924771,0.04325708,0.04583799,-0.964299142360687,-0.405069142580032,0.642460644245148,-0.979153483542501,-0.421302389586788,0.606142649861596,0
3.1199951171875,-2.4587070941925,2.04321146011353,2.43082165718079,-2.18603502400946,2.02522658035469,2.49611690533293,1263.555,1283.835,3096.572,3102.821,-0.04753636,0.04371983,0.04444721,-0.956614017486572,-0.401672184467316,0.638469874858856,-0.971056158224178,-0.417818336715394,0.601130019760458,0
3.13999938964844,-2.47768115997314,2.03524851799011,2.44350957870483,-2.20537738341953,2.01690410346351,2.50809074721212,1267.201,1281.942,3092.188,3094.43,-0.04583034,0.04418989,0.04302993,-0.948706090450287,-0.398152619600296,0.634392440319061,-0.962728579444533,-0.414235212212131,0.595974851798267,0
3.15998840332031,-2.49649262428284,2.02735805511475,2.45611357688904,-2.22453632143911,2.00866054767245,2.51995104251302,1262.126,1279.753,3089.174,3093.28,-0.04415787,0.04465519,0.04162095,-0.940573692321777,-0.394517749547958,0.630196273326874,-0.954180774018563,-0.410557330335374,0.590683353051152,0
3.17999267578125,-2.51513695716858,2.01954245567322,2.46863102912903,-2.24353658854737,2.00048526354177,2.53171311296128,1256.849,1276.74,3088.049,3090.706,-0.04246783,0.04512192,0.04020596,-0.932224988937378,-0.390776872634888,0.625872731208801,-0.945403214201559,-0.406780591562751,0.585249625391267,0
3.19999694824219,-2.53361034393311,2.01180410385132,2.48105645179749,-2.2623590635174,1.99238647840124,2.54336512160655,1260.39,1274.368,3081.04,3084.486,-0.0407405,0.04560159,0.03875324,-0.923655331134796,-0.386925220489502,0.621265649795532,-0.936405971974636,-0.402909329586355,0.579679903854719,0
3.21998596191406,-2.55190753936768,2.0041446685791,2.4933876991272,-2.280985241111,1.98437215453788,2.55489561282487,1265.163,1272.632,3076.003,3075.222,-0.03901637,0.04608722,0.03727277,-0.914870321750641,-0.382964938879013,0.616559207439423,-0.927199897745278,-0.398948213033402,0.573980905360615,0
3.239990234375,-2.5700249671936,1.99656653404236,2.50562334060669,-2.2994392795179,1.97643189735754,2.5663195416865,1258.08,1270.524,3074.307,3074.482,-0.03732686,0.04656287,0.03581309,-0.905870914459229,-0.378904312849045,0.611781060695648,-0.917774783907129,-0.394892849856044,0.568146310914365,0
3.25999450683594,-2.58795833587646,1.98907172679901,2.5177583694458,-2.31770268688992,1.96857366338589,2.57762546085652,1257.898,1267.746,3068.661,3070.916,-0.03562883,0.04704222,0.03433364,-0.896659970283508,-0.374746412038803,0.606748163700104,-0.90814153446928,-0.390747931744771,0.562182870617026,0
3.27999877929688,-2.60570335388184,1.98166179656982,2.52979063987732,-2.33577134012187,1.96079922667992,2.58881081793642,1261.172,1265.812,3064.569,3062.049,-0.03392814,0.04752543,0.03282812,-0.887245714664459,-0.370496034622192,0.601613700389862,-0.898304216251578,-0.386515208538549,0.556093102023818,0
3.29998779296875,-2.62325596809387,1.97433841228485,2.54171776771545,-2.35362764460945,1.95311615770631,2.59986472102797,1257.221,1264.006,3061.042,3059.532,-0.03225621,0.04800127,0.03133363,-0.877626836299896,-0.366158008575439,0.596352338790894,-0.888274735793772,-0.382199803288803,0.549884375850026,0
3.31999206542969,-2.64061212539673,1.96710360050201,2.55353689193726,-2.37129490830989,1.94551442770222,2.61080159886703,1252.883,1261.375,3058.853,3056.536,-0.03057469,0.04847264,0.02984216,-0.867811679840088,-0.361739039421082,0.59095698595047,-0.878042061913513,-0.37779696958594,0.54354986326829,0
3.33999633789063,-2.65776801109314,1.95995914936066,2.56524300575256,-2.38875555478454,1.93800159931817,2.62161057080077,1256.125,1259.117,3051.807,3050.479,-0.02887346,0.04894911,0.02832534,-0.857800722122192,-0.357236862182617,0.585305988788605,-0.867618167158097,-0.373311858882592,0.53709697585572,0
3.3599853515625,-2.674720287323,1.95290589332581,2.57683444023132,-2.40599272667425,1.93058492580486,2.63228120132087,1259.529,1257.559,3046.987,3042.045,-0.02719034,0.04942371,0.02679353,-0.847599506378174,-0.352654486894608,0.579575181007385,-0.857015715678588,-0.368749920209162,0.530533553325099,0
3.37998962402344,-2.6914644241333,1.9459456205368,2.58831000328064,-2.42302905329872,1.92325467039821,2.6428274990542,1251.645,1255.782,3045.167,3041.735,-0.02554664,0.04988332,0.02528954,-0.83721125125885,-0.348000168800354,0.57377815246582,-0.846223126656603,-0.364106170663035,0.523852426598178,0
3.39999389648438,-2.70799732208252,1.93908035755157,2.59966468811035,-2.43984769972619,1.91601807669906,2.65323904237604,1251.325,1253.217,3039.654,3037.871,-0.02389388,0.05034293,0.02377119,-0.826642632484436,-0.343278020620346,0.567738711833954,-0.835253140422974,-0.35938609205264,0.51706148254665,0
3.41999816894531,-2.72431516647339,1.93231046199799,2.61089658737183,-2.45644516534361,1.90887665092339,2.66351366424015,1254.728,1251.606,3035.185,3028.924,-0.02224112,0.05080236,0.02223366,-0.815899670124054,-0.338490843772888,0.561599135398865,-0.824110582941664,-0.354591760855451,0.510163708672097,0
3.43998718261719,-2.74041509628296,1.92563760280609,2.62200355529785,-2.47280564474684,1.90183719369507,2.67364158034846,1251.206,1250.193,3031.363,3026.003,-0.02062245,0.05125019,0.02071478,-0.804982841014862,-0.333642661571503,0.555348634719849,-0.812809078412023,-0.349729039183832,0.50316753900293,0
3.45999145507813,-2.75629281997681,1.91906309127808,2.63298320770264,-2.48895081463434,1.8948903781363,2.68363620960993,1246.584,1247.943,3028.852,3023.417,-0.01900805,0.0516889,0.0192095,-0.793901801109314,-0.328739732503891,0.548978388309479,-0.80133641229185,-0.344792671461508,0.496065412155666,0
3.47999572753906,-2.77194595336914,1.91258716583252,2.6438307762146,-2.50486489870395,1.88804299234919,2.69348778574196,1249.105,1245.853,3022.326,3017.592,-0.01738139,0.05212717,0.01768989,-0.782660961151123,-0.323781937360764,0.542383253574371,-0.789706299681989,-0.339788558913217,0.488865818431069,0
3.49998474121094,-2.78737139701843,1.90621185302734,2.65454530715942,-2.52053292953407,1.8813014763971,2.70318704319762,1251.685,1244.542,3017.915,3009.486,-0.01577497,0.05255926,0.01616759,-0.771264851093292,-0.318771421909332,0.535723507404327,-0.777933044257461,-0.334722856010721,0.481577612485354,0
3.51998901367188,-2.802565574646,1.89993762969971,2.66512513160706,-2.53597583877076,1.87465682397749,2.71274693966292,1244.223,1243.082,3015.298,3009.464,-0.01420956,0.05297453,0.01467998,-0.759717881679535,-0.313714057207108,0.528985977172852,-0.766004036374581,-0.329590137176618,0.474192988348404,0
3.53999328613281,-2.81752610206604,1.89376544952393,2.67556595802307,-2.55117869390181,1.86811546013321,2.72215823120146,1244.528,1240.756,3009.978,3004.981,-0.01263936,0.05338635,0.01318501,-0.748030364513397,-0.308614403009415,0.522043824195862,-0.753933682518821,-0.324396601119134,0.466720864320997,0
3.55999755859375,-2.83225011825562,1.88769578933716,2.68586659431458,-2.56613872308604,1.86167857751006,2.73141920191151,1246.826,1239.477,3005.792,2996.928,-0.01107768,0.05379316,0.01168551,-0.736206829547882,-0.303474336862564,0.515026450157166,-0.741727567798258,-0.319144650954242,0.459164697851087,0
3.57998657226563,-2.84673523902893,1.88172972202301,2.69602465629578,-2.58084213759183,1.85535210901407,2.74052131591136,1242.97,1238.263,3001.927,2994.577,-0.009552759,0.0541863,0.01021306,-0.724250197410583,-0.29829740524292,0.507907152175903,-0.72940084364523,-0.31384080592,0.451533868397061,0
3.59999084472656,-2.86097860336304,1.87586808204651,2.70603847503662,-2.59530884290342,1.84912748987145,2.74947689564398,1239.222,1236.328,2999.182,2991.57,-0.008033692,0.05456893,0.008758652,-0.712171018123627,-0.293088763952255,0.500685691833496,-0.716940488958392,-0.308479463400265,0.4438203152769,0
3.6199951171875,-2.87497806549072,1.87011075019836,2.71590399742126,-2.60952509409627,1.84301063413925,2.75827743234631,1241.181,1234.523,2993.12,2986.167,-0.006510363,0.05494799,0.007301341,-0.699975192546844,-0.287848651409149,0.493277043104172,-0.704361775018033,-0.303067194200314,0.436033492140578,0
3.63998413085938,-2.88873147964478,1.86445951461792,2.72562026977539,-2.623478029369,1.83700707589127,2.76691496395061,1243.234,1233.403,2988.903,2978.763,-0.005009406,0.05531856,0.005851427,-0.687666535377502,-0.28257828950882,0.48581862449646,-0.691680442442073,-0.297610771068296,0.428183143180413,0
3.65998840332031,-2.90223622322083,1.85891377925873,2.7351861000061,-2.63718676607487,1.8311085894645,2.77540132500924,1236.643,1232.222,2986.001,2978.544,-0.003552124,0.05567235,0.004440787,-0.675250709056854,-0.277282267808914,0.478295624256134,-0.678883253871145,-0.292104498338286,0.420261073840379,0
3.67999267578125,-2.91549110412598,1.8534744977951,2.74459838867188,-2.65063849381582,1.82532068681534,2.78372858527554,1236.852,1230.159,2981.261,2974.094,-0.002096973,0.05602015,0.003033346,-0.662739813327789,-0.271965324878693,0.470612019300461,-0.665986083416798,-0.286555206197011,0.41227711095171,0
3.69999694824219,-2.92849373817444,1.84814214706421,2.75385570526123,-2.66383127580226,1.81964420129024,2.79189554578451,1238.252,1229.058,2977.313,2967.236,-0.0006567355,0.05636045,0.001633775,-0.650137782096863,-0.266628682613373,0.462869882583618,-0.65299527533123,-0.280965624398954,0.404235181908735,0
3.71998596191406,-2.94124293327332,1.84291648864746,2.7629566192627,-2.67675353880252,1.81408411252746,2.79989504215442,1235.09,1227.973,2973.45,2964.85,0.0007480011,0.05668748,0.0002652921,-0.637449443340302,-0.261274993419647,0.455043852329254,-0.639927289491732,-0.275342835169479,0.396145476159594,0
3.739990234375,-2.95373630523682,1.8377982378006,2.77189970016479,-2.68942333385363,1.80863265367006,2.80773824883709,1232.026,1226.367,2970.789,2961.664,0.002140226,0.05700325,-0.00107858,-0.624685049057007,-0.255908489227295,0.447148382663727,-0.62676873176137,-0.26968107538565,0.387999702095468,0
3.75999450683594,-2.96597337722778,1.8327876329422,2.780681848526,-2.70182915057228,1.80329477731443,2.81541804035694,1233.295,1224.766,2965.371,2957.028,0.003527495,0.05731328,-0.002413357,-0.611851930618286,-0.250530064105988,0.439104586839676,-0.613536214864365,-0.263987493038594,0.379808143784027,0
3.77999877929688,-2.97795248031616,1.82788479328156,2.78930234909058,-2.7139695770734,1.79807109095524,2.82293354268985,1234.995,1223.714,2961.389,2950.556,0.004888872,0.05761398,-0.003732154,-0.598953783512115,-0.245140567421913,0.43102690577507,-0.60023651686137,-0.258265004538452,0.371574997167698,0
3.79998779296875,-2.98967266082764,1.82309007644653,2.7977602481842,-2.72583438304408,1.79296599641037,2.83027842278479,1231.107,1222.715,2957.956,2949.036,0.006202746,0.05789945,-0.005012069,-0.585997223854065,-0.23974347114563,0.422896802425385,-0.586886736182787,-0.252520966862155,0.36331084698941,0
3.81999206542969,-3.00113248825073,1.81840312480927,2.80605435371399,-2.73744054699573,1.78797218830065,2.83746319114912,1227.498,1221.163,2955.52,2946.696,0.007498747,0.05817374,-0.006265353,-0.57299393415451,-0.234343960881233,0.414710342884064,-0.573473482003301,-0.246749618311662,0.355007403690404,0
3.83999633789063,-3.01233148574829,1.81382441520691,2.81418251991272,-2.74877791451009,1.78309403578861,2.84448156171422,1228.797,1219.685,2950.77,2941.859,0.008791395,0.05844262,-0.007508516,-0.559951782226563,-0.228943571448326,0.406403958797455,-0.560014026276881,-0.240958390526246,0.346675359432959,0
3.8599853515625,-3.02326893806458,1.80935347080231,2.82214379310608,-2.75983729406747,1.77833549372837,2.85132784449154,1230.534,1218.776,2946.846,2935.756,0.01005885,0.05870269,-0.008732505,-0.546873271465302,-0.223542273044586,0.39806717634201,-0.546525890176286,-0.235154822377061,0.338325560657667,0
3.87998962402344,-3.03394389152527,1.80499088764191,2.82993793487549,-2.7706348636882,1.77368960116974,2.85801205444635,1226.496,1217.896,2944.085,2934.274,0.01128203,0.05894805,-0.00991335,-0.533764660358429,-0.218142792582512,0.389708489179611,-0.532995796775444,-0.22933320117373,0.329949788314816,0
3.89999389648438,-3.04435682296753,1.80073571205139,2.83756303787231,-2.78116151864576,1.76916027562219,2.86452855531919,1226.243,1216.207,2939.922,2931.185,0.01248294,0.05918452,-0.01107236,-0.520638287067413,-0.212749600410461,0.381250321865082,-0.519441457145543,-0.223501147495394,0.321559006401168,0
3.91999816894531,-3.05450677871704,1.79658854007721,2.84501886367798,-2.79141684911929,1.7647476934202,2.87087709341145,1227.251,1215.222,2936.926,2925.447,0.01365697,0.05941191,-0.012209,-0.507499158382416,-0.207364410161972,0.372787535190582,-0.505870408491346,-0.2176619043907,0.313157880805522,0
