t,x_s1,x_s2,x_s3,x_s_d1,x_s_d2,x_s_d3,propellers_rpms1,propellers_rpms2,propellers_rpms3,propellers_rpms4,rollRad,pitchRad,yawRad,v_s1,v_s2,v_s3,v_s_d1,v_s_d2,v_s_d3,insideCount
0,-0.0599999986588955,2.94000005722046,1.17999994754791,-0.0599999986588955,2.94000005722046,1.17999994754791,0,0,0,0,0,0,0,0,0,0,-1.06581410364015E-15,4.44089209850063E-16,4.44089209850063E-16,0
0.0200042724609375,-0.0599999986588955,2.94000005722046,1.17729234695435,-0.0600018701838461,2.93999925195556,1.18000110611101,0,0,0,0,0.0163538,-0.002474609,-2.024222E-05,3.71994488546079E-08,3.50004931704007E-08,-0.135377958416939,-0.000280105751305916,-0.000120521679537258,0.00017339880334547,5
0.040008544921875,-0.0599999986588955,2.94000005722046,1.17105865478516,-0.060014880898484,2.93999365380853,1.18000916036316,0,0,0,0,0.03270752,-0.004950816,-5.430172E-05,3.48044650877455E-08,3.30428591155396E-08,-0.311683237552643,-0.00111143977225461,-0.000478221483967637,0.00068803416424398,6
0.05999755859375,-0.0600004307925701,2.94013142585754,1.16552245616913,-0.0600498857373401,2.93997859220429,1.18003083002592,3161.758,2810.229,1469.389,2738.784,0.03139143,-0.004977981,-0.01632784,-2.15875897993101E-05,0.00656341761350632,-0.276808619499207,-0.00247936261166862,-0.00106680046642749,0.00153484356504269,6
0.0800018310546875,-0.0599182657897472,2.94037842750549,1.16100001335144,-0.0601175574246769,2.93994947496775,1.18007272202403,3028.602,3011.868,2083.797,1979.253,0.01921494,-0.004419782,-0.04309261,0.00410820124670863,0.012349421158433,-0.226121813058853,-0.00437268608126799,-0.00188144466206175,0.00270690098422899,6
0.100006103515625,-0.0596519261598587,2.94066071510315,1.15742897987366,-0.0602282404704493,2.93990185114529,1.18014124010193,2573.166,3764.13,2528.135,1069.401,-0.005652293,-0.003074886,-0.06910477,0.0133169628679752,0.0141151947900653,-0.1785509288311,-0.00677739276378709,-0.00291612276782231,0.00419552897277328,6
0.120010375976563,-0.0591362528502941,2.94084787368774,1.154620885849,-0.0603920338334453,2.93983137543704,1.18024263599618,1989.965,4004.13,3075.366,694.7492,-0.039908,-0.0007078682,-0.08794184,0.0257836319506168,0.009363261051476,-0.140403360128403,-0.00968041450003567,-0.00416521191989172,0.00599263771761404,5
0.139999389648438,-0.0583610460162163,2.94078660011292,1.15244734287262,-0.0606185767455666,2.93973390035084,1.18038287685052,1381.423,3937.02,3641.046,663.9438,-0.07574989,0.002033788,-0.09641548,0.0387604311108589,-0.0030589634552598,-0.108675211668015,-0.0130660253322238,-0.00562194567796536,0.00808849210174802,4
0.160003662109375,-0.0573620833456516,2.94033217430115,1.15091979503632,-0.0609177895434042,2.93960515744296,1.18056810382587,1009.006,3669.302,3950.584,872.4758,-0.1041259,0.00383446,-0.09478936,0.0499481037259102,-0.0227163918316364,-0.0763775706291199,-0.0169265510445065,-0.00728302204135792,0.0104783414199936,4
0.180007934570313,-0.0561949983239174,2.93938517570496,1.15012359619141,-0.0612988491946875,2.93944119812059,1.1808039979024,1011.383,3363.067,3835.45,1160.947,-0.1193469,0.003851061,-0.08597483,0.058354277163744,-0.0473464503884315,-0.0398116521537304,-0.0212468478482708,-0.00914192506089775,0.0131528109458008,3
0.199996948242188,-0.05490892380476,2.93791794776917,1.15010988712311,-0.0617704296168641,2.93923829023936,1.18109592864822,1333.086,3133.266,3353.359,1401.395,-0.121414,0.002340477,-0.07415678,0.0643037259578705,-0.0733590349555016,-0.00068528950214386,-0.0260104776919234,-0.0111915819022102,0.0161017247421801,3
0.220001220703125,-0.0535359941422939,2.93597269058228,1.15082931518555,-0.0623420644491781,2.93899233174064,1.18144979784016,1789.518,3014.683,2724.422,1533.617,-0.1151215,0.0002798367,-0.06327351,0.0686465948820114,-0.0972617492079735,0.035973846912384,-0.03121219533433,-0.0134297356845702,0.019321835755004,3
0.240005493164063,-0.0520959496498108,2.93363213539124,1.1521235704422,-0.0630219993990999,2.93869977472688,1.18187070996396,2172.287,2982.421,2212.423,1547.072,-0.1071491,-0.001340103,-0.05581133,0.0720022320747375,-0.117025554180145,0.0647116675972939,-0.0368361158647881,-0.0158495515746756,0.0228033104678445,3
0.260009765625,-0.0506038516759872,2.93098068237305,1.15377140045166,-0.0638185570309634,2.93835703823113,1.18236381708338,2347.72,2985.91,2004.792,1459.429,-0.1029067,-0.001920139,-0.05235562,0.0746048465371132,-0.132567435503006,0.0823892652988434,-0.0428699302682246,-0.0184457333472145,0.0265385290140116,3
0.279998779296875,-0.0490740723907948,2.92807531356812,1.15557241439819,-0.0647390625194898,2.93796097043536,1.18293365383054,2308.696,2995.852,2122.848,1299.111,-0.1047187,-0.001325189,-0.05185068,0.0764890387654305,-0.14527028799057,0.0900496169924736,-0.0492963837173861,-0.0212108567320638,0.030516809833474,3
0.300003051757813,-0.0475225225090981,2.92493534088135,1.15741097927094,-0.0657927507678135,2.93750759781875,1.18358593705038,2137.039,3011.108,2442.493,1106.382,-0.1118741,0.0001969034,-0.05227572,0.0775774419307709,-0.156993016600609,0.0919303819537163,-0.0561132031658829,-0.0241439437008635,0.0347367458022363,3
0.32000732421875,-0.045969232916832,2.92155051231384,1.15926611423492,-0.0669865614821475,2.93699393441958,1.18432496275165,1943.658,3019.28,2792.326,937.4204,-0.1218172,0.002153781,-0.05160993,0.0776644572615623,-0.169247418642044,0.0927554443478584,-0.0633036493784043,-0.0272377918282996,0.0391879745362408,3
0.339996337890625,-0.0444394126534462,2.91789531707764,1.16117644309998,-0.068326768706371,2.93641728069206,1.18515461486636,1804.107,3001.599,3047.612,841.223,-0.1315069,0.004015674,-0.04861175,0.0764910578727722,-0.182757705450058,0.0955170094966888,-0.0708499516420146,-0.0304847548730522,0.0438594951176439,3
0.360000610351563,-0.0429611504077911,2.91394639015198,1.1632034778595,-0.0698225328270578,2.93577369517774,1.1860805641102,1756.206,2955.454,3148.772,831.0137,-0.1384998,0.005409122,-0.04314534,0.0739131346344948,-0.197443097829819,0.10134994238615,-0.0787518717320621,-0.0338847303337087,0.0487511600740379,3
0.3800048828125,-0.041560810059309,2.90969371795654,1.16540205478668,-0.0714797725314022,2.93506063123087,1.18710647443246,1803.454,2904.95,3096.543,875.021,-0.1417393,0.006225558,-0.03593829,0.0700170025229454,-0.212632924318314,0.109931543469429,-0.0869921272359981,-0.0374302820709642,0.0538522707687797,3
0.400009155273438,-0.0402594767510891,2.9051456451416,1.16779804229736,-0.0733051402689975,2.93427522648826,1.18823646401636,1908.921,2871.603,2945.449,935.6338,-0.1416738,0.006602563,-0.02807771,0.0650665760040283,-0.227399438619614,0.119799181818962,-0.0955591682828665,-0.0411164404980124,0.0591556772815509,3
0.419998168945313,-0.0390723943710327,2.90032649040222,1.17038261890411,-0.0753034649285836,2.93341540321397,1.18947352217404,2025.133,2857.534,2769.982,988.9897,-0.1397249,0.006794284,-0.02059902,0.0593541972339153,-0.240960165858269,0.129227682948112,-0.104434660908044,-0.0449353170220673,0.0646500300148815,3
0.44000244140625,-0.038010410964489,2.89526844024658,1.17311811447144,-0.077483988232608,2.93247718495301,1.19082336997196,2110.003,2859.331,2640.228,1016.133,-0.1375645,0.00704382,-0.01415097,0.0530991479754448,-0.252901375293732,0.136776015162468,-0.113620829717891,-0.048887868829098,0.0703367061060819,3
0.460006713867188,-0.037082239985466,2.89000344276428,1.17595732212067,-0.0798512213598696,2.93145863067119,1.19228880004469,2148.531,2866.727,2590.841,1012.525,-0.136462,0.007498557,-0.008928514,0.0464085452258587,-0.263253957033157,0.141958624124527,-0.123099793815011,-0.0529664022684887,0.0762046364278779,3
0.480010986328125,-0.0362961441278458,2.88455653190613,1.17885780334473,-0.0824109101018722,2.93035726811493,1.19387336931088,2141.374,2877.39,2625.551,977.3405,-0.1370047,0.008197434,-0.004677043,0.0393049977719784,-0.272339999675751,0.14502178132534,-0.132860437136906,-0.0571661344090936,0.082246939608052,4
0.5,-0.035661343485117,2.8789439201355,1.1817969083786,-0.085166398670376,2.92917165836334,1.1955791479969,2108.734,2883.662,2713.667,927.8403,-0.1390436,0.0090868,-0.0009347695,0.0317398086190224,-0.280630052089691,0.146952778100967,-0.142884000065179,-0.0614789935111996,0.0884520025491718,4
0.520004272460938,-0.0351883620023727,2.87317323684692,1.18477153778076,-0.088127196023106,2.92789770997757,1.19741202260058,2071.317,2887.968,2818.828,873.5378,-0.1420035,0.01006367,0.002813741,0.0236490834504366,-0.288532495498657,0.148730739951134,-0.153174893518032,-0.065906877469682,0.0948225558197254,4
0.540008544921875,-0.03488889336586,2.86724662780762,1.18779611587524,-0.0912963635428427,2.92653410573011,1.19937388826368,2047.933,2885.568,2904.142,834.1064,-0.1451348,0.01101722,0.006901747,0.0149736385792494,-0.296326786279678,0.151230812072754,-0.163714777034477,-0.0704418948965508,0.101347245800684,4
0.55999755859375,-0.0347746610641479,2.86116504669189,1.19088971614838,-0.094676112580471,2.92507989413848,1.20146611391775,2042.221,2882.104,2956.436,810.2791,-0.1478459,0.01187056,0.01147747,0.00571129564195871,-0.304081946611404,0.154681026935577,-0.17448465888317,-0.0750758741803766,0.108014315705644,4
0.580001831054688,-0.0348567888140678,2.85493016242981,1.19407248497009,-0.0982762614093182,2.92353085067394,1.20369477754168,2054.693,2874.492,2969.61,810.2567,-0.1497474,0.01259447,0.01643669,-0.0041059348732233,-0.311747580766678,0.159139096736908,-0.185490414529404,-0.0798113433697334,0.11482740272751,4
0.600006103515625,-0.0351445749402046,2.84854650497437,1.19735956192017,-0.102098762959148,2.92188613504538,1.20606108809202,2085.309,2873.369,2951.186,815.7185,-0.150858,0.01319874,0.02157586,-0.0143893975764513,-0.319180399179459,0.164355888962746,-0.196713446836865,-0.0846403006364086,0.121774994352997,4
0.620010375976563,-0.0356451235711575,2.84202218055725,1.20075559616089,-0.106147859919355,2.92014392174208,1.20856767199563,2117.376,2876.477,2922.348,824.9722,-0.1514524,0.01372708,0.02667838,-0.0250275507569313,-0.326211422681808,0.169798970222473,-0.20814339888717,-0.0895582896877615,0.128850679156259,4
0.639999389648438,-0.0363639146089554,2.83536720275879,1.20425927639008,-0.110424235525481,2.91830391678686,1.21121495220784,2145.037,2880.08,2896.307,836.196,-0.151855,0.01422922,0.03154057,-0.0359396673738956,-0.332749843597412,0.175183609127998,-0.219761081350814,-0.0945570538913933,0.136042578028218,4
0.660003662109375,-0.0373050384223461,2.82859206199646,1.20786356925964,-0.114938248900541,2.91636166293851,1.21400934151928,2164.407,2887.943,2887.719,835.3301,-0.1524122,0.01474552,0.03609077,-0.047055684030056,-0.338756114244461,0.180211946368217,-0.231574097577923,-0.0996398647564507,0.143355397804799,4
0.680007934570313,-0.0384722016751766,2.82170605659485,1.21156394481659,-0.119690355154666,2.91431696437584,1.21695112166479,2177.292,2893.763,2893.663,830.9222,-0.1533097,0.01529525,0.0403039,-0.0583588033914566,-0.344298362731934,0.185020640492439,-0.243563621239988,-0.104798621839723,0.150777484091833,4
0.699996948242188,-0.0398686490952969,2.81471729278564,1.21535384654999,-0.124680083855354,2.91217002351282,1.22004000142426,2182.186,2902.445,2920.553,812.1444,-0.1546679,0.0158818,0.04429295,-0.0698220953345299,-0.349439829587936,0.189497843384743,-0.255710395848158,-0.11002503961202,0.158296916205407,4
0.720001220703125,-0.0414982624351978,2.80763101577759,1.219233751297,-0.129918284978346,2.90991617190799,1.22328269744952,2181.398,2903.035,2955.184,801.53,-0.156326,0.01649863,0.04811844,-0.0814808085560799,-0.354312747716904,0.19399619102478,-0.268023157655716,-0.11532287703907,0.16591910230247,4
0.740005493164063,-0.0433650463819504,2.80045080184937,1.22320783138275,-0.13540428105644,2.90755570105657,1.22667879035609,2188.029,2908.365,2989.426,779.9568,-0.1581902,0.01712435,0.05188959,-0.0933390110731125,-0.35900804400444,0.198705971240997,-0.280482990349159,-0.120683994959631,0.173632332283853,5
0.760009765625,-0.0454728715121746,2.79317927360535,1.22728085517883,-0.141140917956636,2.9050873864615,1.23023004187122,2193.927,2910.963,3021.312,764.3154,-0.1601162,0.01774519,0.05567358,-0.105391591787338,-0.363579541444778,0.203651636838913,-0.293080296154222,-0.126104263719567,0.181430664670081,5
0.779998779296875,-0.0478257052600384,2.78581786155701,1.23146033287048,-0.147126184485884,2.90251209348295,1.23393520697061,2203.796,2911.593,3044.063,756.0507,-0.1619495,0.01835334,0.05946689,-0.117641367018223,-0.368071049451828,0.208972290158272,-0.305795832832518,-0.131575403921268,0.189302187598958,5
0.800003051757813,-0.0504267625510693,2.77836847305298,1.23575103282928,-0.153371683173492,2.89982482987671,1.2378014681726,2217.615,2915.256,3061.91,745.2071,-0.1636587,0.01894494,0.06327454,-0.130052462220192,-0.37246835231781,0.214536607265472,-0.318639638509124,-0.13710173468952,0.197253115148089,5
0.82000732421875,-0.0532790906727314,2.77083277702332,1.24016094207764,-0.159875221826383,2.89702653888221,1.24182746840525,2235.708,2917.731,3067.919,743.4311,-0.1652198,0.01952343,0.06702349,-0.142616420984268,-0.376788973808289,0.220494091510773,-0.331592781842754,-0.14267511039705,0.205271727915392,5
0.839996337890625,-0.0563842169940472,2.76321339607239,1.2446893453598,-0.166633637018892,2.89411858163313,1.24601124935738,2253.278,2925.786,3079.052,730.6439,-0.1667858,0.02009375,0.07073131,-0.155256703495979,-0.38097208738327,0.226419150829315,-0.344636106234817,-0.148287288494656,0.213346167053785,5
0.860000610351563,-0.059744019061327,2.75551247596741,1.2493394613266,-0.173659158941841,2.89109569582005,1.2503603820997,2264.818,2925.513,3087.755,735.7019,-0.1682958,0.0206724,0.07430603,-0.167990148067474,-0.385048925876617,0.232505589723587,-0.357780475378537,-0.153942943326036,0.221483157706883,5
0.8800048828125,-0.0633594691753387,2.74773240089417,1.25411176681519,-0.180948461186242,2.88795931270381,1.25487280742661,2283.742,2934.283,3099.638,721.1513,-0.1699049,0.02125801,0.07777335,-0.180772840976715,-0.389005988836288,0.238616645336151,-0.371007022483504,-0.159633957038354,0.229671020432672,5
0.900009155273438,-0.0672313719987869,2.73987531661987,1.25900602340698,-0.188503099076414,2.88470876307182,1.25954948815793,2294.959,2937.904,3116.717,714.7191,-0.1716274,0.02185851,0.08112764,-0.193594813346863,-0.392859429121017,0.244710221886635,-0.384306908919572,-0.165356526615982,0.237904283698049,5
0.919998168945313,-0.0713605433702469,2.73194265365601,1.26402282714844,-0.196318384305134,2.8813460641717,1.26438752200817,2306.44,2941.324,3136.925,705.6914,-0.1734527,0.0224765,0.08437654,-0.206458881497383,-0.396637886762619,0.25084200501442,-0.397661187980262,-0.171102499820431,0.246171218589148,5
0.94000244140625,-0.0757476985454559,2.72393560409546,1.26916253566742,-0.204407453948074,2.87786556348678,1.26939504145298,2317.41,2944.724,3161.333,693.1961,-0.1753622,0.02311069,0.08755049,-0.219357535243034,-0.400356888771057,0.256984740495682,-0.411081631631503,-0.176876941799768,0.254479112513653,5
0.960006713867188,-0.0803940445184708,2.71585416793823,1.27443039417267,-0.212765478812529,2.87426933888379,1.27456905699201,2331.95,2947.599,3179.017,685.0236,-0.1772973,0.023759,0.09063628,-0.232316702604294,-0.404071509838104,0.263394087553024,-0.424549556012544,-0.182671813410681,0.262816399271726,5
0.979995727539063,-0.085299551486969,2.70769929885864,1.27982461452484,-0.22138664033507,2.87055989392801,1.27990596665734,2346.374,2954.042,3204.323,664.963,-0.1793351,0.02441351,0.09370572,-0.245275631546974,-0.407747179269791,0.269708544015884,-0.438046240701377,-0.188479059778567,0.271171490030365,5
1,-0.0904653668403625,2.69947028160095,1.2853502035141,-0.230284798736574,2.86673126495361,1.28541435058594,2355.378,2951.502,3222.77,667.1766,-0.1812942,0.02508653,0.09668874,-0.258291691541672,-0.411445140838623,0.276276826858521,-0.451584000205995,-0.194303979492187,0.279552008056641,5
1.02000427246094,-0.0958916544914246,2.69116735458374,1.29100847244263,-0.239454009753966,2.86278600961093,1.2910905289958,2376.038,2959.576,3241.205,646.5199,-0.1832921,0.02576418,0.09963879,-0.271314084529877,-0.4151411652565,0.282916367053986,-0.465144357597929,-0.200138622445408,0.287946515251652,5
1.04000854492188,-0.101578563451767,2.68279027938843,1.29680144786835,-0.248894644448595,2.85872396824263,1.29693473159157,2388.615,2961.05,3258.501,641.8703,-0.1852798,0.02645413,0.102527,-0.284345775842667,-0.418848246335983,0.289648354053497,-0.47871923339115,-0.205979512261105,0.296350010028666,5
1.05999755859375,-0.107525959610939,2.67433905601501,1.30272960662842,-0.258599401509697,2.85454828239877,1.30294243851408,2403.998,2964.765,3277.078,630.8677,-0.1872788,0.02715612,0.1053576,-0.297369956970215,-0.422558814287186,0.296410381793976,-0.492290296490434,-0.211818761581115,0.30475114456651,5
1.08000183105469,-0.113733649253845,2.6658136844635,1.30879366397858,-0.268583149539609,2.85025255453512,1.30912285413647,2417.397,2966.832,3296.849,622.4124,-0.1892671,0.02787333,0.1081226,-0.310384303331375,-0.42627340555191,0.303202658891678,-0.50587040849135,-0.217661904390701,0.313157880805523,5
1.10000610351563,-0.120201677083969,2.65721321105957,1.31499743461609,-0.278838480013141,2.84583997233313,1.31547139222872,2435.224,2970.991,3310.743,613.6309,-0.1912522,0.02860514,0.1108051,-0.323402494192123,-0.430019319057465,0.310188174247742,-0.519441457145546,-0.223501147495394,0.321559006401169,5
1.12001037597656,-0.126928851008415,2.64853835105896,1.32133734226227,-0.289365134970699,2.84131064678559,1.32198789310157,2451.026,2976.601,3333.988,595.3006,-0.1933338,0.02934495,0.1134592,-0.336357712745667,-0.433747500181198,0.316994369029999,-0.532995796775449,-0.22933320117373,0.329949788314817,5
1.13999938964844,-0.133915394544601,2.63978791236877,1.3278181552887,-0.300154365346813,2.83666834237095,1.3286669406667,2461.644,2974.911,3349.385,598.4714,-0.1953562,0.03010892,0.1160078,-0.349328070878983,-0.437526345252991,0.324038565158844,-0.546515580872639,-0.235150386571708,0.338319178707607,5
1.16000366210938,-0.141159698367119,2.63096237182617,1.33443439006805,-0.311222084148811,2.83190621216671,1.33551838583369,2479.762,2981.797,3377.887,571.2109,-0.1974761,0.03087879,0.1185514,-0.362214922904968,-0.441275030374527,0.330809563398361,-0.560014026276883,-0.240958390526247,0.34667535943296,6
1.18000793457031,-0.148662909865379,2.62205982208252,1.34119665622711,-0.322559451663168,2.82702805965467,1.34253675639879,2491.683,2979.265,3385.807,581.9463,-0.199458,0.03167631,0.1209603,-0.375161647796631,-0.445124268531799,0.338113278150558,-0.573473482003304,-0.246749618311663,0.355007403690405,6
1.19999694824219,-0.15642186999321,2.61308169364929,1.3480931520462,-0.334156660511822,2.8220381046756,1.34971598112778,2515.067,2991.44,3419.304,538.1979,-0.2016657,0.032464,0.12343,-0.387948364019394,-0.448901504278183,0.344827145338058,-0.58687652428584,-0.252516572968185,0.36330452533874,6
1.22000122070313,-0.164438545703888,2.6040256023407,1.35513734817505,-0.346030421585499,2.81692915700008,1.35706640485806,2515.923,2980.216,3426.28,570.0298,-0.2036013,0.03329444,0.1257221,-0.400833040475845,-0.45280733704567,0.352210462093353,-0.600236516861372,-0.258265004538453,0.371574997167698,6
1.24000549316406,-0.172709286212921,2.59489297866821,1.36231708526611,-0.358170848086624,2.8117054706409,1.36458190719098,2548.654,2997.636,3459.044,512.1666,-0.2057926,0.03410575,0.1280941,-0.41353765130043,-0.456632763147354,0.3589888215065,-0.613536214864368,-0.263987493038594,0.379808143784027,6
1.260009765625,-0.181236237287521,2.58568096160889,1.36964738368988,-0.37057666480527,2.80636759428526,1.37226169871082,2548.211,2986.304,3461.481,549.8619,-0.2077084,0.03496099,0.13028,-0.426347345113754,-0.460603922605515,0.366512537002563,-0.626768731761373,-0.26968107538565,0.387999702095469,6
1.27999877929688,-0.190014481544495,2.57639217376709,1.37710988521576,-0.383236695417198,2.80092033679326,1.3800988607405,2579.8,3003.226,3502.35,484.7741,-0.2099423,0.03578962,0.1325828,-0.438911736011505,-0.464444220066071,0.373122304677963,-0.639917282339435,-0.275338529371412,0.396139281255613,6
1.30000305175781,-0.199047610163689,2.56702256202698,1.38472604751587,-0.396168722856641,2.79535604666509,1.38810440176341,2573.662,2986.806,3498.835,539.8666,-0.2117479,0.03667874,0.1346394,-0.451656490564346,-0.468478709459305,0.380809545516968,-0.652995275331231,-0.280965624398954,0.404235181908735,6
1.32000732421875,-0.20832921564579,2.55757594108582,1.39247250556946,-0.409361504843077,2.78967956113998,1.39627136227237,2616.482,3011.24,3544.132,450.5758,-0.2139978,0.03751974,0.1368755,-0.464080214500427,-0.472329288721085,0.387323051691055,-0.6659860834168,-0.286555206197011,0.41227711095171,6
1.33999633789063,-0.217864364385605,2.54804706573486,1.40037798881531,-0.422802873722428,2.78389611561957,1.40459220990988,2602.635,2990.271,3529.292,529.7228,-0.2157139,0.03843661,0.1388048,-0.476758182048798,-0.476439297199249,0.395275682210922,-0.678873453515705,-0.29210028151913,0.420255006953505,6
1.36000061035156,-0.227643340826035,2.53844261169434,1.40840351581573,-0.436511415158101,2.77799771321212,1.41307845008695,2649.995,3018.084,3595.609,409.5518,-0.2180687,0.03927863,0.1410258,-0.488948345184326,-0.480227261781693,0.40127894282341,-0.691670720740693,-0.297606588091785,0.42817712498415,6
1.3800048828125,-0.237676396965981,2.52875328063965,1.41660165786743,-0.450474904562636,2.77198961381608,1.4217225152016,2623.546,2986.986,3551.642,542.9275,-0.2195031,0.0402443,0.1427516,-0.501653909683228,-0.484470218420029,0.409909933805466,-0.704361775018035,-0.303067194200314,0.436033492140578,6
1.40000915527344,-0.247946619987488,2.51899075508118,1.42490327358246,-0.464691155755482,2.76587275808388,1.43052305190393,2698.447,3034.63,3651.573,337.7786,-0.2221348,0.04105787,0.1450359,-0.513510465621948,-0.488126784563065,0.415082782506943,-0.716940488958393,-0.308479463400265,0.443820315276901,7
1.41999816894531,-0.258472830057144,2.50913977622986,1.43339693546295,-0.47914673136562,2.75965292774086,1.43947174182117,2631.663,2976.91,3565.493,584.1765,-0.2231654,0.04209031,0.1465028,-0.526311814785004,-0.492553174495697,0.42468124628067,-0.729391385793766,-0.313836736470737,0.451528013536465,7
1.44000244140625,-0.269226461648941,2.4992208480835,1.44196391105652,-0.493861275572861,2.75332167044526,1.4485807456364,2752.555,3053.331,3727.014,236.5713,-0.2262217,0.0428482,0.1489501,-0.53768116235733,-0.495942354202271,0.428351134061813,-0.741727567798258,-0.319144650954242,0.459164697851088,7
1.46000671386719,-0.280243009328842,2.48920631408691,1.45076358318329,-0.508821304757097,2.74688478782212,1.45784171634646,2626.933,2959.094,3553.024,673.7505,-0.2264699,0.0439927,0.150002,-0.550826668739319,-0.500721752643585,0.439986497163773,-0.753933682518823,-0.324396601119133,0.466720864320996,7
1.47999572753906,-0.291470557451248,2.47913408279419,1.45958185195923,-0.524012471663969,2.74034845309416,1.46724577231745,2834.917,3089.799,3827.343,60.31194,-0.2304364,0.04461797,0.1528448,-0.561379432678223,-0.503609478473663,0.440913408994675,-0.765994882555672,-0.329586198544069,0.474187321698441,7
1.5,-0.302975296974182,2.46895408630371,1.46870267391205,-0.539455198877605,2.73370387899399,1.4768055561018,2583.002,2921.451,3503.071,862.1473,-0.229336,0.04596134,0.1532297,-0.57523787021637,-0.509003639221191,0.456039488315582,-0.777924000354858,-0.334718964672088,0.481572013878822,7
1.52000427246094,-0.314678251743317,2.45871567726135,1.47782778739929,-0.555135099954955,2.72695725560613,1.48651216180595,2771.021,3286.388,3796.665,0,-0.2332716,0.04708626,0.1570514,-0.58514541387558,-0.511924684047699,0.456255555152893,-0.789706299681991,-0.339788558913217,0.48886581843107,7
1.54000854492188,-0.326654672622681,2.44836926460266,1.48725306987762,-0.571049184024557,2.72010986981902,1.49636373793799,2635.996,2837.75,3468.315,973.2365,-0.2316519,0.04895136,0.1570999,-0.598822772502899,-0.517315208911896,0.471262037754059,-0.801336412291853,-0.344792671461508,0.496065412155667,7
1.55999755859375,-0.33881938457489,2.43797063827515,1.49666261672974,-0.587181951496087,2.71316839067337,1.50635068951315,2797.741,3301.497,3801.283,0,-0.2355502,0.05061245,0.1605406,-0.608237266540527,-0.519936382770538,0.470477998256683,-0.812800388649436,-0.349725300221754,0.503162159625937,7
1.58000183105469,-0.351251393556595,2.42747211456299,1.50635802745819,-0.60355483331529,2.70612359703193,1.51648628330776,2708.071,2800.32,3503.13,951.6715,-0.2341915,0.05288616,0.1597999,-0.621599733829498,-0.524921536445618,0.484772503376007,-0.824110582941666,-0.354591760855452,0.510163708672098,7
1.60000610351563,-0.363867819309235,2.41692399978638,1.5160493850708,-0.620152298932711,2.69898217125626,1.52676090517188,2805.664,3331.487,3811.675,0,-0.2382608,0.05502136,0.1625705,-0.630824327468872,-0.527403712272644,0.484568059444427,-0.835253140422976,-0.35938609205264,0.51706148254665,7
1.62001037597656,-0.376735806465149,2.40628862380981,1.52598118782043,-0.636970945360177,2.69174557755711,1.53717244849371,2795.205,2786.954,3608.134,813.1617,-0.2381676,0.05749478,0.1614817,-0.643397986888885,-0.531770944595337,0.496592819690704,-0.846223126656604,-0.364106170663034,0.523852426598179,7
1.63999938964844,-0.389787673950195,2.39560556411743,1.53592073917389,-0.653994195024907,2.68442094880091,1.54771065096602,2848.958,3253.726,3892.897,0,-0.2425282,0.05973887,0.1633187,-0.652592241764069,-0.534152269363403,0.496975958347321,-0.857007552155828,-0.368746407673381,0.530528499715628,7
1.66000366210938,-0.403079390525818,2.38484215736389,1.54606962203979,-0.671244443874359,2.67699864863716,1.55838937674714,2850.52,2805.003,3752.913,633.6766,-0.2434619,0.0621001,0.1621688,-0.664585590362549,-0.538167238235474,0.507443249225616,-0.867618167158098,-0.373311858882592,0.53709697585572,7
1.68000793457031,-0.416559278964996,2.37402510643005,1.55625867843628,-0.688705090349012,2.66948582025311,1.56919834868089,2872.038,3202.676,3963.845,0,-0.247584,0.06422485,0.1635936,-0.67399525642395,-0.540857195854187,0.509450256824493,-0.878042061913515,-0.377796969585941,0.543549863268291,8
1.69999694824219,-0.430266976356506,2.36312961578369,1.56662690639496,-0.706358800111611,2.66188992212981,1.58012683598675,2906.272,2834.098,3877.531,456.8387,-0.2491377,0.06626861,0.1629485,-0.685386419296265,-0.544775128364563,0.518411159515381,-0.888267004546665,-0.382196476749158,0.549879589839776,8
1.72000122070313,-0.444165229797363,2.35217428207397,1.57705247402191,-0.724228658537036,2.6542010212754,1.5911891296115,2921.986,3112.387,4042.454,0,-0.2527297,0.06798387,0.1642066,-0.694913148880005,-0.547761619091034,0.521280109882355,-0.898304216251578,-0.386515208538549,0.556093102023817,8
1.74000549316406,-0.458286941051483,2.34113621711731,1.58765649795532,-0.742297311768984,2.64642658456943,1.60237448669139,2930.833,2876.074,3945.007,356.6347,-0.2540203,0.06958549,0.1640817,-0.706084132194519,-0.551901996135712,0.530203461647034,-0.908141534469281,-0.390747931744771,0.562182870617028,8
1.760009765625,-0.472598612308502,2.33003091812134,1.59833359718323,-0.760560719141003,2.63856835059778,1.61368040586141,2946.928,3101.906,4062.529,0,-0.2568992,0.07088628,0.1657055,-0.715581357479095,-0.55525803565979,0.533853054046631,-0.91777478390713,-0.394892849856044,0.568146310914365,8
1.77999877929688,-0.487126916646957,2.31884002685547,1.60918200016022,-0.779000609654483,2.63063418086074,1.62509557650306,2947.469,2902.278,3965.398,325.406,-0.2577018,0.07210732,0.1661902,-0.72642058134079,-0.559552311897278,0.542418599128723,-0.927192788821983,-0.398945154262308,0.57397650459845,8
1.80000305175781,-0.501840233802795,2.30758166313171,1.62009716033936,-0.797640935141499,2.62261376955408,1.63663482594136,2988.985,3071.94,4084.669,0,-0.2600129,0.07298934,0.1680883,-0.735663294792175,-0.562919497489929,0.545760214328766,-0.936405971974637,-0.402909329586356,0.579679903854719,8
1.82000732421875,-0.516769826412201,2.29623436927795,1.63119804859161,-0.816463410111527,2.61451498441355,1.64828683458664,2947.466,2930.041,3946.515,353.4101,-0.2600507,0.07392073,0.1688285,-0.74647843837738,-0.567361533641815,0.555046200752258,-0.94540321420156,-0.406780591562751,0.585249625391268,8
1.83999633789063,-0.531876862049103,2.28482151031494,1.64235949516296,-0.835449117627072,2.60634596486888,1.66003989195343,2991.091,3119.638,4069.121,0,-0.2619778,0.07461006,0.1712192,-0.755353689193726,-0.570639491081238,0.558073580265045,-0.954174163352093,-0.410554485950274,0.590679260733698,8
1.86000061035156,-0.547195911407471,2.27332305908203,1.65370416641235,-0.854622615239374,2.59809614449182,1.6719092003358,2952.376,2929.371,3928.167,403.6266,-0.2614974,0.07544817,0.1721348,-0.765950858592987,-0.574920892715454,0.567233860492706,-0.962728579444532,-0.414235212212131,0.595974851798267,8
1.8800048828125,-0.562685370445251,2.26176691055298,1.66509616374969,-0.873964974649439,2.58977366760063,1.68388304221498,3016.525,3125.43,4074.227,0,-0.2632141,0.0760434,0.1746168,-0.77447122335434,-0.577808499336243,0.569601655006409,-0.971056158224177,-0.417818336715394,0.601130019760457,8
1.90000915527344,-0.578385531902313,2.25013065338135,1.67667841911316,-0.893471623792247,2.58138050142717,1.69595858726494,2963.637,2935.762,3914.583,438.1034,-0.2623874,0.07686192,0.175401,-0.785016000270844,-0.581810295581818,0.579114139080048,-0.979153483542501,-0.421302389586788,0.606142649861596,8
1.91999816894531,-0.594249725341797,2.23844528198242,1.68829941749573,-0.913122862707269,2.57292512231409,1.70812364027167,3008.253,3168.385,4074.916,0,-0.2640178,0.0775264,0.1780081,-0.793202817440033,-0.58427369594574,0.581052124500275,-0.987011339258123,-0.424683405378145,0.611007036871143,9
1.94000244140625,-0.610320568084717,2.22668933868408,1.70010507106781,-0.932943991899774,2.5643966441608,1.72039386345315,2983.103,2923.714,3923.205,457.1189,-0.2630458,0.07842665,0.1786539,-0.803545713424683,-0.587801039218903,0.590284049510956,-0.994638524886308,-0.427965170275055,0.615728628108227,9
1.96000671386719,-0.6265509724617,2.21489357948303,1.71194589138031,-0.952915303453826,2.55580354673295,1.73275705667061,3022.803,3175.183,4087.664,0,-0.2645733,0.07918246,0.1810905,-0.811517775058746,-0.589783549308777,0.592040359973907,-1.00202586176059,-0.431143734953757,0.620301741541062,9
1.97999572753906,-0.642983198165894,2.20303821563721,1.72396409511566,-0.973016570682103,2.54715453300902,1.74520069864106,3014.167,2922.598,3946.671,435.4828,-0.263686,0.08012738,0.1815408,-0.821615636348724,-0.592767000198364,0.600911557674408,-1.00916501115878,-0.434215511495054,0.624721215103391,9
2,-0.659570753574371,2.19115257263184,1.73601520061493,-0.993273599084619,2.53843849960327,1.7577407641983,3026.319,3179.273,4110.163,0,-0.2651491,0.08095351,0.1837861,-0.829379439353943,-0.59428083896637,0.602555394172668,-1.01606400046349,-0.437183953857422,0.628992018127441,9
2.02000427246094,-0.676354765892029,2.17921781539917,1.74823546409607,-1.01366615605493,2.52966415204104,1.77036472839513,3042.729,2920.944,3979.257,402.8855,-0.2643507,0.08191088,0.1840939,-0.839194655418396,-0.596737861633301,0.61101371049881,-1.02271452148052,-0.440045487257004,0.633109007445237,9
2.04000854492188,-0.693290650844574,2.16726016998291,1.76049208641052,-1.03418924440916,2.52083364047092,1.78306949773667,3036.849,3178.462,4126.241,0,-0.2657004,0.08276011,0.1861438,-0.846798002719879,-0.597884654998779,0.612831711769104,-1.02911391720548,-0.442798968459032,0.637070538244476,9
2.05999755859375,-0.710413694381714,2.15526461601257,1.7728990316391,-1.05482201812353,2.5119559343546,1.79584216754118,3071.037,2921.409,4025.251,349.2617,-0.2651139,0.08365391,0.1864409,-0.856151401996613,-0.59977799654007,0.620346486568451,-1.03525504859546,-0.445441325732794,0.640872191117535,9
2.08000183105469,-0.727685868740082,2.14325356483459,1.78534424304962,-1.07559088172821,2.50301967256038,1.80869908347065,3057.72,3148.335,4157.426,0,-0.2662852,0.08440407,0.1882325,-0.863608777523041,-0.600550174713135,0.622263133525848,-1.04114485287423,-0.447975543971863,0.644518260536375,9
2.10000610351563,-0.745137870311737,2.13121366500854,1.79793000221252,-1.09647498538954,2.49403382618922,1.82162733848484,3092.02,2934.762,4065.051,292.9672,-0.2657638,0.08513925,0.1885698,-0.872601926326752,-0.601998567581177,0.629286587238312,-1.04677621342161,-0.450398561093403,0.648004340974112,9
2.12001037597656,-0.762735784053802,2.11916303634644,1.81055915355682,-1.11746913671118,2.48500062938421,1.83462371824305,3069.229,3139.22,4172.302,0,-0.2667071,0.0857319,0.1903022,-0.879895508289337,-0.602514147758484,0.631458520889282,-1.05214690704168,-0.452709420518306,0.651329056166548,9
2.13999938964844,-0.780503988265991,2.10709261894226,1.82331252098083,-1.138551967509,2.47592927627801,1.8476749948214,3104.853,2944.971,4099.792,248.3544,-0.2662021,0.08626705,0.190833,-0.88841187953949,-0.603538393974304,0.637667179107666,-1.05725102347782,-0.454905579228273,0.654488747383304,9
2.16000366210938,-0.798413634300232,2.09501791000366,1.83610737323761,-1.15975039167652,2.46680818657414,1.86079782920208,3090.097,3108.023,4196.743,0,-0.2668557,0.08661693,0.1925062,-0.895480036735535,-0.603728532791138,0.639744818210602,-1.0620943502576,-0.456989527434725,0.657486997379635,9
2.18000793457031,-0.816488087177277,2.08292889595032,1.84902548789978,-1.18104303873349,2.45764655539322,1.87397899203979,3106.693,2964.411,4111.031,228.0696,-0.2660828,0.08692755,0.1931827,-0.903729259967804,-0.604462206363678,0.645904302597046,-1.06667099276523,-0.458958728849171,0.660320157107579,10
2.19999694824219,-0.834697961807251,2.07084131240845,1.86198318004608,-1.20240821395574,2.44845371736898,1.88720505326679,3092.823,3116.525,4196.025,0,-0.2664354,0.08707282,0.1950302,-0.910489559173584,-0.604381799697876,0.647882521152496,-1.07097597819164,-0.460811043810786,0.662985148161421,10
2.22000122070313,-0.853065073490143,2.05874586105347,1.87505614757538,-1.22387315175433,2.43921795429519,1.90049287228091,3101.725,2971.799,4111.122,234.6043,-0.2653382,0.08721575,0.1958997,-0.918360710144043,-0.604773879051208,0.653646290302277,-1.07501419914593,-0.462548577472581,0.665484999299265,10
2.24000549316406,-0.871560275554657,2.04665994644165,1.88816070556641,-1.24541615591711,2.42994860144581,1.91382901809327,3110.105,3105.606,4198.503,0,-0.2654101,0.08715405,0.1978051,-0.924756526947021,-0.604294121265411,0.655225872993469,-1.07878069424208,-0.464169195088763,0.667816639186824,10
2.260009765625,-0.89020848274231,2.0345721244812,1.90138471126556,-1.26703177594152,2.42064800401982,1.92721011658316,3093.802,2988.114,4089.863,256.4113,-0.2639304,0.08715696,0.1987172,-0.93241161108017,-0.604387402534485,0.661198854446411,-1.08227399942825,-0.465672266718726,0.669979161506271,10
2.27999877929688,-0.908974468708038,2.02250289916992,1.91462647914886,-1.28869796983554,2.41132564607061,1.9406225227075,3098.418,3129.679,4191.863,0,-0.2638351,0.08699034,0.2008369,-0.938303470611572,-0.603460311889648,0.66209089756012,-1.08549040888332,-0.467056197851165,0.67197027217779,10
2.30000305175781,-0.92788964509964,2.01043844223022,1.92799234390259,-1.31044231452835,2.40196966201596,1.95408330789913,3078.845,2987.984,4058.778,309.439,-0.2618708,0.08697941,0.2017134,-0.945757627487183,-0.603219628334045,0.668291628360748,-1.08843358680109,-0.468322565086307,0.673792239511894,10
2.32000732421875,-0.946912050247192,1.99840271472931,1.94136154651642,-1.33224276726637,2.39258953623693,1.96757882664355,3089.782,3156.281,4177.528,0,-0.2616151,0.08681819,0.2039672,-0.951122403144836,-0.601787328720093,0.668459951877594,-1.09109983431736,-0.469469776906228,0.675442773735451,10
2.33999633789063,-0.966079652309418,1.98637938499451,1.95486068725586,-1.35407709248145,2.38319483607731,1.98109531406483,3073.121,2985.673,4017.446,363.4828,-0.2592715,0.0868763,0.204669,-0.958374261856079,-0.601166486740112,0.674958527088165,-1.09348640563071,-0.470496651869278,0.67692017506657,10
2.36000061035156,-0.985341548919678,1.97439658641815,1.96834230422974,-1.37597305876702,2.37377361348711,1.99464996024512,3067.684,3189.256,4166.993,0,-0.2589951,0.08682032,0.2070105,-0.963096380233765,-0.599141120910645,0.67408162355423,-1.09559602313537,-0.471404361345641,0.678226128796969,10
2.3800048828125,-1.00474524497986,1.96243417263031,1.9819632768631,-1.39790843013262,2.36433543599182,2.00822900004707,3066.479,2974.265,3972.598,428.4106,-0.2562771,0.08704853,0.2073851,-0.970191180706024,-0.598118424415588,0.681049704551697,-1.09742594550583,-0.472191725819537,0.679358937915576,10
2.40000915527344,-1.02423083782196,1.95052325725555,1.99554967880249,-1.41987760424917,2.35488271411715,2.02182896536211,3039.978,3237.168,4143.686,0,-0.2560555,0.08721631,0.2097608,-0.974274337291718,-0.59554386138916,0.679319560527802,-1.09897546783438,-0.472858441988871,0.680318166050934,10
2.41999816894531,-1.04385018348694,1.93864357471466,2.00926947593689,-1.44185817738692,2.34542508756209,2.03543598721428,3070.376,2950.903,3947.238,470.0009,-0.253264,0.08765696,0.2097867,-0.980967700481415,-0.593980014324188,0.685992300510406,-1.10024313330221,-0.473403883025206,0.681102911362803,10
2.44000244140625,-1.0635392665863,1.9268274307251,2.02293848991394,-1.46387808506052,2.33595053645515,2.04906735901791,3024.973,3251.035,4138.731,0,-0.2531542,0.08803478,0.211946,-0.984460651874542,-0.590812385082245,0.68344920873642,-1.10123038958312,-0.473828671822132,0.681714070030222,10
2.46000671386719,-1.08335399627686,1.91505348682404,2.03673505783081,-1.48591492338117,2.32646870056377,2.06270921169857,3080.754,2934.229,3940.146,475.9352,-0.2504644,0.08862758,0.2115852,-0.990734338760376,-0.588691592216492,0.689824819564819,-1.10193578218388,-0.474132182551855,0.682150741652607,10
2.47999572753906,-1.10322892665863,1.90335202217102,2.05047369003296,-1.50794623031618,2.31698924467309,2.07634764018804,3005.818,3268.325,4130.087,0,-0.2504927,0.08917598,0.2135241,-0.99373984336853,-0.585071265697479,0.686931252479553,-1.10235882472314,-0.474314205938057,0.682412625136718,11
2.5,-1.12321496009827,1.89170551300049,2.0643150806427,-1.52999999932945,2.30750012397766,2.08999997377396,3093.552,2912.556,3967.794,442.6429,-0.2481571,0.08981553,0.2129686,-0.999303698539734,-0.582325458526611,0.692069232463837,-1.10250000050292,-0.474374949932098,0.682500019669533,11
2.52000427246094,-1.14325487613678,1.88013911247253,2.0780987739563,-1.55205376834272,2.29801100328223,2.10365230735988,3015.056,3235.296,4140.19,0,-0.2482199,0.09034225,0.2144974,-1.00199580192566,-0.578318536281586,0.689189732074738,-1.10235882472314,-0.474314205938057,0.682412625136718,11
2.54000854492188,-1.16339194774628,1.86863827705383,2.09196186065674,-1.57410188948011,2.28852431271001,2.11730114464159,3106.565,2912.985,4010.111,367.868,-0.246319,0.09081531,0.2139094,-1.00685453414917,-0.575046300888062,0.69315892457962,-1.10193535162022,-0.474131997292339,0.682150475113189,11
2.55999755859375,-1.18357741832733,1.85722243785858,2.10577034950256,-1.59612191359838,2.27904971150017,2.13093258853001,3016.371,3198.694,4157.197,0,-0.2463206,0.09113173,0.2152076,-1.00928258895874,-0.570787787437439,0.690425515174866,-1.10123038958312,-0.473828671822132,0.681714070030222,11
2.58000183105469,-1.2038471698761,1.84587967395782,2.11963653564453,-1.61814182127198,2.26957516039323,2.14456396033363,3101.606,2918.59,4053.415,300.6969,-0.2445863,0.09130671,0.2148275,-1.01347982883453,-0.567136287689209,0.693314135074615,-1.10024313330221,-0.473403883025206,0.681102911362804,11
2.60000610351563,-1.22416150569916,1.83462500572205,2.13345384597778,-1.64013916343638,2.26011031859448,2.15818136301212,3028.114,3154.959,4167.541,0,-0.2442737,0.09125652,0.2160533,-1.01570928096771,-0.56273341178894,0.690870761871338,-1.09897439291323,-0.472857979480329,0.680317500623536,11
2.6199951171875,-1.24454927444458,1.82344746589661,2.14731788635254,-1.66209156852628,2.2506648119635,2.17177094750084,3086.261,2939.196,4066.129,257.4489,-0.2423935,0.09104165,0.2160207,-1.01939308643341,-0.558884024620056,0.693203866481781,-1.09742594550583,-0.472191725819537,0.679358937915576,11
2.63999938964844,-1.26497411727905,1.81236100196838,2.1611270904541,-1.68402693989188,2.24122663446822,2.18534998730279,3028.517,3124.716,4172.227,0,-0.241692,0.09054933,0.2174345,-1.02124500274658,-0.554311156272888,0.690456449985504,-1.09559602313537,-0.471404361345641,0.67822612879697,11
2.66000366210938,-1.28546929359436,1.80135202407837,2.17499446868896,-1.70592290617745,2.23180541187802,2.19890463348308,3045.19,2963.297,4024.281,291.8083,-0.2390933,0.09002269,0.2176855,-1.02476298809052,-0.550461411476135,0.693373322486877,-1.09348640563071,-0.470496651869278,0.67692017506657,10
2.68000793457031,-1.30598962306976,1.79043805599213,2.18879079818726,-1.72777388024004,2.22240354818443,2.21243142733407,3007.071,3146.671,4143.882,0,-0.2379907,0.08922501,0.2195861,-1.02601623535156,-0.545692920684814,0.689811110496521,-1.09109790637238,-0.469468947365361,0.675441580245664,9
2.69999694824219,-1.32658004760742,1.77960050106049,2.20266652107239,-1.74955768413056,2.21303058593937,2.22591663964878,2992.463,2973.64,3929.937,404.7107,-0.2343672,0.08861265,0.219944,-1.02950739860535,-0.541870832443237,0.693786084651947,-1.08843358680109,-0.468322565086308,0.673792239511893,9
2.72000122070313,-1.34717702865601,1.76886689662933,2.21643614768982,-1.77130202882336,2.20367460188472,2.23937742484041,2969.572,3193.674,4105.125,0,-0.233,0.08774737,0.2223556,-1.02986359596252,-0.536691308021545,0.688485503196716,-1.08549040888332,-0.467056197851165,0.671970272177789,8
2.74000549316406,-1.36785006523132,1.75820910930634,2.23032832145691,-1.79298473688851,2.19434513834902,2.25280005402337,2936.803,2972.796,3780.992,588.7667,-0.2281232,0.08736303,0.2223848,-1.03364551067352,-0.532885015010834,0.694613993167877,-1.08227143928024,-0.465671165158559,0.669977576652695,8
2.760009765625,-1.38850665092468,1.74766552448273,2.24406814575195,-1.81460030360772,2.18504456385877,2.26618111951479,2892.58,3306.374,4037.672,0,-0.2267948,0.08683837,0.2253809,-1.03282988071442,-0.527177453041077,0.686988294124603,-1.07877792518082,-0.464168003639063,0.667814925005998,7
2.77999877929688,-1.40924346446991,1.73720157146454,2.25797009468079,-1.83612684690458,2.17578229366013,2.27950707526701,2892.449,2936.106,3612.511,815.5989,-0.2208533,0.08706193,0.2246805,-1.03683853149414,-0.523195683956146,0.695097982883453,-1.07501419914593,-0.462548577472581,0.665484999299265,6
2.80000305175781,-1.42993724346161,1.7268660068512,2.27166366577148,-1.85759178470316,2.16654653058634,2.29279489428112,2802.81,3427.227,3972.804,0,-0.2198812,0.0872596,0.2279591,-1.03469264507294,-0.516785800457001,0.684680700302124,-1.07097597819164,-0.460811043810786,0.662985148161422,6
2.82000732421875,-1.45071411132813,1.71661806106567,2.28555512428284,-1.87897323600723,2.1573466894188,2.30603103117811,2876.424,2873.73,3457.516,1023.644,-0.2133059,0.0883531,0.2260873,-1.03883528709412,-0.512393236160278,0.694575905799866,-1.06666760390385,-0.458957270716794,0.660318059240952,5
2.83999633789063,-1.47142267227173,1.70651185512543,2.29919147491455,-1.90024960698239,2.14819206138118,2.31920211834584,2701.171,3562.65,3901.741,0,-0.2130305,0.08957136,0.2293288,-1.0354255437851,-0.50531017780304,0.681819558143616,-1.06209435025759,-0.456989527434725,0.657486997379635,4
2.86000061035156,-1.4922034740448,1.69650864601135,2.3130202293396,-1.9214480311499,2.13907097167731,2.33232495272651,2898.484,2777.091,3385.227,1136.215,-0.2067556,0.09157533,0.2261891,-1.03903365135193,-0.500162363052368,0.691440939903259,-1.05725102347782,-0.454905579228273,0.654488747383304,3
2.8800048828125,-1.5128983259201,1.68665933609009,2.32657194137573,-1.94254691640495,2.12999271078668,2.34538616777867,2646.064,3617.97,3861.88,0,-0.2073335,0.09373602,0.2286786,-1.03474819660187,-0.492474555969238,0.677581906318665,-1.0521429102862,-0.45270770082608,0.651326581984514,2
2.90000915527344,-1.5336400270462,1.67693185806274,2.34026741981506,-1.96354098577478,2.12095954924324,2.35838249680481,2962.383,2689.692,3436.799,1062.987,-0.2025334,0.09625381,0.2244956,-1.03709363937378,-0.486368894577026,0.684779226779938,-1.04677201701582,-0.450396755497224,0.648001743199023,1
2.91999816894531,-1.55428946018219,1.66736531257629,2.35369873046875,-1.98440911693069,2.11198057539494,2.37130086407726,2636.313,3575.271,3871.357,0,-0.2039364,0.09887353,0.2257536,-1.0324741601944,-0.478329211473465,0.671568751335144,-1.04114485287423,-0.447975543971863,0.644518260536375,0
2.94000244140625,-1.57494711875916,1.65793919563293,2.36718130111694,-2.00517798053537,2.10304431360073,2.38415778000673,3036.059,2631.725,3630.707,795.8426,-0.2014298,0.1012064,0.2212699,-1.03287589550018,-0.471306890249252,0.674127757549286,-1.03525504859546,-0.445441325732794,0.640872191117535,0
2.96000671386719,-1.59551978111267,1.64867305755615,2.38045406341553,-2.02582645724542,2.09415985092405,2.3969401707136,2698.873,3404.357,3934.401,0,-0.2031225,0.1034291,0.2210655,-1.02864015102386,-0.463310301303864,0.663644075393677,-1.02910913225408,-0.442796909628122,0.637067576131623,0
2.97999572753906,-1.6160581111908,1.6395583152771,2.39366865158081,-2.04633384260397,2.08533609591429,2.40963521915279,3095.148,2645.991,3909.871,376.6924,-0.2030548,0.10467,0.2173497,-1.02691090106964,-0.455729275941849,0.660733222961426,-1.02271452148052,-0.440045487257004,0.633109007445237,0
3,-1.63652801513672,1.63059461116791,2.40674519538879,-2.06672639957428,2.07656174835205,2.42225918334961,2802.668,3142.164,4044.274,0,-0.2042863,0.105481,0.2161096,-1.02350342273712,-0.448190808296204,0.653830468654633,-1.01606400046349,-0.437183953857422,0.628992018127441,0
3.02000427246094,-1.65693604946136,1.6217794418335,2.41969513893127,-2.0869834279768,2.06784571494631,2.43479924890685,3067.593,2749.47,4143.55,0,-0.2052855,0.1049954,0.2141751,-1.02039229869843,-0.440752983093262,0.647492170333862,-1.00916501115878,-0.434215511495054,0.624721215103391,0
3.04000854492188,-1.67729210853577,1.61309885978699,2.43256807327271,-2.10709998486405,2.05919012250926,2.44725235590455,2898.624,2913.107,4124.598,0,-0.2051587,0.103779,0.2131195,-1.01781713962555,-0.434039831161499,0.643651604652405,-1.00202031904361,-0.431141350077486,0.620298310335216,0
3.05999755859375,-1.69759297370911,1.60454082489014,2.44536161422729,-2.12705600675913,2.05060360379452,2.45960608409476,2833.911,2977.561,4091.926,0,-0.204013,0.1020108,0.2135584,-1.01503920555115,-0.42789289355278,0.639674007892609,-0.994638524886308,-0.427965170275055,0.615728628108227,0
3.08000183105469,-1.71783328056335,1.59610319137573,2.45805478096008,-2.14687713595163,2.04207512564123,2.47187630727625,2906.392,2867.767,4090.416,10.48163,-0.2019012,0.0994172,0.2145532,-1.01201903820038,-0.421885997056961,0.63465416431427,-0.987011339258122,-0.424683405378145,0.611007036871143,0
3.10000610351563,-1.73803186416626,1.58777284622192,2.47071933746338,-2.16654331551667,2.03361331798384,2.48405060925705,2812.146,2931.858,3925.23,189.2061,-0.1976779,0.0964873,0.2158055,-1.00991988182068,-0.416505426168442,0.633226633071899,-0.979147395688901,-0.421299770153459,0.606138881190213,0
3.1199951171875,-1.75815534591675,1.57956290245056,2.4832444190979,-2.18603502400946,2.02522658035469,2.49611690533293,2870.101,2967.347,3988.496,0,-0.1941396,0.09274553,0.2183365,-1.00618290901184,-0.410500466823578,0.626254498958588,-0.971056158224178,-0.417818336715394,0.601130019760458,0
3.13999938964844,-1.77826535701752,1.57144725322723,2.49585604667664,-2.20537738341953,2.01690410346351,2.50809074721212,2629.754,3019.992,3560.653,616.1274,-0.186442,0.08961993,0.2199049,-1.00549983978271,-0.405781149864197,0.630584299564362,-0.962728579444533,-0.414235212212131,0.595974851798267,0
3.16000366210938,-1.79826307296753,1.56346464157104,2.50821232795715,-2.22455088103183,2.00865428308644,2.51996005559448,2732.151,3188.104,3853.795,0,-0.1826172,0.08587493,0.2244979,-0.999878108501434,-0.399123638868332,0.617819964885712,-0.954174163352092,-0.410554485950274,0.590679260733698,0
3.18000793457031,-1.81829798221588,1.55556881427765,2.52084398269653,-2.24355101420387,2.00047905658478,2.53172204312984,2429.11,3015.695,3011.949,1351.629,-0.1706602,0.08406195,0.224753,-1.00175285339355,-0.394804239273071,0.631583631038666,-0.945396434568188,-0.406777674475913,0.585245428475253,0
3.19999694824219,-1.8381644487381,1.54782652854919,2.53304314613342,-2.2623590635174,1.99238647840124,2.54336512160655,2421.93,3632.759,3664.695,0,-0.16741,0.08221661,0.2316996,-0.993326485157013,-0.387117117643356,0.609956622123718,-0.936405971974636,-0.402909329586355,0.579679903854719,0
3.22000122070313,-1.85812783241272,1.54017877578735,2.54572820663452,-2.28099938900442,1.98436606709459,2.55490437104486,2313.885,2850.755,2364.937,2265.059,-0.1512223,0.08350325,0.2287603,-0.998168885707855,-0.382393926382065,0.634253025054932,-0.927192788821982,-0.398945154262308,0.573976504598449,0
3.24000549316406,-1.87786030769348,1.53270888328552,2.5577826499939,-2.29945328359428,1.9764258717947,2.56632821087688,2028.012,4214.393,3417.337,0,-0.1496569,0.08549821,0.2372511,-0.986626088619232,-0.373484760522842,0.602724552154541,-0.91776751470058,-0.394889722119544,0.568141810929231,0
3.260009765625,-1.89772260189056,1.52536916732788,2.5704505443573,-2.31771654397337,1.96856770107001,2.57763403905129,2372.411,2509.896,1840.124,3046.408,-0.1315431,0.0910214,0.229472,-0.99311900138855,-0.366981029510498,0.633399367332458,-0.908134108040216,-0.390744736359816,0.562178273303667,0
3.27999877929688,-1.91730630397797,1.51823306083679,2.58235120773315,-2.33577134012187,1.96079922667992,2.58881081793642,1694.393,4740.472,3160.468,0,-0.1331442,0.09784211,0.2372796,-0.979172050952911,-0.356809377670288,0.595033228397369,-0.898304216251578,-0.386515208538549,0.556093102023818,0
3.30000305175781,-1.93697237968445,1.51128745079041,2.59475088119507,-2.35364119854729,1.95311032582551,2.59987311156116,2644.428,2036.994,1828.261,3199.177,-0.1183898,0.1070207,0.2244304,-0.983312964439392,-0.347282528877258,0.619989037513733,-0.888267004546666,-0.382196476749158,0.549879589839776,0
3.32000732421875,-1.95635175704956,1.50457179546356,2.60643482208252,-2.37130830610839,1.94550866300381,2.61080989274252,1689.513,4813.291,3034.109,0,-0.1238881,0.1173909,0.2274924,-0.968971908092499,-0.335782408714294,0.584197521209717,-0.878034183119985,-0.377793579561194,0.543544985919778,0
3.33999633789063,-1.97565972805023,1.49810385704041,2.61818265914917,-2.38875555478454,1.93800159931817,2.62161057080077,3096.844,1691.74,2636.996,2173.77,-0.120042,0.127059,0.2119466,-0.965400815010071,-0.323411703109741,0.587396562099457,-0.867618167158097,-0.373311858882592,0.53709697585572,0
3.36000061035156,-1.99471497535706,1.4918839931488,2.62948203086853,-2.406005803634,1.93057929915441,2.6322892965819,2127.97,4054.848,3311.111,0,-0.1285998,0.1368495,0.2064109,-0.952763557434082,-0.310993999242783,0.564969122409821,-0.857007552155826,-0.36874640767338,0.530528499715627,0
3.3800048828125,-2.01351809501648,1.48593008518219,2.64031910896301,-2.42304196557559,1.92324911460621,2.64283549236868,3478.323,1842.14,4041.792,96.14416,-0.1396381,0.1424551,0.1929677,-0.94015097618103,-0.297686219215393,0.541848361492157,-0.846214826007803,-0.364102599125748,0.523847288101157,0
3.40000915527344,-2.03213572502136,1.48019599914551,2.65106511116028,-2.43986044461333,1.91601259293018,2.6532469320683,2645.383,2797.07,4007.637,0,-0.1484622,0.1468096,0.1808255,-0.930867671966553,-0.286699175834656,0.537296772003174,-0.835244706287931,-0.359382463079953,0.517056261415284,0
3.41999816894531,-2.05055832862854,1.47461199760437,2.66175985336304,-2.45644516534361,1.90887665092339,2.66351366424015,2004.966,3538.554,3821.285,0,-0.15565,0.1518539,0.1767545,-0.921145439147949,-0.279195338487625,0.534734189510345,-0.824110582941664,-0.354591760855451,0.510163708672097,0
3.44000244140625,-2.06874847412109,1.46915543079376,2.67217230796814,-2.47281804716281,1.90183185728196,2.67364925803476,2440.286,2770.69,4073.725,0,-0.1610701,0.1559283,0.1748758,-0.909512042999268,-0.272837907075882,0.520619451999664,-0.812800388649434,-0.349725300221754,0.503162159625937,0
3.46000671386719,-2.0867383480072,1.46381413936615,2.68236780166626,-2.4889630419904,1.89488511704659,2.68364377892579,2914.129,2157.625,4198.749,0,-0.1622323,0.1575934,0.1698811,-0.89948970079422,-0.267066031694412,0.509779632091522,-0.801327600455845,-0.344788879974649,0.496059957209413,0
3.47999572753906,-2.1045663356781,1.45855259895325,2.69255948066711,-2.50486489870395,1.88804299234919,2.69348778574196,2595.971,2790.699,3865.172,0,-0.1596682,0.1580819,0.1664551,-0.891416668891907,-0.26307001709938,0.509589314460754,-0.789706299681989,-0.339788558913217,0.488865818431069,0
3.5,-2.12220597267151,1.45335268974304,2.70267486572266,-2.5205447997813,1.88129636896134,2.70319439144611,2408.579,3139.561,3640.67,0,-0.1567345,0.1579943,0.1672461,-0.881970345973969,-0.259993702173233,0.505763947963715,-0.777924000354857,-0.334718964672089,0.481572013878822,0
3.52000427246094,-2.13962745666504,1.44822764396667,2.71254253387451,-2.53598752699493,1.87465179486116,2.71275417523047,2809.478,2568.799,3765.896,0,-0.1544671,0.1559443,0.1674684,-0.871075332164764,-0.256257623434067,0.493388652801514,-0.765994882555673,-0.32958619854407,0.474187321698442,0
3.54000854492188,-2.1568615436554,1.44317603111267,2.7222797870636,-2.55119019794619,1.86811051026429,2.72216535275294,2787.005,2501.806,3666.923,188.7518,-0.1504073,0.1521439,0.1658092,-0.861722052097321,-0.252584725618362,0.486860185861588,-0.753924423002452,-0.324392617007921,0.466715132239272,0
3.55999755859375,-2.17389941215515,1.43819713592529,2.73186683654785,-2.56613872308604,1.86167857751006,2.73141920191151,2536.581,2970.636,3611.984,0,-0.1473767,0.1472193,0.1668815,-0.851880609989166,-0.248938262462616,0.479353338479996,-0.741727567798258,-0.319144650954242,0.459164697851087,0
3.58000183105469,-2.1907377243042,1.43329787254333,2.74125576019287,-2.58085326729328,1.85534732021446,2.74052820572674,2612.603,2744.414,3664.337,75.92188,-0.1446432,0.1408656,0.1687451,-0.841910541057587,-0.244957029819489,0.469449371099472,-0.729391385793765,-0.313836736470737,0.451528013536464,0
3.60000610351563,-2.20740842819214,1.42847311496735,2.75055909156799,-2.59531978247425,1.84912278287974,2.74948366775945,2396.484,2827.885,3494.027,379.2776,-0.1393962,0.1339751,0.1711174,-0.833550989627838,-0.241251245141029,0.465170919895172,-0.716930938559024,-0.308475354130224,0.443814403124743,0
3.6199951171875,-2.22388935089111,1.42373895645142,2.75963187217712,-2.60952509409627,1.84301063413925,2.75827743234631,2463.987,2887.841,3637.261,84.7897,-0.1352289,0.1260147,0.1756387,-0.824046075344086,-0.236704438924789,0.453635692596436,-0.704361775018033,-0.303067194200314,0.436033492140578,0
3.63999938964844,-2.24026298522949,1.41908025741577,2.76880741119385,-2.6234885835008,1.83700253474321,2.76692149746096,2131.24,2908.273,3089.87,966.6885,-0.1245624,0.1188864,0.1789725,-0.818666458129883,-0.232927307486534,0.45877331495285,-0.691670720740692,-0.297606588091786,0.428177124984152,0
3.66000366210938,-2.25643134117126,1.41453921794891,2.77760624885559,-2.63719712493647,1.83110413233575,2.77540773763803,2378.241,3115.814,3544.991,0,-0.1192926,0.1107582,0.1864732,-0.808435142040253,-0.227064609527588,0.439938068389893,-0.678873453515702,-0.29210028151913,0.420255006953505,0
3.68000793457031,-2.27258706092834,1.41008722782135,2.78684377670288,-2.65064865588166,1.82531631436231,2.78373487607838,1850.683,2887.316,2298.365,2070.764,-0.1007394,0.1055167,0.187738,-0.807782173156738,-0.222599804401398,0.461877793073654,-0.665976209205203,-0.286550957599616,0.412270998344358,0
3.69999694824219,-2.28850102424622,1.40578091144562,2.79547691345215,-2.66383127580226,1.81964420129024,2.79189554578451,1916.561,3862.711,3204.779,0,-0.09518777,0.1004438,0.1991346,-0.795698463916779,-0.215312376618385,0.431660413742065,-0.65299527533123,-0.280965624398954,0.404235181908735,0
3.72000122070313,-2.30448770523071,1.40161228179932,2.80482840538025,-2.6767633032417,1.81407991116207,2.79990108680742,1763.457,2564.176,1356.523,3419.284,-0.06976044,0.09994511,0.1955294,-0.799325942993164,-0.208437412977219,0.467569470405579,-0.639917282339434,-0.275338529371411,0.396139281255611,0
3.74000549316406,-2.32018709182739,1.39762377738953,2.81328988075256,-2.6894328975087,1.80862853869646,2.80774416919516,1455.973,4638.07,2821.871,0,-0.06643255,0.1005177,0.2081709,-0.784967422485352,-0.19941358268261,0.42307847738266,-0.626758665639204,-0.269676744214497,0.387993470686332,0
3.760009765625,-2.33599591255188,1.39386081695557,2.82257986068726,-2.70183851231475,1.80329074921818,2.81542383572149,1941.524,2014.178,731.8495,4390.936,-0.03919055,0.1059472,0.1968901,-0.790439307689667,-0.188151404261589,0.464493453502655,-0.613526094901139,-0.263983138701136,0.379801879044709,0
3.77999877929688,-2.35149335861206,1.39031505584717,2.8308436870575,-2.7139695770734,1.79807109095524,2.82293354268985,1081.432,5317.179,2446.401,0,-0.04075009,0.1131231,0.2070343,-0.774868071079254,-0.177286326885223,0.41319414973259,-0.60023651686137,-0.258265004538452,0.371574997167698,0
3.80000305175781,-2.36700344085693,1.38707542419434,2.83960008621216,-2.72584333814708,1.79296214327972,2.83028396642013,2426.888,1342.553,1063.132,4163.108,-0.02147253,0.1227763,0.188953,-0.775503516197205,-0.161981597542763,0.437819540500641,-0.586876524285838,-0.252516572968186,0.363304525338741,0
3.82000732421875,-2.38220477104187,1.38410258293152,2.84751915931702,-2.73744929742843,1.78796842323393,2.8374686080838,1350.862,5048.027,2402.505,0,-0.02850488,0.1332924,0.1895538,-0.760076999664307,-0.14864718914032,0.395959287881851,-0.573463232144022,-0.246745208083563,0.355001058539243,0
3.83999633789063,-2.39720249176025,1.3814469575882,2.85523295402527,-2.74877791451009,1.78309403578861,2.84448156171422,3013.93,1196.326,2510.279,2136.9,-0.02801699,0.1416623,0.1695497,-0.749888777732849,-0.132772967219353,0.385687351226807,-0.560014026276881,-0.240958390526246,0.346675359432959,0
3.86000061035156,-2.4118959903717,1.37907862663269,2.86254382133484,-2.75984563331209,1.77833190558438,2.85133300688122,2057.393,3688.076,3041.815,0,-0.03898868,0.1489583,0.1579222,-0.734660685062408,-0.11842280626297,0.365541458129883,-0.546515580872635,-0.235150386571708,0.338319178707605,0
3.8800048828125,-2.42625403404236,1.37696361541748,2.869389295578,-2.77064299647982,1.77368610185671,2.85801708903178,2710.065,2300.398,3718.51,0,-0.05330849,0.1528932,0.14449,-0.717915892601013,-0.105756014585495,0.34226930141449,-0.532985466132484,-0.229328756186666,0.329943393154704,0
3.90000915527344,-2.44030523300171,1.3750536441803,2.87603449821472,-2.78116944461445,1.76915686529929,2.86453346187138,2261.829,2581.738,3868.967,0,-0.06488206,0.154749,0.1329351,-0.702555477619171,-0.0954987928271294,0.33225491642952,-0.519431110871129,-0.223496695782554,0.321552601564443,0
3.91999816894531,-2.4540650844574,1.37328362464905,2.8826014995575,-2.79141684911929,1.7647476934202,2.87087709341145,1778.504,3148.197,3728.332,0,-0.07297221,0.1559078,0.1285576,-0.687986850738525,-0.0884920135140419,0.328346014022827,-0.505870408491346,-0.2176619043907,0.313157880805522,0
3.94000244140625,-2.46753001213074,1.37161254882813,2.88894319534302,-2.8014005971492,1.76045196555656,2.87705750903383,2011.609,2722.468,3851.318,0,-0.077645,0.155517,0.1280587,-0.673251688480377,-0.0835559070110321,0.317079901695251,-0.492290296490434,-0.211818761581115,0.30475114456651,0
3.96000671386719,-2.48072457313538,1.37002491950989,2.89507293701172,-2.81111265880708,1.75627313674876,2.88306973784971,2506.892,2104.735,3949.754,1.76819,-0.07733554,0.1520787,0.1258385,-0.659726858139038,-0.0793812498450279,0.30648672580719,-0.478708875293167,-0.205975055460916,0.29634359787259,0
