t,x_s1,x_s2,x_s3,x_s_d1,x_s_d2,x_s_d3,propellers_rpms1,propellers_rpms2,propellers_rpms3,propellers_rpms4,rollRad,pitchRad,yawRad,v_s1,v_s2,v_s3,v_s_d1,v_s_d2,v_s_d3,insideCount
0,-0.0599999986588955,2.94000005722046,1.17999994754791,-0.0599999986588955,2.94000005722046,1.17999994754791,0,0,0,0,0,0,0,0,0,0,-1.06581410364015E-15,4.44089209850063E-16,4.44089209850063E-16,0
0.0200042724609375,-0.0599999986588955,2.94000005722046,1.17729234695435,-0.0600018701838461,2.93999925195556,1.18000110611101,0,0,0,0,0.0163538,-0.002474609,-2.024222E-05,3.71994488546079E-08,3.50004931704007E-08,-0.135377958416939,-0.000280105751305916,-0.000120521679537258,0.00017339880334547,5
0.040008544921875,-0.0599999986588955,2.94000005722046,1.17105865478516,-0.060014880898484,2.93999365380853,1.18000916036316,0,0,0,0,0.03270752,-0.004950816,-5.430172E-05,3.48044650877455E-08,3.30428591155396E-08,-0.311683237552643,-0.00111143977225461,-0.000478221483967637,0.00068803416424398,6
0.05999755859375,-0.0600004307925701,2.94013142585754,1.16552245616913,-0.0600498857373401,2.93997859220429,1.18003083002592,3161.758,2810.229,1469.389,2738.784,0.03139143,-0.004977981,-0.01632784,-2.15875897993101E-05,0.00656341761350632,-0.276808619499207,-0.00247936261166862,-0.00106680046642749,0.00153484356504269,6
0.0800018310546875,-0.0599182657897472,2.94037842750549,1.16100001335144,-0.0601175574246769,2.93994947496775,1.18007272202403,3028.602,3011.868,2083.797,1979.253,0.01921494,-0.004419782,-0.04309261,0.00410820124670863,0.012349421158433,-0.226121813058853,-0.00437268608126799,-0.00188144466206175,0.00270690098422899,6
0.100006103515625,-0.0596519261598587,2.94066071510315,1.15742897987366,-0.0602282404704493,2.93990185114529,1.18014124010193,2573.166,3764.13,2528.135,1069.401,-0.005652293,-0.003074886,-0.06910477,0.0133169628679752,0.0141151947900653,-0.1785509288311,-0.00677739276378709,-0.00291612276782231,0.00419552897277328,6
0.120010375976563,-0.0591362528502941,2.94084787368774,1.154620885849,-0.0603920338334453,2.93983137543704,1.18024263599618,1989.965,4004.13,3075.366,694.7492,-0.039908,-0.0007078682,-0.08794184,0.0257836319506168,0.009363261051476,-0.140403360128403,-0.00968041450003567,-0.00416521191989172,0.00599263771761404,5
0.139999389648438,-0.0583610460162163,2.94078660011292,1.15244734287262,-0.0606185767455666,2.93973390035084,1.18038287685052,1381.423,3937.02,3641.046,663.9438,-0.07574989,0.002033788,-0.09641548,0.0387604311108589,-0.0030589634552598,-0.108675211668015,-0.0130660253322238,-0.00562194567796536,0.00808849210174802,4
0.160003662109375,-0.0573620833456516,2.94033217430115,1.15091979503632,-0.0609177895434042,2.93960515744296,1.18056810382587,1009.006,3669.302,3950.584,872.4758,-0.1041259,0.00383446,-0.09478936,0.0499481037259102,-0.0227163918316364,-0.0763775706291199,-0.0169265510445065,-0.00728302204135792,0.0104783414199936,4
0.180007934570313,-0.0561949983239174,2.93938517570496,1.15012359619141,-0.0612988491946875,2.93944119812059,1.1808039979024,1011.383,3363.067,3835.45,1160.947,-0.1193469,0.003851061,-0.08597483,0.058354277163744,-0.0473464503884315,-0.0398116521537304,-0.0212468478482708,-0.00914192506089775,0.0131528109458008,3
0.199996948242188,-0.05490892380476,2.93791794776917,1.15010988712311,-0.0617704296168641,2.93923829023936,1.18109592864822,1333.086,3133.266,3353.359,1401.395,-0.121414,0.002340477,-0.07415678,0.0643037259578705,-0.0733590349555016,-0.00068528950214386,-0.0260104776919234,-0.0111915819022102,0.0161017247421801,3
0.220001220703125,-0.0535359941422939,2.93597269058228,1.15082931518555,-0.0623420644491781,2.93899233174064,1.18144979784016,1789.518,3014.683,2724.422,1533.617,-0.1151215,0.0002798367,-0.06327351,0.0686465948820114,-0.0972617492079735,0.035973846912384,-0.03121219533433,-0.0134297356845702,0.019321835755004,3
0.240005493164063,-0.0520959496498108,2.93363213539124,1.1521235704422,-0.0630219993990999,2.93869977472688,1.18187070996396,2172.287,2982.421,2212.423,1547.072,-0.1071491,-0.001340103,-0.05581133,0.0720022320747375,-0.117025554180145,0.0647116675972939,-0.0368361158647881,-0.0158495515746756,0.0228033104678445,3
0.260009765625,-0.0506038516759872,2.93098068237305,1.15377140045166,-0.0638185570309634,2.93835703823113,1.18236381708338,2347.72,2985.91,2004.792,1459.429,-0.1029067,-0.001920139,-0.05235562,0.0746048465371132,-0.132567435503006,0.0823892652988434,-0.0428699302682246,-0.0184457333472145,0.0265385290140116,3
0.279998779296875,-0.0490740723907948,2.92807531356812,1.15557241439819,-0.0647390625194898,2.93796097043536,1.18293365383054,2308.696,2995.852,2122.848,1299.111,-0.1047187,-0.001325189,-0.05185068,0.0764890387654305,-0.14527028799057,0.0900496169924736,-0.0492963837173861,-0.0212108567320638,0.030516809833474,3
0.300003051757813,-0.0475225225090981,2.92493534088135,1.15741097927094,-0.0657927507678135,2.93750759781875,1.18358593705038,2137.039,3011.108,2442.493,1106.382,-0.1118741,0.0001969034,-0.05227572,0.0775774419307709,-0.156993016600609,0.0919303819537163,-0.0561132031658829,-0.0241439437008635,0.0347367458022363,3
0.32000732421875,-0.045969232916832,2.92155051231384,1.15926611423492,-0.0669865614821475,2.93699393441958,1.18432496275165,1943.658,3019.28,2792.326,937.4204,-0.1218172,0.002153781,-0.05160993,0.0776644572615623,-0.169247418642044,0.0927554443478584,-0.0633036493784043,-0.0272377918282996,0.0391879745362408,3
0.339996337890625,-0.0444394126534462,2.91789531707764,1.16117644309998,-0.068326768706371,2.93641728069206,1.18515461486636,1804.107,3001.599,3047.612,841.223,-0.1315069,0.004015674,-0.04861175,0.0764910578727722,-0.182757705450058,0.0955170094966888,-0.0708499516420146,-0.0304847548730522,0.0438594951176439,3
0.360000610351563,-0.0429611504077911,2.91394639015198,1.1632034778595,-0.0698225328270578,2.93577369517774,1.1860805641102,1756.206,2955.454,3148.772,831.0137,-0.1384998,0.005409122,-0.04314534,0.0739131346344948,-0.197443097829819,0.10134994238615,-0.0787518717320621,-0.0338847303337087,0.0487511600740379,3
0.3800048828125,-0.041560810059309,2.90969371795654,1.16540205478668,-0.0714797725314022,2.93506063123087,1.18710647443246,1803.454,2904.95,3096.543,875.021,-0.1417393,0.006225558,-0.03593829,0.0700170025229454,-0.212632924318314,0.109931543469429,-0.0869921272359981,-0.0374302820709642,0.0538522707687797,3
0.400009155273438,-0.0402594767510891,2.9051456451416,1.16779804229736,-0.0733051402689975,2.93427522648826,1.18823646401636,1908.921,2871.603,2945.449,935.6338,-0.1416738,0.006602563,-0.02807771,0.0650665760040283,-0.227399438619614,0.119799181818962,-0.0955591682828665,-0.0411164404980124,0.0591556772815509,3
0.419998168945313,-0.0390723943710327,2.90032649040222,1.17038261890411,-0.0753034649285836,2.93341540321397,1.18947352217404,2025.133,2857.534,2769.982,988.9897,-0.1397249,0.006794284,-0.02059902,0.0593541972339153,-0.240960165858269,0.129227682948112,-0.104434660908044,-0.0449353170220673,0.0646500300148815,3
0.44000244140625,-0.038010410964489,2.89526844024658,1.17311811447144,-0.077483988232608,2.93247718495301,1.19082336997196,2110.003,2859.331,2640.228,1016.133,-0.1375645,0.00704382,-0.01415097,0.0530991479754448,-0.252901375293732,0.136776015162468,-0.113620829717891,-0.048887868829098,0.0703367061060819,3
0.460006713867188,-0.037082239985466,2.89000344276428,1.17595732212067,-0.0798512213598696,2.93145863067119,1.19228880004469,2148.531,2866.727,2590.841,1012.525,-0.136462,0.007498557,-0.008928514,0.0464085452258587,-0.263253957033157,0.141958624124527,-0.123099793815011,-0.0529664022684887,0.0762046364278779,3
0.479995727539063,-0.0362961441278458,2.88455653190613,1.17885780334473,-0.0824088828700873,2.93035814037613,1.19387211435783,2141.374,2877.39,2625.551,977.3405,-0.1370047,0.008197434,-0.004677043,0.0393049977719784,-0.272339999675751,0.14502178132534,-0.132852887402757,-0.0571628859694044,0.0822422659629699,4
0.5,-0.0356613472104073,2.8789439201355,1.18179643154144,-0.085166398670376,2.92917165836334,1.1955791479969,2107.752,2883.521,2714.507,928.0675,-0.1390362,0.009087409,-0.0009315737,0.0317397341132164,-0.280627220869064,0.146932333707809,-0.142884000065179,-0.0614789935111996,0.0884520025491718,4
0.520004272460938,-0.0351884104311466,2.87317323684692,1.18477189540863,-0.088127196023106,2.92789770997757,1.19741202260058,2073.205,2887.65,2817.053,873.8652,-0.1419891,0.01006273,0.002806939,0.0236468110233545,-0.288536369800568,0.148774221539497,-0.153174893518032,-0.065906877469682,0.0948225558197254,4
0.540008544921875,-0.0348888635635376,2.8672468662262,1.18779611587524,-0.0912963635428427,2.92653410573011,1.19937388826368,2047.603,2887.149,2904.85,831.9249,-0.145146,0.01101643,0.006906356,0.0149777103215456,-0.296321213245392,0.15121041238308,-0.163714777034477,-0.0704418948965508,0.101347245800684,4
0.55999755859375,-0.0347746200859547,2.86116528511047,1.19088983535767,-0.094676112580471,2.92507989413848,1.20146611391775,2041.327,2880.217,2956.228,813.3735,-0.1478449,0.01187076,0.01147173,0.00571197364479303,-0.30408102273941,0.154684722423553,-0.17448465888317,-0.0750758741803766,0.108014315705644,4
0.580001831054688,-0.0348566919565201,2.85493040084839,1.1940723657608,-0.0982762614093182,2.92353085067394,1.20369477754168,2055.023,2875.68,2970.197,808.1196,-0.1497554,0.01259471,0.01643659,-0.00410351529717445,-0.31174424290657,0.159123778343201,-0.185490414529404,-0.0798113433697334,0.11482740272751,4
0.600006103515625,-0.0351444780826569,2.84854674339294,1.19735956192017,-0.102098762959148,2.92188613504538,1.20606108809202,2085.061,2872.667,2951.101,816.8232,-0.1508595,0.01319911,0.02157317,-0.0143891926854849,-0.319180548191071,0.164358094334602,-0.196713446836865,-0.0846403006364086,0.121774994352997,4
0.6199951171875,-0.035644993185997,2.84202241897583,1.2007554769516,-0.106144683970236,2.92014528826426,1.20856570593183,2117.553,2876.974,2922.59,824.0377,-0.1514572,0.01372703,0.02667984,-0.0250265747308731,-0.32621094584465,0.169793114066124,-0.208134604141382,-0.0895545055543457,0.128845234789665,4
0.639999389648438,-0.0363637879490852,2.83536744117737,1.20425868034363,-0.110424235525481,2.91830391678686,1.21121495220784,2143.8,2879.461,2897.304,837.0112,-0.1518465,0.01423015,0.03154493,-0.0359392985701561,-0.332747101783752,0.175159737467766,-0.219761081350814,-0.0945570538913933,0.136042578028218,4
0.660003662109375,-0.0373050086200237,2.82859230041504,1.20786416530609,-0.114938248900541,2.91636166293851,1.21400934151928,2166.638,2887.894,2885.177,835.8371,-0.1523925,0.0147445,0.03608371,-0.0470608100295067,-0.33876296877861,0.180273652076721,-0.231574097577923,-0.0996398647564507,0.143355397804799,4
0.680007934570313,-0.038472056388855,2.82170653343201,1.21156394481659,-0.119690355154666,2.91431696437584,1.21695112166479,2177.16,2895.689,2894.848,827.6318,-0.1533251,0.01529349,0.04031355,-0.0583521500229836,-0.344291627407074,0.184987381100655,-0.243563621239988,-0.104798621839723,0.150777484091833,4
0.699996948242188,-0.0398685149848461,2.8147177696228,1.21535432338715,-0.124680083855354,2.91217002351282,1.22004000142426,2180.777,2899.773,2919.698,817.2599,-0.1546593,0.01588169,0.04428507,-0.0698230788111687,-0.34944161772728,0.189516589045525,-0.255710395848158,-0.11002503961202,0.158296916205407,4
0.720001220703125,-0.041498027741909,2.80763173103333,1.21923363208771,-0.129918284978346,2.90991617190799,1.22328269744952,2182.281,2905.059,2956.332,797.3625,-0.1563393,0.01649826,0.04812158,-0.081475742161274,-0.354307323694229,0.193966045975685,-0.268023157655716,-0.11532287703907,0.16591910230247,4
0.740005493164063,-0.0433648340404034,2.8004515171051,1.22320806980133,-0.13540428105644,2.90755570105657,1.22667879035609,2187.32,2906.831,2988.816,782.959,-0.158187,0.0171247,0.05188321,-0.093340203166008,-0.359009772539139,0.198720529675484,-0.280482990349159,-0.120683994959631,0.173632332283853,5
0.760009765625,-0.0454725883901119,2.79317998886108,1.22728073596954,-0.141140917956636,2.9050873864615,1.23023004187122,2194.539,2912.284,3022.125,761.4792,-0.1601274,0.01774498,0.05567684,-0.105388104915619,-0.363576620817184,0.203631103038788,-0.293080296154222,-0.126104263719567,0.181430664670081,5
0.779998779296875,-0.0478254444897175,2.78581857681274,1.23146045207977,-0.147126184485884,2.90251209348295,1.23393520697061,2203.215,2910.437,3043.492,758.4612,-0.1619463,0.01835357,0.05946372,-0.117643028497696,-0.368073970079422,0.208986401557922,-0.305795832832518,-0.131575403921268,0.189302187598958,5
0.800003051757813,-0.0504264496266842,2.77836918830872,1.23575091362,-0.153371683173492,2.89982482987671,1.2378014681726,2218.156,2916.217,3062.436,743.1036,-0.1636656,0.01894452,0.06327864,-0.130050346255302,-0.372467547655106,0.21452334523201,-0.318639638509124,-0.13710173468952,0.197253115148089,5
0.82000732421875,-0.0532788224518299,2.77083325386047,1.24016106128693,-0.159875221826383,2.89702653888221,1.24182746840525,2235.286,2916.875,3067.325,745.3782,-0.1652145,0.01952349,0.06702191,-0.142618447542191,-0.376792460680008,0.22050841152668,-0.331592781842754,-0.14267511039705,0.205271727915392,5
0.839996337890625,-0.0563839040696621,2.76321387290955,1.24468922615051,-0.166633637018892,2.89411858163313,1.24601124935738,2253.74,2926.572,3079.482,728.8936,-0.1667895,0.02009305,0.07073535,-0.15525496006012,-0.380971670150757,0.226407945156097,-0.344636106234817,-0.148287288494656,0.213346167053785,5
0.860000610351563,-0.0597437731921673,2.75551295280457,1.24933958053589,-0.173659158941841,2.89109569582005,1.2503603820997,2264.43,2924.792,3087.187,737.4457,-0.1682899,0.02067235,0.07430438,-0.167992174625397,-0.385052025318146,0.232519000768661,-0.357780475378537,-0.153942943326036,0.221483157706883,5
0.8800048828125,-0.0633591860532761,2.74773287773132,1.2541116476059,-0.180948461186242,2.88795931270381,1.25487280742661,2284.171,2934.985,3100.068,719.5242,-0.1699081,0.02125745,0.07777636,-0.180771008133888,-0.389005094766617,0.238605380058289,-0.371007022483504,-0.159633957038354,0.229671020432672,5
0.900009155273438,-0.0672311335802078,2.73987555503845,1.25900602340698,-0.188503099076414,2.88470876307182,1.25954948815793,2294.549,2937.254,3116.235,716.3268,-0.1716226,0.02185868,0.08112516,-0.193596586585045,-0.392861723899841,0.24472151696682,-0.384306908919572,-0.165356526615982,0.237904283698049,5
0.919998168945313,-0.0713602602481842,2.73194289207458,1.26402258872986,-0.196318384305134,2.8813460641717,1.26438752200817,2306.823,2941.966,3137.458,704.0751,-0.1734575,0.02247611,0.08437885,-0.206456661224365,-0.396636337041855,0.250828564167023,-0.397661187980262,-0.171102499820431,0.246171218589148,5
0.94000244140625,-0.0757474452257156,2.72393560409546,1.26916253566742,-0.204407453948074,2.87786556348678,1.26939504145298,2316.984,2944.085,3160.863,694.8038,-0.175358,0.02311118,0.08754754,-0.21935947239399,-0.400359034538269,0.256996244192123,-0.411081631631503,-0.176876941799768,0.254479112513653,5
0.960006713867188,-0.0803937166929245,2.71585416793823,1.27443015575409,-0.212765478812529,2.87426933888379,1.27456905699201,2332.375,2948.252,3179.615,683.2856,-0.1773032,0.02375862,0.090639,-0.232314392924309,-0.404069751501083,0.263379544019699,-0.424549556012544,-0.182671813410681,0.262816399271726,5
0.979995727539063,-0.0852992981672287,2.70769906044006,1.27982461452484,-0.22138664033507,2.87055989392801,1.27990596665734,2345.897,2953.358,3203.773,666.752,-0.1793303,0.02441421,0.09370303,-0.245278239250183,-0.407749742269516,0.269722282886505,-0.438046240701377,-0.188479059778567,0.271171490030365,5
1,-0.0904650688171387,2.69947028160095,1.28534984588623,-0.230284798736574,2.86673126495361,1.28541435058594,2355.882,2952.196,3223.418,665.2596,-0.1813,0.02508599,0.09669237,-0.258289307355881,-0.41144323348999,0.276261359453201,-0.451584000205995,-0.194303979492187,0.279552008056641,5
1.02000427246094,-0.0958914309740067,2.69116735458374,1.29100859165192,-0.239454009753966,2.86278600961093,1.2910905289958,2375.51,2958.827,3240.457,648.633,-0.1832851,0.02576462,0.09963578,-0.271317780017853,-0.415144383907318,0.2829350233078,-0.465144357597929,-0.200138622445408,0.287946515251652,5
1.04000854492188,-0.101578295230865,2.68279051780701,1.29680120944977,-0.248894644448595,2.85872396824263,1.29693473159157,2389.26,2961.875,3259.24,639.5637,-0.1852857,0.02645331,0.1025311,-0.284342885017395,-0.418845772743225,0.289630472660065,-0.47871923339115,-0.205979512261105,0.296350010028666,5
1.05999755859375,-0.107525765895844,2.67433929443359,1.302729845047,-0.258599401509697,2.85454828239877,1.30294243851408,2403.299,2963.885,3276.173,633.4514,-0.1872703,0.02715682,0.1053535,-0.297374278306961,-0.422562569379807,0.296432554721832,-0.492290296490434,-0.211818761581115,0.30475114456651,5
1.08000183105469,-0.113733366131783,2.66581392288208,1.30879342556,-0.268583149539609,2.85025255453512,1.30912285413647,2418.192,2967.797,3297.812,619.5718,-0.1892757,0.02787251,0.1081271,-0.310380071401596,-0.426269948482513,0.303179204463959,-0.50587040849135,-0.217661904390701,0.313157880805523,5
1.10000610351563,-0.120201513171196,2.65721344947815,1.31499767303467,-0.278838480013141,2.84583997233313,1.31547139222872,2434.316,2969.947,3309.671,616.7822,-0.1912427,0.02860599,0.1107998,-0.323407649993896,-0.430023640394211,0.310214340686798,-0.519441457145546,-0.223501147495394,0.321559006401169,5
1.1199951171875,-0.12692853808403,2.64853858947754,1.3213369846344,-0.289357002179081,2.84131414609862,1.32198285851614,2452.021,2977.737,3335.241,591.7752,-0.1933455,0.02934367,0.1134647,-0.33635202050209,-0.433742940425873,0.31696406006813,-0.532985466132485,-0.229328756186667,0.329943393154705,5
1.13999938964844,-0.133915096521378,2.63978815078735,1.32781720161438,-0.300154365346813,2.83666834237095,1.3286669406667,2459.174,2972.987,3350.531,601.7451,-0.195337,0.03011022,0.116008,-0.349327564239502,-0.437520384788513,0.324012368917465,-0.546515580872639,-0.235150386571708,0.338319178707607,5
1.16000366210938,-0.141159728169441,2.63096237182617,1.33443546295166,-0.311222084148811,2.83190621216671,1.33551838583369,2482.988,2983.324,3373.55,570.9627,-0.1974452,0.03087938,0.1185398,-0.362231761217117,-0.441286623477936,0.330912590026855,-0.560014026276883,-0.240958390526247,0.34667535943296,6
1.18000793457031,-0.148662522435188,2.62206029891968,1.34119582176208,-0.322559451663168,2.82702805965467,1.34253675639879,2492.146,2981.05,3389.447,575.5292,-0.1994958,0.03167073,0.1209796,-0.375139206647873,-0.445107012987137,0.338020920753479,-0.573473482003304,-0.246749618311663,0.355007403690405,6
1.19999694824219,-0.156421810388565,2.61308193206787,1.34809422492981,-0.334156660511822,2.8220381046756,1.34971598112778,2511.037,2987.461,3415.219,550.7938,-0.2016317,0.03246757,0.1234087,-0.387965351343155,-0.44891557097435,0.344922661781311,-0.58687652428584,-0.252516572968185,0.36330452533874,6
1.22000122070313,-0.164437875151634,2.60402631759644,1.355135679245,-0.346030421585499,2.81692915700008,1.35706640485806,2520.276,2984.358,3432,555.2855,-0.2036541,0.03328909,0.1257431,-0.400802850723267,-0.452783077955246,0.352070778608322,-0.600236516861372,-0.258265004538453,0.371574997167698,6
1.24000549316406,-0.172709211707115,2.59489321708679,1.3623183965683,-0.358170848086624,2.8117054706409,1.36458190719098,2543.629,2992.837,3452.854,528.918,-0.2057425,0.03411245,0.128063,-0.413567990064621,-0.456655949354172,0.359137833118439,-0.613536214864368,-0.263987493038594,0.379808143784027,6
1.260009765625,-0.18123534321785,2.5856819152832,1.36964476108551,-0.37057666480527,2.80636759428526,1.37226169871082,2554.459,2992.021,3469.568,528.9908,-0.207783,0.0349528,0.1303136,-0.426305919885635,-0.460571140050888,0.366317987442017,-0.626768731761373,-0.26968107538565,0.387999702095469,6
1.27999877929688,-0.190014600753784,2.57639217376709,1.37711191177368,-0.383236695417198,2.80092033679326,1.3800988607405,2572.136,2996.35,3492.583,510.1292,-0.2098608,0.03579964,0.1325399,-0.438962012529373,-0.464483559131622,0.373357713222504,-0.639917282339435,-0.275338529371412,0.396139281255613,6
1.30000305175781,-0.199046418070793,2.56702351570129,1.3847222328186,-0.396168722856641,2.79535604666509,1.38810440176341,2583.271,2995.059,3511.052,508.515,-0.2118545,0.03666541,0.1346929,-0.45159313082695,-0.468430191278458,0.380516320466995,-0.652995275331231,-0.280965624398954,0.404235181908735,6
1.32000732421875,-0.208329677581787,2.55757570266724,1.39247620105743,-0.409361504843077,2.78967956113998,1.39627136227237,2604.545,3001.18,3528.597,489.7083,-0.2138646,0.03753582,0.1368101,-0.464161783456802,-0.472393125295639,0.387696176767349,-0.6659860834168,-0.286555206197011,0.41227711095171,6
1.33999633789063,-0.217862784862518,2.54804849624634,1.4003723859787,-0.422802873722428,2.78389611561957,1.40459220990988,2617.909,3002.659,3548.771,480.5694,-0.2158801,0.03841455,0.1388888,-0.476654648780823,-0.476361125707626,0.394808739423752,-0.678873453515705,-0.29210028151913,0.420255006953505,6
1.36000061035156,-0.227644443511963,2.5384418964386,1.40840995311737,-0.436511415158101,2.77799771321212,1.41307845008695,2630.583,3002.754,3570.471,471.9794,-0.217854,0.03930537,0.1409199,-0.489082336425781,-0.480331063270569,0.401880949735641,-0.691670720740693,-0.297606588091785,0.42817712498415,6
1.3800048828125,-0.237673938274384,2.52875518798828,1.41659271717072,-0.450474904562636,2.77198961381608,1.4217225152016,2648.638,3006.093,3584.021,463.0869,-0.2197779,0.04020711,0.1428869,-0.501478016376495,-0.484337747097015,0.409135550260544,-0.704361775018035,-0.303067194200314,0.436033492140578,6
1.40000915527344,-0.2479487657547,2.51898908615112,1.42491447925568,-0.464691155755482,2.76587275808388,1.43052305190393,2666.008,3010.471,3609.524,440.6376,-0.2217801,0.04110416,0.1448589,-0.513738572597504,-0.488300859928131,0.41608801484108,-0.716940488958393,-0.308479463400265,0.443820315276901,7
1.41999816894531,-0.258468806743622,2.50914263725281,1.43338167667389,-0.47914673136562,2.75965292774086,1.43947174182117,2674.356,3007.325,3620.97,450.1197,-0.2236342,0.04202517,0.1467287,-0.526005029678345,-0.492322385311127,0.423358500003815,-0.729391385793766,-0.313836736470737,0.451528013536465,7
1.44000244140625,-0.269230425357819,2.49921774864197,1.44198346138,-0.493861275572861,2.75332167044526,1.4485807456364,2696.597,3014.021,3654.161,411.8794,-0.2256118,0.04292983,0.1486452,-0.538082957267761,-0.496245145797729,0.430089861154556,-0.741727567798258,-0.319144650954242,0.459164697851088,7
1.46000671386719,-0.280235916376114,2.48921155929565,1.45073664188385,-0.508821304757097,2.74688478782212,1.45784171634646,2702.159,3009.028,3650.886,441.2405,-0.2272939,0.04387364,0.150391,-0.550274968147278,-0.500308036804199,0.437659740447998,-0.753933682518823,-0.324396601119133,0.466720864320996,7
1.47999572753906,-0.29147806763649,2.47912859916687,1.45961689949036,-0.524012471663969,2.74034845309416,1.46724577231745,2735.578,3023.7,3697.205,368.5264,-0.2293568,0.0447637,0.1523003,-0.562106192111969,-0.504151701927185,0.444014608860016,-0.765994882555672,-0.329586198544069,0.474187321698441,7
1.5,-0.302962273359299,2.46896386146545,1.4686530828476,-0.539455198877605,2.73370387899399,1.4768055561018,2719.778,3005.513,3681.474,445.9265,-0.2308311,0.04573433,0.153915,-0.574210405349731,-0.50823587179184,0.451811134815216,-0.777924000354858,-0.334718964672088,0.481572013878822,7
1.52000427246094,-0.314677894115448,2.45872449874878,1.47780787944794,-0.555135099954955,2.72695725560613,1.48651216180595,2774.803,3032.09,3742.617,322.7203,-0.2329483,0.04660723,0.1558183,-0.585779905319214,-0.511967420578003,0.457738935947418,-0.789706299681991,-0.339788558913217,0.48886581843107,7
1.54000854492188,-0.32663494348526,2.44840216636658,1.48712956905365,-0.571049184024557,2.72010986981902,1.49636373793799,2740.382,3004.963,3699.969,456.1351,-0.2341675,0.04760703,0.1572715,-0.597853183746338,-0.516114592552185,0.466083586215973,-0.801336412291853,-0.344792671461508,0.496065412155667,7
1.55999755859375,-0.338814973831177,2.4380099773407,1.4965488910675,-0.587181951496087,2.71316839067337,1.50635068951315,2817.449,3042.85,3801.368,255.2351,-0.236535,0.04843184,0.1592603,-0.609002590179443,-0.519612967967987,0.47096660733223,-0.812800388649436,-0.349725300221754,0.503162159625937,7
1.58000183105469,-0.351239025592804,2.42753171920776,1.50615775585175,-0.60355483331529,2.70612359703193,1.51648628330776,2742.5,2994.062,3706.729,507.1792,-0.2372152,0.04949957,0.160443,-0.621204614639282,-0.523909866809845,0.480442494153976,-0.824110582941666,-0.354591760855452,0.510163708672098,7
1.60000610351563,-0.363873958587646,2.41699147224426,1.51582944393158,-0.620152298932711,2.69898217125626,1.52676090517188,2880.052,3063.032,3877.285,138.1677,-0.2400696,0.05022693,0.1626498,-0.631743431091309,-0.527016818523407,0.483586311340332,-0.835253140422976,-0.35938609205264,0.51706148254665,7
1.6199951171875,-0.376761436462402,2.40635776519775,1.5257385969162,-0.636958033083316,2.69175113334911,1.53716445517924,2725.886,2977.373,3675.732,621.5827,-0.2398347,0.05141887,0.1633851,-0.644375920295715,-0.531688570976257,0.495460093021393,-0.846214826007804,-0.364102599125749,0.523847288101157,7
1.63999938964844,-0.389841556549072,2.39567136764526,1.53566074371338,-0.653994195024907,2.68442094880091,1.54771065096602,2909.599,3141.234,3944.708,0,-0.243308,0.05218549,0.1662048,-0.654008209705353,-0.534321010112762,0.496104925870895,-0.857007552155828,-0.368746407673381,0.530528499715628,7
1.66000366210938,-0.403186678886414,2.38488149642944,1.54588162899017,-0.671244443874359,2.67699864863716,1.55838937674714,2701.675,2928.239,3605.514,814.7518,-0.2417282,0.05371144,0.1663003,-0.667251706123352,-0.539491474628448,0.511044681072235,-0.867618167158098,-0.373311858882592,0.53709697585572,7
1.68000793457031,-0.416711866855621,2.37403750419617,1.5561101436615,-0.688705090349012,2.66948582025311,1.56919834868089,2817.96,3342.854,3871.979,0,-0.2448659,0.05522102,0.1699277,-0.676261186599731,-0.542193949222565,0.511427760124207,-0.878042061913515,-0.377796969585941,0.543549863268291,8
1.69999694824219,-0.430489301681519,2.36309862136841,1.56660413742065,-0.706358800111611,2.66188992212981,1.58012683598675,2786.341,2837.379,3593.429,870.4289,-0.2432441,0.05735544,0.1696552,-0.688870966434479,-0.546939313411713,0.524702429771423,-0.888267004546665,-0.382196476749158,0.549879589839776,8
1.72000122070313,-0.444437742233276,2.35211658477783,1.57708525657654,-0.724228658537036,2.6542010212754,1.5911891296115,2887.298,3285.397,3903.175,0,-0.2465347,0.05932308,0.1723059,-0.697423934936523,-0.549096465110779,0.524058163166046,-0.898304216251578,-0.386515208538549,0.556093102023817,8
1.74000549316406,-0.458630621433258,2.34105134010315,1.58781778812408,-0.742297311768984,2.64642658456943,1.60237448669139,2857.509,2826.855,3655.856,789.6597,-0.2456095,0.06173129,0.1711382,-0.709643483161926,-0.553260147571564,0.536629378795624,-0.908141534469281,-0.390747931744771,0.562182870617028,8
1.760009765625,-0.472992181777954,2.3299446105957,1.59855854511261,-0.760560719141003,2.63856835059778,1.61368040586141,2870.909,3327.921,3917.995,0,-0.2492165,0.0640967,0.1731866,-0.718077957630157,-0.555331349372864,0.537038087844849,-0.91777478390713,-0.394892849856044,0.568146310914365,8
1.77999877929688,-0.487576812505722,2.31876969337463,1.60948920249939,-0.779000609654483,2.63063418086074,1.62509557650306,2938.816,2809.137,3795.843,615.5731,-0.249804,0.06657541,0.1719624,-0.729233682155609,-0.558742523193359,0.546535968780518,-0.927192788821983,-0.398945154262308,0.57397650459845,8
1.80000305175781,-0.502332329750061,2.30755543708801,1.62044298648834,-0.797640935141499,2.62261376955408,1.63663482594136,2934.952,3196.591,4024.271,0,-0.2535372,0.06884005,0.1730047,-0.737778186798096,-0.560707330703735,0.547688484191895,-0.936405971974637,-0.402909329586356,0.579679903854719,8
1.82000732421875,-0.51730078458786,2.29627871513367,1.6315633058548,-0.816463410111527,2.61451498441355,1.64828683458664,2988.035,2843.605,3945.42,412.5412,-0.2549652,0.07100065,0.1719033,-0.748425662517548,-0.563835561275482,0.556016623973846,-0.94540321420156,-0.406780591562751,0.585249625391268,8
1.83999633789063,-0.532446026802063,2.2849543094635,1.64274370670319,-0.835449117627072,2.60634596486888,1.66003989195343,2949.164,3156.149,4083.478,0,-0.2582414,0.07297443,0.1728101,-0.757258117198944,-0.566217005252838,0.559021711349487,-0.954174163352093,-0.410554485950274,0.590679260733698,8
1.86000061035156,-0.547789871692657,2.2735698223114,1.65405416488647,-0.854622615239374,2.59809614449182,1.6719092003358,3031.208,2870.063,4066.673,243.6251,-0.2600316,0.07466671,0.1724985,-0.767190337181091,-0.569220840930939,0.565520405769348,-0.962728579444532,-0.414235212212131,0.595974851798267,8
1.8800048828125,-0.563313782215118,2.26213240623474,1.66544246673584,-0.873964974649439,2.58977366760063,1.68388304221498,3025.801,3039.21,4153.361,0,-0.2625776,0.07600489,0.1732655,-0.776200175285339,-0.571869134902954,0.569413900375366,-0.971056158224177,-0.417818336715394,0.601130019760457,8
1.90000915527344,-0.579032361507416,2.25063037872314,1.67696285247803,-0.893471623792247,2.58138050142717,1.69595858726494,3041.174,2929.53,4116.244,150.2767,-0.2639374,0.07707457,0.1736192,-0.785923719406128,-0.575084865093231,0.576019525527954,-0.979153483542501,-0.421302389586788,0.606142649861596,8
1.91999816894531,-0.594928681850433,2.23907065391541,1.68856978416443,-0.913122862707269,2.57292512231409,1.70812364027167,3042.593,3033.886,4167.407,0,-0.2657244,0.07782599,0.1749578,-0.794821500778198,-0.57799768447876,0.580344200134277,-0.987011339258123,-0.424683405378145,0.611007036871143,8
1.94000244140625,-0.611015439033508,2.22744250297546,1.70031201839447,-0.932943991899774,2.5643966441608,1.72039386345315,3031.929,2960.234,4106.581,163.8159,-0.2662288,0.07843392,0.176008,-0.804334402084351,-0.581403434276581,0.587109267711639,-0.994638524886308,-0.427965170275055,0.615728628108227,9
1.96000671386719,-0.62727290391922,2.21575784683228,1.71213054656982,-0.952915303453826,2.55580354673295,1.73275705667061,3075.82,3028.156,4165.818,0,-0.2673894,0.07870743,0.1778684,-0.812877774238586,-0.584228813648224,0.590925872325897,-1.00202586176059,-0.431143734953757,0.620301741541062,9
1.97999572753906,-0.643721401691437,2.20400285720825,1.72410416603088,-0.973016570682103,2.54715453300902,1.74520069864106,3014.615,2986.905,4051.018,240.4846,-0.2668892,0.07903597,0.1792076,-0.822425186634064,-0.587748765945435,0.598682940006256,-1.00916501115878,-0.434215511495054,0.624721215103391,9
2,-0.660329341888428,2.19219851493835,1.73613309860229,-0.993273599084619,2.53843849960327,1.7577407641983,3065.771,3085.083,4145.348,0,-0.2676887,0.07912942,0.1816932,-0.830393671989441,-0.590216040611267,0.601446628570557,-1.01606400046349,-0.437183953857422,0.628992018127441,9
2.02000427246094,-0.677129864692688,2.18032574653625,1.74833810329437,-1.01366615605493,2.52966415204104,1.77036472839513,3000.918,2984.423,3977.975,362.0817,-0.2662378,0.07947709,0.1829942,-0.840027868747711,-0.593636393547058,0.610252141952515,-1.02271452148052,-0.440045487257004,0.633109007445237,9
2.04000854492188,-0.694077491760254,2.16841506958008,1.76057553291321,-1.03418924440916,2.52083364047092,1.78306949773667,3053.93,3154.685,4115.136,0,-0.2669217,0.07968336,0.1858466,-0.847381591796875,-0.595532357692719,0.611872673034668,-1.02911391720548,-0.442798968459032,0.637070538244476,9
2.05999755859375,-0.711216568946838,2.15644502639771,1.77299654483795,-1.05482201812353,2.5119559343546,1.79584216754118,3004.185,2964.166,3927.752,460.9883,-0.2649765,0.08025081,0.1868146,-0.856953859329224,-0.598504424095154,0.621053159236908,-1.03525504859546,-0.445441325732794,0.640872191117535,9
2.08000183105469,-0.728492081165314,2.14445161819458,1.78542971611023,-1.07559088172821,2.50301967256038,1.80869908347065,3042.14,3203.723,4105.471,0,-0.2657275,0.08073851,0.1896331,-0.863777935504913,-0.599657535552979,0.621659338474274,-1.04114485287423,-0.447975543971863,0.644518260536375,9
2.10000610351563,-0.745956480503082,2.13241243362427,1.79804849624634,-1.09647498538954,2.49403382618922,1.82162733848484,3026.609,2942.002,3911.031,506.0508,-0.2637041,0.08158845,0.1900841,-0.873221039772034,-0.601976990699768,0.630940556526184,-1.04677621342161,-0.450398561093403,0.648004340974112,9
2.1199951171875,-0.763549983501434,2.12036323547363,1.81067168712616,-1.11745308225396,2.48500753716864,1.83461377976925,3029.817,3245.083,4100.919,0,-0.2646373,0.08241697,0.1926461,-0.879674673080444,-0.60246068239212,0.63116055727005,-1.0521429102862,-0.45270770082608,0.651326581984514,9
2.13999938964844,-0.781322538852692,2.10828518867493,1.82345771789551,-1.138551967509,2.47592927627801,1.8476749948214,3062.441,2915.052,3950.028,478.7397,-0.2630532,0.08348388,0.1926983,-0.888625383377075,-0.603906869888306,0.639303743839264,-1.05725102347782,-0.454905579228273,0.654488747383304,9
2.16000366210938,-0.799221456050873,2.09620928764343,1.83625137805939,-1.15975039167652,2.46680818657414,1.86079782920208,3047.061,3222.43,4127.047,0,-0.2641094,0.08448686,0.1946645,-0.89494252204895,-0.603791475296021,0.639681756496429,-1.0620943502576,-0.456989527434725,0.657486997379635,9
2.18000793457031,-0.817287802696228,2.08412075042725,1.84918236732483,-1.18104303873349,2.45764655539322,1.87397899203979,3104.888,2912.885,4022.227,379.9115,-0.2632093,0.08554015,0.194492,-0.903321921825409,-0.60442441701889,0.646547913551331,-1.06667099276523,-0.458958728849171,0.660320157107579,10
2.19999694824219,-0.835479915142059,2.07204246520996,1.86213111877441,-1.20240821395574,2.44845371736898,1.88720505326679,3058.505,3186.271,4165.926,0,-0.264274,0.08650254,0.1959945,-0.909602582454681,-0.603914797306061,0.647439956665039,-1.07097597819164,-0.460811043810786,0.662985148161421,10
2.22000122070313,-0.853826582431793,2.05996489524841,1.87518751621246,-1.22387315175433,2.43921795429519,1.90049287228091,3133.647,2918.041,4110.65,263.5616,-0.2638926,0.08734555,0.1959327,-0.917332887649536,-0.603883147239685,0.652819812297821,-1.07501419914593,-0.462548577472581,0.665484999299265,10
2.24000549316406,-0.872300028800964,2.04790163040161,1.88827764987946,-1.24541615591711,2.42994860144581,1.91382901809327,3088.291,3126.605,4204.328,0,-0.264666,0.08802527,0.1971064,-0.923677504062653,-0.60316264629364,0.654507696628571,-1.07878069424208,-0.464169195088763,0.667816639186824,10
2.25999450683594,-0.890916466712952,2.03584766387939,1.90145325660706,-1.26701526177039,2.4206551096063,1.92719989352455,3152.007,2943.843,4178.058,153.0513,-0.2645169,0.08846739,0.1974077,-0.930823445320129,-0.602700591087341,0.658779084682465,-1.08227143928024,-0.465671165158559,0.669977576652695,10
2.27999877929688,-0.909658193588257,2.02381134033203,1.91466915607452,-1.28869796983554,2.41132564607061,1.9406225227075,3110.797,3072.973,4238.333,0,-0.264862,0.08868638,0.19857,-0.937081158161163,-0.601814866065979,0.660796403884888,-1.08549040888332,-0.467056197851165,0.67197027217779,10
2.30000305175781,-0.928536057472229,2.01178765296936,1.92796719074249,-1.31044231452835,2.40196966201596,1.95408330789913,3142.038,2975.69,4198.304,110.5193,-0.2643448,0.08869272,0.199311,-0.943900108337402,-0.601187109947205,0.66490250825882,-1.08843358680109,-0.468322565086307,0.673792239511894,10
2.32000732421875,-0.947533786296844,1.9997843503952,1.94130527973175,-1.33224276726637,2.39258953623693,1.96757882664355,3121.438,3061.84,4237.892,0,-0.2641691,0.08846083,0.2008065,-0.949887096881866,-0.600166916847229,0.666907131671906,-1.09109983431736,-0.469469776906228,0.675442773735451,10
2.33999633789063,-0.966662585735321,1.98779559135437,1.95472741127014,-1.35407709248145,2.38319483607731,1.98109531406483,3116.465,2999.772,4172.984,136.2938,-0.2629664,0.08812842,0.2019624,-0.956433475017548,-0.599434316158295,0.671105861663818,-1.09348640563071,-0.470496651869278,0.67692017506657,10
2.36000061035156,-0.985900461673737,1.97583436965942,1.96817314624786,-1.37597305876702,2.37377361348711,1.99464996024512,3126.329,3063.186,4229.24,0,-0.2623363,0.08753683,0.2038561,-0.961896657943726,-0.598063349723816,0.672284603118896,-1.09559602313537,-0.471404361345641,0.678226128796969,10
2.3800048828125,-1.00527000427246,1.96388876438141,1.98172605037689,-1.39790843013262,2.36433543599182,2.00822900004707,3079.03,3021.051,4096.513,230.5448,-0.2601328,0.0870523,0.2051252,-0.968478560447693,-0.597285807132721,0.677643954753876,-1.09742594550583,-0.472191725819537,0.679358937915576,10
2.40000915527344,-1.02473366260529,1.95197987556458,1.99527728557587,-1.41987760424917,2.35488271411715,2.02182896536211,3098.965,3126.202,4189.425,0,-0.2592497,0.08637527,0.2075714,-0.973182499408722,-0.595445692539215,0.677564382553101,-1.09897546783438,-0.472858441988871,0.680318166050934,10
2.41999816894531,-1.04432916641235,1.94009029865265,2.00895690917969,-1.44185817738692,2.34542508756209,2.03543598721428,3042.393,3016.548,3995.673,373.8865,-0.2561098,0.08602244,0.2086869,-0.979768037796021,-0.594478189945221,0.683977723121643,-1.10024313330221,-0.473403883025206,0.681102911362803,10
2.44000244140625,-1.06400001049042,1.92825174331665,2.02259802818298,-1.46387808506052,2.33595053645515,2.04906735901791,3063.616,3192.162,4153.835,0,-0.2552001,0.08553061,0.2114699,-0.983541905879974,-0.591922521591187,0.682057440280914,-1.10123038958312,-0.473828671822132,0.681714070030222,10
2.46000671386719,-1.08380508422852,1.91643905639648,2.03639674186707,-1.48591492338117,2.32646870056377,2.06270921169857,3017.184,2998.685,3884.743,529.3844,-0.251257,0.08555252,0.2120251,-0.99025821685791,-0.590636134147644,0.689930737018585,-1.10193578218388,-0.474132182551855,0.682150741652607,10
2.47999572753906,-1.10366630554199,1.90469241142273,2.05012226104736,-1.50794623031618,2.31698924467309,2.07634764018804,3004.878,3293.166,4103.937,0,-0.2505752,0.08554811,0.215018,-0.993057668209076,-0.587332367897034,0.686277151107788,-1.10235882472314,-0.474314205938057,0.682412625136718,10
2.5,-1.12365770339966,1.89298367500305,2.06401205062866,-1.52999999932945,2.30750012397766,2.08999997377396,3013.183,2952.317,3808.009,652.4385,-0.2463504,0.08611533,0.214843,-0.999565005302429,-0.585436463356018,0.694493770599365,-1.10250000050292,-0.474374949932098,0.682500019669533,11
2.52000427246094,-1.14368832111359,1.88135695457458,2.07780146598816,-1.55205376834272,2.29801100328223,2.10365230735988,2967.75,3350.262,4073.9,0,-0.2460628,0.08668861,0.217555,-1.00153481960297,-0.581335306167603,0.689468383789063,-1.10235882472314,-0.474314205938057,0.682412625136718,11
2.54000854492188,-1.16383993625641,1.86978387832642,2.09174776077271,-1.57410188948011,2.28852431271001,2.11730114464159,3035.942,2908.65,3782.098,688.7976,-0.2421959,0.08773036,0.2165625,-1.00758326053619,-0.578660666942596,0.697312474250793,-1.10193535162022,-0.474131997292339,0.682150475113189,11
2.55999755859375,-1.1840181350708,1.85830593109131,2.10557889938354,-1.59612191359838,2.27904971150017,2.13093258853001,2930.132,3381.419,4065.347,0,-0.242418,0.08881505,0.2187739,-1.00891363620758,-0.573897242546082,0.691556453704834,-1.10123038958312,-0.473828671822132,0.681714070030222,11
2.58000183105469,-1.20430052280426,1.84689855575562,2.11953520774841,-1.61814182127198,2.26957516039323,2.14456396033363,3069.561,2861.591,3827.301,636.9958,-0.2393676,0.09013458,0.2171958,-1.01412057876587,-0.570360362529755,0.697813153266907,-1.10024313330221,-0.473403883025206,0.681102911362804,11
2.60000610351563,-1.22460436820984,1.83559513092041,2.13338351249695,-1.64013916343638,2.26011031859448,2.15818136301212,2927.694,3350.741,4078.847,0,-0.2398986,0.09145313,0.218666,-1.01518666744232,-0.565173029899597,0.692413747310638,-1.09897439291323,-0.472857979480329,0.680317500623536,11
2.6199951171875,-1.24498951435089,1.82437825202942,2.14730787277222,-1.66209156852628,2.2506648119635,2.17177094750084,3114.004,2839.118,3928.304,484.5999,-0.2380094,0.09265961,0.2169246,-1.01925766468048,-0.560853123664856,0.696213841438293,-1.09742594550583,-0.472191725819537,0.679358937915576,11
2.63999938964844,-1.26539540290833,1.81326878070831,2.16114234924316,-1.68402693989188,2.24122663446822,2.18534998730279,2948.419,3262.153,4121.696,0,-0.2386032,0.09376192,0.2176803,-1.02029585838318,-0.555475294589996,0.691721260547638,-1.09559602313537,-0.471404361345641,0.67822612879697,11
2.66000366210938,-1.28586113452911,1.80225563049316,2.17500638961792,-1.70592290617745,2.23180541187802,2.19890463348308,3136.863,2847.301,4049.114,297.0622,-0.2376163,0.09446057,0.2162547,-1.02328515052795,-0.550651013851166,0.693201422691345,-1.09348640563071,-0.470496651869278,0.67692017506657,10
2.68000793457031,-1.30635070800781,1.79134798049927,2.18880844116211,-1.72777388024004,2.22240354818443,2.21243142733407,2982.829,3160.166,4159.493,0,-0.2378688,0.09493253,0.2166475,-1.02448070049286,-0.545382440090179,0.690107703208923,-1.09109790637238,-0.469468947365361,0.675441580245664,9
2.69999694824219,-1.32688057422638,1.78054118156433,2.20259833335876,-1.74955768413056,2.21303058593937,2.22591663964878,3130.325,2880.116,4151.829,128.618,-0.2372722,0.09482379,0.216033,-1.02649128437042,-0.540344059467316,0.689494550228119,-1.08843358680109,-0.468322565086308,0.673792239511893,9
2.72000122070313,-1.34743654727936,1.76983618736267,2.21634578704834,-1.77130202882336,2.20367460188472,2.23937742484041,3029.004,3044.302,4196.567,0,-0.2368088,0.0943202,0.2164385,-1.02779877185822,-0.535246968269348,0.68737518787384,-1.08549040888332,-0.467056197851165,0.671970272177789,8
2.74000549316406,-1.36802446842194,1.75922882556915,2.23007535934448,-1.79298473688851,2.19434513834902,2.25280005402337,3082.08,2942.085,4175.634,54.43813,-0.2356381,0.09330048,0.2167896,-1.02940511703491,-0.530366063117981,0.686482608318329,-1.08227143928024,-0.465671165158559,0.669977576652695,7
2.75999450683594,-1.38863503932953,1.74872004985809,2.24376511573792,-1.81458384274179,2.18505164650952,2.26617092945464,3044.823,2999.802,4190.157,0,-0.2342873,0.09180218,0.2178602,-1.03052222728729,-0.52543306350708,0.68448805809021,-1.07878069424208,-0.464169195088763,0.667816639186824,6
2.77999877929688,-1.40927863121033,1.7383017539978,2.25746011734009,-1.83612684690458,2.17578229366013,2.27950707526701,2992.246,2998.499,4095.216,136.1856,-0.2316156,0.09011146,0.2190746,-1.03217744827271,-0.520915329456329,0.684751451015472,-1.07501419914593,-0.462548577472581,0.665484999299265,5
2.80000305175781,-1.42993068695068,1.72798466682434,2.2710874080658,-1.85759178470316,2.16654653058634,2.29279489428112,3034.906,3016.978,4147.756,0,-0.2294207,0.08789731,0.2211385,-1.03261196613312,-0.515846073627472,0.681360244750977,-1.07097597819164,-0.460811043810786,0.662985148161422,5
2.82000732421875,-1.45063066482544,1.71774888038635,2.2847888469696,-1.87897323600723,2.1573466894188,2.30603103117811,2880.326,3045.826,3884.385,387.9576,-0.2245018,0.08605085,0.2226003,-1.03499329090118,-0.511800050735474,0.685075044631958,-1.06666760390385,-0.458957270716794,0.660318059240952,4
2.83999633789063,-1.47131109237671,1.7076244354248,2.29835486412048,-1.90024960698239,2.14819206138118,2.31920211834584,2946.525,3153.929,4062.892,0,-0.221885,0.08380923,0.2260027,-1.03402435779572,-0.50621885061264,0.678300440311432,-1.06209435025759,-0.456989527434725,0.657486997379635,3
2.86000061035156,-1.49206435680389,1.69757413864136,2.31209850311279,-1.9214480311499,2.13907097167731,2.33232495272651,2761.61,3040.898,3561.51,817.5011,-0.2142428,0.08266459,0.2267903,-1.03765714168549,-0.502517461776733,0.687183558940887,-1.05725102347782,-0.454905579228273,0.654488747383304,2
2.8800048828125,-1.5127580165863,1.6876528263092,2.32560706138611,-1.94254691640495,2.12999271078668,2.34538616777867,2789.45,3399.308,3936.767,0,-0.2117666,0.08138564,0.2314701,-1.03468871116638,-0.496064275503159,0.675427496433258,-1.0521429102862,-0.45270770082608,0.651326581984514,1
2.90000915527344,-1.53355264663696,1.67780709266663,2.33940887451172,-1.96354098577478,2.12095954924324,2.35838249680481,2685.727,2967.792,3174.641,1338.409,-0.2017147,0.08186202,0.2304731,-1.03973770141602,-0.492293238639832,0.690096080303192,-1.04677201701582,-0.450396755497224,0.648001743199023,0
2.91999816894531,-1.55423998832703,1.66811275482178,2.35285472869873,-1.98440911693069,2.11198057539494,2.37130086407726,2572.414,3718.829,3792.599,0,-0.2002553,0.08256845,0.2359638,-1.03435862064362,-0.484713912010193,0.672297835350037,-1.04114485287423,-0.447975543971863,0.644518260536375,0
2.94000244140625,-1.57504570484161,1.65850973129272,2.36667799949646,-2.00517798053537,2.10304431360073,2.38415778000673,2679.694,2804.142,2841.417,1820.35,-0.1889529,0.08536438,0.2322047,-1.04029333591461,-0.480160117149353,0.691164970397949,-1.03525504859546,-0.445441325732794,0.640872191117535,0
2.96000671386719,-1.59570157527924,1.64908063411713,2.38004970550537,-2.02582645724542,2.09415985092405,2.3969401707136,2358.588,4031.792,3647.495,0,-0.1892693,0.08875033,0.2374681,-1.03279030323029,-0.47146338224411,0.668587923049927,-1.02910913225408,-0.442796909628122,0.637067576131623,0
2.97999572753906,-1.61645972728729,1.63977432250977,2.3937828540802,-2.04633384260397,2.08533609591429,2.40963521915279,2789.304,2568.384,2723.475,2025.325,-0.1792052,0.09382704,0.2306608,-1.03791379928589,-0.465308755636215,0.686659872531891,-1.02271452148052,-0.440045487257004,0.633109007445237,0
3,-1.63704454898834,1.63066101074219,2.40703868865967,-2.06672639957428,2.07656174835205,2.42225918334961,2254.257,4163.175,3571.595,0,-0.181814,0.09962443,0.2339818,-1.0292364358902,-0.455661803483963,0.662790477275848,-1.01606400046349,-0.437183953857422,0.628992018127441,0
3.02000427246094,-1.65766727924347,1.62171220779419,2.42049860954285,-2.0869834279768,2.06784571494631,2.43479924890685,2998.543,2338.898,2979.422,1724.061,-0.176207,0.105838,0.22491,-1.03115046024323,-0.447443962097168,0.672992885112762,-1.00916501115878,-0.434215511495054,0.624721215103391,0
3.04000854492188,-1.67812550067902,1.61296534538269,2.43357110023499,-2.10709998486405,2.05919012250926,2.44725235590455,2344.296,3966.642,3629.707,0,-0.18081,0.1125199,0.2245277,-1.0229012966156,-0.437342554330826,0.653626441955566,-1.00202031904361,-0.431141350077486,0.620298310335216,0
3.05999755859375,-1.69851768016815,1.6044180393219,2.44656181335449,-2.12705600675913,2.05060360379452,2.45960608409476,3246.092,2245.352,3640.566,814.9585,-0.1824691,0.11769,0.2153993,-1.01960623264313,-0.42735680937767,0.649538397789001,-0.994638524886308,-0.427965170275055,0.615728628108227,0
3.08000183105469,-1.71878528594971,1.59606456756592,2.45934891700745,-2.14687713595163,2.04207512564123,2.47187630727625,2619.122,3372.601,3901.334,0,-0.1877092,0.1226354,0.2106939,-1.01338493824005,-0.417680680751801,0.639351963996887,-0.987011339258122,-0.424683405378145,0.611007036871143,0
3.10000610351563,-1.73893189430237,1.5878974199295,2.47193622589111,-2.16654331551667,2.03361331798384,2.48405060925705,3062.558,2649.27,4137.59,0,-0.193305,0.1259,0.204767,-1.0073356628418,-0.408359944820404,0.629361212253571,-0.979147395688901,-0.421299770153459,0.606138881190213,0
3.1199951171875,-1.75897979736328,1.57988584041595,2.4844229221344,-2.18603502400946,2.02522658035469,2.49611690533293,2799.219,2871.781,4146.66,0,-0.1970862,0.1283856,0.1999326,-1.00239026546478,-0.400569468736649,0.624332904815674,-0.971056158224178,-0.417818336715394,0.601130019760458,0
3.13999938964844,-1.77892732620239,1.57200002670288,2.49682569503784,-2.20537738341953,2.01690410346351,2.50809074721212,2648.969,3034.805,4085.775,0,-0.1989658,0.1305571,0.1977073,-0.997368395328522,-0.394303232431412,0.620143055915833,-0.962728579444533,-0.414235212212131,0.595974851798267,0
3.16000366210938,-1.79876351356506,1.56422567367554,2.50910234451294,-2.22455088103183,2.00865428308644,2.51996005559448,2794.016,2842.663,4088.955,0,-0.1992577,0.1319044,0.1964738,-0.991829633712769,-0.388723969459534,0.613828659057617,-0.954174163352092,-0.410554485950274,0.590679260733698,0
3.18000793457031,-1.81849277019501,1.55655419826508,2.52126097679138,-2.24355101420387,2.00047905658478,2.53172204312984,2913.178,2720.379,4064.189,0,-0.1979922,0.1320615,0.1950713,-0.986457049846649,-0.383563697338104,0.607934772968292,-0.945396434568188,-0.406777674475913,0.585245428475253,0
3.19999694824219,-1.83811724185944,1.5489764213562,2.5333297252655,-2.2623590635174,1.99238647840124,2.54336512160655,2862.513,2837.715,3971.205,0,-0.1956742,0.1312149,0.1943176,-0.98122638463974,-0.378890216350555,0.603438079357147,-0.936405971974636,-0.402909329586355,0.579679903854719,0
3.22000122070313,-1.85762703418732,1.54148936271667,2.54528570175171,-2.28099938900442,1.98436606709459,2.55490437104486,2829.432,2894.009,3916.989,0,-0.1931292,0.1294215,0.1946461,-0.975493848323822,-0.374365627765656,0.597796082496643,-0.927192788821982,-0.398945154262308,0.573976504598449,0
3.24000549316406,-1.87701559066772,1.53409647941589,2.5570981502533,-2.29945328359428,1.9764258717947,2.56632821087688,2890.722,2798.531,3926.917,0,-0.1906408,0.1264145,0.1952912,-0.96940815448761,-0.36964014172554,0.59062522649765,-0.91776751470058,-0.394889722119544,0.568141810929231,0
3.25999450683594,-1.89628982543945,1.52679777145386,2.56879162788391,-2.31770268688992,1.96857366338589,2.57762546085652,2832.281,2818.345,3890.3,60.8553,-0.1875803,0.1223871,0.1962623,-0.963710069656372,-0.364924609661102,0.584674060344696,-0.90814153446928,-0.390747931744771,0.562182870617026,0
3.27999877929688,-1.91544771194458,1.51959729194641,2.58035206794739,-2.33577134012187,1.96079922667992,2.58881081793642,2762.075,2893.516,3887.409,40.84296,-0.1843264,0.117483,0.1983688,-0.957902073860168,-0.360043972730637,0.578017055988312,-0.898304216251578,-0.386515208538549,0.556093102023818,0
3.30000305175781,-1.93451142311096,1.5124876499176,2.59185266494751,-2.35364119854729,1.95311032582551,2.59987311156116,2630.606,2938.89,3730.292,275.1694,-0.1791429,0.1123084,0.2010836,-0.953189790248871,-0.355470389127731,0.575027644634247,-0.888267004546666,-0.382196476749158,0.549879589839776,0
3.32000732421875,-1.95345759391785,1.50548601150513,2.60318541526794,-2.37130830610839,1.94550866300381,2.61080989274252,2673.8,2954.324,3804.961,118.71,-0.1744099,0.1064741,0.205186,-0.947305858135223,-0.350082129240036,0.566640853881836,-0.878034183119985,-0.377793579561194,0.543544985919778,0
3.33999633789063,-1.97235238552094,1.49857568740845,2.61459016799927,-2.38875555478454,1.93800159931817,2.62161057080077,2438.178,2992.098,3373.343,758.4551,-0.1650185,0.1014009,0.2082451,-0.944739878177643,-0.345526903867722,0.570233404636383,-0.867618167158097,-0.373311858882592,0.53709697585572,0
3.36000061035156,-1.9910980463028,1.49180281162262,2.62567830085754,-2.406005803634,1.93057929915441,2.6322892965819,2652.994,3093.917,3766.338,0,-0.1600927,0.09539103,0.2141733,-0.937281727790833,-0.338634520769119,0.55440229177475,-0.857007552155826,-0.36874640767338,0.530528499715627,0
3.3800048828125,-2.00988078117371,1.48512125015259,2.6371488571167,-2.42304196557559,1.92324911460621,2.64283549236868,2162.991,3027.312,2676.981,1697.93,-0.1445074,0.09200817,0.2150794,-0.93914520740509,-0.334091305732727,0.573530614376068,-0.846214826007803,-0.364102599125748,0.523847288101157,0
3.40000915527344,-2.02845883369446,1.47860026359558,2.64809465408325,-2.43986044461333,1.91601259293018,2.6532469320683,2155.199,3814.06,3485.293,0,-0.1398032,0.08885273,0.2247903,-0.928892374038696,-0.326037704944611,0.547294139862061,-0.835244706287931,-0.359382463079953,0.517056261415284,0
3.41999816894531,-2.04715585708618,1.47219252586365,2.65969705581665,-2.45644516534361,1.90887665092339,2.66351366424015,2045.388,2765.254,1796.386,2947.651,-0.1180782,0.0899245,0.2216003,-0.934854686260223,-0.320393919944763,0.58011531829834,-0.824110582941664,-0.354591760855451,0.510163708672097,0
3.44000244140625,-2.0655779838562,1.46597623825073,2.67049479484558,-2.47281804716281,1.90183185728196,2.67364925803476,1687.475,4535.714,3161.27,0,-0.1154028,0.09204715,0.2330342,-0.921113073825836,-0.310815066099167,0.539889514446259,-0.812800388649434,-0.349725300221754,0.503162159625937,0
3.46000671386719,-2.08417057991028,1.45993566513062,2.68212556838989,-2.4889630419904,1.89488511704659,2.68364377892579,2149.184,2297.68,1086.277,3998.427,-0.090858,0.09895907,0.2228934,-0.929623544216156,-0.302021384239197,0.581541001796722,-0.801327600455845,-0.344788879974649,0.496059957209413,0
3.47999572753906,-2.10244059562683,1.45411586761475,2.69278049468994,-2.50486489870395,1.88804299234919,2.69348778574196,1220.432,5313.199,2772.27,0,-0.09263913,0.1078039,0.2334277,-0.91349732875824,-0.290992200374603,0.532744884490967,-0.789706299681989,-0.339788558913217,0.488865818431069,0
3.5,-2.12080335617065,1.44855713844299,2.70404005050659,-2.5205447997813,1.88129636896134,2.70319439144611,2564.178,1602.567,1177.413,4110.121,-0.07351124,0.1195918,0.2164983,-0.91813337802887,-0.277941673994064,0.562973916530609,-0.777924000354857,-0.334718964672089,0.481572013878822,0
3.52000427246094,-2.13884472846985,1.44326019287109,2.71444010734558,-2.53598752699493,1.87465179486116,2.71275417523047,1352.214,5278.315,2614.474,0,-0.08065383,0.1328112,0.2193527,-0.902066588401794,-0.264848828315735,0.519999563694,-0.765994882555673,-0.32958619854407,0.474187321698442,0
3.54000854492188,-2.15675020217896,1.43827700614929,2.72476410865784,-2.55119019794619,1.86811051026429,2.72216535275294,3211.059,1208.585,2477.427,2415.672,-0.07835553,0.1443779,0.1992718,-0.895274579524994,-0.249156385660172,0.516200542449951,-0.753924423002452,-0.324392617007921,0.466715132239272,0
3.55999755859375,-2.17436933517456,1.43358790874481,2.73464775085449,-2.56613872308604,1.86167857751006,2.73141920191151,2086.811,4024.355,3104.844,0,-0.08949926,0.15559,0.189152,-0.880964159965515,-0.234449565410614,0.49418306350708,-0.741727567798258,-0.319144650954242,0.459164697851087,0
3.58000183105469,-2.19167017936707,1.42918562889099,2.74399900436401,-2.58085326729328,1.85534732021446,2.74052820572674,3179.581,2032.084,3943.854,0,-0.1045546,0.1628211,0.1738122,-0.865043580532074,-0.220125332474709,0.467557638883591,-0.729391385793765,-0.313836736470737,0.451528013536464,0
3.60000610351563,-2.20871114730835,1.42501986026764,2.75319790840149,-2.59531978247425,1.84912278287974,2.74948366775945,2524.071,2609.107,4011.64,0,-0.1165724,0.1683428,0.1593175,-0.852047502994537,-0.208277881145477,0.459948152303696,-0.716930938559024,-0.308475354130224,0.443814403124743,0
3.6199951171875,-2.225501537323,1.42100930213928,2.76236343383789,-2.60952509409627,1.84301063413925,2.75827743234631,1801.653,3496.298,3766.251,0,-0.1257497,0.1743426,0.1536561,-0.839507699012756,-0.200537294149399,0.458276003599167,-0.704361775018033,-0.303067194200314,0.436033492140578,0
3.63999938964844,-2.24200868606567,1.41711354255676,2.77124691009521,-2.6234885835008,1.83700253474321,2.76692149746096,2156.239,2834.346,3982.553,0,-0.1324475,0.1794442,0.1518134,-0.825371265411377,-0.194779232144356,0.444170206785202,-0.691670720740692,-0.297606588091786,0.428177124984152,0
3.66000366210938,-2.25825977325439,1.41332006454468,2.77986454963684,-2.63719712493647,1.83110413233575,2.77540773763803,2783.689,1994.223,4175.453,0,-0.1340539,0.1816874,0.1465421,-0.812545537948608,-0.189675912261009,0.430876791477203,-0.678873453515702,-0.29210028151913,0.420255006953505,0
3.68000793457031,-2.27430129051208,1.40959548950195,2.78848552703857,-2.65064865588166,1.82531631436231,2.78373487607838,2554.239,2586.718,3801.755,0,-0.1309125,0.1820508,0.1419449,-0.802081644535065,-0.186229556798935,0.431053966283798,-0.665976209205203,-0.286550957599616,0.412270998344358,0
3.69999694824219,-2.29011416435242,1.40591597557068,2.79707598686218,-2.66383127580226,1.81964420129024,2.79189554578451,2240.338,3189.222,3446.65,0,-0.1273492,0.1816527,0.1425838,-0.790642142295837,-0.183968409895897,0.429524838924408,-0.65299527533123,-0.280965624398954,0.404235181908735,0
3.72000122070313,-2.30566167831421,1.40229392051697,2.80538582801819,-2.6767633032417,1.81407991116207,2.79990108680742,2644.703,2579.734,3593.6,0,-0.1251798,0.179143,0.1433933,-0.77738755941391,-0.181101500988007,0.415490984916687,-0.639917282339434,-0.275338529371411,0.396139281255611,0
3.74000549316406,-2.32097744941711,1.39873230457306,2.81353735923767,-2.6894328975087,1.80862853869646,2.80774416919516,2701.701,2319.264,3514.509,288.6218,-0.120654,0.1744965,0.1411527,-0.765791416168213,-0.178101152181625,0.407581984996796,-0.626758665639204,-0.269676744214497,0.387993470686332,0
3.75999450683594,-2.33605575561523,1.39523065090179,2.82152676582336,-2.70182915057228,1.80329477731443,2.81541804035694,2435.292,2915.49,3453.061,0,-0.1176041,0.1683622,0.1417783,-0.753915190696716,-0.175074502825737,0.399466663599014,-0.613536214864365,-0.263987493038594,0.379808143784027,0
3.77999877929688,-2.35089349746704,1.39179635047913,2.82928514480591,-2.7139695770734,1.79807109095524,2.82293354268985,2508.151,2692.605,3544.961,35.97237,-0.1155439,0.160406,0.1435752,-0.741880238056183,-0.17170737683773,0.387918084859848,-0.60023651686137,-0.258265004538452,0.371574997167698,0
3.80000305175781,-2.36553072929382,1.38842236995697,2.83697295188904,-2.72584333814708,1.79296214327972,2.83028396642013,2207.697,2786.09,3321.132,474.5469,-0.1102144,0.1518312,0.1460134,-0.731856167316437,-0.168691292405128,0.384387224912643,-0.586876524285838,-0.252516572968186,0.363304525338741,0
3.82000732421875,-2.37994194030762,1.38512563705444,2.84438562393188,-2.73744929742843,1.78796842323393,2.8374686080838,2311.556,2875.654,3533.35,42.01704,-0.1067288,0.1419366,0.1514476,-0.720559179782867,-0.164835199713707,0.370629817247391,-0.573463232144022,-0.246745208083563,0.355001058539243,0
3.83999633789063,-2.39422416687012,1.38189268112183,2.85196733474731,-2.74877791451009,1.78309403578861,2.84448156171422,1878.786,2854.485,2834.985,1231.831,-0.09453902,0.1331316,0.1551854,-0.714128613471985,-0.161656111478806,0.379086166620255,-0.560014026276881,-0.240958390526246,0.346675359432959,0
3.86000061035156,-2.40827870368958,1.37876212596893,2.85912227630615,-2.75984563331209,1.77833190558438,2.85133300688122,2161.265,3203.858,3367.82,0,-0.08910724,0.1234335,0.1645156,-0.702719032764435,-0.156521007418633,0.357751429080963,-0.546515580872635,-0.235150386571708,0.338319178707605,0
3.8800048828125,-2.42230105400085,1.37572491168976,2.8667893409729,-2.77064299647982,1.77368610185671,2.85801708903178,1631.12,2755.1,1962.359,2471.05,-0.06780728,0.1169545,0.1658804,-0.701128005981445,-0.151870593428612,0.383356273174286,-0.532985466132484,-0.229328756186666,0.329943393154704,0
3.89999389648438,-2.43607425689697,1.37282538414001,2.87378644943237,-2.78116151864576,1.76916027562219,2.86452855531919,1754.434,3954.175,2975.252,0,-0.06189932,0.1107045,0.1786064,-0.688654959201813,-0.144966661930084,0.349850535392761,-0.519441457145543,-0.223501147495394,0.321559006401168,0
3.91999816894531,-2.44989681243896,1.37009143829346,2.88155055046082,-2.79141684911929,1.7647476934202,2.87087709341145,1607.539,2374.129,1025.381,3814.747,-0.0340043,0.1092329,0.174118,-0.691129326820374,-0.136706963181496,0.388210624456406,-0.505870408491346,-0.2176619043907,0.313157880805522,0
3.94000244140625,-2.46344447135925,1.36753511428833,2.88837218284607,-2.8014005971492,1.76045196555656,2.87705750903383,1325.207,4730.113,2565.75,0,-0.03081703,0.1088908,0.1870085,-0.677376091480255,-0.127815827727318,0.341080009937286,-0.492290296490434,-0.211818761581115,0.30475114456651,0
3.96000671386719,-2.47705698013306,1.3652435541153,2.89597630500793,-2.81111265880708,1.75627313674876,2.88306973784971,1866.698,1780.251,575.9222,4570.581,-0.003128149,0.1131432,0.1743738,-0.680627226829529,-0.114568963646889,0.380201995372772,-0.478708875293167,-0.205975055460916,0.29634359787259,0
