t,x_s1,x_s2,x_s3,x_s_d1,x_s_d2,x_s_d3,propellers_rpms1,propellers_rpms2,propellers_rpms3,propellers_rpms4,rollRad,pitchRad,yawRad,v_s1,v_s2,v_s3,v_s_d1,v_s_d2,v_s_d3,insideCount
0,-0.0599999986588955,2.94000005722046,1.17999994754791,-0.0599999986588955,2.94000005722046,1.17999994754791,0,0,0,0,0,0,0,0,0,0,-1.06581410364015E-15,4.44089209850063E-16,4.44089209850063E-16,0
0.019989013671875,-0.0599999986588955,2.94000005722046,1.17729234695435,-0.0600018659130177,2.93999925379318,1.18000110346716,0,0,0,0,0.0163538,-0.002474609,-2.024222E-05,3.71994488546079E-08,3.50004931704007E-08,-0.135377958416939,-0.000279680311988734,-0.000120338624884473,0.000173135436141649,5
0.03997802734375,-0.0599999986588955,2.94000005722046,1.17105865478516,-0.060014847005691,2.93999366839165,1.1800091393819,0,0,0,0,0.03270752,-0.004950816,-5.430172E-05,3.48044650877455E-08,3.30428591155396E-08,-0.311683237552643,-0.00110975851463131,-0.000477498085781228,0.000686993385685745,6
0.05999755859375,-0.0600004307925701,2.94013142585754,1.16552245616913,-0.0600498857373401,2.93997859220429,1.18003083002592,3161.665,2810.177,1469.483,2738.809,0.03139236,-0.004977448,-0.01632784,-2.15872878470691E-05,0.00656332680955529,-0.276811391115189,-0.00247936261166862,-0.00106680046642749,0.00153484356504269,6
0.079986572265625,-0.0599182620644569,2.94037842750549,1.16100025177002,-0.0601174907153006,2.93994950367094,1.18007268072775,3029.263,3012.096,2083.188,1978.987,0.01921124,-0.004420847,-0.04309367,0.00410851323977113,0.012350045144558,-0.226107984781265,-0.00437104534358026,-0.00188073869847162,0.00270588528944111,6
0.100006103515625,-0.0596519410610199,2.94066071510315,1.15742897987366,-0.0602282404704493,2.93990185114529,1.18014124010193,2572.313,3764.024,2528.687,1069.723,-0.005658685,-0.003073821,-0.06910424,0.0133159887045622,0.0141149908304214,-0.178566589951515,-0.00677739276378709,-0.00291612276782231,0.00419552897277328,6
0.1199951171875,-0.0591362826526165,2.94084787368774,1.154620885849,-0.0603918861403606,2.93983143898525,1.18024254456713,1990.33,4004.085,3075.371,694.503,-0.03991492,-0.0007073356,-0.08794077,0.0257830172777176,0.0093612065538764,-0.140403687953949,-0.00967801353495435,-0.00416417885169243,0.00599115140585487,5
0.139984130859375,-0.0583611130714417,2.94078660011292,1.15244722366333,-0.0606183773949454,2.93973398612584,1.18038275344299,1380.745,3937.031,3641.433,664.2089,-0.07575255,0.002034552,-0.09641122,0.0387584492564201,-0.00306185334920883,-0.108684659004211,-0.0130632593357409,-0.00562075554695178,0.00808677981816243,4
0.160003662109375,-0.0573621988296509,2.94033217430115,1.15091979503632,-0.0609177895434042,2.93960515744296,1.18056810382587,1009.349,3669.045,3950.476,872.5278,-0.1041221,0.003834567,-0.09478563,0.0499456934630871,-0.0227207988500595,-0.0763744115829468,-0.0169265510445065,-0.00728302204135792,0.0104783414199936,4
0.17999267578125,-0.0561951473355293,2.93938517570496,1.15012383460999,-0.0612985250199726,2.93944133760391,1.18080379722281,1012.17,3363.156,3834.943,1160.566,-0.1193442,0.003850442,-0.08597376,0.058352567255497,-0.0473505295813084,-0.0397996678948402,-0.0212433804254414,-0.00914043312572283,0.0131506644458931,3
0.199981689453125,-0.0549091175198555,2.93791794776917,1.1501100063324,-0.0617700327574899,2.93923846099686,1.18109568297336,1332.224,3133.375,3353.651,1401.77,-0.1214098,0.002340606,-0.07415412,0.0643015131354332,-0.0733595788478851,-0.000694055110216141,-0.0260066742439309,-0.011189945384795,0.0160993702266893,3
0.220001220703125,-0.0535362288355827,2.93597269058228,1.15082955360413,-0.0623420644491781,2.93899233174064,1.18144979784016,1789.932,3014.343,2724.241,1533.742,-0.1151135,0.0002799176,-0.06327511,0.0686444342136383,-0.0972628369927406,0.0359769240021706,-0.03121219533433,-0.0134297356845702,0.019321835755004,3
0.239990234375,-0.0520961955189705,2.93363213539124,1.15212392807007,-0.0630214373585105,2.93870001655724,1.18187036203406,2173.005,2982.827,2211.968,1546.386,-0.1071491,-0.001340103,-0.05581506,0.0720016285777092,-0.117025688290596,0.0647205635905266,-0.0368316683029241,-0.015847637913056,0.022800557215184,3
0.259979248046875,-0.0506041087210178,2.93098092079163,1.15377128124237,-0.0638172488896441,2.93835760108779,1.18236300728159,2346.516,2985.935,2005.538,1459.78,-0.1029088,-0.001919074,-0.05235615,0.074604295194149,-0.132564470171928,0.0823682844638824,-0.0428604193878216,-0.0184416410810803,0.0265326413259761,3
0.279998779296875,-0.0490743592381477,2.92807555198669,1.15557205677032,-0.0647390625194898,2.93796097043536,1.18293365383054,2308.358,2995.22,2123.251,1299.717,-0.1047091,-0.001324124,-0.05185334,0.0764875039458275,-0.145268976688385,0.0900386199355125,-0.0492963837173861,-0.0212108567320638,0.030516809833474,3
0.29998779296875,-0.0475227981805801,2.92493557929993,1.1574113368988,-0.0657918945890516,2.93750796620855,1.18358540703494,2139.216,3011.589,2441.127,1105.15,-0.1118714,0.000195917,-0.05228318,0.0775781571865082,-0.156994551420212,0.091961994767189,-0.0561078595514081,-0.0241416444928383,0.0347334378503248,3
0.32000732421875,-0.0459694638848305,2.92155075073242,1.15926587581635,-0.0669865614821475,2.93699393441958,1.18432496275165,1941.835,3019.973,2793.275,937.3964,-0.1218252,0.002154542,-0.05160833,0.0776664912700653,-0.169242084026337,0.0927275642752647,-0.0633036493784043,-0.0272377918282996,0.0391879745362408,3
0.339996337890625,-0.0444396287202835,2.91789555549622,1.16117644309998,-0.068326768706371,2.93641728069206,1.18515461486636,1804.907,3000.271,3047.112,842.3891,-0.131509,0.004015583,-0.04861867,0.0764919966459274,-0.182758361101151,0.0955268815159798,-0.0708499516420146,-0.0304847548730522,0.0438594951176439,3
0.3599853515625,-0.0429613217711449,2.91394662857056,1.16320312023163,-0.0698213312158394,2.93577421219747,1.18607982025561,1755.783,2956.704,3149.272,829.6248,-0.1385126,0.005409569,-0.04314481,0.0739151909947395,-0.197441264986992,0.101334862411022,-0.0787457139191101,-0.0338820807988248,0.0487473480944833,3
0.3800048828125,-0.0415609925985336,2.90969395637512,1.16540133953094,-0.0714797725314022,2.93506063123087,1.18710647443246,1802.29,2903.995,3097.243,876.4679,-0.1417388,0.006226342,-0.03593616,0.0700167044997215,-0.212632641196251,0.10991308093071,-0.0869921272359981,-0.0374302820709642,0.0538522707687797,3
0.399993896484375,-0.0402596779167652,2.90514588356018,1.16779780387878,-0.0733036822025899,2.9342758538535,1.18823556140379,1910.64,2871.686,2944.342,935.0436,-0.1416679,0.006601414,-0.02807984,0.0650656819343567,-0.227404892444611,0.119825430214405,-0.0955525119207663,-0.0411135764513579,0.0591515566763244,3
0.41998291015625,-0.0390725657343864,2.9003267288208,1.17038190364838,-0.075301871434707,2.93341608884986,1.18947253572543,2023.945,2858.339,2770.837,988.346,-0.1397233,0.006793905,-0.02059156,0.0593554824590683,-0.240957871079445,0.129203781485558,-0.104427768518458,-0.0449323514193797,0.064645763297398,3
0.44000244140625,-0.0380106158554554,2.89526867866516,1.17311775684357,-0.077483988232608,2.93247718495301,1.19082336997196,2110.459,2857.862,2639.416,1018.053,-0.1375448,0.007042738,-0.01415417,0.0530977472662926,-0.252903699874878,0.136793881654739,-0.113620829717891,-0.048887868829098,0.0703367061060819,3
0.459991455078125,-0.0370824038982391,2.89000368118286,1.17595732212067,-0.0798493430620752,2.93145943885026,1.19228763728888,2149.999,2868.261,2589.942,1010.35,-0.1364593,0.007496567,-0.008930111,0.0464105233550072,-0.263253420591354,0.141976252198219,-0.123092454730403,-0.0529632444654124,0.0762000931848968,3
0.47998046875,-0.0362962260842323,2.88455700874329,1.1788569688797,-0.082406855753501,2.93035901258777,1.1938708594761,2139.412,2876.952,2626.844,978.3091,-0.1370068,0.008197533,-0.004674913,0.0393089093267918,-0.272332459688187,0.144985243678093,-0.132845337826091,-0.057159637597476,0.0822375924153778,4
0.5,-0.0356614179909229,2.87894439697266,1.181795835495,-0.085166398670376,2.92917165836334,1.1955791479969,2108.109,2882.452,2714.048,929.3798,-0.1390223,0.0090875,-0.0009400959,0.0317401885986328,-0.280625253915787,0.146941155195236,-0.142884000065179,-0.0614789935111996,0.0884520025491718,4
0.519989013671875,-0.0351884178817272,2.87317371368408,1.18477153778076,-0.0881248588203387,2.92789871561062,1.19741057576073,2074.783,2889.288,2816.361,871.2999,-0.1419944,0.01006152,0.002802166,0.0236503761261702,-0.288533478975296,0.148787274956703,-0.153166947611899,-0.0659034585682559,0.0948176369253132,4
0.53997802734375,-0.0348887480795383,2.86724758148193,1.18779480457306,-0.0912913676125048,2.92653625533937,1.19937079554481,2045.351,2886.637,2906.512,832.8938,-0.1451551,0.01101676,0.006908895,0.0149834956973791,-0.296312272548676,0.151165783405304,-0.16369851368286,-0.0704348972306956,0.101337178011302,4
0.55999755859375,-0.0347744971513748,2.86116600036621,1.1908882856369,-0.094676112580471,2.92507989413848,1.20146611391775,2040.616,2878.787,2956.524,815.3322,-0.147823,0.01187148,0.01146757,0.0057123638689518,-0.304077237844467,0.154676303267479,-0.17448465888317,-0.0750758741803766,0.108014315705644,4
0.579986572265625,-0.0348565578460693,2.85493111610413,1.19407212734222,-0.0982734311149,2.92353206847056,1.2036930254546,2058.928,2877.265,2967.298,805.604,-0.1497442,0.01259208,0.01642734,-0.00410298258066177,-0.31174772977829,0.159191012382507,-0.185481935470438,-0.0798076950675377,0.114822153786096,4
0.600006103515625,-0.0351441018283367,2.84854769706726,1.19735789299011,-0.102098762959148,2.92188613504538,1.20606108809202,2082.436,2873.702,2953.7,815.4112,-0.1508803,0.01319788,0.02158492,-0.0143772587180138,-0.319165885448456,0.16428729891777,-0.196713446836865,-0.0846403006364086,0.121774994352997,4
0.6199951171875,-0.0356446504592896,2.84202337265015,1.20075488090515,-0.106144683970236,2.92014528826426,1.20856570593183,2117.946,2873.685,2920.041,829.8731,-0.1514423,0.01372621,0.02666235,-0.0250274278223515,-0.326215803623199,0.169852063059807,-0.208134604141382,-0.0895545055543457,0.128845234789665,4
0.639984130859375,-0.0363631844520569,2.83536863327026,1.204256772995,-0.110420882305709,2.91830535958365,1.21121287640506,2144.43,2883.481,2899.638,829.7173,-0.1518801,0.01422894,0.03155498,-0.0359269715845585,-0.332735598087311,0.175097450613976,-0.219752140575416,-0.0945532069255159,0.136037043262338,4
0.660003662109375,-0.0373043827712536,2.82859349250793,1.20786213874817,-0.114938248900541,2.91636166293851,1.21400934151928,2163.8,2883.792,2885.385,842.8292,-0.1523807,0.01474568,0.03607706,-0.0470597296953201,-0.338762402534485,0.180268302559853,-0.231574097577923,-0.0996398647564507,0.143355397804799,4
0.67999267578125,-0.0384713970124722,2.8217077255249,1.21156251430511,-0.119686638739014,2.91431856344567,1.21694882102647,2180.484,2898.269,2893.579,823.0471,-0.153324,0.01529224,0.04031146,-0.0583512000739574,-0.344294339418411,0.185017570853233,-0.243554411173546,-0.104794659005432,0.150771782621969,4
0.699981689453125,-0.0398677177727222,2.8147189617157,1.21535193920135,-0.124676182095571,2.91217170233105,1.22003758604909,2178.731,2899.535,2921.574,817.4599,-0.1546652,0.01588094,0.04429548,-0.0698156505823135,-0.349434494972229,0.189468681812286,-0.25570106256044,-0.110021023759057,0.158291138455704,4
0.720001220703125,-0.0414973087608814,2.80763268470764,1.21923208236694,-0.129918284978346,2.90991617190799,1.22328269744952,2182.463,2903.224,2954.522,801.0428,-0.1563078,0.016498,0.04811426,-0.0814791768789291,-0.354311555624008,0.194009512662888,-0.268023157655716,-0.11532287703907,0.16591910230247,4
0.739990234375,-0.0433640033006668,2.80045247077942,1.22320675849915,-0.135400001298574,2.90755754251682,1.2266761409821,2190,2909.761,2988.002,777.9844,-0.1581907,0.01712182,0.05188651,-0.0933351665735245,-0.359007686376572,0.198735728859901,-0.280473432677602,-0.12067988256057,0.173626415629864,5
0.759979248046875,-0.0454715825617313,2.79318118095398,1.22727835178375,-0.141131974150567,2.90509123473139,1.23022450522921,2191.352,2910.544,3023.953,764.4477,-0.1601295,0.01774406,0.05568164,-0.105378873646259,-0.363566905260086,0.203582227230072,-0.293060978423328,-0.126095951839638,0.181418706074426,5
0.779998779296875,-0.0478244237601757,2.78581976890564,1.23145794868469,-0.147126184485884,2.90251209348295,1.23393520697061,2202.56,2909.245,3043.816,760.0976,-0.1619133,0.01835447,0.05945843,-0.117641493678093,-0.368067115545273,0.20897701382637,-0.305795832832518,-0.131575403921268,0.189302187598958,5
0.79998779296875,-0.0504254885017872,2.77837038040161,1.23575043678284,-0.153366821193532,2.89982692185086,1.2377984583754,2222.845,2918.424,3058.167,740.5836,-0.163647,0.01894181,0.0632647,-0.13005368411541,-0.372471958398819,0.214622363448143,-0.318629798715703,-0.137097500901303,0.197247023847227,5
0.82000732421875,-0.0532773621380329,2.77083492279053,1.24015808105469,-0.159875221826383,2.89702653888221,1.24182746840525,2232.377,2918.099,3072.153,741.6454,-0.1652534,0.01952027,0.06704032,-0.142593890428543,-0.376767218112946,0.220382511615753,-0.331592781842754,-0.14267511039705,0.205271727915392,5
0.839996337890625,-0.0563826523721218,2.76321530342102,1.24468863010406,-0.166633637018892,2.89411858163313,1.24601124935738,2252.876,2921.81,3074.311,740.3821,-0.1667565,0.02009447,0.07070331,-0.155265092849731,-0.380983412265778,0.226530432701111,-0.344636106234817,-0.148287288494656,0.213346167053785,5
0.8599853515625,-0.0597419105470181,2.7555148601532,1.24933612346649,-0.173653699721778,2.89109804476993,1.25035700258242,2267.163,2931.323,3092.99,721.7245,-0.1683602,0.02066866,0.07432782,-0.167962968349457,-0.385026663541794,0.232372149825096,-0.357770416714212,-0.153938615363784,0.221476930914505,5
0.8800048828125,-0.0633575171232224,2.74773454666138,1.25410950183868,-0.180948461186242,2.88795931270381,1.25487280742661,2278.341,2927.176,3097.64,736.2722,-0.1698713,0.02126163,0.07775272,-0.180780053138733,-0.389013141393661,0.238666385412216,-0.371007022483504,-0.159633957038354,0.229671020432672,5
0.899993896484375,-0.0672292560338974,2.73987746238708,1.25900340080261,-0.18849723509595,2.8847112861788,1.25954585807468,2301.092,2943.932,3117.348,701.6885,-0.1716498,0.02185602,0.08113658,-0.193586379289627,-0.392854958772659,0.244693547487259,-0.384296738353309,-0.165352150505452,0.237897987633041,5
0.91998291015625,-0.0713583528995514,2.73194479942322,1.26401996612549,-0.196312316554895,2.88134867495511,1.26438376578173,2302.143,2937.856,3137.557,712.8513,-0.1734442,0.02247657,0.08437922,-0.206455126404762,-0.396635830402374,0.250825971364975,-0.397650971463704,-0.171098103938772,0.246164894078718,5
0.94000244140625,-0.0757455229759216,2.72393774986267,1.26916003227234,-0.204407453948074,2.87786556348678,1.26939504145298,2319.082,2945.467,3160.397,691.7536,-0.1753388,0.02311032,0.08755036,-0.219358593225479,-0.400357842445374,0.257006227970123,-0.411081631631503,-0.176876941799768,0.254479112513653,5
0.959991455078125,-0.0803918540477753,2.71585631370544,1.27442896366119,-0.212759000778906,2.87427212620069,1.27456504678061,2333.965,2948.871,3176.584,684.1343,-0.1772893,0.02375639,0.09063465,-0.232317417860031,-0.404076367616653,0.263448178768158,-0.424539267042903,-0.182667386354485,0.262810029909387,5
0.97998046875,-0.0852969884872437,2.70770168304443,1.27982115745544,-0.221379956358585,2.87056276985637,1.27990182895749,2343.815,2953.686,3208.177,663.6769,-0.1793522,0.02441112,0.09372038,-0.245255678892136,-0.407730549573898,0.269609898328781,-0.438035925118965,-0.188474621271639,0.271165104193453,5
1,-0.0904630422592163,2.69947266578674,1.28534841537476,-0.230284798736574,2.86673126495361,1.28541435058594,2354.528,2948.805,3219.187,674.7704,-0.1812462,0.02508921,0.09666822,-0.258302837610245,-0.411453068256378,0.276361465454102,-0.451584000205995,-0.194303979492187,0.279552008056641,5
1.01998901367188,-0.0958890169858932,2.69116997718811,1.29100608825684,-0.239446912293295,2.86278906344998,1.29108613532954,2380.817,2964.611,3242.399,635.1125,-0.1833224,0.02575973,0.09964839,-0.271298199892044,-0.41512992978096,0.282881408929825,-0.46513400752272,-0.200134169097193,0.287940108062054,5
1.03997802734375,-0.101575747132301,2.68279314041138,1.29679846763611,-0.248880035413094,2.85873025410248,1.29692568790267,2382.986,2956.755,3259.462,650.9307,-0.185275,0.02645498,0.1025221,-0.284337669610977,-0.418840736150742,0.289621561765671,-0.478698517198992,-0.205970598662363,0.296337185718871,5
1.05999755859375,-0.107522964477539,2.67434239387512,1.30272555351257,-0.258599401509697,2.85454828239877,1.30294243851408,2404.82,2965.388,3279.444,626.98,-0.1872612,0.02715705,0.1053592,-0.297359645366669,-0.422542214393616,0.296352088451385,-0.492290296490434,-0.211818761581115,0.30475114456651,5
1.07998657226563,-0.11373108625412,2.66581654548645,1.30879342556,-0.268575430648764,2.85025587575821,1.30911807577533,2421.165,2967.832,3288.719,626.1617,-0.1892245,0.0278741,0.1080963,-0.310406774282455,-0.426292985677719,0.303393512964249,-0.50586005237609,-0.217657448443621,0.313151469876847,5
1.10000610351563,-0.120198011398315,2.65721702575684,1.31499207019806,-0.278838480013141,2.84583997233313,1.31547139222872,2434.59,2974.219,3320.876,599.8029,-0.1913359,0.02859591,0.1108475,-0.323347628116608,-0.429974406957626,0.309934228658676,-0.519441457145546,-0.223501147495394,0.321559006401169,5
1.1199951171875,-0.126926153898239,2.64854121208191,1.32133805751801,-0.289357002179081,2.84131414609862,1.32198285851614,2445.579,2968.326,3321.101,623.321,-0.1932384,0.0293544,0.1133983,-0.336406737565994,-0.433791220188141,0.317300498485565,-0.532985466132485,-0.229328756186667,0.329943393154705,5
1.13998413085938,-0.133910953998566,2.6397922039032,1.32780992984772,-0.300146026259498,2.83667193044725,1.3286617783744,2470.126,2986.144,3367.463,558.9144,-0.1955042,0.03009447,0.1160807,-0.349238753318787,-0.437453120946884,0.323596358299255,-0.546505271550557,-0.235145950758426,0.338312796746137,5
1.16000366210938,-0.141157075762749,2.63096523284912,1.33443570137024,-0.311222084148811,2.83190621216671,1.33551838583369,2466.318,2966.184,3357.97,622.4727,-0.1972902,0.03089812,0.118457,-0.362306863069534,-0.441346496343613,0.331290245056152,-0.560014026276883,-0.240958390526247,0.34667535943296,6
1.17999267578125,-0.148658126592636,2.62206435203552,1.34118807315826,-0.322550701230474,2.8270318247214,1.34253133946411,2512.006,2999.678,3406.009,518.4825,-0.1996604,0.0316529,0.1210597,-0.37505242228508,-0.4450404047966,0.337618559598923,-0.573463232144024,-0.246745208083563,0.355001058539242,6
1.19998168945313,-0.156419172883034,2.61308455467224,1.34809517860413,-0.334147705564643,2.8220419577392,1.34971043758889,2490.96,2969.008,3397.305,609.3286,-0.201458,0.03248702,0.1233265,-0.388053119182587,-0.44898596405983,0.345355093479156,-0.586866312357874,-0.25251217906087,0.363298203668868,6
1.22000122070313,-0.16443307697773,2.60403060913086,1.35512626171112,-0.346030421585499,2.81692915700008,1.35706640485806,2540.015,3002.573,3453.33,493.5975,-0.203824,0.0332677,0.1258425,-0.40069454908371,-0.452696055173874,0.351553857326508,-0.600236516861372,-0.258265004538453,0.371574997167698,6
1.239990234375,-0.172707259654999,2.59489512443542,1.36232352256775,-0.358161486344149,2.81170949873715,1.36457611182642,2524.289,2974.108,3422.554,600.1913,-0.2054954,0.03413887,0.1279409,-0.413710117340088,-0.456773012876511,0.359862565994263,-0.613526094901141,-0.263983138701136,0.379801879044709,6
1.25997924804688,-0.181229382753372,2.58568692207336,1.36963105201721,-0.370557537648727,2.80637582416637,1.37224985808977,2578.146,3015.402,3508.33,439.1712,-0.2080989,0.03491493,0.1304808,-0.426105439662933,-0.46041551232338,0.365379184484482,-0.626748599474006,-0.269672413024826,0.387987239250554,6
1.27999877929688,-0.190013229846954,2.57639384269714,1.37711954116821,-0.383236695417198,2.80092033679326,1.3800988607405,2536.264,2963.964,3448.089,627.7372,-0.2094278,0.0358504,0.1323406,-0.439192801713943,-0.464654326438904,0.374425888061523,-0.639917282339435,-0.275338529371412,0.396139281255613,6
1.29998779296875,-0.199039742350578,2.56702923774719,1.38470637798309,-0.396158759015336,2.79536033382764,1.388098233671,2632.48,3036.521,3559.399,363.8231,-0.2122981,0.03660835,0.1349192,-0.45132651925087,-0.468225181102753,0.379344820976257,-0.652985332144132,-0.280961346123326,0.404229026602261,6
1.32000732421875,-0.208329156041145,2.55757665634155,1.39248895645142,-0.409361504843077,2.78967956113998,1.39627136227237,2547.68,2956.006,3468.47,658.1691,-0.2133378,0.03760358,0.1365515,-0.464470237493515,-0.472631335258484,0.389129459857941,-0.6659860834168,-0.286555206197011,0.41227711095171,6
1.33999633789063,-0.217854142189026,2.54805564880371,1.40034925937653,-0.422802873722428,2.78389611561957,1.40459220990988,2681.071,3053.314,3623.169,284.6552,-0.2165347,0.03833599,0.1392106,-0.476250410079956,-0.47605437040329,0.393015176057816,-0.678873453515705,-0.29210028151913,0.420255006953505,6
1.3599853515625,-0.227645888924599,2.53844118118286,1.40843212604523,-0.436500861174643,2.77800225429635,1.41307191666844,2553.8,2943.448,3475.568,712.7712,-0.2170615,0.0394173,0.1405213,-0.489586591720581,-0.480720728635788,0.404145747423172,-0.69166099897751,-0.297602405088682,0.428171106749628,6
1.3800048828125,-0.237661898136139,2.52876472473145,1.4165540933609,-0.450474904562636,2.77198961381608,1.4217225152016,2741.936,3078.232,3710.926,158.3323,-0.2208325,0.0400802,0.1434207,-0.500801742076874,-0.483819305896759,0.406096249818802,-0.704361775018035,-0.303067194200314,0.436033492140578,7
1.39999389648438,-0.247955173254013,2.51898455619812,1.42495620250702,-0.464680216184654,2.76587746507559,1.43051627978847,2542.846,2920.114,3441.061,839.251,-0.2203665,0.04130735,0.1441848,-0.514664590358734,-0.489003241062164,0.420105755329132,-0.716930938559026,-0.308475354130225,0.443814403124744,7
1.41998291015625,-0.258455783128738,2.50915026664734,1.433345079422,-0.479135601808478,2.75965771647838,1.43946485209513,2777.758,3172.734,3781.963,0,-0.2249359,0.04203341,0.1477558,-0.525027930736542,-0.491716742515564,0.419442474842072,-0.729381927869995,-0.313832666990362,0.451522158631107,7
1.44000244140625,-0.269244939088821,2.49920177459717,1.44207096099854,-0.493861275572861,2.75332167044526,1.4485807456364,2518.393,2855.507,3388.818,1037.07,-0.2231607,0.0436026,0.1478475,-0.539458990097046,-0.497423946857452,0.436297059059143,-0.741727567798258,-0.319144650954242,0.459164697851088,7
1.45999145507813,-0.280232727527618,2.4891951084137,1.4507896900177,-0.508809800712713,2.74688973769103,1.45783459479497,2700.343,3370.689,3707.317,0,-0.2273626,0.04506647,0.1521183,-0.549385964870453,-0.500337839126587,0.435936123132706,-0.753924423002454,-0.324392617007921,0.466715132239272,7
1.47998046875,-0.291495770215988,2.47908282279968,1.45979952812195,-0.524000783579472,2.74035348215039,1.46723853683636,2615.624,2771.71,3404.005,1051.828,-0.2258467,0.04720861,0.1519336,-0.563153982162476,-0.50560861825943,0.450494825839996,-0.76598572865452,-0.329582259876133,0.474181654997567,7
1.5,-0.30295130610466,2.46892142295837,1.46878349781036,-0.539455198877605,2.73370387899399,1.4768055561018,2789.585,3274.027,3766.873,0,-0.2301967,0.0490389,0.1550236,-0.572777152061462,-0.508066773414612,0.449195921421051,-0.777924000354858,-0.334718964672088,0.481572013878822,7
1.51998901367188,-0.31467878818512,2.45866131782532,1.47805786132813,-0.555123050061237,2.72696244033876,1.48650470234772,2686.207,2782.644,3470.398,956.2319,-0.2293344,0.05139308,0.1539246,-0.586374938488007,-0.513005316257477,0.46371728181839,-0.789697369743256,-0.339784716610053,0.488860290373601,7
1.53997802734375,-0.32659637928009,2.44834995269775,1.48733055591583,-0.571024729446907,2.7201203919406,1.49634859938949,2750.429,3348.013,3781.173,0,-0.2339507,0.0536351,0.1566665,-0.595879256725311,-0.515570461750031,0.463635295629501,-0.801318788528229,-0.344785088448372,0.496054502206448,7
1.55999755859375,-0.338767766952515,2.43795013427734,1.49683582782745,-0.587181951496087,2.71316839067337,1.50635068951315,2763.986,2761.075,3602.866,805.8504,-0.2343864,0.05612792,0.1556109,-0.608570575714111,-0.519985258579254,0.47526341676712,-0.812800388649436,-0.349725300221754,0.503162159625937,7
1.57998657226563,-0.351131618022919,2.42749810218811,1.50635600090027,-0.603542258451077,2.7061290076447,1.51647849886779,2834.671,3213.96,3880.162,0,-0.2390618,0.0582998,0.1573377,-0.6181920170784,-0.522596955299377,0.476010113954544,-0.82410201904291,-0.354588076049064,0.510158407210813,7
1.60000610351563,-0.363740265369415,2.41696095466614,1.51608610153198,-0.620152298932711,2.69898217125626,1.52676090517188,2812.188,2803.071,3747.382,612.4798,-0.2403087,0.06053379,0.156372,-0.630435049533844,-0.526863038539886,0.486503899097443,-0.835253140422976,-0.35938609205264,0.51706148254665,7
1.6199951171875,-0.376546114683151,2.40636229515076,1.52586615085602,-0.636958033083316,2.69175113334911,1.53716445517924,2853.362,3175.415,3944.618,0,-0.2445655,0.06246251,0.1579246,-0.640290796756744,-0.529931783676147,0.489000499248505,-0.846214826007804,-0.364102599125749,0.523847288101157,7
1.63998413085938,-0.389586359262466,2.39567708969116,1.53583121299744,-0.653981118189727,2.68442657539777,1.54770255578211,2857.284,2838.327,3853.064,461.3864,-0.2461325,0.06431707,0.1576322,-0.652013123035431,-0.534258365631104,0.498252123594284,-0.856999388527105,-0.368742895092007,0.53052344604056,7
1.66000366210938,-0.402824819087982,2.38492465019226,1.54585754871368,-0.671244443874359,2.67699864863716,1.55838937674714,2909.174,3087.657,4016.818,0,-0.2497512,0.06576537,0.1591727,-0.661922693252563,-0.53762412071228,0.501316070556641,-0.867618167158098,-0.373311858882592,0.53709697585572,7
1.67999267578125,-0.416297286748886,2.37407779693604,1.55608415603638,-0.688691692550512,2.66949158495151,1.56919005480539,2874.905,2886.199,3880.793,407.0042,-0.2507372,0.06718309,0.1593508,-0.673620104789734,-0.542347013950348,0.511329174041748,-0.878034183119987,-0.377793579561193,0.543544985919778,7
1.69998168945313,-0.429963529109955,2.36315751075745,1.5663765668869,-0.706345246291743,2.66189575395985,1.5801184455266,2910.956,3118.298,4020.909,0,-0.2537034,0.06830026,0.1615218,-0.683313250541687,-0.546010792255402,0.514620721340179,-0.88825927318574,-0.382193150160541,0.549874803759068,8
1.72000122070313,-0.443859279155731,2.35213947296143,1.57686805725098,-0.724228658537036,2.6542010212754,1.5911891296115,2884.397,2893.205,3874.145,434.2289,-0.2539335,0.06948113,0.16217,-0.69478964805603,-0.550904214382172,0.524574816226959,-0.898304216251578,-0.386515208538549,0.556093102023817,8
1.739990234375,-0.457943171262741,2.34104895591736,1.58741903305054,-0.74228345468553,2.64643254688532,1.60236590849663,2959.214,3111.121,4018.71,0,-0.2564214,0.07033537,0.1645591,-0.704195439815521,-0.554522395133972,0.527549803256989,-0.908134108040217,-0.390744736359816,0.562178273303667,8
1.75997924804688,-0.472253203392029,2.32986211776733,1.5981696844101,-0.760532711099173,2.63858040167573,1.61366306754931,2894.117,2910.003,3863.892,458.9108,-0.2561854,0.07134617,0.1653233,-0.715501606464386,-0.559340119361877,0.537533462047577,-0.917760245372929,-0.394886594330938,0.568137310869129,8
1.77999877929688,-0.486744582653046,2.31860852241516,1.60896897315979,-0.779000609654483,2.63063418086074,1.62509557650306,2969.435,3132.919,4026.753,0,-0.2584406,0.07208395,0.167897,-0.724569499492645,-0.562681794166565,0.539967060089111,-0.927192788821983,-0.398945154262308,0.57397650459845,8
1.79998779296875,-0.501461684703827,2.3072612285614,1.61997878551483,-0.797626646773287,2.62261991743975,1.63662598076079,2910.294,2917.876,3844.528,496.6796,-0.2578286,0.07306105,0.1685901,-0.735855400562286,-0.567364573478699,0.550493538379669,-0.936399026186941,-0.402906341007953,0.579675604081262,8
1.82000732421875,-0.516352415084839,2.29585409164429,1.63102495670319,-0.816463410111527,2.61451498441355,1.64828683458664,2958.443,3180.333,4029.495,0,-0.2600167,0.07387264,0.1713867,-0.744537472724915,-0.570352554321289,0.552309036254883,-0.94540321420156,-0.406780591562751,0.585249625391268,8
1.83999633789063,-0.531466603279114,2.2843599319458,1.64228141307831,-0.835449117627072,2.60634596486888,1.66003989195343,2930.286,2901.561,3844.197,534.0799,-0.2591426,0.07496479,0.1719089,-0.755709528923035,-0.574705898761749,0.562825560569763,-0.954174163352093,-0.410554485950274,0.590679260733698,8
1.8599853515625,-0.546749234199524,2.27281427383423,1.65356826782227,-0.854607925216182,2.59810246519841,1.67190010651166,2965.294,3203.244,4039.017,0,-0.2612129,0.07593977,0.1746207,-0.76413482427597,-0.577282309532166,0.564345836639404,-0.962722140342816,-0.41423244164655,0.595970865687568,8
1.8800048828125,-0.562250196933746,2.26119232177734,1.66505360603333,-0.873964974649439,2.58977366760063,1.68388304221498,2965.32,2888.073,3876.285,517.8746,-0.2603645,0.07714368,0.1749205,-0.775041282176971,-0.581087231636047,0.574264407157898,-0.971056158224177,-0.417818336715394,0.601130019760457,8
1.89999389648438,-0.577918112277985,2.2495265007019,1.67657685279846,-0.893456683142228,2.58138692997148,1.69594933829086,2994.302,3199.102,4051.865,0,-0.2623491,0.07821423,0.1772568,-0.783395826816559,-0.583297967910767,0.576159834861755,-0.979147395688901,-0.421299770153459,0.606138881190213,8
1.91998291015625,-0.59379380941391,2.23779821395874,1.68827140331268,-0.91310780215452,2.5729316024492,1.70811431707208,3007.841,2892.087,3941.927,437.3457,-0.2620087,0.07938553,0.1774732,-0.793787717819214,-0.586418986320496,0.584730088710785,-0.98700543065471,-0.424680863071164,0.611003379164165,9
1.94000244140625,-0.609835982322693,2.22603368759155,1.70000851154327,-0.932943991899774,2.5643966441608,1.72039386345315,3023.575,3152.28,4103.086,0,-0.2639203,0.08036783,0.1793576,-0.802105784416199,-0.588227272033691,0.586853802204132,-0.994638524886308,-0.427965170275055,0.615728628108227,9
1.95999145507813,-0.626080989837646,2.21421480178833,1.71191203594208,-0.952900013794853,2.55581012544606,1.73274759164336,3038.741,2915.362,3995.706,358.3274,-0.2638212,0.08137668,0.1795566,-0.812252283096313,-0.590942859649658,0.595177292823792,-1.00202031904361,-0.431141350077486,0.620298310335216,9
1.97998046875,-0.642490088939667,2.20236372947693,1.72386431694031,-0.973001172086935,2.54716115859433,1.74519116617712,3019.233,3154.669,4132.216,0,-0.2655337,0.08225367,0.1814574,-0.820455312728882,-0.592555046081543,0.597617089748383,-1.0091596546337,-0.434213206731958,0.624717899159203,9
2,-0.659094214439392,2.19046592712402,1.73596751689911,-0.993273599084619,2.53843849960327,1.7577407641983,3057.251,2917.173,4045.361,311.1743,-0.2653723,0.08311241,0.1818731,-0.830204784870148,-0.594892501831055,0.605158090591431,-1.01606400046349,-0.437183953857422,0.628992018127441,9
2.01998901367188,-0.675861239433289,2.17853951454163,1.74812817573547,-1.01365055070775,2.52967086658596,1.77035506794184,3059.743,3120.429,4150.744,0,-0.2666943,0.08377822,0.1836344,-0.838353633880615,-0.596323907375336,0.608034372329712,-1.02270954399163,-0.440043345582587,0.633105926142498,9
2.03997802734375,-0.692814230918884,2.16657423973083,1.76042282581329,-1.03415783849082,2.52084715356021,1.78305005597715,3075.898,2938.242,4086.719,250.4256,-0.2665313,0.08437902,0.1842861,-0.847648203372955,-0.598262965679169,0.614732027053833,-1.02910434715509,-0.442794850733705,0.637064613927399,9
2.05999755859375,-0.709926605224609,2.15458631515503,1.7727746963501,-1.05482201812353,2.5119559343546,1.79584216754118,3085.016,3087.143,4180.174,0,-0.2675055,0.08474497,0.1860017,-0.855622053146362,-0.599400818347931,0.617592096328735,-1.03525504859546,-0.445441325732794,0.640872191117535,9
2.07998657226563,-0.72722190618515,2.14256286621094,1.78526771068573,-1.07557499515204,2.50302650811029,1.80868924892322,3080.397,2968.26,4086.389,236.3137,-0.2670096,0.08509193,0.1868181,-0.864763379096985,-0.601165592670441,0.624653458595276,-1.04114045847258,-0.4479736531836,0.644515540192423,9
2.10000610351563,-0.74466860294342,2.13052272796631,1.79780948162079,-1.09647498538954,2.49403382618922,1.82162733848484,3073.738,3112.762,4182.682,0,-0.2677084,0.08527343,0.1888793,-0.872334122657776,-0.602024853229523,0.627088367938995,-1.04677621342161,-0.450398561093403,0.648004340974112,9
2.1199951171875,-0.762294590473175,2.11845064163208,1.81049776077271,-1.11745308225396,2.48500753716864,1.83461377976925,3072.549,2971.119,4062.569,283.1896,-0.266632,0.08553556,0.1898146,-0.881300806999207,-0.603603303432465,0.6344113945961,-1.0521429102862,-0.45270770082608,0.651326581984514,9
2.13998413085938,-0.780062317848206,2.10636949539185,1.82322061061859,-1.13853583516761,2.47593621757383,1.84766500813359,3074.649,3135.105,4175.201,0,-0.2670458,0.08566,0.1921028,-0.888386905193329,-0.604056775569916,0.636143565177917,-1.05724722779031,-0.454903946049977,0.654486397671922,9
2.16000366210938,-0.798005342483521,2.09426355361938,1.83609247207642,-1.15975039167652,2.46680818657414,1.86079782920208,3069.768,2967.253,4036.986,332.6509,-0.2654415,0.0859393,0.1929647,-0.897147357463837,-0.605288147926331,0.643593192100525,-1.0620943502576,-0.456989527434725,0.657486997379635,9
2.17999267578125,-0.816081404685974,2.0821578502655,1.8489910364151,-1.18102676265167,2.45765355853653,1.8739689163698,3083.396,3162.005,4154.481,0,-0.2657073,0.08608791,0.1952729,-0.903802990913391,-0.605282247066498,0.644929945468903,-1.06666760390386,-0.458957270716794,0.660318059240953,10
2.19998168945313,-0.834323763847351,2.07003903388977,1.86202669143677,-1.20239187218348,2.44846074877705,1.8871949369313,3077.598,2964.525,4030.54,347.7332,-0.2640673,0.08639017,0.1960134,-0.91212522983551,-0.605951428413391,0.651781737804413,-1.07097279461286,-0.460809674005774,0.6629831773745,10
2.22000122070313,-0.852690577507019,2.05793237686157,1.87507510185242,-1.22387315175433,2.43921795429519,1.90049287228091,3088.166,3156.62,4167.753,0,-0.2643486,0.08653872,0.1981485,-0.918333888053894,-0.60532683134079,0.65242201089859,-1.07501419914593,-0.462548577472581,0.665484999299265,10
2.239990234375,-0.871220350265503,2.04582118988037,1.88826763629913,-1.24539969505118,2.42995568409656,1.91381882803312,3082.5,2971.449,4017.391,361.5518,-0.2626106,0.08686366,0.1986408,-0.926492691040039,-0.605569064617157,0.659625947475433,-1.07877792518082,-0.464168003639063,0.667814925005999,10
2.25997924804688,-0.889864265918732,2.03373193740845,1.90146124362946,-1.26699874763832,2.42066221517598,1.92718967049012,3055.287,3198.724,4166.082,0,-0.2629126,0.08712758,0.2008845,-0.93220192193985,-0.604462265968323,0.659680306911469,-1.08226887897249,-0.465670063529659,0.669975991700231,10
2.27999877929688,-0.908664226531982,2.02164793014526,1.91479098796844,-1.28869796983554,2.41132564607061,1.9406225227075,3086.138,2950.626,4018.722,383.9221,-0.26101,0.08756438,0.2012288,-0.939994931221008,-0.604201674461365,0.666487097740173,-1.08549040888332,-0.467056197851165,0.67197027217779,10
2.29998779296875,-0.927571654319763,2.00959491729736,1.92811906337738,-1.31042570636616,2.40197680804417,1.95407302665558,3067.127,3199.12,4159.366,0,-0.2612087,0.08790882,0.2032684,-0.94536817073822,-0.602653801441193,0.666404247283936,-1.08843144721369,-0.468321644481621,0.673790915005368,10
2.32000732421875,-0.946623206138611,1.99755942821503,1.94156265258789,-1.33224276726637,2.39258953623693,1.96757882664355,3103.788,2944.762,4042.336,350.2532,-0.2595096,0.08833329,0.2034936,-0.952574491500854,-0.601767539978027,0.672176778316498,-1.09109983431736,-0.469469776906228,0.675442773735451,10
2.33999633789063,-0.965776264667511,1.98556423187256,1.95500254631042,-1.35407709248145,2.38319483607731,1.98109531406483,3082.39,3171.967,4173.332,0,-0.2596848,0.08860464,0.2052032,-0.957656025886536,-0.599759757518768,0.671993613243103,-1.09348640563071,-0.470496651869278,0.67692017506657,10
2.3599853515625,-0.985062956809998,1.97359764575958,1.96854197978973,-1.37595634130987,2.37378080654189,1.99463961134278,3111.493,2953.258,4075.109,299.0806,-0.2582148,0.08888218,0.2054013,-0.964333474636078,-0.598331570625305,0.67697411775589,-1.09559452046326,-0.471403714787811,0.678225198571351,10
2.3800048828125,-1.00444531440735,1.96167874336243,1.98207640647888,-1.39790843013262,2.36433543599182,2.00822900004707,3078.597,3153.627,4192.448,0,-0.2582547,0.08899727,0.2070025,-0.969125032424927,-0.595954298973083,0.67672336101532,-1.09742594550583,-0.472191725819537,0.679358937915576,10
2.39999389648438,-1.02395462989807,1.94979429244995,1.99570894241333,-1.41986083522252,2.35488992936084,2.02181858453579,3111.538,2966.002,4079.012,276.6354,-0.256685,0.08910373,0.2072815,-0.975460112094879,-0.594225406646729,0.681626975536346,-1.09897439291323,-0.472857979480329,0.680317500623536,10
2.41998291015625,-1.04355049133301,1.93796324729919,2.00932741165161,-1.4418413890156,2.34543231112926,2.03542559441269,3063.502,3156.504,4196.521,0,-0.2565242,0.08906812,0.2090416,-0.979799449443817,-0.591545879840851,0.680917799472809,-1.10024227275454,-0.473403512755585,0.681102378642803,10
2.44000244140625,-1.06326675415039,1.92617213726044,2.02304267883301,-1.46387808506052,2.33595053645515,2.04906735901791,3094.221,2964.244,4066.151,300.0848,-0.2544917,0.08907672,0.2094056,-0.985812425613403,-0.589563548564911,0.685759663581848,-1.10123038958312,-0.473828671822132,0.681714070030222,10
2.45999145507813,-1.08306157588959,1.91443991661072,2.0367386341095,-1.48589810917879,2.32647593524532,2.06269880290633,3068.07,3163.17,4175.31,0,-0.2540299,0.08891588,0.2112597,-0.989729821681976,-0.586604118347168,0.684794902801514,-1.10193535162022,-0.474131997292339,0.68215047511319,10
2.47998046875,-1.10296678543091,1.9027544260025,2.0505223274231,-1.50792940965705,2.3169964821328,2.07633722739875,3083.817,2967.892,4045.918,315.888,-0.251739,0.0888144,0.2116858,-0.995267152786255,-0.584272742271423,0.689179837703705,-1.10235860927677,-0.474314113237503,0.682412491765153,10
2.5,-1.12293922901154,1.89113748073578,2.06427025794983,-1.52999999932945,2.30750012397766,2.08999997377396,3067.77,3153.042,4173.444,0,-0.2511292,0.08849443,0.2135486,-0.998625755310059,-0.580853581428528,0.687391400337219,-1.10250000050292,-0.474374949932098,0.682500019669533,11
2.51998901367188,-1.14302051067352,1.87957072257996,2.07812237739563,-1.5520369476803,2.29801824074336,2.10364189456856,3061.732,2983.056,3990.704,367.3893,-0.2483834,0.08833654,0.2138486,-1.00405704975128,-0.578334212303162,0.692610859870911,-1.10235904000526,-0.474314298567936,0.682412758406603,11
2.53997802734375,-1.1631532907486,1.86808085441589,2.09191489219666,-1.57406826106879,2.28853878207593,2.11728032705303,3018.754,3207.665,4151.028,0,-0.2477416,0.08804893,0.2160766,-1.00664687156677,-0.574496150016785,0.689621210098267,-1.10193621258339,-0.474132367740737,0.682151008090402,11
2.55999755859375,-1.1833918094635,1.8566460609436,2.10582375526428,-1.59612191359838,2.27904971150017,2.13093258853001,3030.874,2964.249,3924.341,469.8922,-0.2443291,0.08805937,0.2161789,-1.0119286775589,-0.57174825668335,0.6954425573349,-1.10123038958312,-0.473828671822132,0.681714070030222,11
2.57998657226563,-1.20366775989532,1.84529685974121,2.11965203285217,-1.61812503288753,2.26958238396605,2.14455356752391,2995.432,3252.416,4111.634,0,-0.2436324,0.08795218,0.2185361,-1.01379644870758,-0.56745970249176,0.69141560792923,-1.1002439936861,-0.473404253224357,0.681103443981416,11
2.60000610351563,-1.2240424156189,1.83401083946228,2.13359689712524,-1.64013916343638,2.26011031859448,2.15818136301212,3020.249,2943.064,3868.555,541.0607,-0.2399343,0.08817757,0.2182885,-1.0187269449234,-0.564298212528229,0.697241425514221,-1.09897439291323,-0.472857979480329,0.680317500623536,11
2.6199951171875,-1.24443960189819,1.82282185554504,2.14743852615356,-1.66209156852628,2.2506648119635,2.17177094750084,2972.698,3277.879,4088.839,0,-0.23939,0.08827199,0.2205218,-1.01986217498779,-0.559454262256622,0.692085027694702,-1.09742594550583,-0.472191725819537,0.679358937915576,11
2.63998413085938,-1.264927983284,1.81170535087585,2.16139698028564,-1.6840102224118,2.24123382753286,2.18533963838626,3013.189,2924.41,3830.41,585.3497,-0.2356621,0.08869678,0.2198246,-1.02442681789398,-0.555819690227509,0.697917938232422,-1.09559752564474,-0.471405007833448,0.678227058921845,11
2.66000366210938,-1.28542542457581,1.80069601535797,2.17523312568665,-1.70592290617745,2.23180541187802,2.19890463348308,2930.181,3309.631,4075.395,0,-0.23531,0.08903161,0.2219522,-1.02486538887024,-0.550468504428864,0.691804885864258,-1.09348640563071,-0.470496651869278,0.67692017506657,10
2.67999267578125,-1.30600690841675,1.78976726531982,2.18918895721436,-1.72775723139253,2.2224107117184,2.21242112090437,3013.956,2902.021,3793.391,619.6375,-0.2315965,0.08966552,0.2208285,-1.02908027172089,-0.546442687511444,0.697791993618011,-1.09109983431736,-0.469469776906228,0.675442773735451,9
2.69998168945313,-1.32658290863037,1.77895355224609,2.20300340652466,-1.74954107593572,2.21303773198162,2.22590635838503,2884.244,3341.028,4060.922,0,-0.2314527,0.09025904,0.2228873,-1.02880096435547,-0.540686964988708,0.690721869468689,-1.08843572622736,-0.468323485621663,0.673793563918671,9
2.72000122070313,-1.34723258018494,1.76822888851166,2.21692776679993,-1.77130202882336,2.20367460188472,2.23937742484041,3012.325,2864.811,3782.328,639.8008,-0.2277642,0.09108917,0.2213951,-1.03248119354248,-0.536231517791748,0.696212470531464,-1.08549040888332,-0.467056197851165,0.671970272177789,8
2.739990234375,-1.36786723136902,1.75762486457825,2.23070764541626,-1.79296822271738,2.1943522439355,2.25278983096475,2871.665,3345.773,4037.501,0,-0.2276955,0.09184992,0.2231579,-1.03172969818115,-0.530198395252228,0.688991904258728,-1.08227399942825,-0.465672266718727,0.669979161506271,8
2.75997924804688,-1.38855707645416,1.74712073802948,2.24456429481506,-1.81456738183361,2.18505872917844,2.26616073936833,3027.131,2839.523,3811.385,585.1232,-0.2245189,0.09265333,0.2214954,-1.0344979763031,-0.525213241577148,0.692836284637451,-1.07878346314437,-0.464170386470068,0.667818353269249,7
2.77999877929688,-1.40922498703003,1.73674273490906,2.25827622413635,-1.83612684690458,2.17578229366013,2.27950707526701,2879.341,3291.839,4049.834,0,-0.224521,0.09328564,0.222773,-1.03338873386383,-0.518895626068115,0.685599982738495,-1.07501419914593,-0.462548577472581,0.665484999299265,6
2.79998779296875,-1.42993414402008,1.7264711856842,2.27204728126526,-1.85757544288233,2.1665535620153,2.29278477791556,3029.4,2845.523,3843.411,506.1562,-0.221787,0.0938156,0.2211007,-1.03545808792114,-0.513578414916992,0.688557028770447,-1.07097916161324,-0.460812413548163,0.662987118851036,5
2.82000732421875,-1.45061421394348,1.71632766723633,2.28567552566528,-1.87897323600723,2.1573466894188,2.30603103117811,2859.995,3264.427,4057.938,0,-0.2217465,0.09416335,0.2223081,-1.03400373458862,-0.507177710533142,0.681409418582916,-1.06666760390385,-0.458957270716794,0.660318059240952,5
2.83999633789063,-1.47132325172424,1.70629322528839,2.29934740066528,-1.90024960698239,2.14819206138118,2.31920211834584,3007.79,2846.637,3863.703,464.4484,-0.2190173,0.09436141,0.220906,-1.03545486927032,-0.501725077629089,0.683599770069122,-1.06209435025759,-0.456989527434725,0.657486997379635,3
2.8599853515625,-1.49199676513672,1.6963871717453,2.31287622451782,-1.92143189875059,2.13907791299805,2.33231496600284,2858.135,3225.347,4058.324,0,-0.2186258,0.09431219,0.2221886,-1.03367948532104,-0.49530503153801,0.676441788673401,-1.05725481901126,-0.454907212340279,0.654491096999312,2
2.8800048828125,-1.51269066333771,1.68659090995789,2.32644367218018,-1.94254691640495,2.12999271078668,2.34538616777867,2973.196,2857.171,3855.051,455.196,-0.2154545,0.09414074,0.221118,-1.03469467163086,-0.489812910556793,0.678372919559479,-1.0521429102862,-0.45270770082608,0.651326581984514,1
2.89999389648438,-1.53334224224091,1.67692351341248,2.33986639976501,-1.96352501326936,2.1209664217661,2.35837260906308,2861.91,3205.166,4032.934,0,-0.2146183,0.09364069,0.2226073,-1.03257203102112,-0.483372300863266,0.671139597892761,-1.04677621342161,-0.450398561093403,0.648004340974112,0
2.91998291015625,-1.55400705337524,1.66736614704132,2.35332894325256,-1.98439323028747,2.1119874109737,2.37129102948832,2925.788,2876.575,3807.833,488.6317,-0.2108568,0.09312008,0.2218539,-1.03324627876282,-0.477866470813751,0.673129320144653,-1.0411492471255,-0.447977434695422,0.644520980787238,0
2.94000244140625,-1.57461738586426,1.6579418182373,2.36662530899048,-2.00517798053537,2.10304431360073,2.38415778000673,2846.519,3196.411,4013.758,0,-0.2096765,0.09220748,0.2236817,-1.0305118560791,-0.471220850944519,0.6648228764534,-1.03525504859546,-0.445441325732794,0.640872191117535,0
2.95999145507813,-1.59524619579315,1.64862453937531,2.38000345230103,-2.02581075424974,2.0941666074844,2.39693044981124,2857.296,2902.333,3681.6,619.9945,-0.2047731,0.09155996,0.2229308,-1.03144299983978,-0.465864211320877,0.668903946876526,-1.02911391720548,-0.442798968459032,0.637070538244476,0
2.97998046875,-1.61579990386963,1.6394454240799,2.39317202568054,-2.04631823718085,2.08534281049189,2.40962555865248,2762.737,3286.301,3960.82,0,-0.203424,0.09063654,0.2255893,-1.0276962518692,-0.458957016468048,0.658433139324188,-1.0227194988233,-0.440047628868552,0.633112088657521,0
3,-1.63638257980347,1.63037109375,2.40647768974304,-2.06672639957428,2.07656174835205,2.42225918334961,2777.89,2880.951,3493.115,873.0737,-0.1968758,0.09038471,0.2244443,-1.02911710739136,-0.453706413507462,0.665282666683197,-1.01606400046349,-0.437183953857422,0.628992018127441,0
3.01998901367188,-1.65686547756195,1.62144374847412,2.41951894760132,-2.0869680292999,2.06785234056679,2.43478971639231,2671.365,3419.222,3871.499,0,-0.1955218,0.08996975,0.2277909,-1.02415204048157,-0.446386754512787,0.652062892913818,-1.00917036754089,-0.434217816196637,0.624724530959079,0
3.03997802734375,-1.67738461494446,1.61262464523315,2.43274712562561,-2.10706940546153,2.05920327997188,2.4472334257977,2731.238,2826.219,3282.591,1148.409,-0.1876767,0.09052745,0.2256758,-1.02595138549805,-0.440941572189331,0.661409616470337,-1.00203140433628,-0.431146119769234,0.620305172659443,0
3.05999755859375,-1.69777584075928,1.60396468639374,2.44564461708069,-2.12705600675913,2.05060360379452,2.45960608409476,2557.736,3567.914,3786.661,0,-0.1868053,0.0910603,0.229314,-1.01956963539124,-0.432995498180389,0.644869863986969,-0.994638524886308,-0.427965170275055,0.615728628108227,0
3.07998657226563,-1.71820795536041,1.59542298316956,2.45877504348755,-2.14686207530873,2.04208160581513,2.47186698402085,2720.489,2742.916,3087.414,1398.277,-0.1783045,0.0927168,0.225684,-1.02160179615021,-0.427077770233154,0.656523704528809,-0.987017247723776,-0.424685947625853,0.611010694492843,0
3.10000610351563,-1.7384842634201,1.58705258369446,2.47151637077332,-2.16654331551667,2.03361331798384,2.48405060925705,2418.486,3740.578,3699.377,0,-0.1784302,0.09456657,0.229301,-1.01382577419281,-0.41854053735733,0.637061893939972,-0.979147395688901,-0.421299770153459,0.606138881190213,0
3.1199951171875,-1.75878965854645,1.57881593704224,2.48448610305786,-2.18603502400946,2.02522658035469,2.49611690533293,2753.272,2609.5,2999.147,1538.082,-0.1703704,0.09738491,0.2240424,-1.01527059078217,-0.411828219890594,0.648485958576202,-0.971056158224178,-0.417818336715394,0.601130019760458,0
3.13998413085938,-1.77892160415649,1.57076001167297,2.49704527854919,-2.20536269329809,2.01691042421237,2.50808165332716,2342.763,3818.138,3642.644,0,-0.1716349,0.1004697,0.2267509,-1.00659930706024,-0.402799725532532,0.627955436706543,-0.962735018414262,-0.414237982720922,0.59597883782726,0
3.16000366210938,-1.79904675483704,1.56285881996155,2.50975322723389,-2.22455088103183,2.00865428308644,2.51996005559448,2843.515,2478.117,3103.916,1411.998,-0.1656502,0.1038873,0.2202567,-1.00625169277191,-0.395045101642609,0.635391712188721,-0.954174163352092,-0.410554485950274,0.590679260733698,0
3.17999267578125,-1.81899774074554,1.55514359474182,2.52209305763245,-2.24353658854737,2.00048526354177,2.53171311296128,2379.089,3722.289,3648.028,0,-0.1679144,0.1073965,0.2210607,-0.997552394866943,-0.385769933462143,0.616986334323883,-0.945403214201559,-0.406780591562751,0.585249625391267,0
3.19998168945313,-1.83888399600983,1.54760146141052,2.53442931175232,-2.26234477504321,1.99239262633251,2.54335627636037,2956.47,2422.488,3425.184,956.0241,-0.1656513,0.1102177,0.2144908,-0.994306087493896,-0.377098262310028,0.616808533668518,-0.936412917636688,-0.402912318110697,0.579684203550396,0
3.22000122070313,-1.85861122608185,1.54024219512939,2.54648876190186,-2.28099938900442,1.98436606709459,2.55490437104486,2514.487,3409.612,3771.541,0,-0.1683038,0.1127117,0.2130072,-0.986369371414185,-0.367968738079071,0.602975606918335,-0.927192788821982,-0.398945154262308,0.573976504598449,0
3.239990234375,-1.8782217502594,1.53306031227112,2.55840516090393,-2.2994392795179,1.97643189735754,2.5663195416865,3013.62,2502.277,3834.694,326.355,-0.1695629,0.1136122,0.2078898,-0.980517685413361,-0.359084159135818,0.595819473266602,-0.917774783907129,-0.394892849856044,0.568146310914365,0
3.25997924804688,-1.89769816398621,1.52604448795319,2.57015442848206,-2.31768882969315,1.96857962575054,2.57761688259161,2655.253,3041.839,3940.975,0,-0.1714618,0.1137585,0.2053525,-0.973831534385681,-0.350807130336761,0.587457954883575,-0.908148960779607,-0.390751127078637,0.562187467856884,0
3.27999877929688,-1.91704416275024,1.51918292045593,2.5817437171936,-2.33577134012187,1.96079922667992,2.58881081793642,2813.583,2769.117,4017.259,0,-0.1726629,0.1126061,0.2032991,-0.967296540737152,-0.343071103096008,0.579461216926575,-0.898304216251578,-0.386515208538549,0.556093102023818,0
3.29998779296875,-1.9362678527832,1.51246118545532,2.59320569038391,-2.35362764460945,1.95311615770631,2.59986472102797,2747.268,2809.028,4012.975,0,-0.1724093,0.110363,0.2022302,-0.961191475391388,-0.336076468229294,0.573099076747894,-0.888274735793772,-0.382199803288803,0.549884375850026,0
3.31997680664063,-1.95537126064301,1.50586807727814,2.6045458316803,-2.37128151039117,1.94552019245235,2.61079330491711,2706.689,2846.297,3983.343,0,-0.170699,0.1071362,0.2025164,-0.95516836643219,-0.329664021730423,0.567006051540375,-0.878049940595779,-0.377800359562814,0.543554740547926,0
3.33999633789063,-1.97436487674713,1.49939179420471,2.61580157279968,-2.38875555478454,1.93800159931817,2.62161057080077,2667.688,2855.213,3861.402,125.0397,-0.1669221,0.1031607,0.203658,-0.949673473834991,-0.323821842670441,0.562781989574432,-0.867618167158097,-0.373311858882592,0.53709697585572,0
3.3599853515625,-1.99324405193329,1.4930294752121,2.62695455551147,-2.40599272667425,1.93058492580486,2.63228120132087,2637.825,2913.961,3766.625,161.9413,-0.161966,0.09852557,0.2058726,-0.943967223167419,-0.318117797374725,0.557649433612823,-0.857015715678588,-0.368749920209162,0.530533553325099,0
3.3800048828125,-2.01202464103699,1.48677563667297,2.6380615234375,-2.42304196557559,1.92324911460621,2.64283549236868,2534.003,2958.093,3543.298,426.34,-0.1548101,0.09378468,0.208337,-0.939031302928925,-0.312677890062332,0.555349111557007,-0.846214826007803,-0.364102599125748,0.523847288101157,0
3.39999389648438,-2.03068089485168,1.48064541816711,2.64901518821716,-2.43984769972619,1.91601807669906,2.65323904237604,2584.031,2990.652,3542.819,314.0815,-0.1482411,0.08853894,0.2116325,-0.932803153991699,-0.306515783071518,0.547686517238617,-0.835253140422974,-0.35938609205264,0.51706148254665,0
3.41998291015625,-2.04926085472107,1.4746321439743,2.66000080108643,-2.45643259034873,1.90888206159239,2.66350587971929,2380.778,3028.344,3149.677,871.9436,-0.1383794,0.08400516,0.2136768,-0.929008781909943,-0.300668060779572,0.54927670955658,-0.824119146742881,-0.354595445619869,0.510169010073001,0
3.44000244140625,-2.06766796112061,1.46877765655518,2.67062497138977,-2.47281804716281,1.90183185728196,2.67364925803476,2650.685,3033.736,3591.403,102.8442,-0.1338894,0.07818085,0.2176776,-0.920357406139374,-0.292722016572952,0.531205713748932,-0.812800388649434,-0.349725300221754,0.503162159625937,0
3.45999145507813,-2.08609008789063,1.46304321289063,2.68162822723389,-2.48895081463434,1.8948903781363,2.68363620960993,2030.148,3097.543,2468.792,1832.398,-0.1191093,0.07521825,0.2168863,-0.921106517314911,-0.286713480949402,0.550165414810181,-0.80133641229185,-0.344792671461508,0.496065412155666,0
3.47998046875,-2.10427188873291,1.45748281478882,2.69201397895813,-2.50485284867397,1.88804817714046,2.69348032619939,2032.748,3848.418,3423.108,0,-0.1164361,0.07233439,0.2256114,-0.9090855717659,-0.278021097183228,0.519284188747406,-0.789715229532172,-0.33979240117828,0.488871346433721,0
3.5,-2.12256526947021,1.45205640792847,2.70311641693115,-2.5205447997813,1.88129636896134,2.70319439144611,1862.46,2750.715,1565.851,3235.531,-0.09470254,0.07428984,0.2206459,-0.914666414260864,-0.271334737539291,0.555122435092926,-0.777924000354857,-0.334718964672089,0.481572013878822,0
3.51998901367188,-2.14055204391479,1.44681668281555,2.71331477165222,-2.53597583877076,1.87465682397749,2.71274693966292,1434.601,4708.074,3080.278,0,-0.09349666,0.07759685,0.2323261,-0.899322628974915,-0.261968433856964,0.509920239448547,-0.766004036374581,-0.329590137176618,0.474192988348404,0
3.53997802734375,-2.15869998931885,1.44177043437958,2.72439765930176,-2.55116718971613,1.86812041006291,2.72215110956251,2064.285,2134.473,851.6374,4333.432,-0.06799903,0.08605584,0.2202258,-0.907398819923401,-0.252323925495148,0.55413955450058,-0.753942941956194,-0.324400585196356,0.466726596353819,0
3.55999755859375,-2.1765022277832,1.43693423271179,2.7344217300415,-2.56613872308604,1.86167857751006,2.73141920191151,1023.047,5469.151,2649.031,0,-0.07061318,0.0966292,0.2304968,-0.89011937379837,-0.241814598441124,0.501207590103149,-0.741727567798258,-0.319144650954242,0.459164697851087,0
3.57998657226563,-2.1943690776825,1.43237352371216,2.74503588676453,-2.58084213759183,1.85535210901407,2.74052131591136,2609.385,1376.355,1042.158,4269.882,-0.05143949,0.1098535,0.2111479,-0.893327414989471,-0.228016123175621,0.530711829662323,-0.72940084364523,-0.31384080592,0.451533868397061,0
3.60000610351563,-2.21189641952515,1.42806839942932,2.75476765632629,-2.59531978247425,1.84912278287974,2.74948366775945,1264.241,5344.489,2475.032,0,-0.0596351,0.124462,0.2123055,-0.876377820968628,-0.21527311205864,0.486585676670074,-0.716930938559024,-0.308475354130224,0.443814403124743,0
3.6199951171875,-2.22922849655151,1.42407393455505,2.76429986953735,-2.60952509409627,1.84301063413925,2.75827743234631,3296.549,1052.611,2561.431,2233.35,-0.05998451,0.1365842,0.190322,-0.866602838039398,-0.199710130691528,0.476613283157349,-0.704361775018033,-0.303067194200314,0.436033492140578,0
3.63998413085938,-2.24624872207642,1.42036581039429,2.77342557907104,-2.623478029369,1.83700707589127,2.76691496395061,2126.826,3844.062,3096.4,0,-0.07245236,0.1479797,0.1771638,-0.851007461547852,-0.18540932238102,0.456288635730743,-0.691680442442073,-0.297610771068296,0.428183143180413,0
3.66000366210938,-2.26292181015015,1.41691493988037,2.78206729888916,-2.63719712493647,1.83110413233575,2.77540773763803,2847.682,2349.325,3801.902,0,-0.08880151,0.1562207,0.1618758,-0.833646357059479,-0.172532334923744,0.432091057300568,-0.678873453515702,-0.29210028151913,0.420255006953505,0
3.67999267578125,-2.27928161621094,1.41366839408875,2.79048466682434,-2.65063849381582,1.82532068681534,2.78372858527554,2387.233,2602.287,3987.048,0,-0.1024657,0.1627418,0.1480141,-0.818003714084625,-0.162333264946938,0.420869022607803,-0.665986083416798,-0.286555206197011,0.41227711095171,0
3.69998168945313,-2.29534792900085,1.41055083274841,2.7988166809082,-2.66382131180924,1.81964848851807,2.79188937759817,1875.967,3198.111,3840.134,0,-0.1123833,0.1690347,0.1411233,-0.803304553031921,-0.155884817242622,0.41660463809967,-0.653005218467595,-0.280969902652754,0.404241337183804,0
3.72000122070313,-2.31110954284668,1.40751576423645,2.80692505836487,-2.6767633032417,1.81407991116207,2.79990108680742,2078.534,2826.291,3933.171,0,-0.1188313,0.1743082,0.1383729,-0.788097381591797,-0.151749476790428,0.4054154753685,-0.639917282339434,-0.275338529371411,0.396139281255611,0
3.739990234375,-2.32658624649048,1.40454435348511,2.81479907035828,-2.68942333385363,1.80863265367006,2.80773824883709,2581.943,2180.37,4045.907,0,-0.120459,0.1770134,0.1340599,-0.773839235305786,-0.148575112223625,0.393704801797867,-0.62676873176137,-0.26968107538565,0.387999702095468,0
3.75997924804688,-2.34181213378906,1.40161180496216,2.82262253761292,-2.70181978867538,1.80329880547712,2.81541224489679,2534.396,2485.748,3772.735,0,-0.1177485,0.1775035,0.1299666,-0.761284649372101,-0.146617710590363,0.391175210475922,-0.6135463347885,-0.263991847359231,0.379814408499146,0
3.77999877929688,-2.35678029060364,1.39870095252991,2.8304009437561,-2.7139695770734,1.79807109095524,2.82293354268985,2319.957,2970.775,3450.883,0,-0.1141974,0.1766248,0.1295912,-0.748412132263184,-0.145542457699776,0.388917177915573,-0.60023651686137,-0.258265004538452,0.371574997167698,0
3.79998779296875,-2.37146711349487,1.39581894874573,2.83794736862183,-2.72583438304408,1.79296599641037,2.83027842278479,2552.363,2638.859,3498.839,0,-0.1118506,0.173649,0.1300898,-0.734345555305481,-0.144106611609459,0.377325117588043,-0.586886736182787,-0.252520966862155,0.36331084698941,0
3.81997680664063,-2.38588976860046,1.39297163486481,2.84529614448547,-2.73743179640664,1.78797595343468,2.83745777411762,2638.271,2367.112,3499.55,180.7393,-0.1084018,0.1683483,0.1286457,-0.721148133277893,-0.142369851469994,0.367441117763519,-0.573483731835694,-0.246754028528195,0.355013748824923,0
3.83999633789063,-2.40005445480347,1.39016163349152,2.85246729850769,-2.74877791451009,1.78309403578861,2.84448156171422,2477.575,2720.713,3477.448,0,-0.1058031,0.1610843,0.1288368,-0.708223402500153,-0.140490889549255,0.35855495929718,-0.560014026276881,-0.240958390526246,0.346675359432959,0
3.8599853515625,-2.41397404670715,1.38738870620728,2.85949420928955,-2.75983729406747,1.77833549372837,2.85132784449154,2308.624,2796.733,3396.315,163.1931,-0.1028065,0.1524202,0.130963,-0.695990085601807,-0.138660624623299,0.351346582174301,-0.546525890176286,-0.235154822377061,0.338325560657667,0
3.8800048828125,-2.42766356468201,1.38465392589569,2.86637997627258,-2.77064299647982,1.77368610185671,2.85801708903178,2138.556,2858.999,3319.375,339.4877,-0.09847038,0.1429494,0.1351819,-0.684467911720276,-0.136739268898964,0.344290643930435,-0.532985466132484,-0.229328756186666,0.329943393154704,0
3.89999389648438,-2.44114851951599,1.38196277618408,2.87317895889282,-2.78116151864576,1.76916027562219,2.86452855531919,2020.514,2869.086,3142.216,626.567,-0.09124469,0.133284,0.140505,-0.67425924539566,-0.13456018269062,0.339954555034637,-0.519441457145543,-0.223501147495394,0.321559006401168,0
3.91998291015625,-2.45444059371948,1.37933254241943,2.87985181808472,-2.79140913007042,1.76475101471128,2.87087231495249,2035.279,2891.604,3058.574,668.5923,-0.08248928,0.1234776,0.1467165,-0.664589405059814,-0.131520360708237,0.33364525437355,-0.505880764601328,-0.217666360335509,0.313164291730931,0
3.94000244140625,-2.46757459640503,1.37678039073944,2.88651204109192,-2.8014005971492,1.76045196555656,2.87705750903383,1953.723,2896.492,2751.069,1063.06,-0.07033355,0.1142005,0.1520223,-0.656711995601654,-0.127600073814392,0.333006858825684,-0.492290296490434,-0.211818761581115,0.30475114456651,0
3.95999145507813,-2.48053431510925,1.37433815002441,2.89298129081726,-2.81110535421031,1.75627627971269,2.88306521595634,2092.262,2962.299,2817.94,771.4535,-0.05986573,0.1047542,0.1576892,-0.647986233234406,-0.122112527489662,0.323464810848236,-0.478719233391147,-0.205979512261105,0.296350010028665,0
