t,x_s1,x_s2,x_s3,x_s_d1,x_s_d2,x_s_d3,propellers_rpms1,propellers_rpms2,propellers_rpms3,propellers_rpms4,rollRad,pitchRad,yawRad,v_s1,v_s2,v_s3,v_s_d1,v_s_d2,v_s_d3,insideCount
0,-0.0599999986588955,2.94000005722046,1.17999994754791,-0.0599999986588955,2.94000005722046,1.17999994754791,0,0,0,0,0,0,0,0,0,0,-1.06581410364015E-15,4.44089209850063E-16,4.44089209850063E-16,0
0.0200042724609375,-0.0599999986588955,2.94000005722046,1.17729234695435,-0.0600018701838461,2.93999925195556,1.18000110611101,0,0,0,0,0.0163538,-0.002474609,-2.024222E-05,3.71994488546079E-08,3.50004931704007E-08,-0.135377958416939,-0.000280105751305916,-0.000120521679537258,0.00017339880334547,5
0.040008544921875,-0.0599999986588955,2.94000005722046,1.17105865478516,-0.060014880898484,2.93999365380853,1.18000916036316,0,0,0,0,0.03270752,-0.004950816,-5.430172E-05,3.48044650877455E-08,3.30428591155396E-08,-0.311683237552643,-0.00111143977225461,-0.000478221483967637,0.00068803416424398,6
0.05999755859375,-0.0600004307925701,2.94013142585754,1.16552245616913,-0.0600498857373401,2.93997859220429,1.18003083002592,3161.758,2810.229,1469.389,2738.784,0.03139143,-0.004977981,-0.01632784,-2.15875897993101E-05,0.00656341761350632,-0.276808619499207,-0.00247936261166862,-0.00106680046642749,0.00153484356504269,6
0.0800018310546875,-0.0599182657897472,2.94037842750549,1.16100001335144,-0.0601175574246769,2.93994947496775,1.18007272202403,3028.602,3011.868,2083.797,1979.253,0.01921494,-0.004419782,-0.04309261,0.00410820124670863,0.012349421158433,-0.226121813058853,-0.00437268608126799,-0.00188144466206175,0.00270690098422899,6
0.100006103515625,-0.0596519261598587,2.94066071510315,1.15742897987366,-0.0602282404704493,2.93990185114529,1.18014124010193,2573.166,3764.13,2528.135,1069.401,-0.005652293,-0.003074886,-0.06910477,0.0133169628679752,0.0141151947900653,-0.1785509288311,-0.00677739276378709,-0.00291612276782231,0.00419552897277328,6
0.120010375976563,-0.0591362528502941,2.94084787368774,1.154620885849,-0.0603920338334453,2.93983137543704,1.18024263599618,1989.965,4004.13,3075.366,694.7492,-0.039908,-0.0007078682,-0.08794184,0.0257836319506168,0.009363261051476,-0.140403360128403,-0.00968041450003567,-0.00416521191989172,0.00599263771761404,5
0.139999389648438,-0.0583610460162163,2.94078660011292,1.15244734287262,-0.0606185767455666,2.93973390035084,1.18038287685052,1381.423,3937.02,3641.046,663.9438,-0.07574989,0.002033788,-0.09641548,0.0387604311108589,-0.0030589634552598,-0.108675211668015,-0.0130660253322238,-0.00562194567796536,0.00808849210174802,4
0.160003662109375,-0.0573620833456516,2.94033217430115,1.15091979503632,-0.0609177895434042,2.93960515744296,1.18056810382587,1009.006,3669.302,3950.584,872.4758,-0.1041259,0.00383446,-0.09478936,0.0499481037259102,-0.0227163918316364,-0.0763775706291199,-0.0169265510445065,-0.00728302204135792,0.0104783414199936,4
0.180007934570313,-0.0561949983239174,2.93938517570496,1.15012359619141,-0.0612988491946875,2.93944119812059,1.1808039979024,1011.383,3363.067,3835.45,1160.947,-0.1193469,0.003851061,-0.08597483,0.058354277163744,-0.0473464503884315,-0.0398116521537304,-0.0212468478482708,-0.00914192506089775,0.0131528109458008,3
0.199996948242188,-0.05490892380476,2.93791794776917,1.15010988712311,-0.0617704296168641,2.93923829023936,1.18109592864822,1333.086,3133.266,3353.359,1401.395,-0.121414,0.002340477,-0.07415678,0.0643037259578705,-0.0733590349555016,-0.00068528950214386,-0.0260104776919234,-0.0111915819022102,0.0161017247421801,3
0.220001220703125,-0.0535359941422939,2.93597269058228,1.15082931518555,-0.0623420644491781,2.93899233174064,1.18144979784016,1789.518,3014.683,2724.422,1533.617,-0.1151215,0.0002798367,-0.06327351,0.0686465948820114,-0.0972617492079735,0.035973846912384,-0.03121219533433,-0.0134297356845702,0.019321835755004,3
0.240005493164063,-0.0520959496498108,2.93363213539124,1.1521235704422,-0.0630219993990999,2.93869977472688,1.18187070996396,2172.287,2982.421,2212.423,1547.072,-0.1071491,-0.001340103,-0.05581133,0.0720022320747375,-0.117025554180145,0.0647116675972939,-0.0368361158647881,-0.0158495515746756,0.0228033104678445,3
0.260009765625,-0.0506038516759872,2.93098068237305,1.15377140045166,-0.0638185570309634,2.93835703823113,1.18236381708338,2347.72,2985.91,2004.792,1459.429,-0.1029067,-0.001920139,-0.05235562,0.0746048465371132,-0.132567435503006,0.0823892652988434,-0.0428699302682246,-0.0184457333472145,0.0265385290140116,3
0.279998779296875,-0.0490740723907948,2.92807531356812,1.15557241439819,-0.0647390625194898,2.93796097043536,1.18293365383054,2308.696,2995.852,2122.848,1299.111,-0.1047187,-0.001325189,-0.05185068,0.0764890387654305,-0.14527028799057,0.0900496169924736,-0.0492963837173861,-0.0212108567320638,0.030516809833474,3
0.300003051757813,-0.0475225225090981,2.92493534088135,1.15741097927094,-0.0657927507678135,2.93750759781875,1.18358593705038,2137.039,3011.108,2442.493,1106.382,-0.1118741,0.0001969034,-0.05227572,0.0775774419307709,-0.156993016600609,0.0919303819537163,-0.0561132031658829,-0.0241439437008635,0.0347367458022363,3
0.32000732421875,-0.045969232916832,2.92155051231384,1.15926611423492,-0.0669865614821475,2.93699393441958,1.18432496275165,1943.658,3019.28,2792.326,937.4204,-0.1218172,0.002153781,-0.05160993,0.0776644572615623,-0.169247418642044,0.0927554443478584,-0.0633036493784043,-0.0272377918282996,0.0391879745362408,3
0.339996337890625,-0.0444394126534462,2.91789531707764,1.16117644309998,-0.068326768706371,2.93641728069206,1.18515461486636,1804.107,3001.599,3047.612,841.223,-0.1315069,0.004015674,-0.04861175,0.0764910578727722,-0.182757705450058,0.0955170094966888,-0.0708499516420146,-0.0304847548730522,0.0438594951176439,3
0.360000610351563,-0.0429611504077911,2.91394639015198,1.1632034778595,-0.0698225328270578,2.93577369517774,1.1860805641102,1756.206,2955.454,3148.772,831.0137,-0.1384998,0.005409122,-0.04314534,0.0739131346344948,-0.197443097829819,0.10134994238615,-0.0787518717320621,-0.0338847303337087,0.0487511600740379,3
0.3800048828125,-0.041560810059309,2.90969371795654,1.16540205478668,-0.0714797725314022,2.93506063123087,1.18710647443246,1803.454,2904.95,3096.543,875.021,-0.1417393,0.006225558,-0.03593829,0.0700170025229454,-0.212632924318314,0.109931543469429,-0.0869921272359981,-0.0374302820709642,0.0538522707687797,3
0.400009155273438,-0.0402594767510891,2.9051456451416,1.16779804229736,-0.0733051402689975,2.93427522648826,1.18823646401636,1908.921,2871.603,2945.449,935.6338,-0.1416738,0.006602563,-0.02807771,0.0650665760040283,-0.227399438619614,0.119799181818962,-0.0955591682828665,-0.0411164404980124,0.0591556772815509,3
0.419998168945313,-0.0390723943710327,2.90032649040222,1.17038261890411,-0.0753034649285836,2.93341540321397,1.18947352217404,2025.133,2857.534,2769.982,988.9897,-0.1397249,0.006794284,-0.02059902,0.0593541972339153,-0.240960165858269,0.129227682948112,-0.104434660908044,-0.0449353170220673,0.0646500300148815,3
0.44000244140625,-0.038010410964489,2.89526844024658,1.17311811447144,-0.077483988232608,2.93247718495301,1.19082336997196,2110.003,2859.331,2640.228,1016.133,-0.1375645,0.00704382,-0.01415097,0.0530991479754448,-0.252901375293732,0.136776015162468,-0.113620829717891,-0.048887868829098,0.0703367061060819,3
0.460006713867188,-0.037082239985466,2.89000344276428,1.17595732212067,-0.0798512213598696,2.93145863067119,1.19228880004469,2148.531,2866.727,2590.841,1012.525,-0.136462,0.007498557,-0.008928514,0.0464085452258587,-0.263253957033157,0.141958624124527,-0.123099793815011,-0.0529664022684887,0.0762046364278779,3
0.479995727539063,-0.0362961441278458,2.88455653190613,1.17885780334473,-0.0824088828700873,2.93035814037613,1.19387211435783,2141.374,2877.39,2625.551,977.3405,-0.1370047,0.008197434,-0.004677043,0.0393049977719784,-0.272339999675751,0.14502178132534,-0.132852887402757,-0.0571628859694044,0.0822422659629699,4
0.5,-0.0356613472104073,2.8789439201355,1.18179643154144,-0.085166398670376,2.92917165836334,1.1955791479969,2107.752,2883.521,2714.507,928.0675,-0.1390362,0.009087409,-0.0009315737,0.0317397341132164,-0.280627220869064,0.146932333707809,-0.142884000065179,-0.0614789935111996,0.0884520025491718,4
0.520004272460938,-0.0351884104311466,2.87317323684692,1.18477189540863,-0.088127196023106,2.92789770997757,1.19741202260058,2073.205,2887.65,2817.053,873.8652,-0.1419891,0.01006273,0.002806939,0.0236468110233545,-0.288536369800568,0.148774221539497,-0.153174893518032,-0.065906877469682,0.0948225558197254,4
0.540008544921875,-0.0348888635635376,2.8672468662262,1.18779611587524,-0.0912963635428427,2.92653410573011,1.19937388826368,2047.603,2887.149,2904.85,831.9249,-0.145146,0.01101643,0.006906356,0.0149777103215456,-0.296321213245392,0.15121041238308,-0.163714777034477,-0.0704418948965508,0.101347245800684,4
0.55999755859375,-0.0347746200859547,2.86116528511047,1.19088983535767,-0.094676112580471,2.92507989413848,1.20146611391775,2041.327,2880.217,2956.228,813.3735,-0.1478449,0.01187076,0.01147173,0.00571197364479303,-0.30408102273941,0.154684722423553,-0.17448465888317,-0.0750758741803766,0.108014315705644,4
0.580001831054688,-0.0348566919565201,2.85493040084839,1.1940723657608,-0.0982762614093182,2.92353085067394,1.20369477754168,2055.023,2875.68,2970.197,808.1196,-0.1497554,0.01259471,0.01643659,-0.00410351529717445,-0.31174424290657,0.159123778343201,-0.185490414529404,-0.0798113433697334,0.11482740272751,4
0.600006103515625,-0.0351444780826569,2.84854674339294,1.19735956192017,-0.102098762959148,2.92188613504538,1.20606108809202,2085.061,2872.667,2951.101,816.8232,-0.1508595,0.01319911,0.02157317,-0.0143891926854849,-0.319180548191071,0.164358094334602,-0.196713446836865,-0.0846403006364086,0.121774994352997,4
0.620010375976563,-0.035644993185997,2.84202241897583,1.2007554769516,-0.106147859919355,2.92014392174208,1.20856767199563,2117.553,2876.974,2922.59,824.0377,-0.1514572,0.01372703,0.02667984,-0.0250265747308731,-0.32621094584465,0.169793114066124,-0.20814339888717,-0.0895582896877615,0.128850679156259,4
0.639999389648438,-0.0363638028502464,2.83536744117737,1.20425927639008,-0.110424235525481,2.91830391678686,1.21121495220784,2144.923,2879.688,2896.127,836.9106,-0.1518545,0.0142292,0.03154089,-0.0359401255846024,-0.332751423120499,0.175188183784485,-0.219761081350814,-0.0945570538913933,0.136042578028218,4
0.660003662109375,-0.0373049154877663,2.82859230041504,1.20786345005035,-0.114938248900541,2.91636166293851,1.21400934151928,2164.56,2888.216,2887.739,834.8641,-0.1524127,0.01474516,0.03609308,-0.0470555424690247,-0.338756948709488,0.180211260914803,-0.231574097577923,-0.0996398647564507,0.143355397804799,4
0.680007934570313,-0.0384720973670483,2.82170629501343,1.21156394481659,-0.119690355154666,2.91431696437584,1.21695112166479,2177.261,2893.548,2893.454,831.3875,-0.1533065,0.01529471,0.04030471,-0.0583593770861626,-0.344299912452698,0.185025408864021,-0.243563621239988,-0.104798621839723,0.150777484091833,4
0.699996948242188,-0.0398685373365879,2.81471753120422,1.21535384654999,-0.124680083855354,2.91217002351282,1.22004000142426,2182.293,2902.632,2920.546,811.8388,-0.1546668,0.01588129,0.04429435,-0.0698219984769821,-0.349440336227417,0.189497426152229,-0.255710395848158,-0.11002503961202,0.158296916205407,4
0.720001220703125,-0.0414981544017792,2.80763125419617,1.21923387050629,-0.129918284978346,2.90991617190799,1.22328269744952,2181.347,2902.903,2955.077,801.8284,-0.1563244,0.0164982,0.04811838,-0.081481009721756,-0.354313313961029,0.19399830698967,-0.268023157655716,-0.11532287703907,0.16591910230247,4
0.740005493164063,-0.0433649308979511,2.80045104026794,1.22320795059204,-0.13540428105644,2.90755570105657,1.22667879035609,2188.08,2908.488,2989.488,779.7113,-0.1581902,0.01712409,0.05188974,-0.093338668346405,-0.359007805585861,0.198703929781914,-0.280482990349159,-0.120683994959631,0.173632332283853,5
0.760009765625,-0.0454727597534657,2.79317951202393,1.22728097438812,-0.141140917956636,2.9050873864615,1.23023004187122,2193.855,2910.867,3021.307,764.4966,-0.1601162,0.01774519,0.05567286,-0.105391472578049,-0.363579481840134,0.203651443123817,-0.293080296154222,-0.126104263719567,0.181430664670081,5
0.779998779296875,-0.0478255860507488,2.78581809997559,1.23146033287048,-0.147126184485884,2.90251209348295,1.23393520697061,2203.818,2911.667,3044.153,755.8607,-0.1619506,0.0183532,0.05946664,-0.117641024291515,-0.368070632219315,0.208969876170158,-0.305795832832518,-0.131575403921268,0.189302187598958,5
0.800003051757813,-0.0504266433417797,2.77836871147156,1.23575103282928,-0.153371683173492,2.89982482987671,1.2378014681726,2217.561,2915.182,3061.919,745.3373,-0.1636598,0.01894503,0.06327395,-0.130052521824837,-0.372468322515488,0.214536339044571,-0.318639638509124,-0.13710173468952,0.197253115148089,5
0.82000732421875,-0.0532789565622807,2.77083301544189,1.24016094207764,-0.159875221826383,2.89702653888221,1.24182746840525,2235.738,2917.786,3067.975,743.29,-0.1652209,0.01952351,0.06702344,-0.142616301774979,-0.376788854598999,0.220492765307426,-0.331592781842754,-0.14267511039705,0.205271727915392,5
0.839996337890625,-0.056384090334177,2.76321363449097,1.2446893453598,-0.166633637018892,2.89411858163313,1.24601124935738,2253.261,2925.741,3079.022,730.7408,-0.1667863,0.02009375,0.07073116,-0.155256912112236,-0.380972385406494,0.226419910788536,-0.344636106234817,-0.148287288494656,0.213346167053785,5
0.860000610351563,-0.0597438998520374,2.75551271438599,1.2493394613266,-0.173659158941841,2.89109569582005,1.2503603820997,2264.841,2925.553,3087.78,735.6093,-0.1682969,0.02067253,0.07430633,-0.167990177869797,-0.385049134492874,0.232504978775978,-0.357780475378537,-0.153942943326036,0.221483157706883,5
0.8800048828125,-0.0633593648672104,2.74773263931274,1.25411176681519,-0.180948461186242,2.88795931270381,1.25487280742661,2283.722,2934.238,3099.594,721.2646,-0.1699044,0.02125802,0.07777337,-0.180773138999939,-0.389006525278091,0.238617718219757,-0.371007022483504,-0.159633957038354,0.229671020432672,5
0.900009155273438,-0.0672312527894974,2.73987555503845,1.25900590419769,-0.188503099076414,2.88470876307182,1.25954948815793,2294.993,2937.948,3116.728,714.6253,-0.1716274,0.02185842,0.08112794,-0.193594872951508,-0.392859727144241,0.244709819555283,-0.384306908919572,-0.165356526615982,0.237904283698049,5
0.919998168945313,-0.0713604390621185,2.73194289207458,1.26402270793915,-0.196318384305134,2.8813460641717,1.26438752200817,2306.421,2941.285,3136.872,705.8074,-0.1734522,0.02247654,0.08437643,-0.206459164619446,-0.396638453006744,0.250843197107315,-0.397661187980262,-0.171102499820431,0.246171218589148,5
0.94000244140625,-0.0757475793361664,2.72393584251404,1.26916241645813,-0.204407453948074,2.87786556348678,1.26939504145298,2317.441,2944.773,3161.365,693.0809,-0.1753622,0.02311061,0.08755063,-0.21935747563839,-0.400357097387314,0.25698384642601,-0.411081631631503,-0.176876941799768,0.254479112513653,5
0.960006713867188,-0.08039391040802,2.71585440635681,1.27443027496338,-0.212765478812529,2.87426933888379,1.27456905699201,2331.918,2947.556,3178.976,685.1461,-0.1772968,0.02375917,0.09063593,-0.232316941022873,-0.404071986675262,0.263395041227341,-0.424549556012544,-0.182671813410681,0.262816399271726,5
0.979995727539063,-0.0852994322776794,2.70769953727722,1.27982437610626,-0.22138664033507,2.87055989392801,1.27990596665734,2346.406,2954.093,3204.374,664.8254,-0.1793357,0.02441355,0.09370576,-0.24527545273304,-0.40774729847908,0.269707262516022,-0.438046240701377,-0.188479059778567,0.271171490030365,5
1,-0.0904652774333954,2.69947052001953,1.28534996509552,-0.230284798736574,2.86673126495361,1.28541435058594,2355.331,2951.443,3222.735,667.3281,-0.1812936,0.02508658,0.09668825,-0.258291840553284,-0.411445528268814,0.276277780532837,-0.451584000205995,-0.194303979492187,0.279552008056641,5
1.02000427246094,-0.095891535282135,2.69116759300232,1.29100823402405,-0.239454009753966,2.86278600961093,1.2910905289958,2376.086,2959.634,3241.257,646.3598,-0.1832926,0.02576415,0.09963877,-0.27131387591362,-0.415141224861145,0.282915264368057,-0.465144357597929,-0.200138622445408,0.287946515251652,5
1.04000854492188,-0.1015784740448,2.68279051780701,1.29680120944977,-0.248894644448595,2.85872396824263,1.29693473159157,2388.577,2961.001,3258.456,642.0115,-0.1852793,0.02645406,0.1025266,-0.284345984458923,-0.418848723173141,0.289649695158005,-0.47871923339115,-0.205979512261105,0.296350010028666,5
1.05999755859375,-0.107525840401649,2.67433929443359,1.30272936820984,-0.258599401509697,2.85454828239877,1.30294243851408,2404.034,2964.816,3277.145,630.7098,-0.1872793,0.02715595,0.1053577,-0.297369658946991,-0.42255899310112,0.296409040689468,-0.492290296490434,-0.211818761581115,0.30475114456651,5
1.08000183105469,-0.113733530044556,2.66581392288208,1.30879342556,-0.268583149539609,2.85025255453512,1.30912285413647,2417.353,2966.776,3296.784,622.5874,-0.1892671,0.02787332,0.1081222,-0.310384541749954,-0.426274091005325,0.303204506635666,-0.50587040849135,-0.217661904390701,0.313157880805523,5
1.10000610351563,-0.12020155787468,2.65721344947815,1.31499719619751,-0.278838480013141,2.84583997233313,1.31547139222872,2435.282,2971.06,3310.813,613.4283,-0.1912528,0.02860489,0.1108054,-0.323402106761932,-0.430019557476044,0.310186803340912,-0.519441457145546,-0.223501147495394,0.321559006401169,5
1.12001037597656,-0.126928716897964,2.64853858947754,1.32133710384369,-0.289365134970699,2.84131064678559,1.32198789310157,2450.958,2976.526,3333.91,595.5316,-0.1933332,0.02934502,0.1134588,-0.33635801076889,-0.433748364448547,0.316996604204178,-0.532995796775449,-0.22933320117373,0.329949788314817,5
1.13999938964844,-0.133915290236473,2.63978815078735,1.32781779766083,-0.300154365346813,2.83666834237095,1.3286669406667,2461.721,2974.99,3349.47,598.2214,-0.1953567,0.03010877,0.1160082,-0.34932753443718,-0.43752658367157,0.324036777019501,-0.546515580872639,-0.235150386571708,0.338319178707607,5
1.16000366210938,-0.141159579157829,2.63096261024475,1.33443403244019,-0.311222084148811,2.83190621216671,1.33551838583369,2479.675,2981.704,3377.784,571.5096,-0.197475,0.03087865,0.1185509,-0.362215310335159,-0.441275924444199,0.330812364816666,-0.560014026276883,-0.240958390526247,0.34667535943296,6
1.18000793457031,-0.14866279065609,2.6220600605011,1.34119629859924,-0.322559451663168,2.82702805965467,1.34253675639879,2491.792,2979.37,3385.912,581.619,-0.199459,0.03167616,0.1209607,-0.375160962343216,-0.445124387741089,0.338111072778702,-0.573473482003304,-0.246749618311663,0.355007403690405,6
1.19999694824219,-0.156421765685081,2.61308193206787,1.34809291362762,-0.334156660511822,2.8220381046756,1.34971598112778,2514.959,2991.34,3419.178,538.548,-0.2016647,0.032464,0.1234293,-0.387948781251907,-0.448902547359467,0.344830513000488,-0.58687652428584,-0.252516572968185,0.36330452533874,6
1.22000122070313,-0.164438381791115,2.60402584075928,1.35513710975647,-0.346030421585499,2.81692915700008,1.35706640485806,2516.043,2980.333,3426.439,569.6177,-0.2036029,0.03329422,0.1257226,-0.400832056999207,-0.452807307243347,0.352206975221634,-0.600236516861372,-0.258265004538453,0.371574997167698,6
1.24000549316406,-0.172709181904793,2.59489321708679,1.36231696605682,-0.358170848086624,2.8117054706409,1.36458190719098,2548.51,2997.499,3458.867,512.6449,-0.2057915,0.03410592,0.1280932,-0.413538366556168,-0.456634044647217,0.35899344086647,-0.613536214864368,-0.263987493038594,0.379808143784027,6
1.260009765625,-0.181236073374748,2.58568120002747,1.3696471452713,-0.37057666480527,2.80636759428526,1.37226169871082,2548.376,2986.457,3461.719,549.2836,-0.2077111,0.03496067,0.1302809,-0.426346004009247,-0.460603594779968,0.366507142782211,-0.626768731761373,-0.26968107538565,0.387999702095469,6
1.27999877929688,-0.190014347434044,2.57639217376709,1.37710976600647,-0.383236695417198,2.80092033679326,1.3800988607405,2579.588,3003.032,3502.067,485.4937,-0.2099402,0.03578972,0.1325815,-0.438912987709045,-0.464446038007736,0.373129516839981,-0.639917282339435,-0.275338529371412,0.396139281255613,6
1.30000305175781,-0.199047476053238,2.56702256202698,1.38472580909729,-0.396168722856641,2.79535604666509,1.38810440176341,2573.937,2987.049,3499.231,538.9158,-0.2117511,0.03667826,0.1346412,-0.451654314994812,-0.468477696180344,0.380800485610962,-0.652995275331231,-0.280965624398954,0.404235181908735,6
1.32000732421875,-0.208329111337662,2.55757594108582,1.39247250556946,-0.409361504843077,2.78967956113998,1.39627136227237,2616.116,3010.925,3543.645,451.7949,-0.2139935,0.03752034,0.1368737,-0.464082688093185,-0.47233185172081,0.387335211038589,-0.6659860834168,-0.286555206197011,0.41227711095171,6
1.33999633789063,-0.217864155769348,2.54804730415344,1.40037775039673,-0.422802873722428,2.78389611561957,1.40459220990988,2603.126,2990.663,3529.883,528.1862,-0.2157192,0.03843585,0.1388077,-0.476754933595657,-0.476437449455261,0.395261943340302,-0.678873453515705,-0.29210028151913,0.420255006953505,6
1.36000061035156,-0.227643251419067,2.53844261169434,1.40840375423431,-0.436511415158101,2.77799771321212,1.41307845008695,2649.399,3017.616,3594.779,411.5247,-0.2180618,0.03927934,0.1410226,-0.488952577114105,-0.480231136083603,0.401299089193344,-0.691670720740693,-0.297606588091785,0.42817712498415,6
1.3800048828125,-0.237676188349724,2.52875328063965,1.41660141944885,-0.450474904562636,2.77198961381608,1.4217225152016,2624.325,2987.586,3552.723,540.3593,-0.2195121,0.04024298,0.1427562,-0.501647889614105,-0.484466224908829,0.40988427400589,-0.704361775018035,-0.303067194200314,0.436033492140578,6
1.40000915527344,-0.247946560382843,2.5189905166626,1.42490375041962,-0.464691155755482,2.76587275808388,1.43052305190393,2697.386,3033.834,3650.197,341.1504,-0.2221236,0.0410593,0.1450302,-0.513517916202545,-0.488132864236832,0.415115922689438,-0.716940488958393,-0.308479463400265,0.443820315276901,7
1.41999816894531,-0.258472591638565,2.50913953781128,1.43339645862579,-0.47914673136562,2.75965292774086,1.43947174182117,2633.076,2977.912,3567.349,579.7252,-0.2231809,0.04208809,0.1465106,-0.526301622390747,-0.492545813322067,0.424637228250504,-0.729391385793766,-0.313836736470737,0.451528013536465,7
1.44000244140625,-0.269226431846619,2.49922037124634,1.44196462631226,-0.493861275572861,2.75332167044526,1.4485807456364,2750.701,3052.013,3724.625,242.372,-0.2262014,0.04285071,0.1489404,-0.537694454193115,-0.495952606201172,0.42840850353241,-0.741727567798258,-0.319144650954242,0.459164697851088,7
1.46000671386719,-0.280242592096329,2.48920631408691,1.45076286792755,-0.508821304757097,2.74688478782212,1.45784171634646,2629.458,2960.751,3556.242,666.0392,-0.2264971,0.04398844,0.1500151,-0.550808608531952,-0.500708341598511,0.43991032242775,-0.753933682518823,-0.324396601119133,0.466720864320996,7
1.47999572753906,-0.291470617055893,2.47913384437561,1.45958316326141,-0.524012471663969,2.74034845309416,1.46724577231745,2831.666,3087.607,3823.026,70.48561,-0.2304007,0.04462229,0.152827,-0.561403453350067,-0.50362753868103,0.441016554832458,-0.765994882555672,-0.329586198544069,0.474187321698441,7
1.5,-0.302974700927734,2.46895432472229,1.46870112419128,-0.539455198877605,2.73370387899399,1.4768055561018,2587.546,2924.189,3508.986,848.3829,-0.2293855,0.0459532,0.1532521,-0.575203597545624,-0.508978009223938,0.45589953660965,-0.777924000354858,-0.334718964672088,0.481572013878822,7
1.52000427246094,-0.314677357673645,2.45871663093567,1.47782337665558,-0.555135099954955,2.72695725560613,1.48651216180595,2779.539,3271.63,3803.29,0,-0.2333355,0.04703588,0.1569997,-0.58513355255127,-0.511882603168488,0.456113517284393,-0.789706299681991,-0.339788558913217,0.48886581843107,7
1.54000854492188,-0.326654106378555,2.44837093353271,1.48724770545959,-0.571049184024557,2.72010986981902,1.49636373793799,2632.624,2844.25,3471.341,967.4147,-0.2317227,0.04886535,0.1570562,-0.598835229873657,-0.517286956310272,0.471213936805725,-0.801336412291853,-0.344792671461508,0.496065412155667,7
1.55999755859375,-0.338819324970245,2.4379723072052,1.49665796756744,-0.587181951496087,2.71316839067337,1.50635068951315,2793.404,3306.578,3800.432,0,-0.2356051,0.05050445,0.1605513,-0.608264267444611,-0.519936382770538,0.470514208078384,-0.812800388649436,-0.349725300221754,0.503162159625937,7
1.58000183105469,-0.351251810789108,2.42747354507446,1.50635397434235,-0.60355483331529,2.70612359703193,1.51648628330776,2706.192,2801.062,3502.089,953.5306,-0.2342202,0.05276321,0.1598668,-0.62162458896637,-0.524940073490143,0.484800338745117,-0.824110582941666,-0.354591760855452,0.510163708672098,7
1.60000610351563,-0.363868713378906,2.41692519187927,1.51604461669922,-0.620152298932711,2.69898217125626,1.52676090517188,2808.669,3326.963,3813.08,0,-0.2382656,0.05487363,0.162657,-0.630845487117767,-0.527418732643127,0.484533846378326,-0.835253140422976,-0.35938609205264,0.51706148254665,7
1.6199951171875,-0.376737982034683,2.40628886222839,1.52597880363464,-0.636958033083316,2.69175113334911,1.53716445517924,2792.062,2788.586,3603.035,820.1875,-0.2380887,0.05733863,0.16157,-0.643461465835571,-0.531815946102142,0.4967100918293,-0.846214826007804,-0.364102599125749,0.523847288101157,7
1.63999938964844,-0.389790624380112,2.39560508728027,1.53591918945313,-0.653994195024907,2.68442094880091,1.54771065096602,2843.442,3261.17,3890.676,0,-0.2424116,0.05959008,0.1634721,-0.652632832527161,-0.53418630361557,0.497017085552216,-0.857007552155828,-0.368746407673381,0.530528499715628,7
1.66000366210938,-0.403084367513657,2.38484001159668,1.54607450962067,-0.671244443874359,2.67699864863716,1.55838937674714,2851.611,2804.242,3738.33,648.4388,-0.2432483,0.06197372,0.1622927,-0.664687156677246,-0.538248360157013,0.507766723632813,-0.867618167158098,-0.373311858882592,0.53709697585572,7
1.68000793457031,-0.416564762592316,2.37402200698853,1.55626571178436,-0.688705090349012,2.66948582025311,1.56919834868089,2864.083,3216.01,3957.86,0,-0.2474066,0.06414504,0.1637916,-0.674020946025848,-0.54090541601181,0.509558320045471,-0.878042061913515,-0.377796969585941,0.543549863268291,8
1.69999694824219,-0.430273532867432,2.36312556266785,1.5666378736496,-0.706358800111611,2.66188992212981,1.58012683598675,2905.368,2825.966,3867.908,476.0354,-0.2488942,0.06624951,0.1630724,-0.685435354709625,-0.54482227563858,0.518607497215271,-0.888267004546665,-0.382196476749158,0.549879589839776,8
1.72000122070313,-0.444171905517578,2.35217022895813,1.57706546783447,-0.724228658537036,2.6542010212754,1.5911891296115,2918.588,3121.121,4037.262,0,-0.2525188,0.06803747,0.1643154,-0.694922029972076,-0.547770619392395,0.521379292011261,-0.898304216251578,-0.386515208538549,0.556093102023817,8
1.74000549316406,-0.458293318748474,2.34113311767578,1.58766973018646,-0.742297311768984,2.64642658456943,1.60237448669139,2935.534,2869.95,3944.236,359.1433,-0.2538664,0.0696976,0.1641077,-0.70606929063797,-0.551858603954315,0.530214428901672,-0.908141534469281,-0.390747931744771,0.562182870617028,8
1.760009765625,-0.472604483366013,2.33002948760986,1.59834671020508,-0.760560719141003,2.63856835059778,1.61368040586141,2946.824,3101.877,4063.091,0,-0.2568076,0.0710552,0.1656482,-0.715559184551239,-0.555178582668304,0.533851265907288,-0.91777478390713,-0.394892849856044,0.568146310914365,8
1.77999877929688,-0.487131655216217,2.31884121894836,1.60919201374054,-0.779000609654483,2.63063418086074,1.62509557650306,2952.415,2899.499,3973.237,315.3496,-0.2577375,0.07230837,0.1660709,-0.726358532905579,-0.559413135051727,0.542263567447662,-0.927192788821983,-0.398945154262308,0.57397650459845,8
1.80000305175781,-0.501844227313995,2.30758571624756,1.62010598182678,-0.797640935141499,2.62261376955408,1.63663482594136,2988.922,3067.843,4089.098,0,-0.2600955,0.07321854,0.1678867,-0.735628485679626,-0.562779307365417,0.545697569847107,-0.936405971974637,-0.402909329586356,0.579679903854719,8
1.82000732421875,-0.516772091388702,2.29624199867249,1.63120210170746,-0.816463410111527,2.61451498441355,1.64828683458664,2951.985,2929.637,3958.708,336.454,-0.2602606,0.07415006,0.1686202,-0.746396899223328,-0.567184090614319,0.554805517196655,-0.94540321420156,-0.406780591562751,0.585249625391268,8
1.83999633789063,-0.531878530979156,2.284832239151,1.64236152172089,-0.835449117627072,2.60634596486888,1.66003989195343,2993.293,3111.093,4075.379,0,-0.2621909,0.07482933,0.1709515,-0.755318701267242,-0.570494115352631,0.557971298694611,-0.954174163352093,-0.410554485950274,0.590679260733698,8
1.86000061035156,-0.54719614982605,2.27333664894104,1.65370166301727,-0.854622615239374,2.59809614449182,1.6719092003358,2955.077,2931.617,3939.167,386.7148,-0.2617823,0.07563668,0.1719058,-0.765881657600403,-0.574776351451874,0.567010104656219,-0.962728579444532,-0.414235212212131,0.595974851798267,8
1.8800048828125,-0.562685072422028,2.26178240776062,1.66509187221527,-0.873964974649439,2.58977366760063,1.68388304221498,3019.366,3117.486,4078.876,0,-0.2634623,0.07619245,0.1743738,-0.774445295333862,-0.577717304229736,0.569512486457825,-0.971056158224177,-0.417818336715394,0.601130019760457,8
1.90000915527344,-0.578384518623352,2.25014734268188,1.67667138576508,-0.893471623792247,2.58138050142717,1.69595858726494,2963.979,2939.448,3920.329,427.3233,-0.262641,0.07696426,0.1752245,-0.784971237182617,-0.581752836704254,0.578978717327118,-0.979153483542501,-0.421302389586788,0.606142649861596,8
1.91999816894531,-0.594247996807098,2.23846197128296,1.68829107284546,-0.913122862707269,2.57292512231409,1.70812364027167,3011.007,3162.929,4076.979,0,-0.2642202,0.07757507,0.1778584,-0.793178200721741,-0.584267199039459,0.580983400344849,-0.987011339258123,-0.424683405378145,0.611007036871143,9
1.94000244140625,-0.610318601131439,2.2267050743103,1.70009636878967,-0.932943991899774,2.5643966441608,1.72039386345315,2980.834,2927.531,3922.369,455.7788,-0.2631933,0.07843066,0.1785689,-0.803526103496552,-0.587848246097565,0.590262889862061,-0.994638524886308,-0.427965170275055,0.615728628108227,9
1.96000671386719,-0.626548409461975,2.2149076461792,1.71193647384644,-0.952915303453826,2.55580354673295,1.73275705667061,3023.661,3174.788,4086.642,0,-0.2646751,0.07914122,0.1810649,-0.811490297317505,-0.589865326881409,0.592006862163544,-1.00202586176059,-0.431143734953757,0.620301741541062,9
1.97999572753906,-0.642980575561523,2.203049659729,1.72395622730255,-0.973016570682103,2.54715453300902,1.74520069864106,3010.492,2924.831,3940.392,443.1463,-0.2636982,0.0800603,0.1815582,-0.821612417697906,-0.592902839183807,0.600988626480103,-1.00916501115878,-0.434215511495054,0.624721215103391,9
2,-0.659567534923553,2.19116115570068,1.73600733280182,-0.993273599084619,2.53843849960327,1.7577407641983,3025.509,3183.053,4106.956,0,-0.2651347,0.0808652,0.1838697,-0.829346716403961,-0.594425559043884,0.602553963661194,-1.01606400046349,-0.437183953857422,0.628992018127441,9
2.02000427246094,-0.676351428031921,2.17922306060791,1.74823021888733,-1.01366615605493,2.52966415204104,1.77036472839513,3039.243,2921.062,3970.344,415.6942,-0.2642458,0.08182286,0.1841852,-0.839196979999542,-0.596919178962708,0.611146032810211,-1.02271452148052,-0.440045487257004,0.633109007445237,9
2.04000854492188,-0.693286657333374,2.16726207733154,1.76048731803894,-1.03418924440916,2.52083364047092,1.78306949773667,3034.747,3184.866,4122.102,0,-0.2655939,0.08268021,0.186285,-0.846762299537659,-0.598050355911255,0.612857758998871,-1.02911391720548,-0.442798968459032,0.637070538244476,9
2.05999755859375,-0.710409581661224,2.15526294708252,1.77289688587189,-1.05482201812353,2.5119559343546,1.79584216754118,3069.082,2919.537,4017.167,362.0538,-0.2649488,0.08359769,0.1865564,-0.85614675283432,-0.599952042102814,0.620476901531219,-1.03525504859546,-0.445441325732794,0.640872191117535,9
2.08000183105469,-0.727681040763855,2.14324903488159,1.78534281253815,-1.07559088172821,2.50301967256038,1.80869908347065,3055.28,3154.643,4154.052,0,-0.266142,0.08437876,0.1883654,-0.863571345806122,-0.600691914558411,0.622298717498779,-1.04114485287423,-0.447975543971863,0.644518260536375,9
2.10000610351563,-0.745132684707642,2.13120651245117,1.79793012142181,-1.09647498538954,2.49403382618922,1.82162733848484,3092.221,2931.802,4060.516,301.178,-0.2656104,0.0851492,0.1886559,-0.872582018375397,-0.60212117433548,0.629368603229523,-1.04677621342161,-0.450398561093403,0.648004340974112,9
2.1199951171875,-0.76272988319397,2.11915445327759,1.81055998802185,-1.11745308225396,2.48500753716864,1.83461377976925,3067.198,3143.47,4170.709,0,-0.2665888,0.08578271,0.1903719,-0.879859268665314,-0.602601408958435,0.631490707397461,-1.0521429102862,-0.45270770082608,0.651326581984514,9
2.13999938964844,-0.780496954917908,2.10708332061768,1.82331144809723,-1.138551967509,2.47592927627801,1.8476749948214,3106.126,2940.536,4104.567,247.1577,-0.2661238,0.08634783,0.1908651,-0.888351023197174,-0.603562533855438,0.637571752071381,-1.05725102347782,-0.454905579228273,0.654488747383304,9
2.16000366210938,-0.798406422138214,2.0950083732605,1.83610820770264,-1.15975039167652,2.46680818657414,1.86079782920208,3097.339,3104.21,4194.231,0,-0.2668035,0.08671138,0.1924481,-0.895477712154388,-0.603749632835388,0.639837622642517,-1.0620943502576,-0.456989527434725,0.657486997379635,9
2.18000793457031,-0.816478729248047,2.08292078971863,1.84902000427246,-1.18104303873349,2.45764655539322,1.87397899203979,3111.483,2965.194,4126.609,206.4017,-0.266224,0.08699875,0.1931437,-0.903617203235626,-0.604380905628204,0.645591497421265,-1.06667099276523,-0.458958728849171,0.660320157107579,10
2.19999694824219,-0.834687888622284,2.07083511352539,1.86197423934937,-1.20240821395574,2.44845371736898,1.88720505326679,3102.561,3097.141,4206.487,0,-0.2666096,0.08708812,0.1948684,-0.910458326339722,-0.604285180568695,0.647710978984833,-1.07097597819164,-0.460811043810786,0.662985148161421,10
2.22000122070313,-0.853054165840149,2.05874228477478,1.87504136562347,-1.22387315175433,2.43921795429519,1.90049287228091,3101.479,2979.005,4127.096,211.3935,-0.2656226,0.08715905,0.1957879,-0.91831111907959,-0.604646027088165,0.653355240821838,-1.07501419914593,-0.462548577472581,0.665484999299265,10
2.24000549316406,-0.8715500831604,2.04665803909302,1.88814449310303,-1.24541615591711,2.42994860144581,1.91382901809327,3110.989,3098.573,4204.726,0,-0.2656503,0.08702518,0.1977036,-0.924796879291534,-0.604214906692505,0.65515410900116,-1.07878069424208,-0.464169195088763,0.667816639186824,10
2.260009765625,-0.89019900560379,2.03457117080688,1.90136587619781,-1.26703177594152,2.42064800401982,1.92721011658316,3091.752,2993.457,4097.809,244.4138,-0.2641563,0.08695503,0.1987322,-0.932447016239166,-0.604332208633423,0.661067008972168,-1.08227399942825,-0.465672266718726,0.669979161506271,10
2.27999877929688,-0.908966720104218,2.02250242233276,1.9146066904068,-1.28869796983554,2.41132564607061,1.9406225227075,3104.132,3120.095,4195.523,0,-0.2639704,0.08670092,0.2008946,-0.938390254974365,-0.603444278240204,0.662041425704956,-1.08549040888332,-0.467056197851165,0.67197027217779,10
2.30000305175781,-0.927884876728058,2.01043701171875,1.92797493934631,-1.31044231452835,2.40196966201596,1.95408330789913,3073.058,2995.162,4054.238,312.5646,-0.2618718,0.08662932,0.2018572,-0.945901691913605,-0.603269875049591,0.668412268161774,-1.08843358680109,-0.468322565086307,0.673792239511894,10
2.32000732421875,-0.946909964084625,1.99839973449707,1.94134569168091,-1.33224276726637,2.39258953623693,1.96757882664355,3089.737,3159.529,4173.979,0,-0.2615315,0.08641039,0.204214,-0.951256334781647,-0.601859390735626,0.668537497520447,-1.09109983431736,-0.469469776906228,0.675442773735451,10
2.33999633789063,-0.96608167886734,1.98637366294861,1.95485186576843,-1.35407709248145,2.38319483607731,1.98109531406483,3065.504,2989.975,4001.469,383.3603,-0.2590031,0.08645482,0.2049577,-0.958587348461151,-0.601309299468994,0.675308406352997,-1.09348640563071,-0.470496651869278,0.67692017506657,10
2.36000061035156,-0.98534631729126,1.97438836097717,1.96833610534668,-1.37597305876702,2.37377361348711,1.99464996024512,3064.765,3198.991,4160.018,0,-0.2586968,0.08639235,0.2074039,-0.963233709335327,-0.599257826805115,0.674213290214539,-1.09559602313537,-0.471404361345641,0.678226128796969,10
2.3800048828125,-1.00475490093231,1.96242260932922,1.98196685314178,-1.39790843013262,2.36433543599182,2.00822900004707,3058.604,2974.779,3950.238,459.5759,-0.2557945,0.08666568,0.2077377,-0.97043240070343,-0.598285377025604,0.681539416313171,-1.09742594550583,-0.472191725819537,0.679358937915576,10
2.40000915527344,-1.02424311637878,1.95050966739655,1.99555706977844,-1.41987760424917,2.35488271411715,2.02182896536211,3031.628,3254.948,4134.399,0,-0.2556022,0.0868987,0.2102005,-0.974402368068695,-0.595648646354675,0.679509520530701,-1.09897546783438,-0.472858441988871,0.680318166050934,10
2.41999816894531,-1.0438666343689,1.93862783908844,2.00928688049316,-1.44185817738692,2.34542508756209,2.03543598721428,3066.172,2945.802,3925.432,502.8648,-0.2526892,0.08744287,0.2101137,-0.981184005737305,-0.594091176986694,0.686487793922424,-1.10024313330221,-0.473403883025206,0.681102911362803,10
2.44000244140625,-1.06355786323547,1.92681121826172,2.02295994758606,-1.46387808506052,2.33595053645515,2.04906735901791,3015.511,3269.384,4130.243,0,-0.2526637,0.08794478,0.2122957,-0.984561085700989,-0.590837717056274,0.683650732040405,-1.10123038958312,-0.473828671822132,0.681714070030222,10
2.46000671386719,-1.08337545394897,1.9150378704071,2.03676319122314,-1.48591492338117,2.32646870056377,2.06270921169857,3082.304,2924.99,3926.75,498.4629,-0.2499686,0.08866978,0.2117721,-0.990871965885162,-0.588668167591095,0.690164685249329,-1.10193578218388,-0.474132182551855,0.682150741652607,10
2.47999572753906,-1.10325145721436,1.90333843231201,2.0505051612854,-1.50794623031618,2.31698924467309,2.07634764018804,2998.118,3281.503,4125.057,0,-0.2501177,0.08936627,0.2136488,-0.993798196315765,-0.584964513778687,0.687097191810608,-1.10235882472314,-0.474314205938057,0.682412625136718,11
2.5,-1.12323760986328,1.89169609546661,2.06434726715088,-1.52999999932945,2.30750012397766,2.08999997377396,3101.373,2901.892,3969.203,444.4731,-0.2479243,0.09012251,0.2129323,-0.999316275119781,-0.582122325897217,0.692109227180481,-1.10250000050292,-0.474374949932098,0.682500019669533,11
2.52000427246094,-1.14327764511108,1.88013482093811,2.07813239097595,-1.55205376834272,2.29801100328223,2.10365230735988,3012.597,3236.91,4141.277,0,-0.2481139,0.09076946,0.2143183,-1.00199770927429,-0.57806259393692,0.689254522323608,-1.10235882472314,-0.474314205938057,0.682412625136718,11
2.54000854492188,-1.16341209411621,1.86864137649536,2.09198880195618,-1.57410188948011,2.28852431271001,2.11730114464159,3118.492,2904.602,4028.981,344.3859,-0.246483,0.09129652,0.2136298,-1.00672626495361,-0.574672937393188,0.692823529243469,-1.10193535162022,-0.474131997292339,0.682150475113189,11
2.55999755859375,-1.18359673023224,1.85723304748535,2.10579562187195,-1.59612191359838,2.27904971150017,2.13093258853001,3020.854,3185.99,4165.267,0,-0.2465714,0.09165481,0.214742,-1.00923037528992,-0.570418000221252,0.690347135066986,-1.10123038958312,-0.473828671822132,0.681714070030222,11
2.58000183105469,-1.20386171340942,1.84589970111847,2.11964845657349,-1.61814182127198,2.26957516039323,2.14456396033363,3114.046,2915.92,4086.607,255.2522,-0.2451615,0.09178794,0.2143736,-1.01324284076691,-0.566667139530182,0.692646622657776,-1.10024313330221,-0.473403883025206,0.681102911362804,11
2.60000610351563,-1.22417414188385,1.83465301990509,2.13346147537231,-1.64013916343638,2.26011031859448,2.15818136301212,3039.648,3129.376,4180.997,0,-0.2448537,0.09166823,0.2154288,-1.01562750339508,-0.562334954738617,0.690651476383209,-1.09897439291323,-0.472857979480329,0.680317500623536,11
2.6199951171875,-1.24455666542053,1.82348418235779,2.14730882644653,-1.66209156852628,2.2506648119635,2.17177094750084,3094.774,2944.486,4104.788,201.6641,-0.2432451,0.09130862,0.215541,-1.01912569999695,-0.55844247341156,0.692372977733612,-1.09742594550583,-0.472191725819537,0.679358937915576,11
2.63999938964844,-1.26498031616211,1.8124041557312,2.16111183166504,-1.68402693989188,2.24122663446822,2.18534998730279,3044.772,3092.415,4187.358,0,-0.2424483,0.09063467,0.2168626,-1.02117419242859,-0.553994715213776,0.69014573097229,-1.09559602313537,-0.471404361345641,0.67822612879697,11
2.66000366210938,-1.28547179698944,1.80140054225922,2.17496466636658,-1.70592290617745,2.23180541187802,2.19890463348308,3045.434,2976.487,4055.739,243.779,-0.2399567,0.08988983,0.2173677,-1.02457177639008,-0.550184845924377,0.692642211914063,-1.09348640563071,-0.470496651869278,0.67692017506657,10
2.68000793457031,-1.30599188804626,1.79048931598663,2.18875479698181,-1.72777388024004,2.22240354818443,2.21243142733407,3023.477,3117.805,4155.377,0,-0.2386666,0.08883825,0.2193027,-1.0260021686554,-0.545561909675598,0.689507842063904,-1.09109790637238,-0.469468947365361,0.675441580245664,9
2.69999694824219,-1.32658183574677,1.77965188026428,2.20262384414673,-1.74955768413056,2.21303058593937,2.22591663964878,2982.368,2992.247,3940.824,383.511,-0.2349116,0.08799759,0.2199565,-1.02949666976929,-0.5418661236763,0.693451762199402,-1.08843358680109,-0.468322565086308,0.673792239511893,9
2.72000122070313,-1.34718072414398,1.76891577243805,2.21638965606689,-1.77130202882336,2.20367460188472,2.23937742484041,2980.027,3179.088,4108.551,0,-0.2333148,0.08688255,0.2225443,-1.02993762493134,-0.536802053451538,0.688289642333984,-1.08549040888332,-0.467056197851165,0.671970272177789,8
2.74000549316406,-1.36785840988159,1.75825226306915,2.23028802871704,-1.79298473688851,2.19434513834902,2.25280005402337,2916.804,2991.825,3761.171,610.1088,-0.2280475,0.0863472,0.2228076,-1.03389108181,-0.533185303211212,0.694922983646393,-1.08227143928024,-0.465671165158559,0.669977576652695,8
2.760009765625,-1.38851845264435,1.74770188331604,2.24402785301208,-1.81460030360772,2.18504456385877,2.26618111951479,2889.991,3316.471,4029.915,0,-0.2265178,0.08567794,0.2261025,-1.03300786018372,-0.527518033981323,0.686992108821869,-1.07877792518082,-0.464168003639063,0.667814925005998,7
2.77999877929688,-1.40926587581635,1.73722696304321,2.25795125961304,-1.83612684690458,2.17578229366013,2.27950707526701,2867.144,2948.518,3558.278,886.0494,-0.2199808,0.08591822,0.2254628,-1.03736317157745,-0.52373868227005,0.696167409420013,-1.07501419914593,-0.462548577472581,0.665484999299265,6
2.80000305175781,-1.42996513843536,1.72688162326813,2.27165007591248,-1.85759178470316,2.16654653058634,2.29279489428112,2781.995,3467.925,3953.064,0,-0.2189204,0.08617587,0.2291041,-1.03496825695038,-0.517267227172852,0.68493664264679,-1.07097597819164,-0.460811043810786,0.662985148161422,5
2.82000732421875,-1.45075666904449,1.71662127971649,2.28557562828064,-1.87897323600723,2.1573466894188,2.30603103117811,2853.785,2871.271,3376.342,1135.509,-0.2116787,0.08751585,0.2270308,-1.03957223892212,-0.513015866279602,0.696272373199463,-1.06666760390385,-0.458957270716794,0.660318059240952,5
2.83999633789063,-1.4714720249176,1.70650565624237,2.29922223091125,-1.90024960698239,2.14819206138118,2.31920211834584,2663.222,3631.146,3871.496,0,-0.2115008,0.0890582,0.2305901,-1.03576683998108,-0.505772531032562,0.682331502437592,-1.06209435025759,-0.456989527434725,0.657486997379635,4
2.86000061035156,-1.49226760864258,1.69649338722229,2.31308770179749,-1.9214480311499,2.13907097167731,2.33232495272651,2889.426,2753.384,3300.013,1260.367,-0.204731,0.09152681,0.2269693,-1.03978478908539,-0.500621020793915,0.693271160125732,-1.05725102347782,-0.454905579228273,0.654488747383304,3
2.8800048828125,-1.51296901702881,1.68663954734802,2.32665228843689,-1.94254691640495,2.12999271078668,2.34538616777867,2602.418,3695.638,3828.187,0,-0.2056269,0.09424111,0.2295666,-1.03506481647491,-0.492701470851898,0.678228378295898,-1.0521429102862,-0.45270770082608,0.651326581984514,2
2.90000915527344,-1.53371953964233,1.67691135406494,2.34037089347839,-1.96354098577478,2.12095954924324,2.35838249680481,2976.76,2646.329,3384.162,1148.799,-0.2008125,0.09732217,0.2247144,-1.03753626346588,-0.486395120620728,0.685930013656616,-1.04677201701582,-0.450396755497224,0.648001743199023,1
2.91999816894531,-1.55437171459198,1.66734945774078,2.3538122177124,-1.98440911693069,2.11198057539494,2.37130086407726,2605.51,3629.4,3848.44,0,-0.202715,0.1005685,0.2257124,-1.0326052904129,-0.47810897231102,0.672069489955902,-1.04114485287423,-0.447975543971863,0.644518260536375,0
2.94000244140625,-1.57502520084381,1.65793514251709,2.36728763580322,-2.00517798053537,2.10304431360073,2.38415778000673,3076.807,2582.096,3647.784,787.2924,-0.2009083,0.1033514,0.2205884,-1.03267741203308,-0.470716059207916,0.673770308494568,-1.03525504859546,-0.445441325732794,0.640872191117535,0
2.96000671386719,-1.59559369087219,1.64868378639221,2.38056015968323,-2.02582645724542,2.09415985092405,2.3969401707136,2697.63,3400.407,3940.09,0,-0.2031438,0.1060243,0.2197242,-1.02841699123383,-0.462554603815079,0.663625538349152,-1.02910913225408,-0.442796909628122,0.637067576131623,0
2.97999572753906,-1.61611235141754,1.63959300518036,2.39372992515564,-2.04633384260397,2.08533609591429,2.40963521915279,3153.048,2611.614,4013.4,243.5157,-0.204437,0.1073732,0.2156869,-1.02593994140625,-0.454548329114914,0.658491551876068,-1.02271452148052,-0.440045487257004,0.633109007445237,0
3,-1.6365704536438,1.63065195083618,2.40679121017456,-2.06672639957428,2.07656174835205,2.42225918334961,2836.19,3065.11,4088.001,0,-0.2060259,0.1082109,0.2135804,-1.02290320396423,-0.447054088115692,0.65306293964386,-1.01606400046349,-0.437183953857422,0.628992018127441,0
3.02000427246094,-1.65696859359741,1.6218501329422,2.41975045204163,-2.0869834279768,2.06784571494631,2.43479924890685,2936.968,2888.373,4129.053,0,-0.2070102,0.1081939,0.2120621,-1.01989710330963,-0.440073847770691,0.647958219051361,-1.00916501115878,-0.434215511495054,0.624721215103391,0
3.04000854492188,-1.67730796337128,1.61317706108093,2.4326171875,-2.10709998486405,2.05919012250926,2.44725235590455,2897.197,2894.045,4133.356,0,-0.2068765,0.1074297,0.211339,-1.01696538925171,-0.433662474155426,0.64333963394165,-1.00202031904361,-0.431141350077486,0.620298310335216,0
3.05999755859375,-1.69758903980255,1.60462284088135,2.44539833068848,-2.12705600675913,2.05060360379452,2.45960608409476,2897.51,2890.24,4108.567,0,-0.2055737,0.1059087,0.2113883,-1.0140597820282,-0.427706152200699,0.639056205749512,-0.994638524886308,-0.427965170275055,0.615728628108227,0
3.08000183105469,-1.71780979633331,1.5961834192276,2.45809006690979,-2.14687713595163,2.04207512564123,2.47187630727625,2911.233,2878.808,4079.847,0,-0.2033164,0.1035637,0.2120883,-1.01104521751404,-0.421982049942017,0.634590983390808,-0.987011339258122,-0.424683405378145,0.611007036871143,0
3.10000610351563,-1.73797595500946,1.5878518819809,2.47072005271912,-2.16654331551667,2.03361331798384,2.48405060925705,2872.85,2909.104,3982.932,83.55901,-0.1998191,0.100583,0.2132747,-1.00831544399261,-0.416585117578506,0.631494343280792,-0.979147395688901,-0.421299770153459,0.606138881190213,0
3.1199951171875,-1.75807797908783,1.579629778862,2.48325943946838,-2.18603502400946,2.02522658035469,2.49611690533293,2842.674,2957.841,3938.858,84.19074,-0.1959101,0.09699638,0.215325,-1.0050882101059,-0.411093413829803,0.626968681812286,-0.971056158224178,-0.417818336715394,0.601130019760458,0
3.13999938964844,-1.77813172340393,1.57151067256927,2.49577307701111,-2.20537738341953,2.01690410346351,2.50809074721212,2731.919,2996.661,3749.896,331.3132,-0.1901944,0.09336212,0.2174961,-1.00269544124603,-0.405953198671341,0.625682890415192,-0.962728579444533,-0.414235212212131,0.595974851798267,0
3.16000366210938,-1.79810225963593,1.56351351737976,2.50813293457031,-2.22455088103183,2.00865428308644,2.51996005559448,2802.413,3011.126,3832.062,135.4783,-0.1856543,0.08911585,0.2206861,-0.998519718647003,-0.39985191822052,0.617991387844086,-0.954174163352092,-0.410554485950274,0.590679260733698,0
3.18000793457031,-1.81805539131165,1.5556184053421,2.52057981491089,-2.24355101420387,2.00047905658478,2.53172204312984,2556.332,3055.633,3398.041,777.8405,-0.1770986,0.08574196,0.2224908,-0.997666895389557,-0.394774287939072,0.622349500656128,-0.945396434568188,-0.406777674475913,0.585245428475253,0
3.19999694824219,-1.83787882328033,1.54787278175354,2.53270983695984,-2.2623590635174,1.99238647840124,2.54336512160655,2733.783,3176.438,3823.703,0,-0.1736413,0.08152523,0.2272538,-0.991167962551117,-0.387272626161575,0.606498003005981,-0.936405971974636,-0.402909329586355,0.579679903854719,0
3.22000122070313,-1.85776257514954,1.54022169113159,2.5452024936676,-2.28099938900442,1.98436606709459,2.55490437104486,2290.697,3057.902,2799.114,1634.492,-0.16026,0.07990271,0.2268804,-0.994186162948608,-0.382541626691818,0.624634146690369,-0.927192788821982,-0.398945154262308,0.573976504598449,0
3.24000549316406,-1.87745666503906,1.53273725509644,2.55719065666199,-2.29945328359428,1.9764258717947,2.56632821087688,2232.382,3842.749,3598.38,0,-0.1572996,0.07860002,0.2351156,-0.984699547290802,-0.37422776222229,0.599410653114319,-0.91776751470058,-0.394889722119544,0.568141810929231,0
3.25999450683594,-1.89727878570557,1.52535724639893,2.56977391242981,-2.31770268688992,1.96857366338589,2.57762546085652,2221.046,2785.685,2060.454,2697.761,-0.1388151,0.08110943,0.2310916,-0.991115987300873,-0.369000554084778,0.629160761833191,-0.90814153446928,-0.390747931744771,0.562182870617026,0
3.27999877929688,-1.91684329509735,1.51816773414612,2.58162212371826,-2.33577134012187,1.96079922667992,2.58881081793642,1827.359,4459.582,3319.53,0,-0.1375507,0.08463286,0.2406507,-0.978213250637054,-0.35947248339653,0.592405617237091,-0.898304216251578,-0.386515208538549,0.556093102023818,0
3.30000305175781,-1.93656873703003,1.5111300945282,2.59419441223145,-2.35364119854729,1.95311032582551,2.59987311156116,2352.492,2362.573,1497.53,3522.674,-0.1171301,0.09215987,0.2306161,-0.98627233505249,-0.351898163557053,0.628613233566284,-0.888267004546666,-0.382196476749158,0.549879589839776,0
3.32000732421875,-1.95599007606506,1.50430703163147,2.60590720176697,-2.37130830610839,1.94550866300381,2.61080989274252,1465.702,5079.225,2988.351,0,-0.1197091,0.1013662,0.2389109,-0.971058666706085,-0.341137379407883,0.58563643693924,-0.878034183119985,-0.377793579561194,0.543544985919778,0
3.33999633789063,-1.97548747062683,1.4977080821991,2.61811661720276,-2.38875555478454,1.93800159931817,2.62161057080077,2734.467,1783.563,1649.037,3489.479,-0.1048758,0.1127083,0.2232686,-0.974887669086456,-0.329968065023422,0.610473036766052,-0.867618167158097,-0.373311858882592,0.53709697585572,0
3.36000061035156,-1.99468231201172,1.49135565757751,2.62958073616028,-2.406005803634,1.93057929915441,2.6322892965819,1609.415,4966.115,2898.682,0,-0.1121409,0.1252651,0.2246377,-0.959743857383728,-0.317601650953293,0.573203682899475,-0.857007552155826,-0.36874640767338,0.530528499715627,0
3.3800048828125,-2.01374769210815,1.48528218269348,2.64095425605774,-2.42304196557559,1.92324911460621,2.64283549236868,3282.686,1473.609,2822.271,1945.283,-0.1121388,0.1359886,0.2067315,-0.953268945217133,-0.303676873445511,0.568675339221954,-0.846214826007803,-0.364102599125748,0.523847288101157,0
3.40000915527344,-2.03255581855774,1.47947347164154,2.65194845199585,-2.43986044461333,1.91601259293018,2.6532469320683,2222.769,3861.283,3354.08,0,-0.1226407,0.1464927,0.1973816,-0.940406978130341,-0.290441572666168,0.5497105717659,-0.835244706287931,-0.359382463079953,0.517056261415284,0
3.41999816894531,-2.05108833312988,1.47392308712006,2.66250514984131,-2.45644516534361,1.90887665092339,2.66351366424015,3134.034,2231.562,4013.658,0,-0.1359608,0.1537608,0.1841598,-0.926611006259918,-0.277508825063705,0.52783328294754,-0.824110582941664,-0.354591760855451,0.510163708672097,0
3.44000244140625,-2.06939721107483,1.46858179569244,2.67290997505188,-2.47281804716281,1.90183185728196,2.67364925803476,2589.051,2687.879,4081.071,0,-0.1464201,0.1596878,0.1719405,-0.915442943572998,-0.267065823078156,0.520242273807526,-0.812800388649434,-0.349725300221754,0.503162159625937,0
3.46000671386719,-2.08749127388,1.46337866783142,2.68325543403625,-2.4889630419904,1.89488511704659,2.68364377892579,2065.922,3322.274,3897.421,0,-0.1539083,0.1658796,0.1664289,-0.904704093933105,-0.260157763957977,0.517268121242523,-0.801327600455845,-0.344788879974649,0.496059957209413,0
3.47999572753906,-2.10534358024597,1.45828127861023,2.69337153434753,-2.50486489870395,1.88804299234919,2.69348778574196,2349.007,2838.782,4019.788,0,-0.1589018,0.1712577,0.1638815,-0.892627477645874,-0.254871517419815,0.505807876586914,-0.789706299681989,-0.339788558913217,0.488865818431069,0
3.5,-2.12297248840332,1.45327615737915,2.70326805114746,-2.5205447997813,1.88129636896134,2.70319439144611,2808.592,2250.556,4121.724,0,-0.1599654,0.1744009,0.1591669,-0.881436228752136,-0.250250965356827,0.494820475578308,-0.777924000354857,-0.334718964672089,0.481572013878822,0
3.52000427246094,-2.14040994644165,1.44833493232727,2.71312141418457,-2.53598752699493,1.87465179486116,2.71275417523047,2660.254,2655.554,3845.521,0,-0.1575862,0.1759736,0.1550337,-0.871880114078522,-0.24707618355751,0.492668002843857,-0.765994882555673,-0.32958619854407,0.474187321698442,0
3.54000854492188,-2.15763831138611,1.44343781471252,2.72290277481079,-2.55119019794619,1.86811051026429,2.72216535275294,2448.349,3063.844,3593.597,0,-0.1548495,0.1767047,0.1545518,-0.861420571804047,-0.24485057592392,0.489069789648056,-0.753924423002452,-0.324392617007921,0.466715132239272,0
3.55999755859375,-2.17462801933289,1.43859505653381,2.73244452476501,-2.56613872308604,1.86167857751006,2.73141920191151,2716.652,2660.664,3681.148,0,-0.1531328,0.1756553,0.1543923,-0.849470615386963,-0.242151200771332,0.477093100547791,-0.741727567798258,-0.319144650954242,0.459164697851087,0
3.58000183105469,-2.19138860702515,1.43381488323212,2.74175262451172,-2.58085326729328,1.85534732021446,2.74052820572674,2883.371,2384.68,3783.025,0,-0.1512606,0.1722196,0.152355,-0.838027954101563,-0.239000037312508,0.465405255556107,-0.729391385793765,-0.313836736470737,0.451528013536464,0
3.60000610351563,-2.20794129371643,1.42908954620361,2.75093698501587,-2.59531978247425,1.84912278287974,2.74948366775945,2609.465,2764.667,3671.548,0,-0.1488861,0.1672519,0.1516629,-0.827651679515839,-0.236260116100311,0.459221988916397,-0.716930938559024,-0.308475354130224,0.443814403124743,0
3.6199951171875,-2.22428154945374,1.42441630363464,2.75996088981628,-2.60952509409627,1.84301063413925,2.75827743234631,2420.487,2962.445,3636.105,0,-0.146844,0.161263,0.1542168,-0.81701385974884,-0.233669772744179,0.451192885637283,-0.704361775018033,-0.303067194200314,0.436033492140578,0
3.63999938964844,-2.24041628837585,1.41980171203613,2.76878476142883,-2.6234885835008,1.83700253474321,2.76692149746096,2514.005,2677.156,3697.085,119.0584,-0.1438016,0.1539392,0.1574445,-0.806734025478363,-0.2307268679142,0.441191285848618,-0.691670720740692,-0.297606588091786,0.428177124984152,0
3.66000366210938,-2.25638389587402,1.41524314880371,2.77753853797913,-2.63719712493647,1.83110413233575,2.77540773763803,2347.128,2773.166,3505.408,391.2148,-0.1373802,0.1460434,0.1610746,-0.798378646373749,-0.227926149964333,0.437684029340744,-0.678873453515702,-0.29210028151913,0.420255006953505,0
3.68000793457031,-2.27216649055481,1.41076159477234,2.78608632087708,-2.65064865588166,1.82531631436231,2.78373487607838,2443.735,2859.288,3608.461,86.45319,-0.1316976,0.1370307,0.1667837,-0.789113342761993,-0.224078044295311,0.427387207746506,-0.665976209205203,-0.286550957599616,0.412270998344358,0
3.69999694824219,-2.28784370422363,1.4063469171524,2.79476141929626,-2.66383127580226,1.81964420129024,2.79189554578451,2109.837,2895.163,3021.993,995.2955,-0.1194082,0.1288059,0.1711873,-0.783865928649902,-0.220732256770134,0.433753073215485,-0.65299527533123,-0.280965624398954,0.404235181908735,0
3.72000122070313,-2.30331945419312,1.40204668045044,2.80306077003479,-2.6767633032417,1.81407991116207,2.79990108680742,2390.487,3089.76,3485.007,0,-0.1129942,0.1194641,0.1795496,-0.773785054683685,-0.215017437934875,0.414965987205505,-0.639917282339434,-0.275338529371411,0.396139281255611,0
3.74000549316406,-2.31878876686096,1.39783763885498,2.811847448349,-2.6894328975087,1.80862853869646,2.80774416919516,1777.56,2901.253,2150.462,2210.216,-0.09270091,0.1132254,0.1813348,-0.773466408252716,-0.210448443889618,0.439330667257309,-0.626758665639204,-0.269676744214497,0.387993470686332,0
3.75999450683594,-2.33401775360107,1.39377784729004,2.82000350952148,-2.70182915057228,1.80329477731443,2.81541804035694,1861.682,3931.622,3115.866,0,-0.08666512,0.107234,0.1938607,-0.761444985866547,-0.202994242310524,0.407804787158966,-0.613536214864365,-0.263987493038594,0.379808143784027,0
3.77999877929688,-2.34932947158813,1.3898686170578,2.82893300056458,-2.7139695770734,1.79807109095524,2.82293354268985,1667.798,2534.817,1164.379,3672.196,-0.05944176,0.106221,0.1903224,-0.765587508678436,-0.195449993014336,0.44647353887558,-0.60023651686137,-0.258265004538452,0.371574997167698,0
3.80000305175781,-2.36435770988464,1.38614678382874,2.83692526817322,-2.72584333814708,1.79296214327972,2.83028396642013,1367.227,4745.331,2728.995,0,-0.05597858,0.1064349,0.2040114,-0.751422762870789,-0.186101421713829,0.399610072374344,-0.586876524285838,-0.252516572968186,0.363304525338741,0
3.82000732421875,-2.37950706481934,1.38267409801483,2.8457944393158,-2.73744929742843,1.78796842323393,2.8374686080838,1876.498,1926.683,548.6403,4664.998,-0.02707263,0.1118534,0.1921821,-0.75746089220047,-0.173614233732224,0.443458676338196,-0.573463232144022,-0.246745208083563,0.355001058539243,0
3.83999633789063,-2.39435410499573,1.37942862510681,2.853600025177,-2.74877791451009,1.78309403578861,2.84448156171422,987.9059,5445.5,2338.756,0,-0.02868544,0.1191789,0.2028981,-0.742357730865479,-0.162273377180099,0.390280157327652,-0.560014026276881,-0.240958390526246,0.346675359432959,0
3.86000061035156,-2.40921401977539,1.37651586532593,2.86189365386963,-2.75984563331209,1.77833190558438,2.85133300688122,2425.865,1213.46,973.4595,4316.515,-0.008781508,0.1289764,0.1839314,-0.743006467819214,-0.145656391978264,0.414676606655121,-0.546515580872635,-0.235150386571708,0.338319178707605,0
3.8800048828125,-2.42377495765686,1.3738842010498,2.86934733390808,-2.77064299647982,1.77368610185671,2.85801708903178,1334.856,5078.144,2319.818,0,-0.01604022,0.1395656,0.1838818,-0.728048205375671,-0.131574302911758,0.372685670852661,-0.532985466132484,-0.229328756186666,0.329943393154704,0
3.90000915527344,-2.43811988830566,1.37158501148224,2.87653970718384,-2.78116944461445,1.76915686529929,2.86453346187138,3045.75,1131.495,2550.923,2055.951,-0.01664636,0.1476449,0.1631612,-0.717240750789642,-0.114971056580544,0.359623312950134,-0.519431110871129,-0.223496695782554,0.321552601564443,0
3.91999816894531,-2.45216035842896,1.3695855140686,2.88335609436035,-2.79141684911929,1.7647476934202,2.87087709341145,2082.927,3601.322,3038.534,0,-0.02810114,0.1544257,0.1502389,-0.702026009559631,-0.0999740958213806,0.340822339057922,-0.505870408491346,-0.2176619043907,0.313157880805522,0
3.94000244140625,-2.46586465835571,1.36784172058105,2.88974046707153,-2.8014005971492,1.76045196555656,2.87705750903383,2538.423,2470.745,3649.328,0,-0.0429504,0.1582319,0.1371809,-0.68521910905838,-0.0871722847223282,0.319214731454849,-0.492290296490434,-0.211818761581115,0.30475114456651,0
3.96000671386719,-2.47925090789795,1.36630249023438,2.89589285850525,-2.81111265880708,1.75627313674876,2.88306973784971,2192.594,2577.228,3864.047,0,-0.05521638,0.1599272,0.1262955,-0.669327616691589,-0.0769774541258812,0.30762380361557,-0.478708875293167,-0.205975055460916,0.29634359787259,0
