t,x_s1,x_s2,x_s3,x_s_d1,x_s_d2,x_s_d3,propellers_rpms1,propellers_rpms2,propellers_rpms3,propellers_rpms4,rollRad,pitchRad,yawRad,v_s1,v_s2,v_s3,v_s_d1,v_s_d2,v_s_d3,insideCount
0,-0.0599999986588955,2.94000005722046,1.17999994754791,-0.0599999986588955,2.94000005722046,1.17999994754791,0,0,0,0,0,0,0,0,0,0,-1.06581410364015E-15,4.44089209850063E-16,4.44089209850063E-16,0
0.0200042724609375,-0.0599999986588955,2.94000005722046,1.17729234695435,-0.0600018701838461,2.93999925195556,1.18000110611101,0,0,0,0,0.0163538,-0.002474609,-2.024222E-05,3.71994488546079E-08,3.50004931704007E-08,-0.135377958416939,-0.000280105751305916,-0.000120521679537258,0.00017339880334547,5
0.040008544921875,-0.0599999986588955,2.94000005722046,1.17105865478516,-0.060014880898484,2.93999365380853,1.18000916036316,0,0,0,0,0.03270752,-0.004950816,-5.430172E-05,3.48044650877455E-08,3.30428591155396E-08,-0.311683237552643,-0.00111143977225461,-0.000478221483967637,0.00068803416424398,6
0.05999755859375,-0.0600004307925701,2.94013142585754,1.16552245616913,-0.0600498857373401,2.93997859220429,1.18003083002592,3161.758,2810.229,1469.389,2738.784,0.03139143,-0.004977981,-0.01632784,-2.15875897993101E-05,0.00656341761350632,-0.276808619499207,-0.00247936261166862,-0.00106680046642749,0.00153484356504269,6
0.0800018310546875,-0.0599182657897472,2.94037842750549,1.16100001335144,-0.0601175574246769,2.93994947496775,1.18007272202403,3028.602,3011.868,2083.797,1979.253,0.01921494,-0.004419782,-0.04309261,0.00410820124670863,0.012349421158433,-0.226121813058853,-0.00437268608126799,-0.00188144466206175,0.00270690098422899,6
0.100006103515625,-0.0596519261598587,2.94066071510315,1.15742897987366,-0.0602282404704493,2.93990185114529,1.18014124010193,2573.166,3764.13,2528.135,1069.401,-0.005652293,-0.003074886,-0.06910477,0.0133169628679752,0.0141151947900653,-0.1785509288311,-0.00677739276378709,-0.00291612276782231,0.00419552897277328,6
0.1199951171875,-0.0591362528502941,2.94084787368774,1.154620885849,-0.0603918861403606,2.93983143898525,1.18024254456713,1989.965,4004.13,3075.366,694.7492,-0.039908,-0.0007078682,-0.08794184,0.0257836319506168,0.009363261051476,-0.140403360128403,-0.00967801353495435,-0.00416417885169243,0.00599115140585487,5
0.139999389648438,-0.0583610534667969,2.94078660011292,1.15244722366333,-0.0606185767455666,2.93973390035084,1.18038287685052,1380.99,3936.983,3641.269,664.1736,-0.07574563,0.002034043,-0.09641442,0.0387599430978298,-0.00305874366313219,-0.108680725097656,-0.0130660253322238,-0.00562194567796536,0.00808849210174802,4
0.160003662109375,-0.0573620796203613,2.94033217430115,1.15091991424561,-0.0609177895434042,2.93960515744296,1.18056810382587,1009.899,3669.211,3950.163,872.1245,-0.1041232,0.003833979,-0.09479042,0.0499487556517124,-0.0227168127894402,-0.0763672292232513,-0.0169265510445065,-0.00728302204135792,0.0104783414199936,4
0.180007934570313,-0.0561949759721756,2.93938517570496,1.15012359619141,-0.0612988491946875,2.93944119812059,1.1808039979024,1011.1,3363.325,3835.473,1160.896,-0.119348,0.003850872,-0.08597589,0.0583552718162537,-0.0473448857665062,-0.039813194423914,-0.0212468478482708,-0.00914192506089775,0.0131528109458008,3
0.199996948242188,-0.054908886551857,2.93791794776917,1.15010976791382,-0.0617704296168641,2.93923829023936,1.18109592864822,1332.926,3133.112,3353.48,1401.594,-0.1214162,0.002340593,-0.07415785,0.0643045678734779,-0.0733575969934464,-0.000688899308443069,-0.0260104776919234,-0.0111915819022102,0.0161017247421801,3
0.220001220703125,-0.0535359419882298,2.93597269058228,1.15082919597626,-0.0623420644491781,2.93899233174064,1.18144979784016,1789.432,3014.735,2724.549,1533.54,-0.1151247,0.0002800871,-0.06327404,0.0686472877860069,-0.0972610414028168,0.0359705612063408,-0.03121219533433,-0.0134297356845702,0.019321835755004,3
0.240005493164063,-0.052095890045166,2.93363213539124,1.15212345123291,-0.0630219993990999,2.93869977472688,1.18187070996396,2172.255,2982.412,2212.49,1547.061,-0.1071512,-0.001340103,-0.05581133,0.0720026940107346,-0.117025680840015,0.0647101327776909,-0.0368361158647881,-0.0158495515746756,0.0228033104678445,3
0.260009765625,-0.0506037883460522,2.93098068237305,1.15377128124237,-0.0638185570309634,2.93835703823113,1.18236381708338,2347.72,2985.898,2004.786,1459.455,-0.1029077,-0.001920139,-0.05235455,0.0746051371097565,-0.132568210363388,0.0823896527290344,-0.0428699302682246,-0.0184457333472145,0.0265385290140116,3
0.279998779296875,-0.0490740053355694,2.92807531356812,1.1555722951889,-0.0647390625194898,2.93796097043536,1.18293365383054,2308.733,2995.844,2122.788,1299.143,-0.1047182,-0.001325189,-0.05184908,0.0764891505241394,-0.145271196961403,0.0900512263178825,-0.0492963837173861,-0.0212108567320638,0.030516809833474,3
0.300003051757813,-0.0475224554538727,2.92493534088135,1.15741097927094,-0.0657927507678135,2.93750759781875,1.18358593705038,2137.089,3011.094,2442.413,1106.423,-0.111873,0.0001966204,-0.05227466,0.0775774717330933,-0.156993716955185,0.0919322595000267,-0.0561132031658829,-0.0241439437008635,0.0347367458022363,3
0.32000732421875,-0.0459691658616066,2.92155027389526,1.15926611423492,-0.0669865614821475,2.93699393441958,1.18432496275165,1943.704,3019.282,2792.262,937.43,-0.1218157,0.00215352,-0.0516094,0.0776645243167877,-0.16924774646759,0.0927567705512047,-0.0633036493784043,-0.0272377918282996,0.0391879745362408,3
0.339996337890625,-0.0444393418729305,2.91789507865906,1.16117644309998,-0.068326768706371,2.93641728069206,1.18515461486636,1804.097,3001.632,3047.619,841.1875,-0.1315058,0.004015677,-0.04861121,0.07649115473032,-0.182757452130318,0.0955165177583694,-0.0708499516420146,-0.0304847548730522,0.0438594951176439,3
0.360000610351563,-0.0429610759019852,2.9139461517334,1.1632034778595,-0.0698225328270578,2.93577369517774,1.1860805641102,1756.213,2955.41,3148.772,831.0552,-0.1384993,0.005409173,-0.04314587,0.0739131793379784,-0.19744274020195,0.10134981572628,-0.0787518717320621,-0.0338847303337087,0.0487511600740379,3
0.3800048828125,-0.0415607392787933,2.90969347953796,1.16540205478668,-0.0714797725314022,2.93506063123087,1.18710647443246,1803.448,2904.989,3096.569,874.9644,-0.1417393,0.00622575,-0.03593883,0.070017084479332,-0.212632328271866,0.109930843114853,-0.0869921272359981,-0.0374302820709642,0.0538522707687797,3
0.400009155273438,-0.0402594059705734,2.90514540672302,1.16779804229736,-0.0733051402689975,2.93427522648826,1.18823646401636,1908.904,2871.589,2945.474,935.6423,-0.1416743,0.006602768,-0.02807824,0.0650666058063507,-0.227398812770844,0.119798570871353,-0.0955591682828665,-0.0411164404980124,0.0591556772815509,3
0.419998168945313,-0.0390723198652267,2.90032625198364,1.17038261890411,-0.0753034649285836,2.93341540321397,1.18947352217404,2025.12,2857.541,2770.008,988.9733,-0.1397254,0.006794482,-0.02059902,0.0593542382121086,-0.240959674119949,0.129227131605148,-0.104434660908044,-0.0449353170220673,0.0646500300148815,3
0.44000244140625,-0.038010336458683,2.895268201828,1.17311811447144,-0.077483988232608,2.93247718495301,1.19082336997196,2109.997,2859.332,2640.245,1016.123,-0.137565,0.007044002,-0.01415097,0.0530991405248642,-0.252900958061218,0.136775717139244,-0.113620829717891,-0.048887868829098,0.0703367061060819,3
0.460006713867188,-0.03708216547966,2.8900032043457,1.17595732212067,-0.0798512213598696,2.93145863067119,1.19228880004469,2148.529,2866.721,2590.842,1012.533,-0.1364625,0.00749867,-0.008928514,0.0464084632694721,-0.263253748416901,0.141958728432655,-0.123099793815011,-0.0529664022684887,0.0762046364278779,3
0.479995727539063,-0.0362960696220398,2.88455629348755,1.17885780334473,-0.0824088828700873,2.93035814037613,1.19387211435783,2141.374,2877.395,2625.548,977.3375,-0.1370047,0.008197476,-0.004676511,0.0393048860132694,-0.272339880466461,0.145021960139275,-0.132852887402757,-0.0571628859694044,0.0822422659629699,4
0.5,-0.0356612801551819,2.87894368171692,1.18179643154144,-0.085166398670376,2.92917165836334,1.1955791479969,2107.758,2883.516,2714.492,928.0816,-0.1390357,0.009087568,-0.0009310411,0.0317395813763142,-0.280627131462097,0.146932765841484,-0.142884000065179,-0.0614789935111996,0.0884520025491718,4
0.520004272460938,-0.0351883433759212,2.87317299842834,1.18477189540863,-0.088127196023106,2.92789770997757,1.19741202260058,2073.212,2887.653,2817.038,873.8684,-0.1419886,0.01006277,0.002807218,0.0236466713249683,-0.288536131381989,0.148774534463882,-0.153174893518032,-0.065906877469682,0.0948225558197254,4
0.540008544921875,-0.0348887965083122,2.86724662780762,1.18779611587524,-0.0912963635428427,2.92653410573011,1.19937388826368,2047.613,2887.145,2904.832,831.9365,-0.1451455,0.01101643,0.006906479,0.0149776134639978,-0.296321004629135,0.151210799813271,-0.163714777034477,-0.0704418948965508,0.101347245800684,4
0.55999755859375,-0.0347745567560196,2.86116504669189,1.19088983535767,-0.094676112580471,2.92507989413848,1.20146611391775,2041.327,2880.231,2956.23,813.3555,-0.1478449,0.01187075,0.01147184,0.00571193732321262,-0.304080694913864,0.154684618115425,-0.17448465888317,-0.0750758741803766,0.108014315705644,4
0.580001831054688,-0.034856628626585,2.85493016242981,1.1940723657608,-0.0982762614093182,2.92353085067394,1.20369477754168,2055.014,2875.67,2970.2,808.1367,-0.1497554,0.01259477,0.01643661,-0.00410354882478714,-0.311743885278702,0.159123688936234,-0.185490414529404,-0.0798113433697334,0.11482740272751,4
0.600006103515625,-0.0351444147527218,2.84854650497437,1.19735956192017,-0.102098762959148,2.92188613504538,1.20606108809202,2085.06,2872.674,2951.11,816.8095,-0.1508595,0.01319922,0.02157321,-0.0143892513588071,-0.319180220365524,0.164357960224152,-0.196713446836865,-0.0846403006364086,0.121774994352997,4
0.6199951171875,-0.0356449447572231,2.84202218055725,1.2007554769516,-0.106144683970236,2.92014528826426,1.20856570593183,2117.546,2876.972,2922.602,824.0363,-0.1514572,0.01372714,0.02667991,-0.0250266641378403,-0.326210647821426,0.169792950153351,-0.208134604141382,-0.0895545055543457,0.128845234789665,4
0.639999389648438,-0.0363637246191502,2.83536720275879,1.20425868034363,-0.110424235525481,2.91830391678686,1.21121495220784,2143.797,2879.457,2897.311,837.0134,-0.1518465,0.0142302,0.03154503,-0.0359393879771233,-0.332746833562851,0.175159737467766,-0.219761081350814,-0.0945570538913933,0.136042578028218,4
0.660003662109375,-0.0373049564659595,2.82859206199646,1.20786416530609,-0.114938248900541,2.91636166293851,1.21400934151928,2166.647,2887.899,2885.17,835.8297,-0.1523925,0.01474455,0.03608387,-0.0470609180629253,-0.338762789964676,0.180273950099945,-0.231574097577923,-0.0996398647564507,0.143355397804799,4
0.680007934570313,-0.0384719893336296,2.82170629501343,1.21156394481659,-0.119690355154666,2.91431696437584,1.21695112166479,2177.156,2895.691,2894.852,827.6285,-0.1533251,0.01529354,0.04031381,-0.0583522692322731,-0.344291478395462,0.184987425804138,-0.243563621239988,-0.104798621839723,0.150777484091833,4
0.699996948242188,-0.0398684553802013,2.81471753120422,1.21535432338715,-0.124680083855354,2.91217002351282,1.22004000142426,2180.775,2899.766,2919.692,817.275,-0.1546593,0.01588179,0.0442853,-0.0698232874274254,-0.349441438913345,0.189516842365265,-0.255710395848158,-0.11002503961202,0.158296916205407,4
0.720001220703125,-0.0414979755878448,2.80763149261475,1.21923363208771,-0.129918284978346,2.90991617190799,1.22328269744952,2182.284,2905.06,2956.328,797.3619,-0.1563387,0.01649831,0.0481218,-0.0814759284257889,-0.354307115077972,0.193966224789619,-0.268023157655716,-0.11532287703907,0.16591910230247,4
0.740005493164063,-0.0433647856116295,2.80045127868652,1.22320806980133,-0.13540428105644,2.90755570105657,1.22667879035609,2187.325,2906.832,2988.808,782.961,-0.1581864,0.01712493,0.05188333,-0.0933404117822647,-0.35900953412056,0.198720812797546,-0.280482990349159,-0.120683994959631,0.173632332283853,5
0.760009765625,-0.0454725585877895,2.7931797504425,1.22728073596954,-0.141140917956636,2.9050873864615,1.23023004187122,2194.541,2912.287,3022.125,761.4728,-0.1601268,0.01774504,0.05567694,-0.105388298630714,-0.363576352596283,0.203631177544594,-0.293080296154222,-0.126104263719567,0.181430664670081,5
0.779998779296875,-0.0478254072368145,2.78581833839417,1.23146045207977,-0.147126184485884,2.90251209348295,1.23393520697061,2203.208,2910.434,3043.495,758.4676,-0.1619458,0.01835363,0.05946373,-0.117643222212791,-0.368073612451553,0.2089863717556,-0.305795832832518,-0.131575403921268,0.189302187598958,5
0.800003051757813,-0.050426434725523,2.77836894989014,1.23575091362,-0.153371683173492,2.89982482987671,1.2378014681726,2218.161,2916.219,3062.431,743.1016,-0.1636656,0.01894465,0.06327858,-0.130050584673882,-0.372467219829559,0.214523538947105,-0.318639638509124,-0.13710173468952,0.197253115148089,5
0.82000732421875,-0.0532787926495075,2.77083301544189,1.24016106128693,-0.159875221826383,2.89702653888221,1.24182746840525,2235.28,2916.879,3067.339,745.3649,-0.1652145,0.01952367,0.06702188,-0.142618626356125,-0.376792103052139,0.220508143305779,-0.331592781842754,-0.14267511039705,0.205271727915392,5
0.839996337890625,-0.0563838966190815,2.76321363449097,1.24468922615051,-0.166633637018892,2.89411858163313,1.24601124935738,2253.74,2926.565,3079.478,728.9075,-0.1667895,0.0200933,0.07073526,-0.15525521337986,-0.380971372127533,0.226408168673515,-0.344636106234817,-0.148287288494656,0.213346167053785,5
0.860000610351563,-0.0597437508404255,2.75551271438599,1.24933958053589,-0.173659158941841,2.89109569582005,1.2503603820997,2264.431,2924.801,3087.201,737.4213,-0.1682899,0.02067258,0.07430438,-0.167992308735847,-0.385051637887955,0.23251873254776,-0.357780475378537,-0.153942943326036,0.221483157706883,5
0.8800048828125,-0.0633591860532761,2.74773263931274,1.2541116476059,-0.180948461186242,2.88795931270381,1.25487280742661,2284.17,2934.977,3100.052,719.5508,-0.1699081,0.02125759,0.07777625,-0.180771186947823,-0.38900488615036,0.238605812191963,-0.371007022483504,-0.159633957038354,0.229671020432672,5
0.900009155273438,-0.0672311037778854,2.73987531661987,1.25900602340698,-0.188503099076414,2.88470876307182,1.25954948815793,2294.55,2937.269,3116.257,716.285,-0.1716226,0.02185884,0.08112524,-0.193596616387367,-0.392861425876617,0.244721069931984,-0.384306908919572,-0.165356526615982,0.237904283698049,5
0.919998168945313,-0.0713602304458618,2.73194265365601,1.26402258872986,-0.196318384305134,2.8813460641717,1.26438752200817,2306.813,2941.945,3137.44,704.1259,-0.1734575,0.02247617,0.08437885,-0.206456869840622,-0.396636188030243,0.250829100608826,-0.397661187980262,-0.171102499820431,0.246171218589148,5
0.94000244140625,-0.0757474154233932,2.72393536567688,1.26916253566742,-0.204407453948074,2.87786556348678,1.26939504145298,2316.996,2944.105,3160.885,694.7482,-0.1753585,0.02311127,0.08754776,-0.219359487295151,-0.400358706712723,0.25699570775032,-0.411081631631503,-0.176876941799768,0.254479112513653,5
0.960006713867188,-0.0803937315940857,2.71585392951965,1.27443015575409,-0.212765478812529,2.87426933888379,1.27456905699201,2332.362,2948.226,3179.587,683.3554,-0.1773032,0.02375882,0.09063893,-0.232314601540565,-0.404069542884827,0.263380199670792,-0.424549556012544,-0.182671813410681,0.262816399271726,5
0.979995727539063,-0.0852992981672287,2.70769906044006,1.27982461452484,-0.22138664033507,2.87055989392801,1.27990596665734,2345.914,2953.385,3203.796,666.6827,-0.1793303,0.0244142,0.09370315,-0.245278254151344,-0.407749354839325,0.26972171664238,-0.438046240701377,-0.188479059778567,0.271171490030365,5
1,-0.0904650688171387,2.69947028160095,1.28534984588623,-0.230284798736574,2.86673126495361,1.28541435058594,2355.878,2952.166,3223.341,665.3738,-0.1812995,0.02508629,0.09669188,-0.258289605379105,-0.411443144083023,0.276263147592545,-0.451584000205995,-0.194303979492187,0.279552008056641,5
1.02000427246094,-0.0958914309740067,2.69116735458374,1.29100847244263,-0.239454009753966,2.86278600961093,1.2910905289958,2375.542,2958.889,3240.521,648.465,-0.1832857,0.02576469,0.09963582,-0.271317392587662,-0.415143877267838,0.282933413982391,-0.465144357597929,-0.200138622445408,0.287946515251652,5
1.04000854492188,-0.101578295230865,2.68279051780701,1.29680109024048,-0.248894644448595,2.85872396824263,1.29693473159157,2389.191,2961.8,3259.193,639.7651,-0.1852857,0.02645374,0.1025305,-0.284342974424362,-0.41884571313858,0.28963166475296,-0.47871923339115,-0.205979512261105,0.296350010028666,5
1.05999755859375,-0.107525765895844,2.67433929443359,1.30272972583771,-0.258599401509697,2.85454828239877,1.30294243851408,2403.359,2963.959,3276.254,633.2304,-0.1872714,0.02715695,0.1053535,-0.297373801469803,-0.422562062740326,0.296430647373199,-0.492290296490434,-0.211818761581115,0.30475114456651,5
1.08000183105469,-0.113733351230621,2.66581392288208,1.30879330635071,-0.268583149539609,2.85025255453512,1.30912285413647,2418.127,2967.723,3297.753,619.7806,-0.1892757,0.02787288,0.1081265,-0.310380220413208,-0.426270008087158,0.303180724382401,-0.50587040849135,-0.217661904390701,0.313157880805523,5
1.10000610351563,-0.120201483368874,2.65721344947815,1.31499755382538,-0.278838480013141,2.84583997233313,1.31547139222872,2434.386,2970.021,3309.754,616.5461,-0.1912437,0.02860615,0.1107999,-0.323407113552094,-0.430023163557053,0.310212373733521,-0.519441457145546,-0.223501147495394,0.321559006401169,5
1.1199951171875,-0.126928523182869,2.64853858947754,1.32133686542511,-0.289357002179081,2.84131414609862,1.32198285851614,2451.952,2977.655,3335.152,592.0262,-0.193345,0.02934399,0.1134641,-0.336352318525314,-0.433743119239807,0.316966235637665,-0.532985466132485,-0.229328756186667,0.329943393154705,5
1.13999938964844,-0.133915081620216,2.63978815078735,1.32781708240509,-0.300154365346813,2.83666834237095,1.3286669406667,2459.253,2973.072,3350.631,601.472,-0.1953381,0.03011049,0.1160083,-0.349326968193054,-0.437519907951355,0.324010014533997,-0.546515580872639,-0.235150386571708,0.338319178707607,5
1.16000366210938,-0.141159728169441,2.63096237182617,1.33443534374237,-0.311222084148811,2.83190621216671,1.33551838583369,2482.904,2983.228,3373.43,571.277,-0.1974441,0.0308798,0.1185391,-0.362232238054276,-0.441287070512772,0.330915600061417,-0.560014026276883,-0.240958390526247,0.34667535943296,6
1.18000793457031,-0.148662522435188,2.62206029891968,1.3411957025528,-0.322559451663168,2.82702805965467,1.34253675639879,2492.254,2981.161,3389.581,575.1608,-0.1994969,0.03167086,0.1209801,-0.375138431787491,-0.445106446743011,0.338017702102661,-0.573473482003304,-0.246749618311663,0.355007403690405,6
1.19999694824219,-0.156421810388565,2.61308193206787,1.34809422492981,-0.334156660511822,2.8220381046756,1.34971598112778,2510.916,2987.334,3415.05,551.2305,-0.2016301,0.03246817,0.1234078,-0.387966096401215,-0.448916167020798,0.344926744699478,-0.58687652428584,-0.252516572968185,0.36330452533874,6
1.22000122070313,-0.164437830448151,2.60402631759644,1.35513556003571,-0.346030421585499,2.81692915700008,1.35706640485806,2520.434,2984.512,3432.191,554.7609,-0.2036557,0.03328932,0.1257438,-0.400801718235016,-0.452782303094864,0.352066159248352,-0.600236516861372,-0.258265004538453,0.371574997167698,6
1.24000549316406,-0.172709226608276,2.59489321708679,1.3623183965683,-0.358170848086624,2.8117054706409,1.36458190719098,2543.442,2992.663,3452.618,529.5411,-0.2057409,0.03411311,0.128062,-0.413569033145905,-0.456656932830811,0.359143555164337,-0.613536214864368,-0.263987493038594,0.379808143784027,6
1.25999450683594,-0.181235328316689,2.5856819152832,1.36964464187622,-0.3705671011502,2.80637170925886,1.37225577835275,2554.674,2992.221,3469.872,528.2417,-0.2077857,0.03495292,0.1303148,-0.426304280757904,-0.46056991815567,0.366310685873032,-0.626758665639206,-0.269676744214496,0.387993470686331,6
1.27999877929688,-0.19001442193985,2.57639241218567,1.3771106004715,-0.383236695417198,2.80092033679326,1.3800988607405,2570.553,2995.301,3495.117,510.1148,-0.2098518,0.03580028,0.1325458,-0.438954204320908,-0.464470952749252,0.373298406600952,-0.639917282339435,-0.275338529371412,0.396139281255613,6
1.30000305175781,-0.199046835303307,2.56702351570129,1.38472402095795,-0.396168722856641,2.79535604666509,1.38810440176341,2585.303,2995.71,3504.497,512.736,-0.2118049,0.03666908,0.1346733,-0.451622635126114,-0.468450844287872,0.380671620368958,-0.652995275331231,-0.280965624398954,0.404235181908735,6
1.32000732421875,-0.208329290151596,2.55757617950439,1.39247477054596,-0.409361504843077,2.78967956113998,1.39627136227237,2607.001,3004.252,3535.097,476.8676,-0.2139264,0.0375271,0.1368413,-0.464121997356415,-0.472363591194153,0.387535393238068,-0.6659860834168,-0.286555206197011,0.41227711095171,6
1.33999633789063,-0.217863142490387,2.54804825782776,1.40037477016449,-0.422802873722428,2.78389611561957,1.40459220990988,2610.82,2996.886,3540.746,502.334,-0.2158135,0.03842352,0.1388521,-0.476693361997604,-0.476391643285751,0.394997328519821,-0.678873453515705,-0.29210028151913,0.420255006953505,6
1.36000061035156,-0.227643594145775,2.53844261169434,1.40840697288513,-0.436511415158101,2.77799771321212,1.41307845008695,2639.058,3009.33,3581.651,444.7096,-0.217952,0.03929403,0.1409629,-0.489020377397537,-0.480283260345459,0.401611238718033,-0.691670720740693,-0.297606588091785,0.42817712498415,6
1.3800048828125,-0.237674549221992,2.52875471115112,1.41659617424011,-0.450474904562636,2.77198961381608,1.4217225152016,2637.967,2997.918,3570.43,496.9694,-0.219666,0.04022328,0.1428265,-0.501550495624542,-0.484391868114471,0.409459978342056,-0.704361775018035,-0.303067194200314,0.436033492140578,6
1.40000915527344,-0.247947305440903,2.51899027824402,1.42490923404694,-0.464691155755482,2.76587275808388,1.43052305190393,2679.967,3020.82,3627.77,396.3055,-0.2219383,0.04108424,0.1449334,-0.513638913631439,-0.488224357366562,0.415651977062225,-0.716940488958393,-0.308479463400265,0.443820315276901,7
1.41999816894531,-0.258470058441162,2.50914192199707,1.43338775634766,-0.47914673136562,2.75965292774086,1.43947174182117,2656.084,2994.229,3597.199,507.6252,-0.2234371,0.04205297,0.146631,-0.526136100292206,-0.49242103099823,0.423925668001175,-0.729391385793766,-0.313836736470737,0.451528013536465,7
1.44000244140625,-0.269228219985962,2.4992196559906,1.44197463989258,-0.493861275572861,2.75332167044526,1.4485807456364,2720.708,3030.844,3685.497,336.527,-0.225876,0.04289426,0.1487758,-0.537909805774689,-0.496115058660507,0.429342478513718,-0.741727567798258,-0.319144650954242,0.459164697851088,7
1.46000671386719,-0.280238419771194,2.4892098903656,1.45074784755707,-0.508821304757097,2.74688478782212,1.45784171634646,2669.978,2987.501,3608.773,541.1423,-0.2269407,0.04392392,0.1502228,-0.550511598587036,-0.500486254692078,0.438661575317383,-0.753933682518823,-0.324396601119133,0.466720864320996,7
1.47999572753906,-0.291474282741547,2.47913146018982,1.459601521492,-0.524012471663969,2.74034845309416,1.46724577231745,2778.502,3052.01,3753.207,235.8518,-0.2298223,0.04469918,0.1525324,-0.561791777610779,-0.50391811132431,0.442680925130844,-0.765994882555672,-0.329586198544069,0.474187321698441,7
1.5,-0.302967250347137,2.46896028518677,1.46867406368256,-0.539455198877605,2.73370387899399,1.4768055561018,2661.254,2969.113,3604.944,624.6794,-0.2301914,0.04582875,0.1536158,-0.574648261070251,-0.508563816547394,0.453626573085785,-0.777924000354858,-0.334718964672088,0.481572013878822,7
1.52000427246094,-0.314671099185944,2.45872950553894,1.4777797460556,-0.555135099954955,2.72695725560613,1.48651216180595,2853.337,3081.01,3845.876,82.14565,-0.2337994,0.04648806,0.1562441,-0.585193395614624,-0.51153439283371,0.455283671617508,-0.789706299681991,-0.339788558913217,0.48886581843107,7
1.54000854492188,-0.326644957065582,2.44839477539063,1.48716938495636,-0.571049184024557,2.72010986981902,1.49636373793799,2630.779,2941.824,3556.405,785.9015,-0.2329733,0.04779199,0.1567259,-0.598691403865814,-0.516738772392273,0.469479441642761,-0.801336412291853,-0.344792671461508,0.496065412155667,7
1.55999755859375,-0.338814675807953,2.4380030632019,1.49656498432159,-0.587181951496087,2.71316839067337,1.50635068951315,2812.674,3245.185,3844.536,0,-0.2367811,0.04882383,0.1602506,-0.608484148979187,-0.519587397575378,0.469783037900925,-0.812800388649436,-0.349725300221754,0.503162159625937,7
1.58000183105469,-0.351254910230637,2.42750477790833,1.50625896453857,-0.60355483331529,2.70612359703193,1.51648628330776,2656.874,2863.065,3516.163,925.6086,-0.2351545,0.05060584,0.1603014,-0.622014403343201,-0.524913191795349,0.48469814658165,-0.824110582941666,-0.354591760855452,0.510163708672098,7
1.60000610351563,-0.363881319761276,2.41695308685303,1.51594698429108,-0.620152298932711,2.69898217125626,1.52676090517188,2809.432,3313.203,3823.919,0,-0.2387801,0.05223642,0.1637582,-0.631320118904114,-0.527582287788391,0.484399020671844,-0.835253140422976,-0.35938609205264,0.51706148254665,7
1.6199951171875,-0.376769810914993,2.40630316734314,1.52591323852539,-0.636958033083316,2.69175113334911,1.53716445517924,2739.387,2815.086,3534.753,916.9854,-0.2374048,0.0544708,0.1631581,-0.644424557685852,-0.532490491867065,0.498313575983047,-0.846214826007804,-0.364102599125749,0.523847288101157,7
1.63999938964844,-0.389838188886642,2.39560604095459,1.53587102890015,-0.653994195024907,2.68442094880091,1.54771065096602,2831.483,3313.575,3847.705,0,-0.241252,0.0565584,0.165867,-0.653417348861694,-0.534862339496613,0.49788898229599,-0.857007552155828,-0.368746407673381,0.530528499715628,7
1.66000366210938,-0.40315642952919,2.38482213020325,1.54607570171356,-0.671244443874359,2.67699864863716,1.55838937674714,2816.514,2799.86,3624.419,806.7932,-0.2408675,0.05902176,0.1647172,-0.665913164615631,-0.539200305938721,0.510236144065857,-0.867618167158098,-0.373311858882592,0.53709697585572,7
1.68000793457031,-0.416653662919998,2.37399172782898,1.55628967285156,-0.688705090349012,2.66948582025311,1.56919834868089,2851.468,3287.221,3898.813,0,-0.2449762,0.06133837,0.1666573,-0.674861013889313,-0.541519224643707,0.510699212551117,-0.878042061913515,-0.377796969585941,0.543549863268291,8
1.69999694824219,-0.430384874343872,2.36308479309082,1.56670534610748,-0.706358800111611,2.66188992212981,1.58012683598675,2884.99,2803.349,3767.481,626.7679,-0.2458305,0.06376154,0.1654812,-0.686563014984131,-0.545351922512054,0.520783066749573,-0.888267004546665,-0.382196476749158,0.549879589839776,8
1.72000122070313,-0.444298356771469,2.35212874412537,1.57715320587158,-0.724228658537036,2.6542010212754,1.5911891296115,2893.441,3196.16,3989.728,0,-0.2498359,0.0659532,0.1667528,-0.695671617984772,-0.547798335552216,0.522392094135284,-0.898304216251578,-0.386515208538549,0.556093102023817,8
1.74000549316406,-0.458435654640198,2.34109878540039,1.58777940273285,-0.742297311768984,2.64642658456943,1.60237448669139,2935.895,2835.769,3899.657,444.0162,-0.2513108,0.06805773,0.1658997,-0.70686662197113,-0.551497399806976,0.531307101249695,-0.908141534469281,-0.390747931744771,0.562182870617028,8
1.75999450683594,-0.47275909781456,2.33001208305359,1.59846639633179,-0.760546715064628,2.63857437616062,1.61367173667103,2927.284,3138.325,4050.372,0,-0.2547985,0.06990272,0.1670604,-0.716173648834229,-0.554339587688446,0.534348726272583,-0.917767514700581,-0.394889722119545,0.568141810929231,8
1.77999877929688,-0.487296164035797,2.31885075569153,1.6093088388443,-0.779000609654483,2.63063418086074,1.62509557650306,2969.444,2869.13,3994.633,310.7652,-0.2563511,0.07155669,0.1668911,-0.726853907108307,-0.558064103126526,0.542122185230255,-0.927192788821983,-0.398945154262308,0.57397650459845,8
1.80000305175781,-0.502020835876465,2.30762696266174,1.62022709846497,-0.797640935141499,2.62261376955408,1.63663482594136,2985.726,3063.237,4100.691,0,-0.2591261,0.07285594,0.1681004,-0.736233711242676,-0.561192810535431,0.545913457870483,-0.936405971974637,-0.402909329586356,0.579679903854719,8
1.82000732421875,-0.516954898834229,2.29632425308228,1.63130307197571,-0.816463410111527,2.61451498441355,1.64828683458664,2981.713,2917.643,4025.905,249.6445,-0.260202,0.07399892,0.1685306,-0.74670422077179,-0.565133333206177,0.553796231746674,-0.94540321420156,-0.406780591562751,0.585249625391268,8
1.83999633789063,-0.532072603702545,2.28495573997498,1.64245653152466,-0.835449117627072,2.60634596486888,1.66003989195343,3007.002,3059.514,4114.158,0,-0.262348,0.07481486,0.1702331,-0.755884826183319,-0.568420946598053,0.557673156261444,-0.954174163352093,-0.410554485950274,0.590679260733698,8
1.86000061035156,-0.547396719455719,2.27350544929504,1.65377330780029,-0.854622615239374,2.59809614449182,1.6719092003358,2976.312,2941.985,4013.919,274.8323,-0.2626308,0.07560302,0.1711634,-0.766206741333008,-0.572509765625,0.565838217735291,-0.962728579444532,-0.414235212212131,0.595974851798267,8
1.8800048828125,-0.562897562980652,2.26199173927307,1.66515851020813,-0.873964974649439,2.58977366760063,1.68388304221498,3030.697,3071.153,4110.642,0,-0.2642586,0.07608644,0.1733223,-0.775042951107025,-0.575684189796448,0.569260656833649,-0.971056158224177,-0.417818336715394,0.601130019760457,8
1.90000915527344,-0.578604340553284,2.25039601325989,1.6767201423645,-0.893471623792247,2.58138050142717,1.69595858726494,2973.007,2958.304,3973.195,337.9257,-0.2637627,0.07669265,0.1744395,-0.785334825515747,-0.579781234264374,0.578083395957947,-0.979153483542501,-0.421302389586788,0.606142649861596,8
1.91999816894531,-0.594478130340576,2.23874402046204,1.68833303451538,-0.913122862707269,2.57292512231409,1.70812364027167,3030.821,3114.954,4099.245,0,-0.2651336,0.07707132,0.1770094,-0.793692350387573,-0.582597017288208,0.580646872520447,-0.987011339258123,-0.424683405378145,0.611007036871143,8
1.94000244140625,-0.610557079315186,2.22701501846313,1.70013129711151,-0.932943991899774,2.5643966441608,1.72039386345315,2971.703,2952.763,3937.345,416.9631,-0.264004,0.07770249,0.1780525,-0.803948581218719,-0.586454391479492,0.589914858341217,-0.994638524886308,-0.427965170275055,0.615728628108227,9
1.96000671386719,-0.626794934272766,2.21523976325989,1.71196758747101,-0.952915303453826,2.55580354673295,1.73275705667061,3031.479,3159.313,4087.608,0,-0.2652338,0.07817082,0.1807696,-0.81189376115799,-0.588764667510986,0.591812074184418,-1.00202586176059,-0.431143734953757,0.620301741541062,9
1.97999572753906,-0.643235504627228,2.2033965587616,1.72399127483368,-0.973016570682103,2.54715453300902,1.74520069864106,2990.358,2943.111,3917.699,462.3747,-0.2638655,0.07893264,0.1815568,-0.822026014328003,-0.59216034412384,0.60118442773819,-1.00916501115878,-0.434215511495054,0.624721215103391,9
2,-0.659827053546906,2.19151949882507,1.73603916168213,-0.993273599084619,2.53843849960327,1.7577407641983,3026.107,3189.994,4093.994,0,-0.2651241,0.07958438,0.1841966,-0.829577684402466,-0.593850791454315,0.602396547794342,-1.01606400046349,-0.437183953857422,0.628992018127441,9
2.02000427246094,-0.676618099212646,2.1795859336853,1.74827373027802,-1.01366615605493,2.52966415204104,1.77036472839513,3014.72,2928.937,3922.095,479.2428,-0.2637137,0.08051814,0.1846206,-0.839555203914642,-0.596676528453827,0.611726641654968,-1.02271452148052,-0.440045487257004,0.633109007445237,9
2.04000854492188,-0.693555057048798,2.16762900352478,1.76053023338318,-1.03418924440916,2.52083364047092,1.78306949773667,3022.683,3217.988,4097.957,0,-0.265009,0.08139206,0.187052,-0.846844136714935,-0.597844541072845,0.612822890281677,-1.02911391720548,-0.442798968459032,0.637070538244476,9
2.05999755859375,-0.710682451725006,2.15563011169434,1.77295315265656,-1.05482201812353,2.5119559343546,1.79584216754118,3051.028,2913.223,3962.565,442.659,-0.2639315,0.08244152,0.1872337,-0.856372475624084,-0.599948763847351,0.621148586273193,-1.03525504859546,-0.445441325732794,0.640872191117535,9
2.08000183105469,-0.727952599525452,2.14361810684204,1.78539884090424,-1.07559088172821,2.50301967256038,1.80869908347065,3039.947,3193.521,4129.923,0,-0.26522,0.08339845,0.1892187,-0.86350816488266,-0.600600361824036,0.622284352779388,-1.04114485287423,-0.447975543971863,0.644518260536375,9
2.10000610351563,-0.74540501832962,2.13157653808594,1.79799520969391,-1.09647498538954,2.49403382618922,1.82162733848484,3085.79,2915.967,4019.339,367.8318,-0.2645003,0.08440748,0.1892437,-0.872618138790131,-0.602067470550537,0.62981766462326,-1.04677621342161,-0.450398561093403,0.648004340974112,9
2.1199951171875,-0.762998521327972,2.1195285320282,1.81062424182892,-1.11745308225396,2.48500753716864,1.83461377976925,3051.179,3177.659,4153.648,0,-0.2656887,0.08532115,0.1909381,-0.879679143428802,-0.602407276630402,0.631452679634094,-1.0521429102862,-0.45270770082608,0.651326581984514,9
2.13999938964844,-0.78076171875,2.10746335983276,1.82337522506714,-1.138551967509,2.47592927627801,1.8476749948214,3113.406,2920.118,4091.039,276.4174,-0.265352,0.08615267,0.1911018,-0.888156473636627,-0.603259861469269,0.63754665851593,-1.05725102347782,-0.454905579228273,0.654488747383304,9
2.16000366210938,-0.798665583133698,2.09539675712585,1.83616852760315,-1.15975039167652,2.46680818657414,1.86079782920208,3088.031,3118.616,4190.776,0,-0.2662841,0.08680114,0.1924684,-0.895197331905365,-0.603328049182892,0.63966691493988,-1.0620943502576,-0.456989527434725,0.657486997379635,9
2.18000793457031,-0.816729724407196,2.08332133293152,1.84906840324402,-1.18104303873349,2.45764655539322,1.87397899203979,3129.02,2947.688,4145.244,188.2422,-0.2660983,0.08729105,0.1928861,-0.903203845024109,-0.603773534297943,0.6449915766716,-1.06667099276523,-0.458958728849171,0.660320157107579,10
2.19999694824219,-0.834931969642639,2.07124829292297,1.86201584339142,-1.20240821395574,2.44845371736898,1.88720505326679,3102.311,3088.157,4216.749,0,-0.2666884,0.08757575,0.1942869,-0.910112202167511,-0.603653430938721,0.647371232509613,-1.07097597819164,-0.460811043810786,0.662985148161421,10
2.22000122070313,-0.853286743164063,2.05917167663574,1.87506091594696,-1.22387315175433,2.43921795429519,1.90049287228091,3123.293,2969.79,4171.76,151.8326,-0.2662255,0.08771704,0.1950872,-0.917738318443298,-0.603836536407471,0.652256727218628,-1.07501419914593,-0.462548577472581,0.665484999299265,10
2.24000549316406,-0.871775031089783,2.04710149765015,1.88815367221832,-1.24541615591711,2.42994860144581,1.91382901809327,3121.413,3067.365,4225.253,0,-0.2663385,0.0876197,0.1966779,-0.924418747425079,-0.603504657745361,0.654636561870575,-1.07878069424208,-0.464169195088763,0.667816639186824,10
2.25999450683594,-0.890411376953125,2.03503084182739,1.9013477563858,-1.26701526177039,2.4206551096063,1.92719989352455,3110.041,2995.985,4154.177,162.6613,-0.2653244,0.08746119,0.1977924,-0.931813597679138,-0.603531181812286,0.659703612327576,-1.08227143928024,-0.465671165158559,0.669977576652695,10
2.27999877929688,-0.909171342849731,2.02297401428223,1.9145747423172,-1.28869796983554,2.41132564607061,1.9406225227075,3119.503,3076.704,4221.798,0,-0.2650554,0.08707448,0.1997516,-0.938002109527588,-0.602837741374969,0.661349058151245,-1.08549040888332,-0.467056197851165,0.67197027217779,10
2.30000305175781,-0.928079128265381,2.01091861724854,1.92792189121246,-1.31044231452835,2.40196966201596,1.95408330789913,3082.202,3010.896,4093.269,243.6389,-0.2631656,0.08680051,0.200954,-0.945383906364441,-0.602765440940857,0.667359828948975,-1.08843358680109,-0.468322565086307,0.673792239511894,10
2.32000732421875,-0.94709700345993,1.99888622760773,1.94128096103668,-1.33224276726637,2.39258953623693,1.96757882664355,3099.553,3130.953,4189.608,0,-0.2626458,0.08635914,0.2033628,-0.950897753238678,-0.601615428924561,0.667953491210938,-1.09109983431736,-0.469469776906228,0.675442773735451,10
2.33999633789063,-0.96626079082489,1.98686051368713,1.95477426052094,-1.35407709248145,2.38319483607731,1.98109531406483,3058.402,3005.226,4015.969,356.5992,-0.2599906,0.08619344,0.2044248,-0.958189785480499,-0.601287722587585,0.674665987491608,-1.09348640563071,-0.470496651869278,0.67692017506657,10
2.36000061035156,-0.985518872737885,1.97487139701843,1.96824955940247,-1.37597305876702,2.37377361348711,1.99464996024512,3075.758,3182.187,4163.24,0,-0.2594228,0.08590039,0.2070567,-0.962903022766113,-0.59946346282959,0.673764944076538,-1.09559602313537,-0.471404361345641,0.678226128796969,10
2.3800048828125,-1.00492262840271,1.96289610862732,1.9818788766861,-1.39790843013262,2.36433543599182,2.00822900004707,3043.822,2991.183,3934.89,471.8649,-0.2561631,0.08601552,0.2076532,-0.970190107822418,-0.598763465881348,0.681463658809662,-1.09742594550583,-0.472191725819537,0.679358937915576,10
2.40000915527344,-1.02440440654755,1.95097088813782,1.99546372890472,-1.41987760424917,2.35488271411715,2.02182896536211,3033.317,3260.359,4125.824,0,-0.2557673,0.08609194,0.210401,-0.974088311195374,-0.596253752708435,0.679240763187408,-1.09897546783438,-0.472858441988871,0.680318166050934,10
2.41999816894531,-1.04402601718903,1.93907189369202,2.0092031955719,-1.44185817738692,2.34542508756209,2.03543598721428,3045.655,2956.403,3883.709,556.2093,-0.2523675,0.08660118,0.2104312,-0.981080532073975,-0.594955325126648,0.686974942684174,-1.10024313330221,-0.473403883025206,0.681102911362803,10
2.44000244140625,-1.06371116638184,1.92723762989044,2.02287483215332,-1.46387808506052,2.33595053645515,2.04906735901791,3004.415,3298.073,4112.576,0,-0.2522568,0.08709814,0.2129278,-0.984257161617279,-0.591705977916718,0.683585584163666,-1.10123038958312,-0.473828671822132,0.681714070030222,10
2.46000671386719,-1.08352828025818,1.91544330120087,2.03669571876526,-1.48591492338117,2.32646870056377,2.06270921169857,3063.695,2923.887,3869.829,579.4536,-0.24907,0.08795078,0.2123217,-0.990848064422607,-0.5897176861763,0.691047251224518,-1.10193578218388,-0.474132182551855,0.682150741652607,10
2.47999572753906,-1.1033980846405,1.9037252664566,2.05044054985046,-1.50794623031618,2.31698924467309,2.07634764018804,2977.026,3326.799,4102.113,0,-0.249274,0.08882637,0.2144415,-0.993498623371124,-0.585906386375427,0.68723726272583,-1.10235882472314,-0.474314205938057,0.682412625136718,11
2.5,-1.1233834028244,1.89206290245056,2.06430172920227,-1.52999999932945,2.30750012397766,2.08999997377396,3093.18,2887.368,3914.566,527.3367,-0.2467547,0.08985417,0.2134466,-0.999260187149048,-0.583111584186554,0.693062424659729,-1.10250000050292,-0.474374949932098,0.682500019669533,11
2.52000427246094,-1.14341676235199,1.88048565387726,2.0780918598175,-1.55205376834272,2.29801100328223,2.10365230735988,2988.832,3284.134,4119.953,0,-0.2471419,0.09082781,0.2149003,-1.00166797637939,-0.578868746757507,0.689510762691498,-1.10235882472314,-0.474314205938057,0.682412625136718,11
2.54000854492188,-1.16354668140411,1.86897826194763,2.09196043014526,-1.57410188948011,2.28852431271001,2.11730114464159,3125.564,2880.047,3996.985,398.5536,-0.2455067,0.09169307,0.2138079,-1.00649416446686,-0.575370848178864,0.693426907062531,-1.10193535162022,-0.474131997292339,0.682150475113189,11
2.55999755859375,-1.18372309207916,1.8575599193573,2.10577178001404,-1.59612191359838,2.27904971150017,2.13093258853001,3002.627,3218.298,4153.512,0,-0.2458955,0.09243024,0.2147605,-1.00882124900818,-0.570924520492554,0.690569221973419,-1.10123038958312,-0.473828671822132,0.681714070030222,11
2.58000183105469,-1.203977227211,1.84622097015381,2.11962199211121,-1.61814182127198,2.26957516039323,2.14456396033363,3136.631,2888.389,4094.262,254.5085,-0.2448761,0.09285175,0.2139983,-1.0127124786377,-0.566934585571289,0.692512273788452,-1.10024313330221,-0.473403883025206,0.681102911362804,11
2.60000610351563,-1.22427940368652,1.83497130870819,2.13343524932861,-1.64013916343638,2.26011031859448,2.15818136301212,3034.967,3131.042,4185.848,0,-0.2448824,0.09302849,0.2146872,-1.01510488986969,-0.562482714653015,0.690660774707794,-1.09897439291323,-0.472857979480329,0.680317500623536,11
2.6199951171875,-1.24464476108551,1.82380545139313,2.14726138114929,-1.66209156852628,2.2506648119635,2.17177094750084,3127.663,2923.259,4158.616,134.371,-0.2439924,0.09278533,0.2145747,-1.01826798915863,-0.558292090892792,0.691307902336121,-1.09742594550583,-0.472191725819537,0.679358937915576,11
2.63999938964844,-1.26505589485168,1.81272828578949,2.16105818748474,-1.68402693989188,2.24122663446822,2.18534998730279,3058.659,3056.393,4210.355,0,-0.2433969,0.09219336,0.2154247,-1.02056062221527,-0.553867340087891,0.689842581748962,-1.09559602313537,-0.471404361345641,0.67822612879697,11
2.66000366210938,-1.28552556037903,1.80173230171204,2.17487335205078,-1.70592290617745,2.23180541187802,2.19890463348308,3079.403,2970.302,4147.564,118.7132,-0.2417575,0.09130286,0.2160091,-1.02348029613495,-0.549798429012299,0.690752804279327,-1.09348640563071,-0.470496651869278,0.67692017506657,10
2.68000793457031,-1.30603289604187,1.79082489013672,2.18865132331848,-1.72777388024004,2.22240354818443,2.21243142733407,3057.25,3047.333,4191.876,0,-0.2404488,0.09002886,0.2175125,-1.02537250518799,-0.545366406440735,0.688904404640198,-1.09109790637238,-0.469468947365361,0.675441580245664,9
2.69999694824219,-1.32660055160522,1.77999377250671,2.20247435569763,-1.74955768413056,2.21303058593937,2.22591663964878,3005.349,3007.21,4048.518,230.2549,-0.2374096,0.08875873,0.2186056,-1.02837157249451,-0.541548013687134,0.691153705120087,-1.08843358680109,-0.468322565086308,0.673792239511893,9
2.72000122070313,-1.34718835353851,1.76925790309906,2.21622467041016,-1.77130202882336,2.20367460188472,2.23937742484041,3028.957,3088.819,4149.06,0,-0.2355193,0.08710824,0.2209539,-1.02939546108246,-0.536804139614105,0.687513828277588,-1.08549040888332,-0.467056197851165,0.671970272177789,8
2.74000549316406,-1.36784839630127,1.75859236717224,2.23008298873901,-1.79298473688851,2.19434513834902,2.25280005402337,2917.41,3029.684,3851.364,474.3281,-0.230553,0.08593212,0.2219578,-1.03300750255585,-0.533276736736298,0.692912876605988,-1.08227143928024,-0.465671165158559,0.669977576652695,8
2.75999450683594,-1.38850164413452,1.74803304672241,2.24380803108215,-1.81458384274179,2.18505164650952,2.26617092945464,2940.781,3231.909,4062.924,0,-0.2284848,0.08451667,0.2253369,-1.03265583515167,-0.52796471118927,0.686251580715179,-1.07878069424208,-0.464169195088763,0.667816639186824,7
2.77999877929688,-1.40924167633057,1.73754322528839,2.25771236419678,-1.83612684690458,2.17578229366013,2.27950707526701,2836.896,3002.491,3596.201,820.8876,-0.2215931,0.08408164,0.2255627,-1.03700816631317,-0.524492144584656,0.695221304893494,-1.07501419914593,-0.462548577472581,0.665484999299265,6
2.80000305175781,-1.42994046211243,1.72717690467834,2.27140426635742,-1.85759178470316,2.16654653058634,2.29279489428112,2821.036,3419.596,3962.568,0,-0.2198567,0.08358372,0.2296524,-1.0349395275116,-0.518308043479919,0.684592008590698,-1.07097597819164,-0.460811043810786,0.662985148161422,6
2.82000732421875,-1.45074081420898,1.71688652038574,2.28534722328186,-1.87897323600723,2.1573466894188,2.30603103117811,2796.868,2931.46,3329.891,1181.366,-0.2116015,0.08444014,0.2283088,-1.04000699520111,-0.514519453048706,0.697152554988861,-1.06666760390385,-0.458957270716794,0.660318059240952,5
2.83999633789063,-1.47146236896515,1.70673966407776,2.29899430274963,-1.90024960698239,2.14819206138118,2.31920211834584,2661.951,3645.143,3859.942,0,-0.2108313,0.08549206,0.2326816,-1.03608322143555,-0.507348656654358,0.682359516620636,-1.06209435025759,-0.456989527434725,0.657486997379635,4
2.86000061035156,-1.49228703975677,1.6966849565506,2.31292676925659,-1.9214480311499,2.13907097167731,2.33232495272651,2811.378,2798.745,3144.241,1460.079,-0.2022927,0.08796685,0.2292814,-1.04124116897583,-0.502729475498199,0.69662344455719,-1.05725102347782,-0.454905579228273,0.654488747383304,3
2.8800048828125,-1.51300454139709,1.68679189682007,2.32651019096375,-1.94254691640495,2.12999271078668,2.34538616777867,2532.765,3820.898,3773.608,0,-0.2028738,0.09083141,0.2330544,-1.03586745262146,-0.494656801223755,0.679170727729797,-1.0521429102862,-0.45270770082608,0.651326581984514,2
2.89999389648438,-1.53380143642426,1.67701745033264,2.3403377532959,-1.96352501326936,2.1209664217661,2.35837260906308,2905.786,2638.47,3136.753,1492.498,-0.1959106,0.09464777,0.2276606,-1.03983879089355,-0.488713800907135,0.691374957561493,-1.04677621342161,-0.450398561093403,0.648004340974112,1
2.91999816894531,-1.55447697639465,1.66741800308228,2.35381531715393,-1.98440911693069,2.11198057539494,2.37130086407726,2488.413,3840.619,3755.09,0,-0.1980081,0.09886823,0.2297169,-1.03378534317017,-0.479969024658203,0.673877835273743,-1.04114485287423,-0.447975543971863,0.644518260536375,0
2.94000244140625,-1.5751805305481,1.65796732902527,2.36741209030151,-2.00517798053537,2.10304431360073,2.38415778000673,3049.881,2508.173,3375.569,1179.616,-0.1945088,0.1030671,0.2231315,-1.03517687320709,-0.472538679838181,0.679834842681885,-1.03525504859546,-0.445441325732794,0.640872191117535,0
2.96000671386719,-1.59577214717865,1.64869427680969,2.38073205947876,-2.02582645724542,2.09415985092405,2.3969401707136,2562.914,3649.413,3826.326,0,-0.1976811,0.107448,0.2226686,-1.02958035469055,-0.463650971651077,0.665996611118317,-1.02910913225408,-0.442796909628122,0.637067576131623,0
2.97999572753906,-1.61632072925568,1.63959336280823,2.3939790725708,-2.04633384260397,2.08533609591429,2.40963521915279,3195.986,2474.819,3842.846,520.7275,-0.1988593,0.1105461,0.2165481,-1.02742290496826,-0.455048054456711,0.662351906299591,-1.02271452148052,-0.440045487257004,0.633109007445237,0
3,-1.63678729534149,1.63065934181213,2.40707445144653,-2.06672639957428,2.07656174835205,2.42225918334961,2746.418,3229.097,4015.628,0,-0.2019891,0.1133302,0.2135835,-1.02333533763885,-0.446700870990753,0.65477442741394,-1.01606400046349,-0.437183953857422,0.628992018127441,0
3.02000427246094,-1.65717649459839,1.62188577651978,2.4200267791748,-2.0869834279768,2.06784571494631,2.43479924890685,3047.701,2753.406,4153.572,0,-0.2050219,0.1148121,0.2100246,-1.01945543289185,-0.438678413629532,0.647618293762207,-1.00916501115878,-0.434215511495054,0.624721215103391,0
3.04000854492188,-1.67750036716461,1.61325180530548,2.43289399147034,-2.10709998486405,2.05919012250926,2.44725235590455,2871.205,2902.73,4151.504,0,-0.2066501,0.1155856,0.2074139,-1.01620590686798,-0.431703895330429,0.643365681171417,-1.00202031904361,-0.431141350077486,0.620298310335216,0
3.05999755859375,-1.69775700569153,1.60473847389221,2.4456832408905,-2.12705600675913,2.05060360379452,2.45960608409476,2794.149,2983.854,4109.322,0,-0.2068648,0.1158849,0.2065123,-1.01283574104309,-0.425671994686127,0.639459073543549,-0.994638524886308,-0.427965170275055,0.615728628108227,0
3.08000183105469,-1.71793913841248,1.59633779525757,2.45836758613586,-2.14687713595163,2.04207512564123,2.47187630727625,2880.675,2867.212,4105.064,0,-0.2058943,0.1153913,0.2063464,-1.00909233093262,-0.420024186372757,0.634222745895386,-0.987011339258122,-0.424683405378145,0.611007036871143,0
3.10000610351563,-1.73804831504822,1.58804559707642,2.47095513343811,-2.16654331551667,2.03361331798384,2.48405060925705,2954.698,2798.599,4075.603,0,-0.2038453,0.1138705,0.2062319,-1.00545060634613,-0.41460770368576,0.629377782344818,-0.979147395688901,-0.421299770153459,0.606138881190213,0
3.1199951171875,-1.7580840587616,1.57985758781433,2.48345589637756,-2.18603502400946,2.02522658035469,2.49611690533293,2912.162,2875.918,4017.42,0,-0.201099,0.1114486,0.2067452,-1.00179064273834,-0.409403741359711,0.625038921833038,-0.971056158224178,-0.417818336715394,0.601130019760458,0
3.13999938964844,-1.77803993225098,1.57177424430847,2.49585199356079,-2.20537738341953,2.01690410346351,2.50809074721212,2900.255,2888.964,3991.533,0,-0.1981072,0.1081059,0.2080025,-0.997793674468994,-0.404153496026993,0.619799435138702,-0.962728579444533,-0.414235212212131,0.595974851798267,0
3.16000366210938,-1.79792881011963,1.56378924846649,2.50819540023804,-2.22455088103183,2.00865428308644,2.51996005559448,2787.489,2943.674,3849.426,184.3819,-0.1937306,0.1043406,0.2097168,-0.994444847106934,-0.399258822202682,0.617168188095093,-0.954174163352092,-0.410554485950274,0.590679260733698,0
3.18000793457031,-1.81772661209106,1.55591416358948,2.52039551734924,-2.24355101420387,2.00047905658478,2.53172204312984,2801.761,2970.443,3898.238,68.38898,-0.1899105,0.09988178,0.2126324,-0.989882826805115,-0.393756568431854,0.61000519990921,-0.945396434568188,-0.406777674475913,0.585245428475253,0
3.19999694824219,-1.83748412132263,1.54813158512115,2.5326361656189,-2.2623590635174,1.99238647840124,2.54336512160655,2594.348,3008.628,3553.747,583.926,-0.1825576,0.09591325,0.2148843,-0.987876236438751,-0.38912171125412,0.612036228179932,-0.936405971974636,-0.402909329586355,0.579679903854719,0
3.22000122070313,-1.85711872577667,1.54048109054565,2.54461002349854,-2.28099938900442,1.98436606709459,2.55490437104486,2747.621,3085.89,3864.149,0,-0.178712,0.09112243,0.219565,-0.981729507446289,-0.382526010274887,0.598696112632751,-0.927192788821982,-0.398945154262308,0.573976504598449,0
3.24000549316406,-1.87678229808807,1.53291583061218,2.55686569213867,-2.29945328359428,1.9764258717947,2.56632821087688,2351.453,3036.94,3006.145,1340.951,-0.1663916,0.08835126,0.2204353,-0.983183979988098,-0.378268927335739,0.612781822681427,-0.91776751470058,-0.394889722119544,0.568141810929231,0
3.25999450683594,-1.89627361297607,1.52550137042999,2.56868982315063,-2.31770268688992,1.96857366338589,2.57762546085652,2361.716,3634.684,3649.674,0,-0.1625199,0.08562988,0.228271,-0.974561631679535,-0.370722323656082,0.59120386838913,-0.90814153446928,-0.390747931744771,0.562182870617026,0
3.27999877929688,-1.91586172580719,1.51818060874939,2.58102583885193,-2.33577134012187,1.96079922667992,2.58881081793642,2234.198,2848.536,2289.231,2352.209,-0.1449202,0.08625669,0.2260873,-0.97941654920578,-0.366041213274002,0.616805851459503,-0.898304216251578,-0.386515208538549,0.556093102023818,0
3.30000305175781,-1.93521404266357,1.51103854179382,2.59270811080933,-2.35364119854729,1.95311032582551,2.59987311156116,1989.515,4215.83,3381.038,0,-0.1423646,0.08757341,0.2355202,-0.967608571052551,-0.357091754674911,0.584116458892822,-0.888267004546666,-0.382196476749158,0.549879589839776,0
3.32000732421875,-1.95471119880676,1.50403130054474,2.60507464408875,-2.37130830610839,1.94550866300381,2.61080989274252,2282.511,2511.551,1646.631,3263.32,-0.1219238,0.0928478,0.2278875,-0.974864423274994,-0.350368618965149,0.618330717086792,-0.878034183119985,-0.377793579561194,0.543544985919778,0
3.33999633789063,-1.97391855716705,1.49723052978516,2.61661791801453,-2.38875555478454,1.93800159931817,2.62161057080077,1579.061,4869.561,3068.343,0,-0.1228154,0.0995647,0.2370326,-0.960360944271088,-0.340034991502762,0.577158033847809,-0.867618167158097,-0.373311858882592,0.53709697585572,0
3.36000061035156,-1.99323117733002,1.49063265323639,2.62874817848206,-2.406005803634,1.93057929915441,2.6322892965819,2556.882,1981.987,1537.548,3568.433,-0.1053531,0.1091969,0.2235817,-0.965627074241638,-0.329890191555023,0.606518447399139,-0.857007552155826,-0.36874640767338,0.530528499715627,0
3.3800048828125,-2.0122401714325,1.48427295684814,2.64008188247681,-2.42304196557559,1.92324911460621,2.64283549236868,1532.253,5030.442,2890.812,0,-0.1107811,0.1202172,0.2278629,-0.950456500053406,-0.318002432584763,0.566686153411865,-0.846214826007803,-0.364102599125748,0.523847288101157,0
3.39999389648438,-2.03119134902954,1.47817897796631,2.65153574943542,-2.43984769972619,1.91601807669906,2.65323904237604,3051.255,1555.672,2362.3,2562.845,-0.104919,0.1308852,0.2108734,-0.947542309761047,-0.304697602987289,0.57269150018692,-0.835253140422974,-0.35938609205264,0.51706148254665,0
3.41999816894531,-2.04987001419067,1.4723494052887,2.66247963905334,-2.45644516534361,1.90887665092339,2.66351366424015,1999.706,4264.596,3146.476,0,-0.1140643,0.1418028,0.2055215,-0.933930218219757,-0.291481345891953,0.547199785709381,-0.824110582941664,-0.354591760855451,0.510163708672097,0
3.44000244140625,-2.06828260421753,1.46680414676666,2.6729371547699,-2.47281804716281,1.90183185728196,2.67364925803476,3505.509,1686.52,3918.024,271.0213,-0.1253161,0.1483467,0.190312,-0.920647144317627,-0.277257144451141,0.522879123687744,-0.812800388649434,-0.349725300221754,0.503162159625937,0
3.46000671386719,-2.08648657798767,1.46150016784668,2.68328094482422,-2.4889630419904,1.89488511704659,2.68364377892579,2597.764,2843.852,3930.01,0,-0.1353147,0.15357,0.1768267,-0.910204410552979,-0.265196919441223,0.5171839594841,-0.801327600455845,-0.344788879974649,0.496059957209413,0
3.47999572753906,-2.10447335243225,1.45636487007141,2.69355726242065,-2.50486489870395,1.88804299234919,2.69348778574196,1967.931,3538.628,3775.526,0,-0.1441367,0.159365,0.1715738,-0.899337112903595,-0.256769180297852,0.513810396194458,-0.789706299681989,-0.339788558913217,0.488865818431069,0
3.5,-2.12220644950867,1.45136761665344,2.70353102684021,-2.5205447997813,1.88129636896134,2.70319439144611,2362.66,2769.524,4065.76,0,-0.1511392,0.1641683,0.1688496,-0.886646270751953,-0.249859869480133,0.498689889907837,-0.777924000354857,-0.334718964672089,0.481572013878822,0
3.52000427246094,-2.13971948623657,1.44649219512939,2.71327328681946,-2.53598752699493,1.87465179486116,2.71275417523047,2845.3,2119.149,4217.476,0,-0.1533688,0.1664936,0.1631067,-0.875655651092529,-0.243765830993652,0.487112611532211,-0.765994882555673,-0.32958619854407,0.474187321698442,0
3.54000854492188,-2.15705537796021,1.44169950485229,2.72301888465881,-2.55119019794619,1.86811051026429,2.72216535275294,2532.699,2766.344,3863.179,0,-0.1512766,0.1675646,0.1590928,-0.866804838180542,-0.239648178219795,0.487282544374466,-0.753924423002452,-0.324392617007921,0.466715132239272,0
3.55999755859375,-2.1741886138916,1.43696618080139,2.7326979637146,-2.56613872308604,1.86167857751006,2.73141920191151,2338.053,3151.106,3605.461,0,-0.1485357,0.1680399,0.1596791,-0.856656491756439,-0.23665951192379,0.483957946300507,-0.741727567798258,-0.319144650954242,0.459164697851087,0
3.58000183105469,-2.19108819961548,1.4323046207428,2.7421178817749,-2.58085326729328,1.85534732021446,2.74052820572674,2766.458,2540.092,3738.474,0,-0.1463695,0.1664656,0.1597266,-0.844955921173096,-0.233075574040413,0.470993667840958,-0.729391385793765,-0.313836736470737,0.451528013536464,0
3.60000610351563,-2.20778059959412,1.42771601676941,2.75137948989868,-2.59531978247425,1.84912278287974,2.74948366775945,2829.878,2394.273,3683.685,136.5249,-0.1426064,0.1627363,0.1574138,-0.834630012512207,-0.229410961270332,0.463081806898117,-0.716930938559024,-0.308475354130224,0.443814403124743,0
3.6199951171875,-2.22426605224609,1.42319643497467,2.76051330566406,-2.60952509409627,1.84301063413925,2.75827743234631,2519.311,2934.405,3568.833,0,-0.1394932,0.1577351,0.1577127,-0.824286639690399,-0.225998386740685,0.456694215536118,-0.704361775018033,-0.303067194200314,0.436033492140578,0
3.63999938964844,-2.24053287506104,1.41875064373016,2.76943063735962,-2.6234885835008,1.83700253474321,2.76692149746096,2556.86,2794.051,3641.699,0,-0.1374005,0.1512114,0.1597273,-0.813336431980133,-0.222292676568031,0.445866256952286,-0.691670720740692,-0.297606588091786,0.428177124984152,0
3.66000366210938,-2.2566180229187,1.41437172889709,2.77826261520386,-2.63719712493647,1.83110413233575,2.77540773763803,2361.904,2763.273,3454.425,415.6754,-0.1322739,0.1440457,0.1618795,-0.804258584976196,-0.218934506177902,0.441603869199753,-0.678873453515702,-0.29210028151913,0.420255006953505,0
3.68000793457031,-2.27249383926392,1.41007888317108,2.78682827949524,-2.65064865588166,1.82531631436231,2.78373487607838,2457.703,2853.981,3658.367,0,-0.1288091,0.1355384,0.1665028,-0.793787896633148,-0.214650228619576,0.428281664848328,-0.665976209205203,-0.286550957599616,0.412270998344358,0
3.69999694824219,-2.28825616836548,1.40585243701935,2.7955367565155,-2.66383127580226,1.81964420129024,2.79189554578451,2057.188,2873.607,3017.801,1052.401,-0.117651,0.127932,0.1696481,-0.788113594055176,-0.211324334144592,0.435425251722336,-0.65299527533123,-0.280965624398954,0.404235181908735,0
3.72000122070313,-2.30380272865295,1.40173196792603,2.80386257171631,-2.6767633032417,1.81407991116207,2.79990108680742,2236.023,3233.254,3468.147,0,-0.112314,0.1196135,0.1782174,-0.777331650257111,-0.206013545393944,0.416286736726761,-0.639917282339434,-0.275338529371411,0.396139281255611,0
3.74000549316406,-2.31932044029236,1.39769744873047,2.81261348724365,-2.6894328975087,1.80862853869646,2.80774416919516,1829.051,2788.485,2240.299,2150.783,-0.09323674,0.1140659,0.1797495,-0.77587503194809,-0.201735064387321,0.437546461820602,-0.626758665639204,-0.269676744214497,0.387993470686332,0
3.75999450683594,-2.33459329605103,1.39380347728729,2.82075381278992,-2.70182915057228,1.80329477731443,2.81541804035694,1927.603,3813.101,3149.466,0,-0.08745608,0.1085428,0.1911063,-0.763638973236084,-0.194691553711891,0.407011061906815,-0.613536214864365,-0.263987493038594,0.379808143784027,0
3.77999877929688,-2.34991908073425,1.39005172252655,2.82959032058716,-2.7139695770734,1.79807109095524,2.82293354268985,1753.278,2512.616,1348.291,3397.014,-0.06202076,0.1073595,0.1874365,-0.766285240650177,-0.18758051097393,0.441825091838837,-0.60023651686137,-0.258265004538452,0.371574997167698,0
3.80000305175781,-2.36496376991272,1.38647842407227,2.83755993843079,-2.72584333814708,1.79296214327972,2.83028396642013,1459.794,4609.359,2757.894,0,-0.05867423,0.1071915,0.1998588,-0.752233266830444,-0.178677946329117,0.398480117321014,-0.586876524285838,-0.252516572968186,0.363304525338741,0
3.82000732421875,-2.38008737564087,1.38313460350037,2.84629225730896,-2.73744929742843,1.78796842323393,2.8374686080838,1926.333,1979.178,808.8216,4269.321,-0.03227698,0.1115458,0.1889903,-0.75619649887085,-0.167186632752419,0.436610281467438,-0.573463232144022,-0.246745208083563,0.355001058539243,0
3.83999633789063,-2.39491081237793,1.38000810146332,2.85403728485107,-2.74877791451009,1.78309403578861,2.84448156171422,1168.471,5152.215,2442.28,0,-0.03371349,0.1173678,0.1983176,-0.741175413131714,-0.156329900026321,0.387250989675522,-0.560014026276881,-0.240958390526246,0.346675359432959,0
3.86000061035156,-2.40972256660461,1.37718534469604,2.86222290992737,-2.75984563331209,1.77833190558438,2.85133300688122,2375.499,1396.122,1173.914,3960.075,-0.01542876,0.1254321,0.1810812,-0.740578830242157,-0.141134172677994,0.409285873174667,-0.546515580872635,-0.235150386571708,0.338319178707605,0
3.8800048828125,-2.42423462867737,1.37462568283081,2.86961007118225,-2.77064299647982,1.77368610185671,2.85801708903178,1408.872,4876.995,2437.562,0,-0.02202221,0.1341563,0.1814111,-0.725608706474304,-0.127986744046211,0.369354575872421,-0.532985466132484,-0.229328756186666,0.329943393154704,0
3.89999389648438,-2.43854236602783,1.37237358093262,2.87680625915527,-2.78116151864576,1.76916027562219,2.86452855531919,2891.632,1311.941,2517.395,2055.267,-0.02124617,0.1409362,0.1627453,-0.715384066104889,-0.112600490450859,0.359807223081589,-0.519441457145543,-0.223501147495394,0.321559006401168,0
3.91999816894531,-2.45254969596863,1.37039756774902,2.88359785079956,-2.79141684911929,1.7647476934202,2.87087709341145,2035.376,3620.267,3051.805,0,-0.03142796,0.1465601,0.152229,-0.700367748737335,-0.0988000631332397,0.339579313993454,-0.505870408491346,-0.2176619043907,0.313157880805522,0
3.94000244140625,-2.46623086929321,1.36866557598114,2.88993358612061,-2.8014005971492,1.76045196555656,2.87705750903383,2702.511,2241.4,3712.317,0,-0.04453551,0.1486738,0.1396248,-0.684062242507935,-0.086590938270092,0.316789120435715,-0.492290296490434,-0.211818761581115,0.30475114456651,0
3.96000671386719,-2.47961378097534,1.36713325977325,2.8960919380188,-2.81111265880708,1.75627313674876,2.88306973784971,2236.608,2586.737,3820.479,0,-0.05485739,0.1486045,0.129032,-0.669150292873383,-0.0766198113560677,0.307920902967453,-0.478708875293167,-0.205975055460916,0.29634359787259,0
