t,x_s1,x_s2,x_s3,x_s_d1,x_s_d2,x_s_d3,propellers_rpms1,propellers_rpms2,propellers_rpms3,propellers_rpms4,rollRad,pitchRad,yawRad,v_s1,v_s2,v_s3,v_s_d1,v_s_d2,v_s_d3,insideCount
0,-0.0599999986588955,2.94000005722046,1.17999994754791,-0.0599999986588955,2.94000005722046,1.17999994754791,0,0,0,0,0,0,0,0,0,0,-1.06581410364015E-15,4.44089209850063E-16,4.44089209850063E-16,0
0.0200042724609375,-0.0599999986588955,2.94000005722046,1.17729234695435,-0.0600018701838461,2.93999925195556,1.18000110611101,0,0,0,0,0.0163538,-0.002474609,-2.024222E-05,3.71994488546079E-08,3.50004931704007E-08,-0.135377958416939,-0.000280105751305916,-0.000120521679537258,0.00017339880334547,5
0.0399932861328125,-0.0599999986588955,2.94000005722046,1.17105865478516,-0.060014863945674,2.93999366110285,1.18000914986856,0,0,0,0,0.03270752,-0.004950816,-5.430172E-05,3.48044650877455E-08,3.30428591155396E-08,-0.311683237552643,-0.00111059898697896,-0.000477859717552347,0.000687513678106196,6
0.05999755859375,-0.0600004307925701,2.94013142585754,1.16552233695984,-0.0600498857373401,2.93997859220429,1.18003083002592,3161.532,2810.115,1469.635,2738.865,0.03139371,-0.004977448,-0.01632784,-2.15869422390824E-05,0.00656322110444307,-0.276814579963684,-0.00247936261166862,-0.00106680046642749,0.00153484356504269,6
0.0800018310546875,-0.0599182583391666,2.94037842750549,1.16100013256073,-0.0601175574246769,2.93994947496775,1.18007272202403,3029.099,3012,2083.373,1979.077,0.01921703,-0.004420315,-0.04309367,0.00410865107551217,0.0123501848429441,-0.226111382246017,-0.00437268608126799,-0.00188144466206175,0.00270690098422899,6
0.0999908447265625,-0.0596519149839878,2.94066071510315,1.15742909908295,-0.0602281370710988,2.93990189563514,1.18014117609281,2573.022,3764.134,2528.13,1069.491,-0.005652826,-0.003074886,-0.06910583,0.0133171305060387,0.0141164632514119,-0.178552031517029,-0.00677536694902951,-0.00291525111632684,0.0041942748969354,6
0.1199951171875,-0.0591362453997135,2.94084811210632,1.154620885849,-0.0603918861403606,2.93983143898525,1.18024254456713,1989.449,4004.084,3075.717,694.9465,-0.03990587,-0.0007073356,-0.08794237,0.0257834978401661,0.00936436653137207,-0.140412837266922,-0.00967801353495435,-0.00416417885169243,0.00599115140585487,5
0.139999389648438,-0.0583610273897648,2.94078683853149,1.15244746208191,-0.0606185767455666,2.93973390035084,1.18038287685052,1381.764,3936.92,3640.938,663.8394,-0.07574509,0.002033617,-0.09641655,0.0387609861791134,-0.00305837485939264,-0.108672983944416,-0.0130660253322238,-0.00562194567796536,0.00808849210174802,4
0.160003662109375,-0.0573620311915874,2.94033241271973,1.1509200334549,-0.0609177895434042,2.93960515744296,1.18056810382587,1009.61,3669.436,3950.209,872.1014,-0.1041259,0.003833874,-0.09479202,0.0499498806893826,-0.0227153860032558,-0.0763695985078812,-0.0169265510445065,-0.00728302204135792,0.0104783414199936,4
0.17999267578125,-0.0561949089169502,2.93938541412354,1.1501237154007,-0.0612985250199726,2.93944133760391,1.18080379722281,1010.924,3363.203,3835.601,1161.075,-0.1193512,0.003850994,-0.08597643,0.0583560988306999,-0.0473440326750278,-0.039817214012146,-0.0212433804254414,-0.00914043312572283,0.0131506644458931,3
0.199996948242188,-0.0549088194966316,2.93791818618774,1.15010976791382,-0.0617704296168641,2.93923829023936,1.18109592864822,1332.317,3133.098,3353.842,1401.846,-0.121414,0.002340768,-0.07415625,0.0643044486641884,-0.0733569115400314,-0.00069829449057579,-0.0260104776919234,-0.0111915819022102,0.0161017247421801,3
0.220001220703125,-0.0535358674824238,2.93597292900085,1.15082943439484,-0.0623420644491781,2.93899233174064,1.18144979784016,1790.519,3014.59,2723.957,1533.24,-0.115121,0.0002791968,-0.06327511,0.068647712469101,-0.0972627997398376,0.0359846577048302,-0.03121219533433,-0.0134297356845702,0.019321835755004,3
0.239990234375,-0.0520957931876183,2.93363237380981,1.1521235704422,-0.0630214373585105,2.93870001655724,1.18187036203406,2171.927,2982.824,2212.52,1546.875,-0.1071528,-0.001340635,-0.05580974,0.0720037668943405,-0.117024704813957,0.0647076219320297,-0.0368316683029241,-0.015847637913056,0.022800557215184,3
0.259994506835938,-0.0506036877632141,2.93098115921021,1.15377116203308,-0.0638179029240226,2.93835731967507,1.18236341216003,2346.999,2985.426,2005.244,1460.173,-0.1029029,-0.001920139,-0.05235349,0.0746052116155624,-0.132566407322884,0.0823770463466644,-0.0428651747123285,-0.0184436871643672,0.0265355850983733,3
0.279998779296875,-0.0490739047527313,2.92807579040527,1.1555722951889,-0.0647390625194898,2.93796097043536,1.18293365383054,2309.323,2995.75,2122.465,1299.007,-0.1047075,-0.001325722,-0.05185121,0.076489195227623,-0.145270630717278,0.0900581851601601,-0.0492963837173861,-0.0212108567320638,0.030516809833474,3
0.300003051757813,-0.0475223176181316,2.92493605613708,1.15741121768951,-0.0657927507678135,2.93750759781875,1.18358593705038,2138.025,3011.587,2441.714,1105.664,-0.1118709,0.0001955112,-0.05227838,0.0775793492794037,-0.156992182135582,0.0919469222426414,-0.0561132031658829,-0.0241439437008635,0.0347367458022363,3
0.319992065429688,-0.0459689758718014,2.92155122756958,1.15926611423492,-0.0669855955880233,2.93699435001684,1.18432436481717,1943.033,3019.356,2792.574,937.639,-0.1218231,0.002153435,-0.05161153,0.077667199075222,-0.16924324631691,0.0927456766366959,-0.0632980253096114,-0.0272353719486164,0.0391844929697465,3
0.339996337890625,-0.0444391295313835,2.91789627075195,1.16117596626282,-0.068326768706371,2.93641728069206,1.18515461486636,1802.923,3001.156,3048.458,842.0098,-0.1315069,0.00401652,-0.04861281,0.0764923915266991,-0.182753205299377,0.0954941138625145,-0.0708499516420146,-0.0304847548730522,0.0438594951176439,3
0.360000610351563,-0.0429608374834061,2.91394734382629,1.16320335865021,-0.0698225328270578,2.93577369517774,1.1860805641102,1757.699,2955.372,3148,830.4963,-0.1384982,0.005408719,-0.04315173,0.073914423584938,-0.197444096207619,0.101368121802807,-0.0787518717320621,-0.0338847303337087,0.0487511600740379,3
0.3800048828125,-0.0415604375302792,2.90969467163086,1.1654018163681,-0.0714797725314022,2.93506063123087,1.18710647443246,1803.032,2905.867,3096.918,874.0569,-0.1417499,0.006225661,-0.03593723,0.0700201317667961,-0.212630093097687,0.109920278191566,-0.0869921272359981,-0.0374302820709642,0.0538522707687797,3
0.399993896484375,-0.0402590781450272,2.90514659881592,1.16779768466949,-0.0733036822025899,2.9342758538535,1.18823556140379,1908.497,2870.655,2945.555,936.9557,-0.1416791,0.006602724,-0.02807877,0.0650680586695671,-0.227399468421936,0.119795702397823,-0.0955525119207663,-0.0411135764513579,0.0591515566763244,3
0.419998168945313,-0.0390719771385193,2.90032744407654,1.17038178443909,-0.0753034649285836,2.93341540321397,1.18947352217404,2024.295,2857.844,2770.794,988.6757,-0.1397222,0.006795112,-0.02059529,0.0593548528850079,-0.240958705544472,0.12920743227005,-0.104434660908044,-0.0449353170220673,0.0646500300148815,3
0.44000244140625,-0.0380100198090076,2.8952693939209,1.17311799526215,-0.077483988232608,2.93247718495301,1.19082336997196,2111.782,2858.878,2638.75,1016.407,-0.1375544,0.007042868,-0.01415523,0.0530982837080956,-0.252906531095505,0.136812105774879,-0.113620829717891,-0.048887868829098,0.0703367061060819,3
0.459991455078125,-0.037081778049469,2.8900043964386,1.1759569644928,-0.0798493430620752,2.93145943885026,1.19228763728888,2148.229,2868.074,2591.203,1010.946,-0.1364694,0.007497815,-0.008923188,0.0464117266237736,-0.263251811265945,0.141946882009506,-0.123092454730403,-0.0529632444654124,0.0762000931848968,3
0.479995727539063,-0.036295659840107,2.88455772399902,1.17885708808899,-0.0824088828700873,2.93035814037613,1.19387211435783,2139.872,2875.78,2626.235,979.7877,-0.1369967,0.008197967,-0.004676511,0.0393058620393276,-0.272337883710861,0.14500367641449,-0.132852887402757,-0.0571628859694044,0.0822422659629699,4
0.5,-0.0356608778238297,2.87894511222839,1.18179643154144,-0.085166398670376,2.92917165836334,1.1955791479969,2109.786,2884.01,2713.088,927.075,-0.1390266,0.009086723,-0.0009379653,0.0317394360899925,-0.280630111694336,0.14696604013443,-0.142884000065179,-0.0614789935111996,0.0884520025491718,4
0.520004272460938,-0.0351878479123116,2.87317442893982,1.18477153778076,-0.088127196023106,2.92789770997757,1.19741202260058,2072.767,2888.824,2817.699,872.3127,-0.1420013,0.01006235,0.002809665,0.0236513968557119,-0.288531869649887,0.148755118250847,-0.153174893518032,-0.065906877469682,0.0948225558197254,4
0.539993286132813,-0.0348882600665092,2.86724805831909,1.18779575824738,-0.091293865515634,2.92653518056143,1.19937234186584,2046.811,2885.603,2904.871,834.3414,-0.1451492,0.01101683,0.006901569,0.0149794099852443,-0.296320766210556,0.151208594441414,-0.163706645289342,-0.0704383960337938,0.101342211863077,4
0.55999755859375,-0.0347739681601524,2.86116647720337,1.19088876247406,-0.094676112580471,2.92507989413848,1.20146611391775,2040.497,2880.941,2957.69,811.9564,-0.1478459,0.01187217,0.01147514,0.00571448355913162,-0.304076462984085,0.15464873611927,-0.17448465888317,-0.0750758741803766,0.108014315705644,4
0.580001831054688,-0.0348560959100723,2.85493135452271,1.19407224655151,-0.0982762614093182,2.92353085067394,1.20369477754168,2056.871,2874.86,2968.086,809.4039,-0.1497421,0.01259435,0.0164277,-0.00410639587789774,-0.311750948429108,0.159175902605057,-0.185490414529404,-0.0798113433697334,0.11482740272751,4
0.599990844726563,-0.0351437628269196,2.84854793548584,1.19735884666443,-0.102095761416081,2.92188742652551,1.20605922999388,2084.95,2874.809,2952.22,813.4094,-0.1508777,0.01319839,0.02158174,-0.0143832685425878,-0.319175660610199,0.164327993988991,-0.19670480600515,-0.0846365827279185,0.121769645266545,4
0.6199951171875,-0.0356442853808403,2.8420238494873,1.20075452327728,-0.106144683970236,2.92014528826426,1.20856570593183,2115.292,2874.204,2923.06,828.697,-0.1514449,0.01372815,0.02667813,-0.0250263959169388,-0.326210141181946,0.169781237840652,-0.208134604141382,-0.0895545055543457,0.128845234789665,4
0.639999389648438,-0.0363631024956703,2.83536887168884,1.20425856113434,-0.110424235525481,2.91830391678686,1.21121495220784,2146.568,2880.899,2895.595,834.5967,-0.1518364,0.01422941,0.03153932,-0.0359407849609852,-0.332751363515854,0.175200462341309,-0.219761081350814,-0.0945570538913933,0.136042578028218,4
0.660003662109375,-0.037304200232029,2.82859373092651,1.20786356925964,-0.114938248900541,2.91636166293851,1.21400934151928,2166.08,2888.779,2886.03,834.4574,-0.1524074,0.0147436,0.03608887,-0.0470547378063202,-0.338758647441864,0.180249407887459,-0.231574097577923,-0.0996398647564507,0.143355397804799,4
0.67999267578125,-0.0384712293744087,2.82170796394348,1.21156346797943,-0.119686638739014,2.91431856344567,1.21694882102647,2176.125,2893.908,2894.55,830.8792,-0.1533251,0.01529391,0.04030807,-0.0583511255681515,-0.344293147325516,0.184993416070938,-0.243554411173546,-0.104794659005432,0.150771782621969,4
0.699996948242188,-0.0398675873875618,2.81471920013428,1.21535277366638,-0.124680083855354,2.91217002351282,1.22004000142426,2180.137,2900.735,2921.804,814.716,-0.1546625,0.01588296,0.044291,-0.0698180198669434,-0.349434971809387,0.189464941620827,-0.255710395848158,-0.11002503961202,0.158296916205407,4
0.720001220703125,-0.0414972491562366,2.80763292312622,1.21923363208771,-0.129918284978346,2.90991617190799,1.22328269744952,2184.06,2903.878,2953.101,800.2894,-0.1563164,0.01649829,0.04810807,-0.0814828798174858,-0.354317426681519,0.194045424461365,-0.268023157655716,-0.11532287703907,0.16591910230247,4
0.739990234375,-0.0433638319373131,2.80045294761658,1.22320687770844,-0.135400001298574,2.90755754251682,1.2266761409821,2187.731,2909.943,2990.991,776.8563,-0.1582157,0.0171231,0.05189712,-0.0933294966816902,-0.359001189470291,0.198663890361786,-0.280473432677602,-0.12067988256057,0.173626415629864,5
0.759994506835938,-0.0454716347157955,2.79318141937256,1.22727954387665,-0.14113644597991,2.90508931062815,1.2302272735046,2191.18,2908.037,3021.991,769.4447,-0.160106,0.01774664,0.05567012,-0.105389975011349,-0.363578021526337,0.203634411096573,-0.293070637251543,-0.126100107763583,0.181424685349205,5
0.779998779296875,-0.0478244535624981,2.78582000732422,1.23145914077759,-0.147126184485884,2.90251209348295,1.23393520697061,2205.803,2912.981,3043.597,753.1385,-0.161933,0.01835334,0.0594654,-0.117641776800156,-0.368070781230927,0.208982899785042,-0.305795832832518,-0.131575403921268,0.189302187598958,5
0.800003051757813,-0.0504255332052708,2.77837061882019,1.23575091362,-0.153371683173492,2.89982482987671,1.2378014681726,2219.235,2915.913,3059.709,745.1166,-0.1636529,0.01894306,0.06327062,-0.130053162574768,-0.372472405433655,0.21458612382412,-0.318639638509124,-0.13710173468952,0.197253115148089,5
0.819992065429688,-0.053277637809515,2.77083492279053,1.24015998840332,-0.159870162197751,2.89702871589906,1.2418243362541,2234.604,2918.194,3069.393,742.3583,-0.1652427,0.01952141,0.06703074,-0.142605200409889,-0.376782059669495,0.220452070236206,-0.33158286215529,-0.142670842232658,0.205265587156312,5
0.839996337890625,-0.0563826821744442,2.7632155418396,1.24468779563904,-0.166633637018892,2.89411858163313,1.24601124935738,2250.645,2923.323,3080.173,734.7484,-0.1667767,0.02009507,0.07072789,-0.155252650380135,-0.380967944860458,0.226389721035957,-0.344636106234817,-0.148287288494656,0.213346167053785,5
0.860000610351563,-0.05974255874753,2.75551438331604,1.24933898448944,-0.173659158941841,2.89109569582005,1.2503603820997,2268.117,2927.073,3085.372,733.3986,-0.1682851,0.02067223,0.07429624,-0.167993932962418,-0.38505482673645,0.232561573386192,-0.357780475378537,-0.153942943326036,0.221483157706883,5
0.8800048828125,-0.0633577704429626,2.7477343082428,1.25411033630371,-0.180948461186242,2.88795931270381,1.25487280742661,2283.401,2935.624,3101.591,717.9162,-0.1699342,0.02125576,0.07778331,-0.180760607123375,-0.388998210430145,0.238565146923065,-0.371007022483504,-0.159633957038354,0.229671020432672,5
0.899993896484375,-0.0672297179698944,2.73987698554993,1.25900518894196,-0.18849723509595,2.8847112861788,1.25954585807468,2293.018,2935.119,3115.376,721.0687,-0.171621,0.02185959,0.08111797,-0.193597629666328,-0.392865896224976,0.244741603732109,-0.384296738353309,-0.165352150505452,0.237897987633041,5
0.919998168945313,-0.0713586360216141,2.73194456100464,1.26402008533478,-0.196318384305134,2.8813460641717,1.26438752200817,2306.781,2943.24,3140.868,699.2208,-0.1734682,0.0224761,0.08439106,-0.206445619463921,-0.396625131368637,0.250746220350266,-0.397661187980262,-0.171102499820431,0.246171218589148,5
0.94000244140625,-0.0757461935281754,2.72393703460693,1.269162774086,-0.204407453948074,2.87786556348678,1.26939504145298,2318.184,2942.343,3155.162,701.5245,-0.1753154,0.02311268,0.08752728,-0.219378814101219,-0.400378525257111,0.257135063409805,-0.411081631631503,-0.176876941799768,0.254479112513653,5
0.959991455078125,-0.0803920179605484,2.71585607528687,1.27442800998688,-0.212759000778906,2.87427212620069,1.27456504678061,2334.424,2952.946,3184.305,671.1481,-0.1773543,0.02375343,0.09066687,-0.232290685176849,-0.404052525758743,0.263261139392853,-0.424539267042903,-0.182667386354485,0.262810029909387,5
0.979995727539063,-0.0852978378534317,2.7077009677887,1.27982378005981,-0.22138664033507,2.87055989392801,1.27990596665734,2339.917,2946.461,3201.004,682.9454,-0.1792797,0.02441818,0.09368392,-0.245291575789452,-0.407760739326477,0.269789427518845,-0.438046240701377,-0.188479059778567,0.271171490030365,5
1,-0.0904634594917297,2.69947218894958,1.28534853458405,-0.230284798736574,2.86673126495361,1.28541435058594,2362.641,2958.336,3224.146,651.3082,-0.181316,0.02508308,0.09670148,-0.258280873298645,-0.411437541246414,0.276240468025208,-0.451584000205995,-0.194303979492187,0.279552008056641,5
1.02000427246094,-0.0958898365497589,2.69116926193237,1.29100787639618,-0.239454009753966,2.86278600961093,1.2910905289958,2371.89,2955.694,3238.882,657.1062,-0.1832787,0.0257649,0.09962791,-0.271319687366486,-0.415149569511414,0.282969862222672,-0.465144357597929,-0.200138622445408,0.287946515251652,5
1.03999328613281,-0.101576447486877,2.68279242515564,1.29679930210114,-0.248887339851819,2.85872711120656,1.2969302096982,2390.327,2963.463,3261.564,634.4103,-0.1853123,0.02645179,0.1025378,-0.28432959318161,-0.418837785720825,0.289571821689606,-0.478708875293167,-0.205975055460915,0.29634359787259,5
1.05999755859375,-0.107523918151855,2.67434120178223,1.3027275800705,-0.258599401509697,2.85454828239877,1.30294243851408,2400.397,2961.236,3276.896,638.4712,-0.1872533,0.02715954,0.1053476,-0.297374099493027,-0.422560155391693,0.296416610479355,-0.492290296490434,-0.211818761581115,0.30475114456651,5
1.08000183105469,-0.113731697201729,2.66581559181213,1.30879259109497,-0.268583149539609,2.85025255453512,1.30912285413647,2422.165,2970.077,3294.879,616.3663,-0.1892623,0.02787282,0.1081187,-0.310389041900635,-0.426278501749039,0.303249895572662,-0.50587040849135,-0.217661904390701,0.313157880805523,5
1.09999084472656,-0.120199546217918,2.65721535682678,1.31499564647675,-0.278830554044452,2.84584338265603,1.31546648567654,2433.839,2970.829,3312,613.7024,-0.1912736,0.02860277,0.1108127,-0.323392570018768,-0.430014908313751,0.310155361890793,-0.519431110871131,-0.223496695782555,0.321552601564445,5
1.1199951171875,-0.126926615834236,2.64854049682617,1.32133483886719,-0.289357002179081,2.84131414609862,1.32198285851614,2448.125,2974.245,3335.398,599.2142,-0.1933221,0.0293463,0.1134588,-0.336353600025177,-0.433742612600327,0.316960483789444,-0.532985466132485,-0.229328756186667,0.329943393154705,5
1.13999938964844,-0.133913308382034,2.63979005813599,1.32781624794006,-0.300154365346813,2.83666834237095,1.3286669406667,2463.751,2975.818,3347.966,596.9624,-0.1953247,0.03011009,0.1160021,-0.349334627389908,-0.437527626752853,0.324072659015656,-0.546515580872639,-0.235150386571708,0.338319178707607,5
1.16000366210938,-0.141157671809196,2.63096451759338,1.33443343639374,-0.311222084148811,2.83190621216671,1.33551838583369,2482.169,2983.731,3375.49,569.1505,-0.1974713,0.03087613,0.11855,-0.362217426300049,-0.441279113292694,0.330862402915955,-0.560014026276883,-0.240958390526247,0.34667535943296,6
1.17999267578125,-0.148660525679588,2.62206220626831,1.34119474887848,-0.322550701230474,2.8270318247214,1.34253133946411,2489.883,2978.783,3387.61,582.1895,-0.1994846,0.03167272,0.120968,-0.375145226716995,-0.445115864276886,0.338063657283783,-0.573463232144024,-0.246745208083563,0.355001058539242,6
1.19999694824219,-0.156419366598129,2.61308431625366,1.34809041023254,-0.334156660511822,2.8220381046756,1.34971598112778,2511.991,2988.899,3420.951,542.3062,-0.2016567,0.03246544,0.1234258,-0.387940883636475,-0.448893457651138,0.344785749912262,-0.58687652428584,-0.252516572968185,0.36330452533874,6
1.22000122070313,-0.164436236023903,2.60402798652649,1.35513639450073,-0.346030421585499,2.81692915700008,1.35706640485806,2519.655,2982.13,3422.566,568.3466,-0.2035837,0.03329582,0.1257071,-0.400845319032669,-0.45281782746315,0.352297753095627,-0.600236516861372,-0.258265004538453,0.371574997167698,6
1.239990234375,-0.172706484794617,2.59489560127258,1.36231422424316,-0.358161486344149,2.81170949873715,1.36457611182642,2549.125,2999.203,3463.072,505.6537,-0.2058416,0.03410061,0.1281108,-0.41351193189621,-0.456616103649139,0.358888804912567,-0.613526094901141,-0.263983138701136,0.379801879044709,6
1.25999450683594,-0.181233584880829,2.58568334579468,1.36964511871338,-0.3705671011502,2.80637170925886,1.37225577835275,2542.797,2981.749,3460.256,561.4614,-0.207676,0.03496546,0.1302659,-0.426356047391891,-0.460608303546906,0.366542428731918,-0.626758665639206,-0.269676744214496,0.387993470686331,6
1.27999877929688,-0.190011620521545,2.57639479637146,1.37710654735565,-0.383236695417198,2.80092033679326,1.3800988607405,2584.849,3006.701,3504.418,473.9042,-0.2099434,0.0357874,0.1325927,-0.438901215791702,-0.464430898427963,0.373072445392609,-0.639917282339435,-0.275338529371412,0.396139281255613,6
1.30000305175781,-0.199045330286026,2.56702470779419,1.38472604751587,-0.396168722856641,2.79535604666509,1.38810440176341,2572.746,2985.858,3491.733,549.1794,-0.2117048,0.03668122,0.1346201,-0.451683908700943,-0.46850249171257,0.380974978208542,-0.652995275331231,-0.280965624398954,0.404235181908735,6
1.31999206542969,-0.208325952291489,2.55757880210876,1.39246881008148,-0.409351342777246,2.78968393359302,1.39626507146953,2619.048,3014.354,3551.686,436.5081,-0.2140739,0.0375098,0.1369101,-0.464032381772995,-0.472298443317413,0.387135326862335,-0.665976209205206,-0.286550957599616,0.412270998344359,6
1.33999633789063,-0.217861726880074,2.54804968833923,1.40037703514099,-0.422802873722428,2.78389611561957,1.40459220990988,2593.749,2983.112,3523.613,552.3362,-0.2156399,0.03844643,0.1387714,-0.476789176464081,-0.476461321115494,0.395409643650055,-0.678873453515705,-0.29210028151913,0.420255006953505,6
1.36000061035156,-0.227640062570572,2.53844571113586,1.40840017795563,-0.436511415158101,2.77799771321212,1.41307845008695,2661.071,3025.916,3600.655,384.912,-0.2181262,0.0392705,0.141051,-0.488914787769318,-0.480203092098236,0.401154905557632,-0.691670720740693,-0.297606588091785,0.42817712498415,6
1.3800048828125,-0.237673789262772,2.52875566482544,1.41660177707672,-0.450474904562636,2.77198961381608,1.4217225152016,2615.052,2981.353,3544.356,565.0543,-0.2194546,0.0402517,0.1427216,-0.501687467098236,-0.484500259160995,0.410080283880234,-0.704361775018035,-0.303067194200314,0.436033492140578,6
1.39999389648438,-0.247942805290222,2.51899385452271,1.42489850521088,-0.464680216184654,2.76587746507559,1.43051627978847,2705.46,3039.762,3661.838,314.467,-0.2222307,0.04104751,0.145076,-0.513451933860779,-0.488086819648743,0.414835453033447,-0.716930938559026,-0.308475354130225,0.443814403124744,7
1.41999816894531,-0.258470177650452,2.50914192199707,1.43339657783508,-0.47914673136562,2.75965292774086,1.43947174182117,2620.671,2968.95,3556.293,613.5215,-0.2230621,0.04210597,0.1464579,-0.526368379592896,-0.492592096328735,0.424902111291885,-0.729391385793766,-0.313836736470737,0.451528013536465,7
1.44000244140625,-0.269222676753998,2.49922394752502,1.44195926189423,-0.493861275572861,2.75332167044526,1.4485807456364,2766.996,3063.076,3736.118,202.1323,-0.2263106,0.0428359,0.1489973,-0.537627935409546,-0.495903313159943,0.428132712841034,-0.741727567798258,-0.319144650954242,0.459164697851088,7
1.45999145507813,-0.280240774154663,2.48920822143555,1.45076560974121,-0.508809800712713,2.74688973769103,1.45783459479497,2613.537,2950.914,3538.976,710.6366,-0.2263618,0.0440095,0.1499525,-0.550902485847473,-0.500783920288086,0.440317183732986,-0.753924423002454,-0.324392617007921,0.466715132239272,7
1.47999572753906,-0.291465938091278,2.47913789749146,1.45957338809967,-0.524012471663969,2.74034845309416,1.46724577231745,2847.137,3097.778,3849.315,16.22427,-0.2305898,0.04459812,0.1529336,-0.561261832714081,-0.503519356250763,0.440388917922974,-0.765994882555672,-0.329586198544069,0.474187321698441,7
1.5,-0.302974492311478,2.46895503997803,1.46870994567871,-0.539455198877605,2.73370387899399,1.4768055561018,2564.84,2910.468,3469.537,927.7686,-0.2290649,0.04600306,0.1531108,-0.575427889823914,-0.509147524833679,0.456831008195877,-0.777924000354858,-0.334718964672088,0.481572013878822,7
1.52000427246094,-0.314678400754929,2.45871233940125,1.47784912586212,-0.555135099954955,2.72695725560613,1.48651216180595,2724.43,3363.874,3763.517,0,-0.2329589,0.04734715,0.1573343,-0.585193872451782,-0.512140929698944,0.45695835351944,-0.789706299681991,-0.339788558913217,0.48886581843107,7
1.53999328613281,-0.326653748750687,2.44836282730103,1.48728024959564,-0.571036956668503,2.72011513090874,1.49635616862212,2651.513,2802.041,3450.545,1009.745,-0.2312678,0.04940686,0.1573214,-0.598766922950745,-0.517475485801697,0.471556693315506,-0.801327600455846,-0.344788879974649,0.496059957209413,7
1.55999755859375,-0.338815540075302,2.43796396255493,1.4966858625412,-0.587181951496087,2.71316839067337,1.50635068951315,2814.709,3280.442,3805.727,0,-0.2352264,0.0512056,0.1605135,-0.608090043067932,-0.519943535327911,0.470282524824142,-0.812800388649436,-0.349725300221754,0.503162159625937,7
1.58000183105469,-0.351245641708374,2.42746663093567,1.50638234615326,-0.60355483331529,2.70612359703193,1.51648628330776,2721.662,2794.64,3499.691,949.1736,-0.2339576,0.05358256,0.1594457,-0.621504604816437,-0.524867713451385,0.484825372695923,-0.824110582941666,-0.354591760855452,0.510163708672098,7
1.59999084472656,-0.363859623670578,2.41691946983337,1.51607847213745,-0.620139554045575,2.69898765502515,1.52675301547962,2783.186,3364.973,3800.734,0,-0.2381825,0.05589168,0.162162,-0.630697429180145,-0.527356088161469,0.484809339046478,-0.835244706287931,-0.359382463079953,0.517056261415284,7
1.6199951171875,-0.37672033905983,2.40628862380981,1.52599775791168,-0.636958033083316,2.69175113334911,1.53716445517924,2811.69,2769.969,3634.498,785.0645,-0.2384919,0.05845335,0.1610189,-0.643037080764771,-0.531543672084808,0.495965301990509,-0.846214826007804,-0.364102599125749,0.523847288101157,7
1.63999938964844,-0.389766573905945,2.39561033248901,1.53592813014984,-0.653994195024907,2.68442094880091,1.54771065096602,2868.144,3214.241,3914.167,0,-0.2429639,0.06071522,0.1625135,-0.652308940887451,-0.533906042575836,0.496519297361374,-0.857007552155828,-0.368746407673381,0.530528499715628,7
1.66000366210938,-0.403051137924194,2.38485288619995,1.54606306552887,-0.671244443874359,2.67699864863716,1.55838937674714,2861.549,2813.735,3785.537,580.4219,-0.2442385,0.06302428,0.1613224,-0.664230287075043,-0.537880182266235,0.50674968957901,-0.867618167158098,-0.373311858882592,0.53709697585572,7
1.67999267578125,-0.416525959968567,2.37403869628906,1.55624687671661,-0.688691692550512,2.66949158495151,1.56919005480539,2865.063,3195.431,3977.706,0,-0.2483701,0.06510961,0.1627044,-0.673743307590485,-0.540709495544434,0.50919246673584,-0.878034183119987,-0.377793579561193,0.543544985919778,8
1.69999694824219,-0.430226355791092,2.36314582824707,1.56660115718842,-0.706358800111611,2.66188992212981,1.58012683598675,2911.035,2836.011,3908.714,416.1011,-0.2500826,0.06706402,0.1622422,-0.685018360614777,-0.544648945331573,0.517711818218231,-0.888267004546665,-0.382196476749158,0.549879589839776,8
1.72000122070313,-0.444120049476624,2.35218977928162,1.57702112197876,-0.724228658537036,2.6542010212754,1.5911891296115,2940.437,3080.953,4054.958,0,-0.2535399,0.06863641,0.1634421,-0.694684624671936,-0.547798454761505,0.520996391773224,-0.898304216251578,-0.386515208538549,0.556093102023817,8
1.739990234375,-0.458236128091812,2.34114933013916,1.58761608600616,-0.74228345468553,2.64643254688532,1.60236590849663,2930.598,2890.014,3963.162,322.6763,-0.2548485,0.07007708,0.1635297,-0.705805778503418,-0.55202728509903,0.529747545719147,-0.908134108040217,-0.390744736359816,0.562178273303667,8
1.75999450683594,-0.472543597221375,2.33003902435303,1.59828722476959,-0.760546715064628,2.63857437616062,1.61367173667103,2953.776,3084.243,4072.292,0,-0.2575548,0.07119542,0.1652481,-0.715371608734131,-0.555512428283691,0.533558666706085,-0.917767514700581,-0.394889722119545,0.568141810929231,8
1.77999877929688,-0.487069398164749,2.31883931159973,1.60913693904877,-0.779000609654483,2.63063418086074,1.62509557650306,2940.115,2915.521,3957.858,326.3007,-0.2581263,0.0722689,0.165925,-0.726290881633759,-0.559988737106323,0.542483925819397,-0.927192788821983,-0.398945154262308,0.57397650459845,8
1.80000305175781,-0.501779675483704,2.30756998062134,1.62005376815796,-0.797640935141499,2.62261376955408,1.63663482594136,2989.211,3080.778,4074.34,0,-0.2603085,0.07301755,0.1680605,-0.735514581203461,-0.563467681407928,0.54584014415741,-0.936405971974637,-0.402909329586356,0.579679903854719,8
1.81999206542969,-0.516706883907318,2.29620933532715,1.63115894794464,-0.816448984455027,2.61452119137054,1.64827790441807,2936.528,2932.945,3929.051,378.9251,-0.2601099,0.07386949,0.1689561,-0.746360182762146,-0.568023085594177,0.555261671543121,-0.945396434568188,-0.406777674475912,0.585245428475252,8
1.83999633789063,-0.531810164451599,2.2847843170166,1.6423180103302,-0.835449117627072,2.60634596486888,1.66003989195343,2993.145,3120.603,4066.205,0,-0.2619528,0.07447611,0.1714985,-0.755161345005035,-0.571265697479248,0.557950794696808,-0.954174163352093,-0.410554485950274,0.590679260733698,8
1.86000061035156,-0.547129213809967,2.27327060699463,1.65367448329926,-0.854622615239374,2.59809614449182,1.6719092003358,2943.414,2933.073,3895.566,444.4667,-0.261157,0.07530212,0.1723879,-0.765953183174133,-0.575682818889618,0.567825317382813,-0.962728579444532,-0.414235212212131,0.595974851798267,8
1.87998962402344,-0.562616050243378,2.26170015335083,1.66507136821747,-0.873950157556149,2.58978004298193,1.6838738697284,2997.402,3162.463,4056.756,0,-0.2628828,0.07595075,0.1751181,-0.774340808391571,-0.578518271446228,0.569845855236053,-0.971049893464309,-0.417815641164241,0.601126141575667,8
1.89999389648438,-0.578315079212189,2.25005006790161,1.6766619682312,-0.893456683142228,2.58138692997148,1.69594933829086,2958.264,2920.965,3891.285,484.1896,-0.2618505,0.07686651,0.1758319,-0.784955561161041,-0.582502901554108,0.579528868198395,-0.979147395688901,-0.421299770153459,0.606138881190213,8
1.91999816894531,-0.594176709651947,2.23835325241089,1.68828642368317,-0.913122862707269,2.57292512231409,1.70812364027167,3009.276,3180.07,4064.352,0,-0.2635203,0.07762999,0.1784219,-0.793081045150757,-0.584837257862091,0.581224918365479,-0.987011339258123,-0.424683405378145,0.611007036871143,9
1.94000244140625,-0.610246241092682,2.22658777236938,1.70009803771973,-0.932943991899774,2.5643966441608,1.72039386345315,2989.219,2917.166,3910.299,473.6075,-0.262585,0.07862642,0.1788923,-0.803476214408875,-0.588270843029022,0.590580403804779,-0.994638524886308,-0.427965170275055,0.615728628108227,9
1.95999145507813,-0.62647420167923,2.21478533744812,1.71194112300873,-0.952900013794853,2.55581012544606,1.73274759164336,3013.524,3189.034,4085.161,0,-0.2642655,0.07950094,0.1812647,-0.811399757862091,-0.590121150016785,0.592154324054718,-1.00202031904361,-0.431141350077486,0.620298310335216,9
1.97999572753906,-0.642903745174408,2.20292615890503,1.72395741939545,-0.973016570682103,2.54715453300902,1.74520069864106,3019.214,2910.795,3955.766,434.994,-0.2635241,0.08053787,0.1815709,-0.82147604227066,-0.592946946620941,0.600817203521729,-1.00916501115878,-0.434215511495054,0.624721215103391,9
2,-0.659490346908569,2.19103813171387,1.73601162433624,-0.993273599084619,2.53843849960327,1.7577407641983,3030.623,3176.715,4110.682,0,-0.2650761,0.08144633,0.1836383,-0.829330325126648,-0.594408571720123,0.602712333202362,-1.01606400046349,-0.437183953857422,0.628992018127441,9
2.02000427246094,-0.676270365715027,2.17910480499268,1.74822270870209,-1.01366615605493,2.52966415204104,1.77036472839513,3055.463,2917.377,4007.783,365.0054,-0.2646223,0.08241043,0.1839134,-0.839001357555389,-0.596668243408203,0.610555648803711,-1.02271452148052,-0.440045487257004,0.633109007445237,9
2.03999328613281,-0.693205416202545,2.16714906692505,1.76047611236572,-1.03417354141348,2.52084039703127,1.78305977683431,3049.343,3150.134,4143.712,0,-0.266028,0.083223,0.1857304,-0.846753180027008,-0.597788155078888,0.61266964673996,-1.02910913225408,-0.442796909628122,0.637067576131623,9
2.05999755859375,-0.710325837135315,2.15515780448914,1.77287137508392,-1.05482201812353,2.5119559343546,1.79584216754118,3076.515,2927.947,4061.357,300.1189,-0.2656887,0.08402316,0.1860898,-0.856022298336029,-0.599565625190735,0.619762063026428,-1.03525504859546,-0.445441325732794,0.640872191117535,9
2.08000183105469,-0.727599680423737,2.14314889907837,1.78531694412231,-1.07559088172821,2.50301967256038,1.80869908347065,3070.221,3126.484,4167.27,0,-0.2667907,0.0846498,0.1877766,-0.863696694374084,-0.600440084934235,0.622278213500977,-1.04114485287423,-0.447975543971863,0.644518260536375,9
2.09999084472656,-0.745050728321075,2.13111209869385,1.79789209365845,-1.09645901288412,2.49404069871208,1.82161745074311,3095.007,2946.754,4096.616,243.7808,-0.2664626,0.08521514,0.1883443,-0.872552394866943,-0.601836681365967,0.628757059574127,-1.04677201701582,-0.450396755497224,0.648001743199023,9
2.1199951171875,-0.762650668621063,2.11906385421753,1.81051540374756,-1.11745308225396,2.48500753716864,1.83461377976925,3085.779,3102.044,4192.524,0,-0.2672663,0.08558452,0.1900455,-0.879995763301849,-0.602414846420288,0.631166517734528,-1.0521429102862,-0.45270770082608,0.651326581984514,9
2.13999938964844,-0.780423045158386,2.10699224472046,1.8232696056366,-1.138551967509,2.47592927627801,1.8476749948214,3095.006,2965.31,4103.58,233.219,-0.2665867,0.08593053,0.19078,-0.888621807098389,-0.603572309017181,0.637709021568298,-1.05725102347782,-0.454905579228273,0.654488747383304,9
2.16000366210938,-0.798337817192078,2.09491467475891,1.8360687494278,-1.15975039167652,2.46680818657414,1.86079782920208,3088.751,3114.576,4190.11,0,-0.2670597,0.08610793,0.1926969,-0.895738899707794,-0.603890538215637,0.639959216117859,-1.0620943502576,-0.456989527434725,0.657486997379635,9
2.17999267578125,-0.816418588161469,2.08281946182251,1.84899461269379,-1.18102676265167,2.45765355853653,1.8739689163698,3092.22,2972.856,4094.057,250.3947,-0.2659955,0.08631182,0.1935946,-0.904039263725281,-0.604755401611328,0.646295368671417,-1.06666760390386,-0.458957270716794,0.660318059240953,10
2.19999694824219,-0.834632873535156,2.07072639465332,1.86195278167725,-1.20240821395574,2.44845371736898,1.88720505326679,3097.705,3113.523,4193.607,0,-0.266201,0.08633374,0.1956277,-0.910715758800507,-0.604642629623413,0.64790803194046,-1.07097597819164,-0.460811043810786,0.662985148161421,10
2.22000122070313,-0.853010356426239,2.05862188339233,1.87504637241364,-1.22387315175433,2.43921795429519,1.90049287228091,3084.705,2982.895,4064.642,289.9342,-0.2646357,0.08646733,0.1964892,-0.918873488903046,-0.605234920978546,0.654682457447052,-1.07501419914593,-0.462548577472581,0.665484999299265,10
2.239990234375,-0.871510982513428,2.04652786254883,1.88815999031067,-1.24539969505118,2.42995568409656,1.91381882803312,3085.166,3152.574,4175.886,0,-0.2646873,0.08647128,0.1987371,-0.925035536289215,-0.604687511920929,0.655683159828186,-1.07877792518082,-0.464168003639063,0.667814925005999,10
2.25999450683594,-0.890168488025665,2.03443098068237,1.90140581130981,-1.26701526177039,2.4206551096063,1.92719989352455,3079.03,2975.427,4040.318,336.6581,-0.2627879,0.08664227,0.1995236,-0.932873070240021,-0.604851841926575,0.662288546562195,-1.08227143928024,-0.465671165158559,0.669977576652695,10
2.27999877929688,-0.908939182758331,2.0223560333252,1.91465747356415,-1.28869796983554,2.41132564607061,1.9406225227075,3088.293,3163.341,4169.392,0,-0.2627661,0.08666892,0.2017335,-0.938535928726196,-0.603747844696045,0.662580728530884,-1.08549040888332,-0.467056197851165,0.67197027217779,10
2.30000305175781,-0.927861511707306,2.0102870464325,1.92804276943207,-1.31044231452835,2.40196966201596,1.95408330789913,3079.82,2975.193,4017.843,366.1614,-0.260692,0.08689086,0.2022981,-0.946117699146271,-0.603452682495117,0.669265449047089,-1.08843358680109,-0.468322565086307,0.673792239511894,10
2.31999206542969,-0.946886539459229,1.99825084209442,1.94141972064972,-1.33222611841886,2.3925966997709,1.96756852021384,3069.057,3191.801,4164.013,0,-0.2607006,0.08700871,0.2045123,-0.951249420642853,-0.601802170276642,0.668849170207977,-1.09109790637238,-0.469468947365361,0.675441580245663,10
2.33999633789063,-0.966056406497955,1.98623108863831,1.95492577552795,-1.35407709248145,2.38319483607731,1.98109531406483,3079.876,2962.141,4008.763,391.452,-0.2585035,0.08732793,0.2048618,-0.958491802215576,-0.60099321603775,0.675304055213928,-1.09348640563071,-0.470496651869278,0.67692017506657,10
2.36000061035156,-0.985320031642914,1.97425436973572,1.96841490268707,-1.37597305876702,2.37377361348711,1.99464996024512,3061.68,3204.432,4159.487,0,-0.2584827,0.0875463,0.2069526,-0.963181972503662,-0.598832666873932,0.674453735351563,-1.09559602313537,-0.471404361345641,0.678226128796969,10
2.37998962402344,-1.00472009181976,1.96230447292328,1.98202514648438,-1.39789168475144,2.36434264106153,2.00821863385843,3090.263,2954.508,4006.409,389.7142,-0.2563255,0.08791986,0.2070987,-0.970006346702576,-0.597499668598175,0.680514276027679,-1.09742465646102,-0.47219117117957,0.679358139935436,10
2.39999389648438,-1.02420449256897,1.95040774345398,1.99560761451721,-1.41986083522252,2.35488992936084,2.02181858453579,3050.067,3206.999,4164.859,0,-0.2563127,0.08819411,0.2090461,-0.974223971366882,-0.594838798046112,0.679126381874084,-1.09897439291323,-0.472857979480329,0.680317500623536,10
2.41999816894531,-1.04381775856018,1.93854677677155,2.00930643081665,-1.44185817738692,2.34542508756209,2.03543598721428,3094.309,2947.802,4005.905,387.4175,-0.2541284,0.08859184,0.2090048,-0.980663537979126,-0.593047618865967,0.684945523738861,-1.10024313330221,-0.473403883025206,0.681102911362803,10
2.44000244140625,-1.06350684165955,1.92674684524536,2.02297210693359,-1.46387808506052,2.33595053645515,2.04906735901791,3038.116,3217.255,4158.621,0,-0.2540778,0.08890072,0.2108642,-0.984447538852692,-0.590005159378052,0.683282077312469,-1.10123038958312,-0.473828671822132,0.681714070030222,10
2.45999145507813,-1.08331334590912,1.91499197483063,2.03673839569092,-1.48589810917879,2.32647593524532,2.06269880290633,3098.819,2938.21,4015.417,372.1981,-0.2519681,0.08927128,0.2107519,-0.990323543548584,-0.587736129760742,0.688318312168121,-1.10193535162022,-0.474131997292339,0.68215047511319,10
2.47999572753906,-1.10318720340729,1.90330600738525,2.05046439170837,-1.50794623031618,2.31698924467309,2.07634764018804,3039.054,3197.934,4165.835,0,-0.2518328,0.08951125,0.2124334,-0.993690669536591,-0.584297657012939,0.68630063533783,-1.10235882472314,-0.474314205938057,0.682412625136718,10
2.5,-1.12316942214966,1.89167308807373,2.06428384780884,-1.52999999932945,2.30750012397766,2.08999997377396,3097.686,2940.803,4019.836,352.833,-0.2496953,0.08977493,0.212269,-0.999118566513062,-0.581644773483276,0.690978586673737,-1.10250000050292,-0.474374949932098,0.682500019669533,11
2.52000427246094,-1.14321112632751,1.88011479377747,2.07805895805359,-1.55205376834272,2.29801100328223,2.10365230735988,3029.915,3198.127,4159.614,0,-0.2494514,0.08990181,0.2139345,-1.00207185745239,-0.577917575836182,0.688759922981262,-1.10235882472314,-0.474314205938057,0.682412625136718,11
2.53999328613281,-1.16335010528564,1.86861658096313,2.09191489219666,-1.57408507527774,2.28853154739156,2.11729073584934,3088.972,2939.801,4021.835,343.0039,-0.2472553,0.09002909,0.2138414,-1.00696110725403,-0.574910402297974,0.692793726921082,-1.10193578218388,-0.474132182551855,0.682150741652607,11
2.55999755859375,-1.18353950977325,1.85719954967499,2.10571718215942,-1.59612191359838,2.27904971150017,2.13093258853001,3028.728,3178.556,4162.518,0,-0.2468383,0.08997346,0.2154797,-1.00946485996246,-0.570852756500244,0.690118968486786,-1.10123038958312,-0.473828671822132,0.681714070030222,11
2.58000183105469,-1.20381999015808,1.84584748744965,2.11960172653198,-1.61814182127198,2.26957516039323,2.14456396033363,3071.575,2948.162,4002.7,352.6741,-0.2443418,0.08994985,0.2154163,-1.01402938365936,-0.56760573387146,0.694223165512085,-1.10024313330221,-0.473403883025206,0.681102911362804,11
2.59999084472656,-1.2241405248642,1.83458185195923,2.13342261314392,-1.64012239440973,2.26011753383818,2.15817098218581,3010.74,3192.387,4145.464,0,-0.2437447,0.08974967,0.2172294,-1.01601552963257,-0.563273429870605,0.691040575504303,-1.09897546783438,-0.47285844198887,0.680318166050934,11
2.6199951171875,-1.244544506073,1.82338631153107,2.14732336997986,-1.66209156852628,2.2506648119635,2.17177094750084,3046.368,2946.052,3970.784,390.7117,-0.2408483,0.08964048,0.2172152,-1.0202054977417,-0.559778451919556,0.695040822029114,-1.09742594550583,-0.472191725819537,0.679358937915576,11
2.63999938964844,-1.26497685909271,1.81228458881378,2.16114521026611,-1.68402693989188,2.24122663446822,2.18534998730279,3002.215,3195.495,4127.853,0,-0.2400733,0.08931659,0.2191273,-1.02161884307861,-0.555087625980377,0.691097974777222,-1.09559602313537,-0.471404361345641,0.67822612879697,11
2.66000366210938,-1.28548884391785,1.80125689506531,2.17505693435669,-1.70592290617745,2.23180541187802,2.19890463348308,3019.933,2950.913,3914.227,447.2392,-0.2367145,0.08917188,0.2190174,-1.02559733390808,-0.55138635635376,0.695585131645203,-1.09348640563071,-0.470496651869278,0.67692017506657,10
2.67999267578125,-1.30601418018341,1.7903311252594,2.18886637687683,-1.72775723139253,2.2224107117184,2.21242112090437,2966.11,3229.832,4103.413,0,-0.235889,0.08883926,0.2211649,-1.02627420425415,-0.546293616294861,0.690469264984131,-1.09109983431736,-0.469469776906228,0.675442773735451,9
2.69999694824219,-1.32661664485931,1.77948355674744,2.20277976989746,-1.74955768413056,2.21303058593937,2.22591663964878,2985.791,2939.938,3841.586,541.8093,-0.2319262,0.08881591,0.2208288,-1.0301171541214,-0.542380690574646,0.695669770240784,-1.08843358680109,-0.468322565086308,0.673792239511893,9
2.72000122070313,-1.34721672534943,1.7687463760376,2.21656537055969,-1.77130202882336,2.20367460188472,2.23937742484041,2924.677,3278.553,4067.478,0,-0.2310766,0.08863831,0.2231775,-1.03000378608704,-0.536852777004242,0.689282178878784,-1.08549040888332,-0.467056197851165,0.671970272177789,8
2.739990234375,-1.36789083480835,1.75809276103973,2.23047065734863,-1.79296822271738,2.1943522439355,2.25278983096475,2963.385,2920.738,3754.994,644.5508,-0.2266089,0.08886572,0.2224418,-1.03370642662048,-0.532682359218597,0.695264518260956,-1.08227399942825,-0.465672266718727,0.669979161506271,8
2.75999450683594,-1.38854420185089,1.7475597858429,2.24421525001526,-1.81458384274179,2.18505164650952,2.26617092945464,2870.048,3334.652,4034.082,0,-0.225909,0.0889893,0.2249149,-1.0326691865921,-0.526648223400116,0.687229990959167,-1.07878069424208,-0.464169195088763,0.667816639186824,7
2.77999877929688,-1.40926897525787,1.73711633682251,2.25809741020203,-1.83612684690458,2.17578229366013,2.27950707526701,2944.95,2888.661,3666.641,755.3339,-0.2210067,0.08959927,0.2235752,-1.03624796867371,-0.522172391414642,0.694110572338104,-1.07501419914593,-0.462548577472581,0.665484999299265,6
2.80000305175781,-1.42995500564575,1.72680258750916,2.27179050445557,-1.85759178470316,2.16654653058634,2.29279489428112,2808.009,3406.927,3988.555,0,-0.2205832,0.09017977,0.2260817,-1.03430283069611,-0.515684723854065,0.684655010700226,-1.07097597819164,-0.460811043810786,0.662985148161422,6
2.81999206542969,-1.45070362091064,1.71658754348755,2.28561902046204,-1.87895695992541,2.1573536925621,2.30602095550813,2943.642,2838.698,3609.645,829.8423,-0.215666,0.09121238,0.2240967,-1.03742742538452,-0.510753214359283,0.69142085313797,-1.06667099276523,-0.458958728849171,0.660320157107579,5
2.83999633789063,-1.47139728069305,1.70651149749756,2.29923605918884,-1.90024960698239,2.14819206138118,2.31920211834584,2765.394,3437.738,3962.575,0,-0.2155999,0.09222639,0.2262978,-1.03469049930573,-0.503807187080383,0.680848062038422,-1.06209435025759,-0.456989527434725,0.657486997379635,4
2.86000061035156,-1.49214041233063,1.6965446472168,2.31297492980957,-1.9214480311499,2.13907097167731,2.33232495272651,2957.847,2793.608,3596.664,834.6846,-0.2110773,0.09354398,0.2236901,-1.03715920448303,-0.498348534107208,0.686946332454681,-1.05725102347782,-0.454905579228273,0.654488747383304,3
2.87998962402344,-1.51281774044037,1.68672227859497,2.32649707794189,-1.94253086194772,2.12999961857111,2.34537622930486,2733.932,3447.128,3943.523,0,-0.2113932,0.09484375,0.2254468,-1.03386759757996,-0.491107404232025,0.676106035709381,-1.05214690704168,-0.452709420518306,0.651329056166547,1
2.89999389648438,-1.533522605896,1.67702078819275,2.34009885787964,-1.96352501326936,2.1209664217661,2.35837260906308,2978.849,2750.565,3651.548,754.9618,-0.2077303,0.09617652,0.2225493,-1.03524160385132,-0.48507285118103,0.68009227514267,-1.04677621342161,-0.450398561093403,0.648004340974112,0
2.91999816894531,-1.55415773391724,1.66746723651886,2.35349655151367,-1.98440911693069,2.11198057539494,2.37130086407726,2747.541,3379.51,3954.613,0,-0.2082315,0.0973755,0.2236029,-1.03174078464508,-0.477672278881073,0.669890880584717,-1.04114485287423,-0.447975543971863,0.644518260536375,0
2.94000244140625,-1.57479596138,1.658043384552,2.36692500114441,-2.00517798053537,2.10304431360073,2.38415778000673,2998.227,2744.126,3750.719,590.8792,-0.2056205,0.0982852,0.2208335,-1.03192126750946,-0.47119614481926,0.671422004699707,-1.03525504859546,-0.445441325732794,0.640872191117535,0
2.95999145507813,-1.59536468982697,1.64876651763916,2.38017272949219,-2.02581075424974,2.0941666074844,2.39693044981124,2772.03,3277.2,3986.596,0,-0.2060376,0.0989279,0.2213776,-1.02843141555786,-0.46384596824646,0.662389099597931,-1.02911391720548,-0.442798968459032,0.637070538244476,0
2.97999572753906,-1.61591577529907,1.63962268829346,2.39340782165527,-2.04633384260397,2.08533609591429,2.40963521915279,2986.074,2765.94,3856.723,420.2741,-0.2040487,0.09906647,0.2192474,-1.02756810188293,-0.457194834947586,0.66175103187561,-1.02271452148052,-0.440045487257004,0.633109007445237,0
3,-1.6364004611969,1.63062119483948,2.40648937225342,-2.06672639957428,2.07656174835205,2.42225918334961,2810.597,3161.162,4016.188,0,-0.2039044,0.09877081,0.2196621,-1.02423000335693,-0.450069159269333,0.65407383441925,-1.01606400046349,-0.437183953857422,0.628992018127441,0
3.02000427246094,-1.65685570240021,1.62174987792969,2.4195408821106,-2.0869834279768,2.06784571494631,2.43479924890685,2940.129,2820.401,3902.724,311.9077,-0.2017227,0.09794895,0.2185034,-1.02276885509491,-0.443572223186493,0.652572512626648,-1.00916501115878,-0.434215511495054,0.624721215103391,0
3.03999328613281,-1.67724287509918,1.61301624774933,2.43244624137878,-2.10708469520508,2.05919670122237,2.4472428908773,2832.239,3079.246,4026.353,0,-0.2007437,0.09655522,0.2193721,-1.01935541629791,-0.43667808175087,0.645270884037018,-1.00202586176059,-0.431143734953757,0.620301741541063,0
3.05999755859375,-1.69760274887085,1.60440421104431,2.44534802436829,-2.12705600675913,2.05060360379452,2.45960608409476,2842.931,2884.326,3836.112,363.6545,-0.1971543,0.09493943,0.2191162,-1.01799726486206,-0.430608540773392,0.645087361335754,-0.994638524886308,-0.427965170275055,0.615728628108227,0
3.08000183105469,-1.71788418292999,1.59592807292938,2.45808219909668,-2.14687713595163,2.04207512564123,2.47187630727625,2809.739,3091.18,3985.368,0,-0.1952257,0.09271884,0.2210456,-1.01406836509705,-0.42379829287529,0.636703014373779,-0.987011339258122,-0.424683405378145,0.611007036871143,0
3.09999084472656,-1.73815476894379,1.58756279945374,2.47088694572449,-2.16652837486666,2.03361974652815,2.48404136028297,2718.755,2932.752,3616.677,618.2636,-0.1892075,0.09086768,0.2211676,-1.01352524757385,-0.418266475200653,0.64023768901825,-0.979153483542501,-0.421302389586788,0.606142649861596,0
3.1199951171875,-1.75832080841064,1.57933926582336,2.48345255851746,-2.18603502400946,2.02522658035469,2.49611690533293,2714.301,3220.43,3898.164,0,-0.1866855,0.08852742,0.2245608,-1.00831377506256,-0.411176443099976,0.62828129529953,-0.971056158224178,-0.417818336715394,0.601130019760458,0
3.13999938964844,-1.77850759029388,1.57121825218201,2.49621438980103,-2.20537738341953,2.01690410346351,2.50809074721212,2583.928,2930.596,3244.933,1095.133,-0.1774704,0.08739736,0.2239786,-1.00933110713959,-0.406047701835632,0.638091862201691,-0.962728579444533,-0.414235212212131,0.595974851798267,0
3.16000366210938,-1.79855012893677,1.56325149536133,2.50862312316895,-2.22455088103183,2.00865428308644,2.51996005559448,2521.228,3507.074,3748.582,0,-0.1750448,0.08611187,0.2289953,-1.00212442874908,-0.39835649728775,0.620438039302826,-0.954174163352092,-0.410554485950274,0.590679260733698,0
3.17999267578125,-1.81864666938782,1.55538940429688,2.52136278152466,-2.24353658854737,2.00048526354177,2.53171311296128,2491.759,2831.711,2794.458,1707.515,-0.1628496,0.08683531,0.2264344,-1.00482952594757,-0.393089860677719,0.636980593204498,-0.945403214201559,-0.406780591562751,0.585249625391267,0
3.19999694824219,-1.83855140209198,1.54769945144653,2.53361082077026,-2.2623590635174,1.99238647840124,2.54336512160655,2268.244,3876.825,3572.988,0,-0.1614797,0.08783806,0.2324923,-0.995234191417694,-0.384505063295364,0.612399935722351,-0.936405971974636,-0.402909329586355,0.579679903854719,0
3.22000122070313,-1.85853099822998,1.54013419151306,2.54628586769104,-2.28099938900442,1.98436606709459,2.55490437104486,2495.471,2625.897,2404.893,2264.894,-0.1477383,0.09122156,0.2267544,-0.998972594738007,-0.378253251314163,0.633754551410675,-0.927192788821982,-0.398945154262308,0.573976504598449,0
3.239990234375,-1.87827742099762,1.53275954723358,2.55836367607117,-2.2994392795179,1.97643189735754,2.5663195416865,2021.588,4245.809,3388.944,0,-0.1484616,0.09531426,0.2326096,-0.987329959869385,-0.368736505508423,0.603887319564819,-0.917774783907129,-0.394892849856044,0.568146310914365,0
3.25999450683594,-1.898073554039,1.52554678916931,2.57082271575928,-2.31770268688992,1.96857366338589,2.57762546085652,2634.036,2323.814,2314.619,2464.081,-0.1363853,0.1012277,0.2234371,-0.989801049232483,-0.360634714365005,0.622949540615082,-0.90814153446928,-0.390747931744771,0.562182870617026,0
3.27999877929688,-1.91762018203735,1.51854264736176,2.58268356323242,-2.33577134012187,1.96079922667992,2.58881081793642,1955.852,4350.088,3291.529,0,-0.1397227,0.1078807,0.2266497,-0.977338790893555,-0.350218683481216,0.59303867816925,-0.898304216251578,-0.386515208538549,0.556093102023818,0
3.30000305175781,-1.93712878227234,1.51174116134644,2.59469199180603,-2.35364119854729,1.95311032582551,2.59987311156116,2899.053,2072.434,2716.577,1964.387,-0.1337876,0.1146131,0.2152441,-0.97543877363205,-0.340072214603424,0.600418090820313,-0.888267004546666,-0.382196476749158,0.549879589839776,0
3.31999206542969,-1.9564037322998,1.50515866279602,2.60624289512634,-2.37129490830989,1.94551442770222,2.61080159886703,2146.908,3992.96,3405.503,0,-0.1393643,0.1215658,0.2135054,-0.963738143444061,-0.329123020172119,0.577540099620819,-0.878042061913513,-0.37779696958594,0.54354986326829,0
3.33999633789063,-1.97551882266998,1.49880146980286,2.61759424209595,-2.38875555478454,1.93800159931817,2.62161057080077,3159.532,2061.413,3570.921,750.5846,-0.1426144,0.1262893,0.2027848,-0.955752074718475,-0.317848414182663,0.567567229270935,-0.867618167158097,-0.373311858882592,0.53709697585572,0
3.36000061035156,-1.99444341659546,1.49265086650848,2.62872624397278,-2.406005803634,1.93057929915441,2.6322892965819,2501.234,3216.693,3778.2,0,-0.148663,0.1302964,0.1961752,-0.946243166923523,-0.307544976472855,0.556600034236908,-0.857007552155826,-0.36874640767338,0.530528499715627,0
3.37998962402344,-2.01317524909973,1.48668456077576,2.63963794708252,-2.42302905329872,1.92325467039821,2.6428274990542,2716.672,2758.257,3966.932,0,-0.1547217,0.1328212,0.1903846,-0.936596870422363,-0.298316061496735,0.545585751533508,-0.846223126656603,-0.364106170663035,0.523852426598178,0
3.39999389648438,-2.0317268371582,1.48087406158447,2.65038013458252,-2.43984769972619,1.91601807669906,2.65323904237604,2610.351,2757.92,4034.063,0,-0.1587404,0.1341677,0.185918,-0.927573025226593,-0.290524005889893,0.537109971046448,-0.835253140422974,-0.35938609205264,0.51706148254665,0
3.41999816894531,-2.05010795593262,1.47519052028656,2.66099643707275,-2.45644516534361,1.90887665092339,2.66351366424015,2547.617,2826.137,3987.404,0,-0.1602035,0.1345457,0.1834192,-0.919073164463043,-0.284179300069809,0.530811309814453,-0.824110582941664,-0.354591760855451,0.510163708672097,0
3.44000244140625,-2.06831955909729,1.46961498260498,2.67147755622864,-2.47281804716281,1.90183185728196,2.67364925803476,2593.802,2787.03,3938.392,0,-0.1595287,0.1338007,0.1824795,-0.910562872886658,-0.278762251138687,0.524054050445557,-0.812800388649434,-0.349725300221754,0.503162159625937,0
3.45999145507813,-2.08636140823364,1.46413993835449,2.68181467056274,-2.48895081463434,1.8948903781363,2.68363620960993,2709.766,2679.716,3896.527,0,-0.1571915,0.1315693,0.1820121,-0.902108728885651,-0.273757785558701,0.516858518123627,-0.80133641229185,-0.344792671461508,0.496065412155666,0
3.47999572753906,-2.10423827171326,1.45876049995422,2.69201874732971,-2.50486489870395,1.88804299234919,2.69348778574196,2732.44,2699.66,3827.135,0,-0.1537486,0.1277869,0.1820016,-0.893826246261597,-0.268969744443893,0.51020747423172,-0.789706299681989,-0.339788558913217,0.488865818431069,0
3.5,-2.12195181846619,1.45347380638123,2.70210194587708,-2.5205447997813,1.88129636896134,2.70319439144611,2668.315,2789.645,3727.822,47.83358,-0.1495914,0.1226792,0.1829198,-0.885673403739929,-0.264340728521347,0.50416487455368,-0.777924000354857,-0.334718964672089,0.481572013878822,0
3.51998901367188,-2.13950705528259,1.44827651977539,2.71208024024963,-2.53597583877076,1.87465682397749,2.71274693966292,2535.803,2883.923,3590.466,200.4836,-0.1444248,0.1167465,0.1849865,-0.877770006656647,-0.259858816862106,0.498920619487762,-0.766004036374581,-0.329590137176618,0.474192988348404,0
3.53999328613281,-2.15690517425537,1.44317173957825,2.72193789482117,-2.55117869390181,1.86811546013321,2.72215823120146,2446.515,2929.578,3485.073,328.5491,-0.1383741,0.1103126,0.188116,-0.869898200035095,-0.255233496427536,0.492884546518326,-0.753933682518821,-0.324396601119134,0.466720864320997,0
3.55999755859375,-2.17415952682495,1.43816351890564,2.73170828819275,-2.56613872308604,1.86167857751006,2.73141920191151,2354.961,2954.924,3312.33,556.2375,-0.1306723,0.1038336,0.1915624,-0.86272257566452,-0.250415682792664,0.488524407148361,-0.741727567798258,-0.319144650954242,0.459164697851087,0
3.58000183105469,-2.19126176834106,1.43326735496521,2.74132490158081,-2.58085326729328,1.85534732021446,2.74052820572674,2367.159,2975.622,3285.965,532.3411,-0.1229763,0.09715589,0.1955041,-0.855124831199646,-0.244807168841362,0.480833351612091,-0.729391385793765,-0.313836736470737,0.451528013536464,0
3.59999084472656,-2.20824694633484,1.42849063873291,2.75091028213501,-2.59530884290342,1.84912748987145,2.74947689564398,2240.504,2996.667,3009.79,914.9139,-0.1128807,0.09104147,0.1984591,-0.84925776720047,-0.238849610090256,0.479268133640289,-0.716940488958392,-0.308479463400265,0.4438203152769,0
3.6199951171875,-2.22506475448608,1.42386293411255,2.76022052764893,-2.60952509409627,1.84301063413925,2.75827743234631,2399.634,3018.916,3252.667,456.6303,-0.1059768,0.08430671,0.2023968,-0.840874791145325,-0.231371536850929,0.465511113405228,-0.704361775018033,-0.303067194200314,0.436033492140578,0
3.63999938964844,-2.2418224811554,1.41938042640686,2.76970982551575,-2.6234885835008,1.83700253474321,2.76692149746096,2026.532,3039.79,2547.371,1541.698,-0.0927073,0.07940424,0.2030081,-0.837900519371033,-0.224128782749176,0.47447070479393,-0.691670720740692,-0.297606588091786,0.428177124984152,0
3.66000366210938,-2.25835013389587,1.41508460044861,2.77861881256104,-2.63719712493647,1.83110413233575,2.77540773763803,2366.387,3268.629,3429.26,0,-0.08980498,0.07306668,0.2085998,-0.82638281583786,-0.214787319302559,0.445444107055664,-0.678873453515702,-0.29210028151913,0.420255006953505,0
3.67999267578125,-2.27494287490845,1.41095304489136,2.78821992874146,-2.65063849381582,1.82532068681534,2.78372858527554,1626.63,2967.197,1645.379,2923.863,-0.06935883,0.07141473,0.2045884,-0.829626858234406,-0.206584647297859,0.480060964822769,-0.665986083416798,-0.286555206197011,0.41227711095171,0
3.69999694824219,-2.29124474525452,1.40700697898865,2.79695749282837,-2.66383127580226,1.81964420129024,2.79189554578451,1347.478,4562.369,3058.627,0,-0.06775828,0.07105801,0.2169095,-0.815091133117676,-0.197295323014259,0.436872452497482,-0.65299527533123,-0.280965624398954,0.404235181908735,0
3.72000122070313,-2.30768799781799,1.40326952934265,2.80663251876831,-2.6767633032417,1.81407991116207,2.79990108680742,1724.639,2246.562,713.5398,4441.235,-0.04026806,0.07659639,0.2071576,-0.822162210941315,-0.186872363090515,0.483756542205811,-0.639917282339434,-0.275338529371411,0.396139281255611,0
3.739990234375,-2.32379603385925,1.39973163604736,2.81516933441162,-2.68942333385363,1.80863265367006,2.80773824883709,930.987,5303.286,2642.461,0,-0.04082626,0.08413609,0.219455,-0.805416882038116,-0.17689611017704,0.426841259002686,-0.62676873176137,-0.26968107538565,0.387999702095468,0
3.75999450683594,-2.3400194644928,1.39649248123169,2.8245587348938,-2.70182915057228,1.80329477731443,2.81541804035694,2246.022,1437.101,462.9427,4918.769,-0.01464632,0.09600044,0.2006604,-0.81115460395813,-0.161960944533348,0.469464719295502,-0.613536214864365,-0.263987493038594,0.379808143784027,0
3.77999877929688,-2.35590505599976,1.3934930562973,2.83288073539734,-2.7139695770734,1.79807109095524,2.82293354268985,848.4458,5741.71,2212.632,0,-0.02058943,0.1099343,0.206449,-0.794290959835052,-0.149968236684799,0.416104763746262,-0.60023651686137,-0.258265004538452,0.371574997167698,0
3.80000305175781,-2.37167453765869,1.39083218574524,2.84129047393799,-2.72584333814708,1.79296214327972,2.83028396642013,3005.538,812.2266,1650.157,3450.962,-0.01136477,0.1232578,0.1825235,-0.788463354110718,-0.133044004440308,0.42049053311348,-0.586876524285838,-0.252516572968186,0.363304525338741,0
3.81999206542969,-2.38711071014404,1.38846683502197,2.84908008575439,-2.73744054699573,1.78797218830065,2.83746319114912,1728.607,4506.221,2550.352,0,-0.02297136,0.1363415,0.1726267,-0.771808803081512,-0.118266649544239,0.389485269784927,-0.573473482003301,-0.246749618311662,0.355007403690404,0
3.83999633789063,-2.40216183662415,1.38639044761658,2.85613465309143,-2.74877791451009,1.78309403578861,2.84448156171422,3475.048,1368.905,3761.597,143.0068,-0.0398851,0.1435997,0.1516328,-0.752567946910858,-0.103825740516186,0.352732539176941,-0.560014026276881,-0.240958390526246,0.346675359432959,0
3.86000061035156,-2.41688060760498,1.38456702232361,2.86307454109192,-2.75984563331209,1.77833190558438,2.85133300688122,2414.54,2605.374,3757.313,0,-0.0546454,0.1485515,0.1318372,-0.73593145608902,-0.0911653935909271,0.346998751163483,-0.546515580872635,-0.235150386571708,0.338319178707605,0
3.87998962402344,-2.43126201629639,1.38289749622345,2.87002825737,-2.7706348636882,1.77368960116974,2.85801205444635,1274.667,3997.466,3407.965,0,-0.06866854,0.154566,0.1259972,-0.719077885150909,-0.0834736227989197,0.347689181566238,-0.532995796775444,-0.22933320117373,0.329949788314816,0
3.89999389648438,-2.4452702999115,1.38132262229919,2.87653732299805,-2.78116151864576,1.76916027562219,2.86452855531919,1835.658,2783.099,3950.59,0,-0.08114492,0.1594297,0.1251937,-0.700398802757263,-0.0787475854158401,0.325448870658875,-0.519441457145543,-0.223501147495394,0.321559006401168,0
3.91999816894531,-2.45896220207214,1.37982106208801,2.88274908065796,-2.79141684911929,1.7647476934202,2.87087709341145,2605.38,1541.607,4237.813,201.0636,-0.08432633,0.1607813,0.1182422,-0.684596657752991,-0.0750683769583702,0.31058606505394,-0.505870408491346,-0.2176619043907,0.313157880805522,0
3.94000244140625,-2.47239232063293,1.37835764884949,2.88906335830688,-2.8014005971492,1.76045196555656,2.87705750903383,2232.731,2660.975,3697.136,0,-0.08102561,0.1600174,0.1137933,-0.671521425247192,-0.073174849152565,0.31571501493454,-0.492290296490434,-0.211818761581115,0.30475114456651,0
3.95999145507813,-2.4855432510376,1.37691056728363,2.89538908004761,-2.81110535421031,1.75627627971269,2.88306521595634,1959.02,3281.744,3268.133,0,-0.0772599,0.1582985,0.1163565,-0.657529652118683,-0.0723529532551765,0.316283315420151,-0.478719233391147,-0.205979512261105,0.296350010028665,0
