t,x_s1,x_s2,x_s3,x_s_d1,x_s_d2,x_s_d3,propellers_rpms1,propellers_rpms2,propellers_rpms3,propellers_rpms4,rollRad,pitchRad,yawRad,v_s1,v_s2,v_s3,v_s_d1,v_s_d2,v_s_d3,insideCount
0,-0.0599999986588955,2.94000005722046,1.17999994754791,-0.0599999986588955,2.94000005722046,1.17999994754791,0,0,0,0,0,0,0,0,0,0,-1.06581410364015E-15,4.44089209850063E-16,4.44089209850063E-16,0
0.0200004577636719,-0.0599999986588955,2.94000005722046,1.17729234695435,-0.0600018691155303,2.93999925241522,1.18000110544967,0,0,0,0,0.0163538,-0.002474609,-2.024222E-05,3.71994488546079E-08,3.50004931704007E-08,-0.135377958416939,-0.000279999361409376,-0.000120475902936966,0.000173332942931458,5
0.0399971008300781,-0.0599999986588955,2.94000005722046,1.17105865478516,-0.0600148681826738,2.93999365927978,1.18000915249146,0,0,0,0,0.03270752,-0.004950816,-5.430172E-05,3.48044650877455E-08,3.30428591155396E-08,-0.311683237552643,-0.00111080915396111,-0.000477950146533378,0.000687643781479785,6
0.05999755859375,-0.0600004307925701,2.94013142585754,1.16552245616913,-0.0600498857373401,2.93997859220429,1.18003083002592,3161.678,2810.187,1469.474,2738.81,0.03139224,-0.004977448,-0.01632784,-2.15873515116982E-05,0.00656334543600678,-0.276810824871063,-0.00247936261166862,-0.00106680046642749,0.00153484356504269,6
0.0799980163574219,-0.0599182620644569,2.94037842750549,1.16100013256073,-0.0601175407449857,2.93994948214456,1.18007271169851,3028.892,3011.958,2083.539,1979.142,0.01921453,-0.004420315,-0.04309314,0.00410841964185238,0.0123497527092695,-0.226115763187408,-0.00437227586895222,-0.00188126815916228,0.00270664704326441,6
0.0999984741210938,-0.0596519261598587,2.94066071510315,1.15742897987366,-0.0602281887669101,2.93990187339187,1.18014120809498,2572.918,3764.105,2528.272,1069.501,-0.005653891,-0.003074353,-0.06910477,0.0133167700842023,0.0141154145821929,-0.178555130958557,-0.00677637982016689,-0.00291568692648091,0.00419490191241918,6
0.119998931884766,-0.0591362603008747,2.94084787368774,1.154620885849,-0.0603919230601972,2.93983142309968,1.18024256742227,1989.828,4004.093,3075.515,694.7872,-0.03990853,-0.0007073356,-0.08794184,0.0257833823561668,0.00936301238834858,-0.140407264232635,-0.00967861374975049,-0.00416443710735115,0.00599152296740588,5
0.139999389648438,-0.0583610571920872,2.94078660011292,1.15244734287262,-0.0606185767455666,2.93973390035084,1.18038287685052,1381.427,3936.984,3641.073,663.9553,-0.07574776,0.002033785,-0.09641442,0.0387601517140865,-0.0030595576390624,-0.108675926923752,-0.0130660253322238,-0.00562194567796536,0.00808849210174802,4
0.159999847412109,-0.0573620870709419,2.94033217430115,1.15091991424561,-0.0609177249752248,2.93960518522485,1.18056806385509,1009.525,3669.297,3950.299,872.2515,-0.1041253,0.003834046,-0.09478989,0.0499484501779079,-0.0227171368896961,-0.0763709619641304,-0.0169257706321904,-0.00728268625174051,0.0104778583075938,4
0.180000305175781,-0.0561949983239174,2.93938517570496,1.15012359619141,-0.0612986871007165,2.9394412678651,1.18080389755851,1010.984,3363.188,3835.568,1161.067,-0.1193474,0.003851083,-0.08597483,0.0583544299006462,-0.0473458021879196,-0.0398155562579632,-0.0212451141043368,-0.00914117907931815,0.0131517376757159,3
0.199996948242188,-0.0549089275300503,2.93791794776917,1.15010976791382,-0.0617704296168641,2.93923829023936,1.18109592864822,1332.961,3133.109,3353.461,1401.582,-0.121413,0.002340558,-0.07415678,0.0643035024404526,-0.0733586698770523,-0.000688467174768448,-0.0260104776919234,-0.0111915819022102,0.0161017247421801,3
0.219997406005859,-0.0535359941422939,2.93597269058228,1.15082931518555,-0.0623419453860714,2.93899238297017,1.18144972413443,1789.939,3014.748,2724.212,1533.359,-0.1151215,0.0002796581,-0.06327458,0.0686467662453651,-0.0972621142864227,0.0359783656895161,-0.0312111627562649,-0.0134292913950757,0.0193211965399932,3
0.239997863769531,-0.0520959459245205,2.93363213539124,1.15212345123291,-0.0630217183703222,2.93869989564571,1.18187053599376,2171.922,2982.536,2212.609,1547.104,-0.1071507,-0.001340103,-0.05581133,0.0720024779438972,-0.117024779319763,0.0647061467170715,-0.0368338920540454,-0.0158485947310391,0.02280193382306,3
0.259998321533203,-0.0506038516759872,2.93098068237305,1.15377116203308,-0.063818066443955,2.93835724931701,1.18236351338666,2347.623,2985.675,2004.892,1459.675,-0.1029045,-0.001920139,-0.05235562,0.0746046826243401,-0.132567271590233,0.08238635212183,-0.04286636357961,-0.0184441987007453,0.0265363210638542,3
0.279998779296875,-0.0490740761160851,2.92807531356812,1.15557217597961,-0.0647390625194898,2.93796097043536,1.18293365383054,2308.707,2995.928,2122.846,1299.021,-0.1047134,-0.001325189,-0.05185015,0.0764888450503349,-0.14527003467083,0.0900491401553154,-0.0492963837173861,-0.0212108567320638,0.030516809833474,3
0.299999237060547,-0.0475225150585175,2.92493534088135,1.15741097927094,-0.065792536715479,2.93750768991949,1.18358580454179,2137.811,3011.149,2441.943,1106.129,-0.1118719,0.0001961876,-0.05227785,0.077578067779541,-0.156993210315704,0.0919428095221519,-0.0561118672418845,-0.0241433688900884,0.0347359188016424,3
0.319999694824219,-0.0459692031145096,2.92155051231384,1.15926587581635,-0.0669860785243584,2.93699414222283,1.18432466377777,1943.042,3019.54,2792.635,937.3959,-0.1218204,0.002153899,-0.0516094,0.0776656493544579,-0.169244885444641,0.092745915055275,-0.0633008373176985,-0.0272365818771378,0.0391862337367069,3
0.340000152587891,-0.0444393754005432,2.91789531707764,1.16117608547211,-0.0683270389802989,2.93641716440073,1.1851547821788,1803.833,3001.122,3047.815,841.8004,-0.1315053,0.004016024,-0.04861281,0.0764914378523827,-0.182756200432777,0.0955110937356949,-0.0708514254995047,-0.0304853890327553,0.0438604075056398,3
0.359996795654297,-0.0429610908031464,2.91394639015198,1.16320323944092,-0.0698222324154443,2.93577382443646,1.1860803781411,1757.056,2955.721,3148.331,830.3802,-0.138502,0.005408696,-0.043148,0.0739140585064888,-0.197443604469299,0.101360119879246,-0.0787503322603694,-0.0338840679420472,0.0487502070677249,3
0.379997253417969,-0.0415607243776321,2.90969371795654,1.16540157794952,-0.0714791088463715,2.935060916796,1.18710606357981,1802.552,2905.214,3097.156,874.9816,-0.1417452,0.006225977,-0.03593616,0.0700182765722275,-0.212630450725555,0.109915509819984,-0.0869889214763108,-0.0374289027221294,0.0538502862508218,3
0.399997711181641,-0.0402594059705734,2.9051456451416,1.16779756546021,-0.0733040467096699,2.93427569701629,1.18823578705104,1908.809,2870.887,2945.457,936.5172,-0.1416695,0.006602712,-0.02807824,0.0650660619139671,-0.227399975061417,0.119799181818962,-0.0955541759940907,-0.0411142924556206,0.059152586816983,3
0.419998168945313,-0.0390723273158073,2.90032649040222,1.17038214206696,-0.0753034649285836,2.93341540321397,1.18947352217404,2025.354,2858.015,2769.96,988.2848,-0.1397174,0.006794018,-0.02059742,0.0593540258705616,-0.2409598082304,0.129227876663208,-0.104434660908044,-0.0449353170220673,0.0646500300148815,3
0.439998626708984,-0.0380103401839733,2.89526844024658,1.17311811447144,-0.0774835548069347,2.93247737144397,1.19082310166083,2111.002,2859.214,2639.275,1016.22,-0.1375592,0.007042495,-0.01415364,0.0530995167791843,-0.25290259718895,0.136797994375229,-0.113619049702587,-0.0488871029382406,0.0703356041918149,3
0.459999084472656,-0.0370821058750153,2.89000344276428,1.1759569644928,-0.0798502821969742,2.93145903476675,1.19228821865812,2147.795,2867.237,2591.392,1012.081,-0.1364668,0.007497988,-0.008925851,0.0464112721383572,-0.263249754905701,0.141942411661148,-0.123096124252221,-0.0529648233581361,0.0762023647937057,3
0.479999542236328,-0.0362959951162338,2.88455677032471,1.17885732650757,-0.0824093896672336,2.93035792231548,1.19387242808941,2140.931,2876.413,2625.668,978.705,-0.1369999,0.008197494,-0.004679706,0.0393057763576508,-0.272337883710861,0.145017758011818,-0.13285477482153,-0.0571636980729742,0.0822434343651008,4
0.5,-0.0356611758470535,2.87894415855408,1.18179631233215,-0.085166398670376,2.92917165836334,1.1955791479969,2108.929,2884.243,2713.852,926.8629,-0.1390383,0.009086792,-0.0009358348,0.0317410156130791,-0.280627012252808,0.146947205066681,-0.142884000065179,-0.0614789935111996,0.0884520025491718,4
0.520000457763672,-0.0351881682872772,2.8731734752655,1.18477141857147,-0.0881266117110474,2.92789796139072,1.19741166088358,2072.315,2887.902,2817.867,873.6073,-0.1420008,0.01006282,0.002808977,0.0236501209437847,-0.288532376289368,0.148752748966217,-0.153172907027918,-0.0659060227384819,0.0948213260877149,4
0.539997100830078,-0.0348886176943779,2.86724710464478,1.1877955198288,-0.0912944900108037,2.92653491185861,1.1993727284581,2047.088,2886.158,2905.023,833.3509,-0.1451455,0.01101705,0.006904446,0.0149779729545116,-0.296321034431458,0.151206612586975,-0.163708678212627,-0.0704392707438901,0.101343470339432,4
0.55999755859375,-0.0347743667662144,2.86116552352905,1.19088900089264,-0.094676112580471,2.92507989413848,1.20146611391775,2041.36,2880.788,2956.694,812.2784,-0.1478395,0.01187123,0.01147462,0.00571222137659788,-0.304079622030258,0.154673993587494,-0.17448465888317,-0.0750758741803766,0.108014315705644,4
0.579998016357422,-0.0348564684391022,2.85493063926697,1.19407224655151,-0.0982755538235842,2.92353115512831,1.2036943395124,2056.365,2875.413,2968.658,808.6619,-0.1497453,0.01259356,0.0164331,-0.00410521309822798,-0.311748296022415,0.159161269664764,-0.185488294752812,-0.0798104312890852,0.11482609048482,4
0.599998474121094,-0.035144180059433,2.8485472202301,1.19735896587372,-0.102097262171133,2.92188678079254,1.20606015903275,2084.496,2873.717,2951.992,815.2495,-0.1508675,0.01319828,0.02157986,-0.0143849514424801,-0.319175750017166,0.164333879947662,-0.196709126405959,-0.0846384416756885,0.121772319800455,4
0.619998931884766,-0.0356447100639343,2.84202289581299,1.20075500011444,-0.106145477944935,2.92014494663912,1.20856619743999,2116.757,2875.233,2922.223,827.0474,-0.1514454,0.01372702,0.02667565,-0.0250269211828709,-0.326211005449295,0.169801205396652,-0.208136802817102,-0.0895554515830839,0.128846595874672,4
0.639999389648438,-0.0363634675741196,2.83536791801453,1.20425844192505,-0.110424235525481,2.91830391678686,1.21121495220784,2145.472,2880.959,2896.642,834.4904,-0.1518497,0.01422926,0.03154261,-0.0359376147389412,-0.332746773958206,0.175174117088318,-0.219761081350814,-0.0945570538913933,0.136042578028218,4
0.659999847412109,-0.0373045913875103,2.8285927772522,1.20786345005035,-0.114937365519793,2.91636204303257,1.21400879466451,2165.439,2887.629,2886.115,836.2888,-0.1524047,0.0147445,0.03608551,-0.0470561757683754,-0.338758587837219,0.180248990654945,-0.231571827761751,-0.0996388881179631,0.143353992680462,4
0.680000305175781,-0.0384716242551804,2.82170701026917,1.21156311035156,-0.119688496929273,2.91431776391831,1.21694997133476,2176.596,2894.782,2895.038,829.0214,-0.1533235,0.01529437,0.04031029,-0.0583515837788582,-0.344291120767593,0.184983342885971,-0.243559016194652,-0.104796640417365,0.150774633349401,4
0.699996948242188,-0.0398680604994297,2.81471824645996,1.21535325050354,-0.124680083855354,2.91217002351282,1.22004000142426,2181.181,2900.449,2920.123,815.7393,-0.1546572,0.01588223,0.04428644,-0.0698220878839493,-0.349439799785614,0.189507126808167,-0.255710395848158,-0.11002503961202,0.158296916205407,4
0.719997406005859,-0.0414976179599762,2.8076319694519,1.21923327445984,-0.129917262555645,2.90991661182791,1.22328206452116,2183.107,2904.853,2954.976,798.1691,-0.1563318,0.01649775,0.048118,-0.0814778655767441,-0.35431095957756,0.193999290466309,-0.26802079535749,-0.115321860608138,0.165917639927336,4
0.739997863769531,-0.0433643199503422,2.80045175552368,1.22320711612701,-0.135402141159277,2.90755662179454,1.22667746565781,2186.858,2907.659,2990.002,781.2258,-0.1581966,0.01712411,0.05189059,-0.0933350175619125,-0.359004944562912,0.198690146207809,-0.280478211503383,-0.120681938755799,0.173629373950669,5
0.759998321533203,-0.0454721264541149,2.79318022727966,1.22728002071381,-0.141137563960274,2.90508882959244,1.2302279655877,2193.658,2910.571,3021.509,764.8248,-0.1601119,0.0177455,0.05567265,-0.105390086770058,-0.363578140735626,0.203646212816238,-0.293073051970232,-0.126101146749576,0.181426180175103,5
0.779998779296875,-0.0478249229490757,2.78581881523132,1.23145937919617,-0.147126184485884,2.90251209348295,1.23393520697061,2204.077,2911.871,3044.206,755.3232,-0.1619404,0.01835338,0.05946802,-0.117640033364296,-0.368068695068359,0.208967953920364,-0.305795832832518,-0.131575403921268,0.189302187598958,5
0.799999237060547,-0.0504260025918484,2.77836942672729,1.23575103282928,-0.153370467664426,2.8998253528763,1.23780071571459,2218.892,2915.474,3060.02,745.655,-0.1636502,0.0189439,0.06326996,-0.130054295063019,-0.372471809387207,0.214580103754997,-0.318637178554805,-0.1371006762399,0.197251592319181,5
0.819999694824219,-0.053278136998415,2.77083373069763,1.24015998840332,-0.159872691993147,2.89702762739878,1.24182590231796,2234.937,2918.52,3069.666,741.4289,-0.1652364,0.019522,0.06703193,-0.142606750130653,-0.376780599355698,0.220447406172752,-0.331587821991737,-0.142672976311719,0.205268657531342,5
0.840000152587891,-0.0563833005726337,2.7632143497467,1.24468874931335,-0.166634951706069,2.89411801595997,1.24601206321137,2251.932,2923.589,3078.254,735.1939,-0.1667703,0.02009458,0.07072341,-0.155258283019066,-0.380973190069199,0.226437047123909,-0.344638604388044,-0.148288363380199,0.213347713529636,5
0.859996795654297,-0.0597430281341076,2.75551342964172,1.24933898448944,-0.173657794122436,2.89109628306371,1.25035953721147,2267.365,2927.865,3087.346,731.1516,-0.1683065,0.02067106,0.07430606,-0.167986840009689,-0.385047674179077,0.232512831687927,-0.357777960707973,-0.153941861333544,0.221481601006014,5
0.879997253417969,-0.0633583664894104,2.74773335456848,1.25411057472229,-0.180945630646592,2.88796053060595,1.25487105518773,2281.628,2933.181,3101.055,722.8892,-0.1699166,0.02125782,0.07777663,-0.180766001343727,-0.389000535011292,0.238580316305161,-0.371001963495383,-0.159631780297098,0.229667888678032,5
0.899997711181641,-0.0672302842140198,2.73987627029419,1.25900495052338,-0.188498701076517,2.88471065540831,1.25954676558649,2294.731,2937.103,3116.441,716.1691,-0.1716168,0.0218596,0.08112331,-0.193596139550209,-0.39285996556282,0.244717255234718,-0.384299280991351,-0.165353244531568,0.237899561647111,5
0.919998168945313,-0.071359395980835,2.73194360733032,1.26402151584625,-0.196318384305134,2.8813460641717,1.26438752200817,2307.348,2942.397,3137.564,702.9709,-0.1734474,0.02247633,0.08438063,-0.206456154584885,-0.396633446216583,0.250826090574265,-0.397661187980262,-0.171102499820431,0.246171218589148,5
0.939998626708984,-0.0757466852664948,2.7239363193512,1.26916253566742,-0.204405885800988,2.87786623821667,1.26939407069523,2318.24,2944.382,3158.423,695.7415,-0.1753457,0.02311026,0.08754296,-0.21936422586441,-0.40036416053772,0.25705298781395,-0.411079067636589,-0.176875838584386,0.254477525278661,5
0.959999084472656,-0.0803927183151245,2.71585512161255,1.27442896366119,-0.212762239776093,2.87427073255068,1.27456705187416,2331.722,2949.079,3181.91,680.5113,-0.1773234,0.02375639,0.09065069,-0.232301309704781,-0.404059052467346,0.26331952214241,-0.424544411524882,-0.18266959988136,0.262813214588797,5
0.979999542236328,-0.0852983742952347,2.70770001411438,1.27982413768768,-0.221388311353785,2.87055917493534,1.27990700109753,2344.032,2950.735,3202.215,673.0781,-0.1793064,0.024416,0.09369187,-0.245283275842667,-0.407753080129623,0.269758254289627,-0.438048819599778,-0.188480169406503,0.271173086491326,5
1,-0.0904640257358551,2.69947123527527,1.28534924983978,-0.230284798736574,2.86673126495361,1.28541435058594,2359.233,2955.307,3223.592,658.4756,-0.1813165,0.02508421,0.09669525,-0.258282989263535,-0.411439299583435,0.27625384926796,-0.451584000205995,-0.194303979492187,0.279552008056641,5
1.01999664306641,-0.0958902984857559,2.69116830825806,1.2910076379776,-0.239450461003889,2.86278753653895,1.29108833215045,2372.93,2956.999,3240.945,652.596,-0.1832947,0.02576482,0.09963415,-0.271312981843948,-0.415142208337784,0.282921195030212,-0.465139182559269,-0.200136395770846,0.2879433116562,5
1.03999710083008,-0.101577028632164,2.68279147148132,1.29679954051971,-0.248889165986195,2.85872632547195,1.29693134016237,2389.007,2961.783,3260.828,638.329,-0.18529,0.02645409,0.1025327,-0.284337103366852,-0.418839752674103,0.289592534303665,-0.478711464817306,-0.205976169660809,0.296345200911388,5
1.05999755859375,-0.107524618506432,2.67434024810791,1.3027286529541,-0.258599401509697,2.85454828239877,1.30294243851408,2403.494,2963.479,3275.35,634.6072,-0.187249,0.02715828,0.1053489,-0.297379165887833,-0.422563403844833,0.296453773975372,-0.492290296490434,-0.211818761581115,0.30475114456651,5
1.07999801635742,-0.113732263445854,2.6658148765564,1.30879306793213,-0.268581219802083,2.85025338484727,1.30912165953701,2420.555,2969.536,3296.09,617.1168,-0.1892714,0.02787092,0.1081272,-0.310382872819901,-0.426272988319397,0.303218603134155,-0.50586781946303,-0.217660790404144,0.31315627807366,5
1.09999847412109,-0.120200216770172,2.65721464157104,1.31499648094177,-0.278834517009062,2.84584167750307,1.31546893894041,2432.736,2969.481,3311.23,617.058,-0.191256,0.02860374,0.1108083,-0.323397040367126,-0.430016219615936,0.310172975063324,-0.519436284009554,-0.223498921639497,0.321555803983559,5
1.11999893188477,-0.12692728638649,2.64853978157043,1.32133615016937,-0.289359035362208,2.84131327127672,1.32198411715334,2450.731,2976.169,3334.31,595.7428,-0.1933268,0.02934518,0.1134579,-0.336355000734329,-0.433744460344315,0.316984415054321,-0.532988048794549,-0.229329867434001,0.329944991945551,5
1.13999938964844,-0.133913800120354,2.63978934288025,1.32781672477722,-0.300154365346813,2.83666834237095,1.3286669406667,2462.071,2975.191,3349.771,597.3518,-0.1953455,0.0301089,0.1160074,-0.349325269460678,-0.437520712614059,0.324027478694916,-0.546515580872639,-0.235150386571708,0.338319178707607,5
1.15999984741211,-0.141158223152161,2.63096380233765,1.33443415164948,-0.311219947869739,2.83190713134792,1.33551706337518,2481.042,2982.401,3375.078,572.2318,-0.1974638,0.03087845,0.118543,-0.362221658229828,-0.44128081202507,0.33087345957756,-0.560011455688534,-0.240957284473894,0.346673768116318,6
1.17999649047852,-0.148661032319069,2.62206172943115,1.34119462966919,-0.322552888823985,2.82703088346102,1.34253269368871,2491.303,2980.026,3389.333,577.6824,-0.1994915,0.03167262,0.1209735,-0.375140130519867,-0.445107877254486,0.338023960590363,-0.573465794611364,-0.246746310641672,0.355002644828593,6
1.19999694824219,-0.156420186161995,2.61308360099792,1.3480920791626,-0.334156660511822,2.8220381046756,1.34971598112778,2511.842,2988.193,3417.252,547.1055,-0.2016332,0.03246755,0.1234141,-0.387958019971848,-0.448906272649765,0.34487509727478,-0.58687652428584,-0.252516572968185,0.36330452533874,6
1.21999740600586,-0.164436638355255,2.60402750968933,1.35513591766357,-0.346028131869748,2.8169301422008,1.35706498741494,2520.925,2984.089,3427.023,560.1734,-0.203621,0.03329162,0.1257278,-0.400823503732681,-0.452800065279007,0.35218945145607,-0.600233974716476,-0.258263910724523,0.371573423458908,6
1.23999786376953,-0.172707378864288,2.59489488601685,1.36231589317322,-0.358166167196084,2.81170748469733,1.36457900949675,2545.133,2995.255,3458.474,518.7344,-0.205791,0.0341062,0.1280895,-0.413536936044693,-0.456633180379868,0.358999639749527,-0.613531154887641,-0.263985315871967,0.379805011417393,6
1.2599983215332,-0.181234091520309,2.5856831073761,1.36964511871338,-0.370569492049568,2.80637068052165,1.37225725843336,2549.154,2986.994,3463.508,546.0824,-0.2077191,0.03495963,0.1302853,-0.426335960626602,-0.460593968629837,0.366462141275406,-0.626761182173783,-0.269677827009021,0.387995028541113,6
1.27999877929688,-0.190012454986572,2.57639408111572,1.377108335495,-0.383236695417198,2.80092033679326,1.3800988607405,2578.715,3002.053,3500.74,488.8268,-0.2099157,0.03579149,0.1325745,-0.438919395208359,-0.464446902275085,0.373159736394882,-0.639917282339435,-0.275338529371412,0.396139281255613,6
1.29999923706055,-0.199045538902283,2.56702446937561,1.38472485542297,-0.396166231882091,2.79535711846185,1.3881028597315,2576.91,2989.239,3498.011,534.8538,-0.2117543,0.03667583,0.1346424,-0.451653689146042,-0.468478143215179,0.380825191736221,-0.652992789539212,-0.280964554832093,0.404233643085061,6
1.31999969482422,-0.20832696557045,2.55757808685303,1.39247071743011,-0.409356423791328,2.7896817473746,1.39626821685929,2613.982,3009.894,3545.103,453.366,-0.2140074,0.03751797,0.1368793,-0.464070379734039,-0.472324132919312,0.387295454740524,-0.665981146317813,-0.286553081901244,0.412274054652251,6
1.34000015258789,-0.21786205470562,2.54804944992065,1.40037608146667,-0.422805463423808,2.78389500134342,1.4045938130584,2602.088,2989.596,3529.381,530.9535,-0.2157059,0.03843714,0.1388015,-0.476755797863007,-0.476437211036682,0.395271062850952,-0.678875903610019,-0.292101335726266,0.4202565236786,6
1.3599967956543,-0.227641120553017,2.53844475746155,1.40840268135071,-0.436508776648329,2.77799884848916,1.41307681672372,2652.146,3019.468,3593.443,408.2805,-0.2180692,0.03927847,0.1410194,-0.488953083753586,-0.480234920978546,0.401327461004257,-0.691668290305691,-0.297605542343502,0.428175620429107,6
1.37999725341797,-0.237673684954643,2.52875566482544,1.41659879684448,-0.450469530727146,2.77199192602736,1.42171918854144,2622.519,2986.766,3555.994,539.5361,-0.2195398,0.04024072,0.1427652,-0.501628518104553,-0.484453558921814,0.409804105758667,-0.704356955827446,-0.303065120637236,0.436030508832034,6
1.39999771118164,-0.247944295406342,2.51899290084839,1.42490220069885,-0.464682951063699,2.76587628833354,1.43051797280888,2695.716,3032.146,3647.818,347.2539,-0.2220943,0.04106363,0.145016,-0.513531863689423,-0.48814195394516,0.415172904729843,-0.716933326165324,-0.308476381450513,0.44381588116678,7
1.41999816894531,-0.25846990942955,2.50914239883423,1.4333930015564,-0.47914673136562,2.75965292774086,1.43947174182117,2636.531,2980.227,3571.309,569.5911,-0.2232006,0.04208395,0.1465263,-0.526280581951141,-0.492526054382324,0.42454269528389,-0.729391385793766,-0.313836736470737,0.451528013536465,7
1.43999862670898,-0.269224643707275,2.49922275543213,1.4419652223587,-0.4938584461112,2.75332288788357,1.44857899406484,2748.167,3050.264,3715.98,255.8733,-0.2261418,0.04285684,0.148912,-0.537735462188721,-0.495985567569733,0.428611099720001,-0.741725227577294,-0.31914364402254,0.459163249142831,7
1.45999908447266,-0.280239462852478,2.48920965194702,1.45075798034668,-0.508815552717244,2.74688726276417,1.45783815555978,2634.731,2964.581,3567.481,644.6013,-0.2265919,0.04397425,0.1500596,-0.550740480422974,-0.500660419464111,0.43963885307312,-0.753929052770513,-0.324394609067776,0.466717998286247,7
1.47999954223633,-0.291469007730484,2.47913599014282,1.45958471298218,-0.524015393706918,2.74034719582071,1.46724758120123,2820.723,3079.922,3809.485,104.0767,-0.2302787,0.04463835,0.1527651,-0.56147688627243,-0.503682136535645,0.441336989402771,-0.76599717101811,-0.329587183205524,0.474188738365705,7
1.5,-0.302970975637436,2.46895790100098,1.46869480609894,-0.539455198877605,2.73370387899399,1.4768055561018,2604.223,2934.355,3525.559,803.2886,-0.2295437,0.04592923,0.1533148,-0.575100243091583,-0.508904993534088,0.455504417419434,-0.777924000354858,-0.334718964672088,0.481572013878822,7
1.51999664306641,-0.314672589302063,2.45872282981873,1.47780740261078,-0.555129074991064,2.72695984797977,1.48650843206629,2803.247,3226.788,3825.459,0,-0.2335555,0.04688496,0.1568498,-0.585080981254578,-0.511748850345612,0.455631136894226,-0.789701834723693,-0.339786637766398,0.488863054409188,7
1.53999710083008,-0.326650112867355,2.44837880134583,1.48722898960114,-0.571040013494911,2.72011381564173,1.49635806094328,2620.518,2862.081,3480.135,954.1132,-0.2319235,0.04861356,0.1569174,-0.598876178264618,-0.517205119132996,0.471077084541321,-0.801329803423436,-0.344789827850059,0.496061320951293,7
1.55999755859375,-0.338817238807678,2.43797969818115,1.49664258956909,-0.587181951496087,2.71316839067337,1.50635068951315,2778.406,3326.35,3795.306,0,-0.2357308,0.05020131,0.1605943,-0.608354449272156,-0.519949972629547,0.470680683851242,-0.812800388649436,-0.349725300221754,0.503162159625937,7
1.57999801635742,-0.351251274347305,2.42747950553894,1.50634181499481,-0.603551689586986,2.70612494969039,1.51648433719019,2703.904,2802.944,3495.259,959.6907,-0.234273,0.05242318,0.1600767,-0.621705651283264,-0.525014758110046,0.484962314367294,-0.824108441976122,-0.354590839657789,0.510162383312438,7
1.59999847412109,-0.36386901140213,2.41693019866943,1.51602947711945,-0.620145926473056,2.69898491314762,1.52675696031579,2816.204,3312.973,3818.94,0,-0.238272,0.05446891,0.1629284,-0.630884349346161,-0.527460932731628,0.484382212162018,-0.835248923368005,-0.359384277571697,0.517058871988737,7
1.61999893188477,-0.37674206495285,2.40629100799561,1.52597153186798,-0.636961261140657,2.69174974440622,1.53716645350051,2781.504,2791.091,3585.637,847.2026,-0.2378086,0.05692493,0.1618087,-0.643652617931366,-0.531957864761353,0.497105598449707,-0.846216901179681,-0.364103492014234,0.523848572731403,7
1.63999938964844,-0.389797866344452,2.39560389518738,1.53592026233673,-0.653994195024907,2.68442094880091,1.54771065096602,2832.587,3291.336,3870.994,0,-0.2420686,0.05921496,0.1638801,-0.652789890766144,-0.534354031085968,0.497437328100204,-0.857007552155828,-0.368746407673381,0.530528499715628,7
1.65999984741211,-0.403093814849854,2.38483643531799,1.54608035087585,-0.671241134177535,2.67700007270724,1.55838732788714,2851.911,2796.525,3725.81,668.2139,-0.2428515,0.06164816,0.1627146,-0.664798557758331,-0.538372933864594,0.508004069328308,-0.867616161431205,-0.373310995874343,0.537095734215228,7
1.67999649047852,-0.41657543182373,2.37401819229126,1.55627036094666,-0.688695041988866,2.66949014378176,1.56919212826729,2874.725,3204.757,3959.112,0,-0.2470604,0.06383433,0.1641201,-0.674082517623901,-0.540916502475739,0.509497940540314,-0.878036152828799,-0.377794427071868,0.543546205263364,8
1.69999694824219,-0.430286675691605,2.36312222480774,1.56664538383484,-0.706358800111611,2.66188992212981,1.58012683598675,2901.644,2827.33,3862.206,485.8238,-0.2485209,0.06597084,0.1632738,-0.685559868812561,-0.544794261455536,0.518749535083771,-0.888267004546665,-0.382196476749158,0.549879589839776,8
1.71999740600586,-0.444187611341476,2.35216784477234,1.57707822322845,-0.724225231782013,2.65420249571236,1.5911870082869,2910.418,3140.174,4026.996,0,-0.2522109,0.06782187,0.1645222,-0.695047318935394,-0.54772424697876,0.521640479564667,-0.898302321135456,-0.386514393123025,0.556091928856661,8
1.73999786376953,-0.458309501409531,2.34113383293152,1.58767974376678,-0.742290383213093,2.64642956573347,1.60237019758524,2938.411,2864.854,3951.323,353.8479,-0.2537247,0.06952454,0.1643107,-0.70609587430954,-0.551699042320251,0.530078709125519,-0.908137821269591,-0.39074633405868,0.562180571969536,8
1.7599983215332,-0.47262167930603,2.33003497123718,1.59835267066956,-0.760550216073323,2.63857286977439,1.61367390396219,2956.997,3081.188,4074.542,0,-0.256733,0.07088376,0.1656955,-0.715610861778259,-0.554942607879639,0.53364896774292,-0.917769332013572,-0.394890504058555,0.568142935932543,8
1.77999877929688,-0.4871506690979,2.31885194778442,1.60919559001923,-0.779000609654483,2.63063418086074,1.62509557650306,2951.194,2904.402,3982.283,303.3201,-0.2577242,0.07213231,0.1660619,-0.726447582244873,-0.559146523475647,0.542144179344177,-0.927192788821983,-0.398945154262308,0.57397650459845,8
1.79999923706055,-0.501866281032562,2.30760073661804,1.62011253833771,-0.79763736303951,2.62261530652977,1.63663261464007,2984.17,3075.312,4086.525,0,-0.2600816,0.07305542,0.1678806,-0.735776484012604,-0.562559425830841,0.545844912528992,-0.936404235539493,-0.402908582446823,0.579678828918647,8
1.81999969482422,-0.516795337200165,2.29626250267029,1.63120472431183,-0.816456197270346,2.61451808789761,1.64828236949435,2954.1,2929.263,3970.048,322.0001,-0.2603549,0.07397755,0.1686894,-0.746455430984497,-0.566911280155182,0.554609358310699,-0.945399824400851,-0.406779133026206,0.585247526943151,8
1.83999633789063,-0.531903743743896,2.28485822677612,1.64236068725586,-0.835449117627072,2.60634596486888,1.66003989195343,3005.638,3088.242,4085.896,0,-0.2622644,0.07460372,0.170924,-0.75542163848877,-0.570210754871368,0.557797074317932,-0.954174163352093,-0.410554485950274,0.590679260733698,8
1.8599967956543,-0.547224581241608,2.27336740493774,1.65370166301727,-0.854618942724365,2.59809772467243,1.67190692687406,2952.373,2941.076,3940.266,378.8178,-0.2618265,0.07536673,0.1718873,-0.766038835048676,-0.574542224407196,0.567048490047455,-0.962726969681477,-0.41423451957606,0.595973855278252,8
1.87999725341797,-0.562716484069824,2.26181674003601,1.66509366035461,-0.873957566090845,2.58977685529642,1.6838784559643,3010.761,3127.42,4076.531,0,-0.263467,0.07590417,0.174454,-0.774596273899078,-0.577530264854431,0.569600045681,-0.971053025860989,-0.417816988947023,0.601128080678429,8
1.89999771118164,-0.578418970108032,2.25018453598022,1.67667615413666,-0.893460418296025,2.58138532283915,1.69595165052899,2960.601,2938.79,3914.084,436.712,-0.2625509,0.07667425,0.1753609,-0.785125553607941,-0.581615149974823,0.579123437404633,-0.979148917665041,-0.421300425017273,0.606139823365946,8
1.91999816894531,-0.59428483247757,2.23850202560425,1.6882963180542,-0.913122862707269,2.57292512231409,1.70812364027167,3013.655,3161.383,4075.013,0,-0.2640924,0.07727534,0.1780313,-0.793292760848999,-0.584126114845276,0.581006824970245,-0.987011339258123,-0.424683405378145,0.611007036871143,9
1.93999862670898,-0.610358834266663,2.22674655914307,1.70010769367218,-0.932940197657643,2.56439827671719,1.72039151463653,2978.049,2929.576,3907.715,471.3848,-0.2629525,0.07814689,0.1787098,-0.803699910640717,-0.587773621082306,0.590568065643311,-0.99463709319481,-0.4279645542582,0.615727741822989,9
1.95999908447266,-0.626590311527252,2.2149510383606,1.71194970607758,-0.952907658613767,2.55580683609405,1.73275232415044,3014.242,3189.781,4080.145,0,-0.2644556,0.07890057,0.1812922,-0.811572790145874,-0.589773178100586,0.592103660106659,-1.00202309041976,-0.431142542523221,0.620300025949072,9
1.97999954223633,-0.643024802207947,2.2030942440033,1.72397434711456,-0.973020420343666,2.54715287660719,1.74520308176496,3007.701,2918.683,3927.372,465.3649,-0.2633845,0.07988482,0.1817238,-0.821723282337189,-0.59283572435379,0.601232051849365,-1.00916635026771,-0.434216087676217,0.62472204407561,9
1.99999618530273,-0.659612715244293,2.19120740890503,1.73602819442749,-0.993269723110518,2.53844016732665,1.7577383647857,3023.849,3193.179,4098.319,0,-0.2648684,0.08076268,0.1840318,-0.829398214817047,-0.594336152076721,0.602695167064667,-1.01606270846678,-0.437183397947334,0.628991218319934,9
2.01999664306641,-0.676396429538727,2.17927217483521,1.74824976921082,-1.01365835337184,2.52966750931758,1.77035989816261,3041.015,2914.299,3971.193,419.8119,-0.2640503,0.08178245,0.1842777,-0.839186012744904,-0.596763610839844,0.611080467700958,-1.02271203275434,-0.440044416427654,0.633107466805174,9
2.03999710083008,-0.6933314204216,2.16731524467468,1.76050555706024,-1.03417746715556,2.52083870789413,1.78306220705567,3038.489,3179.522,4124.221,0,-0.2654586,0.08268727,0.1862631,-0.846751987934113,-0.597852349281311,0.61278760433197,-1.02911032850577,-0.442797424341804,0.637068316668402,9
2.05999755859375,-0.71045333147049,2.1553213596344,1.77291071414948,-1.05482201812353,2.5119559343546,1.79584216754118,3073.397,2919.1,4026.548,348.6571,-0.264952,0.08362601,0.1864763,-0.856092393398285,-0.599689126014709,0.620258688926697,-1.03525504859546,-0.445441325732794,0.640872191117535,9
2.07999801635742,-0.727724611759186,2.14331245422363,1.78535604476929,-1.07558691007788,2.50302138145056,1.8086966248299,3057.442,3150.86,4155.871,0,-0.2662043,0.08442275,0.1881974,-0.863566637039185,-0.600447177886963,0.622266352176666,-1.04114375428791,-0.447975071280863,0.644517580459114,9
2.09999847412109,-0.745173990726471,2.13127636909485,1.7979348897934,-1.09646699912883,2.4940372624541,1.82162239460902,3095.559,2931.678,4079.401,277.7974,-0.2658628,0.08517338,0.1885213,-0.872467517852783,-0.601805210113525,0.628940880298615,-1.04677411523768,-0.450397658303471,0.648003042098304,9
2.11999893188477,-0.762770533561707,2.11923027038574,1.81055974960327,-1.11745709586255,2.485005810225,1.83461626438416,3075.976,3123.391,4182.111,0,-0.266836,0.08575741,0.1901297,-0.879830360412598,-0.602311015129089,0.631244599819183,-1.0521439094894,-0.452708130755304,0.651327200538896,9
2.13999938964844,-0.780537068843842,2.10716438293457,1.8233060836792,-1.138551967509,2.47592927627801,1.8476749948214,3107.725,2948.854,4115.885,225.0694,-0.266445,0.08625747,0.1906789,-0.888319969177246,-0.603300392627716,0.637318909168243,-1.05725102347782,-0.454905579228273,0.654488747383304,9
2.15999984741211,-0.798446655273438,2.09509325027466,1.83609986305237,-1.15974634010981,2.46680992985011,1.86079532108929,3094.25,3100.611,4200.048,0,-0.2670751,0.08656407,0.1923139,-0.895485460758209,-0.603556334972382,0.639689326286316,-1.06209345202774,-0.456989140951513,0.657486441332569,9
2.17999649047852,-0.816519677639008,2.0830078125,1.84901034832001,-1.18103083166728,2.45765180775279,1.8739714352843,3107.681,2968.19,4127.534,205.3095,-0.2663987,0.08680809,0.1931005,-0.903648376464844,-0.604266285896301,0.645526587963104,-1.06666845113384,-0.45895763525619,0.660318583716675,10
2.19999694824219,-0.834729433059692,2.07092332839966,1.86196339130402,-1.20240821395574,2.44845371736898,1.88720505326679,3103.579,3095.657,4205.996,0,-0.2666788,0.08685375,0.1949044,-0.910490930080414,-0.604224681854248,0.647651135921478,-1.07097597819164,-0.460811043810786,0.662985148161421,10
2.21999740600586,-0.853097796440125,2.05882930755615,1.87503576278687,-1.22386905090202,2.43921971877738,1.90049033365798,3098.577,2983.676,4111.504,225.086,-0.2655219,0.08691004,0.1958594,-0.918419122695923,-0.604699373245239,0.653619468212128,-1.07501345493598,-0.46254825725983,0.665484538597853,10
2.23999786376953,-0.871593952178955,2.04674386978149,1.88813924789429,-1.24540792547886,2.42995214277345,1.91382392305993,3104.194,3110.446,4198.538,0,-0.2655204,0.08678088,0.1979019,-0.924804866313934,-0.604276418685913,0.655176222324371,-1.07877930973132,-0.464168599372462,0.667815782108711,10
2.2599983215332,-0.890244662761688,2.03465414047241,1.90136802196503,-1.26701939030951,2.42065333321126,1.92720244928693,3084.932,2990.896,4076.254,276.0185,-0.2638239,0.08676247,0.19889,-0.932539939880371,-0.604481220245361,0.661436378955841,-1.08227207933222,-0.465671440555045,0.66997797287536,10
2.27999877929688,-0.909012019634247,2.02258253097534,1.91461110115051,-1.28869796983554,2.41132564607061,1.9406225227075,3096.082,3138.24,4184.941,0,-0.263646,0.08658323,0.2011399,-0.938365519046783,-0.60356616973877,0.662151753902435,-1.08549040888332,-0.467056197851165,0.67197027217779,10
2.29999923706055,-0.927930772304535,2.0105140209198,1.92798745632172,-1.31043816248474,2.40197144852433,1.95408073758635,3072.816,2989.674,4031.403,342.2789,-0.2614516,0.08661218,0.2019896,-0.945939898490906,-0.603432655334473,0.668816745281219,-1.08843305191934,-0.468322334941636,0.673791908394614,10
2.31999969482422,-0.946953773498535,1.99847495555878,1.94135904312134,-1.33223444283894,2.39259311800549,1.96757367342642,3078.296,3177.462,4167.35,0,-0.2612156,0.08651987,0.2043758,-0.951147317886353,-0.601950585842133,0.668580532073975,-1.09109887036509,-0.469469362144493,0.675442177003072,10
2.33999633789063,-0.96612411737442,1.98644721508026,1.95486927032471,-1.35407709248145,2.38319483607731,1.98109531406483,3066.92,2978.648,3989.089,406.9216,-0.2586707,0.08669996,0.2049476,-0.958516359329224,-0.601382493972778,0.675513625144958,-1.09348640563071,-0.470496651869278,0.67692017506657,10
2.3599967956543,-0.98538601398468,1.97446155548096,1.96835589408875,-1.37596887940059,2.37377541175173,1.99464737301821,3056.874,3214.951,4152.327,0,-0.2584779,0.08679526,0.2073377,-0.963096916675568,-0.599290132522583,0.674332320690155,-1.09559564748259,-0.471404199712748,0.678225896250009,10
2.37999725341797,-1.00478959083557,1.96249747276306,1.98198187351227,-1.39790005743958,2.36433903852774,2.00822381695123,3069.381,2961.392,3959.319,452.9846,-0.2557806,0.08717498,0.2075397,-0.970181167125702,-0.598202764987946,0.681299805641174,-1.09742530100382,-0.472191448508328,0.679358538938131,10
2.39999771118164,-1.02427327632904,1.95058691501617,1.99556946754456,-1.41986502747765,2.35488812555058,2.02182117974142,3036.268,3245.182,4140.227,0,-0.2557023,0.08749757,0.2097999,-0.974184215068817,-0.595527946949005,0.679380595684052,-1.09897466165884,-0.47285809511406,0.680317666989874,10
2.41999816894531,-1.04388976097107,1.93871009349823,2.00928688049316,-1.44185817738692,2.34542508756209,2.03543598721428,3079.777,2940.692,3953.507,465.1487,-0.2531116,0.08805087,0.2096455,-0.980815947055817,-0.593843042850494,0.685870289802551,-1.10024313330221,-0.473403883025206,0.681102911362803,10
2.43999862670898,-1.06357657909393,1.9268970489502,2.02295684814453,-1.46387388420027,2.33595234396796,2.0490647584853,3024.356,3251.981,4139.053,0,-0.2531558,0.08854315,0.2116309,-0.984339714050293,-0.590644180774689,0.683494091033936,-1.10123022817855,-0.473828602374257,0.681713970113108,10
2.45999908447266,-1.08338439464569,1.91513013839722,2.03673982620239,-1.48590651627916,2.32647231790489,2.06270400730194,3094.438,2925.011,3972.614,437.4148,-0.2508554,0.08916084,0.2112152,-0.990395665168762,-0.588353753089905,0.689146935939789,-1.10193556692257,-0.474132089930926,0.682150608395601,10
2.47999954223633,-1.10325562953949,1.90343511104584,2.05047297477722,-1.50795043548148,2.31698743530794,2.07635024338568,3019.334,3239.41,4146.044,0,-0.2509561,0.08969557,0.2128913,-0.993555545806885,-0.584745943546295,0.686661899089813,-1.10235887855907,-0.474314229102152,0.682412658463722,11
2.49999618530273,-1.12323451042175,1.89179694652557,2.06429719924927,-1.52999579362571,2.30750193357449,2.089997370243,3107.131,2917.262,4009.323,380.3711,-0.2490002,0.09022767,0.2124007,-0.998941719532013,-0.581909537315369,0.691208779811859,-1.10250000049778,-0.474374949929889,0.682500019666355,11
2.51999664306641,-1.14327085018158,1.88023686408997,2.07807374000549,-1.55204535801192,2.29801462201262,2.10364710096447,3023.363,3206.638,4159.935,0,-0.2490263,0.0906296,0.2138112,-1.00182282924652,-0.578004479408264,0.688822746276855,-1.10235893238473,-0.47431425226183,0.68241269178437,11
2.53999710083008,-1.16340219974518,1.86874186992645,2.09192109107971,-1.57408927882895,2.2885297387209,2.11729333804778,3110.542,2921.586,4046.317,315.9279,-0.2472761,0.09092679,0.2134342,-1.0065655708313,-0.574752390384674,0.692373156547546,-1.10193567455836,-0.474132136243598,0.68215067502728,11
2.55999755859375,-1.18358612060547,1.85732877254486,2.10572385787964,-1.59612191359838,2.27904971150017,2.13093258853001,3030.556,3170.365,4170.201,0,-0.2470865,0.09103893,0.2147362,-1.00918960571289,-0.570652008056641,0.690137803554535,-1.10123038958312,-0.473828671822132,0.681714070030222,11
2.57999801635742,-1.20385336875916,1.84598636627197,2.11958312988281,-1.6181376241771,2.2695769662859,2.14456136213196,3098.807,2934.896,4066.82,271.3128,-0.2452809,0.09100794,0.2146265,-1.01337003707886,-0.567126274108887,0.692960321903229,-1.10024334841354,-0.473403975581601,0.681103044526962,11
2.59999847412109,-1.22416687011719,1.8347293138504,2.13339591026306,-1.64013077892511,2.26011392621545,2.15817617260023,3036.765,3138.736,4173.708,0,-0.2447599,0.09073337,0.2160029,-1.01567184925079,-0.562852799892426,0.690636575222015,-1.09897493039424,-0.472858210743393,0.680317833349887,11
2.61999893188477,-1.24455666542053,1.82354545593262,2.14726400375366,-1.66209575487342,2.25066301069528,2.17177353904914,3069.834,2955.045,4051.607,272.2341,-0.2425277,0.09037355,0.2161864,-1.01949453353882,-0.559198558330536,0.693403482437134,-1.09742562325992,-0.472191587166126,0.67935873843001,11
2.63999938964844,-1.26498305797577,1.81245112419128,2.1610746383667,-1.68402693989188,2.24122663446822,2.18534998730279,3028.857,3134.278,4161.529,0,-0.2416366,0.08974207,0.2178648,-1.02131104469299,-0.554712772369385,0.690527498722076,-1.09559602313537,-0.471404361345641,0.67822612879697,11
2.65999603271484,-1.28548324108124,1.80143082141876,2.17495489120483,-1.70591456353497,2.23180900148401,2.19889946898997,3025.705,2972.043,3988.245,340.2398,-0.2386048,0.08918694,0.2182275,-1.02500820159912,-0.551028609275818,0.694011092185974,-1.09348726343002,-0.470497020956359,0.676920706085208,10
2.67999649047852,-1.30600500106812,1.79050636291504,2.18875288963318,-1.72776139360717,2.22240892083372,2.2124236975135,3000.729,3165.867,4131.356,0,-0.237408,0.08837092,0.2203679,-1.02609586715698,-0.546213030815125,0.689903676509857,-1.09109935234628,-0.469469569527535,0.67544247537239,9
2.69999694824219,-1.32660305500031,1.77965605258942,2.20265102386475,-1.74955768413056,2.21303058593937,2.22591663964878,2973.869,2977.155,3874.044,479.9538,-0.2332993,0.08787519,0.2206246,-1.02990341186523,-0.542522490024567,0.694906413555145,-1.08843358680109,-0.468322565086308,0.673792239511893,9
2.71999740600586,-1.34720313549042,1.76891124248505,2.21642875671387,-1.77129788800495,2.2036763835632,2.23937486147656,2946.349,3242.179,4080.584,0,-0.2319917,0.08718183,0.2232864,-1.02999722957611,-0.537235260009766,0.688891530036926,-1.08549099645889,-0.467056450668518,0.671970635915057,8
2.73999786376953,-1.36788332462311,1.75824248790741,2.23034429550171,-1.79297647980783,2.19434869114016,2.25279494249708,2926.064,2959.156,3725.834,672.8914,-0.2267905,0.08707177,0.2230539,-1.03401267528534,-0.533440232276917,0.695771932601929,-1.08227271937422,-0.465671715947234,0.669978369091845,8
2.7599983215332,-1.38854157924652,1.74769186973572,2.24409103393555,-1.81458795796224,2.18504987584512,2.26617347697213,2869.887,3349.149,4018.996,0,-0.2256528,0.08686356,0.2261081,-1.03291058540344,-0.527536153793335,0.687343060970306,-1.07878000199166,-0.464168897232749,0.667816210650842,7
2.77999877929688,-1.40928304195404,1.73722290992737,2.25801086425781,-1.83612684690458,2.17578229366013,2.27950707526701,2896.689,2914.284,3573.601,876.3558,-0.2196421,0.08743438,0.2249841,-1.03707790374756,-0.523443579673767,0.695990025997162,-1.07501419914593,-0.462548577472581,0.665484999299265,6
2.79999923706055,-1.42997765541077,1.72688555717468,2.27171349525452,-1.85758769925251,2.16654828844162,2.29279236519255,2779.345,3469.709,3954.938,0,-0.2189859,0.0880309,0.2281582,-1.03472709655762,-0.516859710216522,0.685126662254333,-1.07097677406178,-0.460811386251471,0.662985640842947,5
2.81999588012695,-1.45075190067291,1.71664142608643,2.28560471534729,-1.87896102895071,2.15735194177419,2.30602347442862,2897.636,2841.766,3461.881,1031.017,-0.2127871,0.08943416,0.2258874,-1.03871190547943,-0.512211501598358,0.694565773010254,-1.06667014556453,-0.458958364322378,0.660319632649988,5
2.83999633789063,-1.47145736217499,1.7065417766571,2.29924273490906,-1.90024960698239,2.14819206138118,2.31920211834584,2699.775,3562.349,3904.531,0,-0.2128468,0.09095819,0.2287321,-1.03528213500977,-0.504984378814697,0.681902348995209,-1.06209435025759,-0.456989527434725,0.657486997379635,4
2.8599967956543,-1.49222755432129,1.69655084609985,2.3130509853363,-1.9214439980555,2.13907270700516,2.33232245604895,2933.911,2755.602,3437.726,1067.397,-0.2073415,0.0930689,0.225332,-1.03850758075714,-0.499546259641647,0.690418124198914,-1.05725197237562,-0.454905987512489,0.654489334796247,3
2.87999725341797,-1.51291596889496,1.6867139339447,2.32659769058228,-1.94253888918396,2.12999616467562,2.34538119854648,2658.295,3584.924,3882.827,0,-0.2081836,0.09531501,0.2273347,-1.03441309928894,-0.491846799850464,0.677332401275635,-1.05214490868305,-0.452708560680416,0.651327819087361,2
2.89999771118164,-1.53363907337189,1.67700374126434,2.34025168418884,-1.96352900640172,2.1209647036328,2.35837508100222,2996.859,2680.462,3536.678,931.4951,-0.20433,0.09766605,0.2232287,-1.03616058826447,-0.485509842634201,0.68270206451416,-1.04677516433438,-0.450398109700476,0.648003691539142,1
2.91999816894531,-1.55427885055542,1.66745150089264,2.35367059707642,-1.98440911693069,2.11198057539494,2.37130086407726,2677.51,3495.477,3909.784,0,-0.2057303,0.1000338,0.2239715,-1.03198421001434,-0.477614104747772,0.670947194099426,-1.04114485287423,-0.447975543971863,0.644518260536375,0
2.93999862670898,-1.57491481304169,1.65804100036621,2.36710333824158,-2.00517403134858,2.10304601282548,2.38415533527198,3061.586,2652.279,3747.896,624.2367,-0.2040823,0.1018773,0.2199556,-1.03179967403412,-0.470525443553925,0.671636044979095,-1.03525619623725,-0.445441819530995,0.640872901562472,0
2.95999908447266,-1.59547710418701,1.64878463745117,2.38035774230957,-2.02581860575671,2.0941632292003,2.39693531026807,2750.032,3302.66,3984.092,0,-0.2054943,0.1034992,0.2194741,-1.02811026573181,-0.462815403938293,0.662715792655945,-1.02911152474823,-0.442797939051516,0.637069057199471,0
2.97999954223633,-1.61599898338318,1.63967657089233,2.39353227615356,-2.04633774394789,2.08533441727499,2.40963763427052,3090.075,2691.673,4002.572,236.2822,-0.2057116,0.1040506,0.2165467,-1.02609515190125,-0.455399394035339,0.658727586269379,-1.022713277122,-0.440044951844293,0.633108237128031,0
2.99999618530273,-1.6364631652832,1.63071179389954,2.40659499168396,-2.06672252359526,2.07656341607755,2.42225678393395,2850.003,3059.863,4078.1,0,-0.2063556,0.1040704,0.2154668,-1.02322089672089,-0.448249787092209,0.653135895729065,-1.01606529245116,-0.437184509763622,0.628992817929355,0
3.01999664306641,-1.6568717956543,1.62188506126404,2.4195499420166,-2.08697572864857,2.06784902775215,2.4347944826559,2988.67,2838.888,4130.754,0,-0.20651,0.1030883,0.2144972,-1.02043449878693,-0.441341757774353,0.647752642631531,-1.00916768936771,-0.434216663853534,0.624722873042298,0
3.03999710083008,-1.67722988128662,1.61318647861481,2.43242120742798,-2.10708851762775,2.05919505654068,2.44724525713902,2917.547,2895.304,4120.361,0,-0.2056509,0.1013297,0.2142353,-1.01790225505829,-0.434917241334915,0.643567681312561,-1.00202447609459,-0.431143138740389,0.620300883747801,0
3.05999755859375,-1.69753587245941,1.60460948944092,2.44520998001099,-2.12705600675913,2.05060360379452,2.45960608409476,2886.605,2925.649,4093.23,0,-0.2038378,0.09887173,0.2149703,-1.01529395580292,-0.428853958845139,0.639443516731262,-0.994638524886308,-0.427965170275055,0.615728628108227,0
3.07999801635742,-1.71779537200928,1.59614539146423,2.45794153213501,-2.14687337079936,2.04207674568107,2.47187397646763,2844.125,2935.343,3999.454,103.5641,-0.2005403,0.09592535,0.2163375,-1.01297652721405,-0.423205584287643,0.636576354503632,-0.987012816387451,-0.424684040945629,0.611007951284564,0
3.09999847412109,-1.73800086975098,1.58779454231262,2.47059345245361,-2.16653584520328,2.033616532251,2.4840459847772,2825.308,2969.113,3942.893,120.5499,-0.196463,0.09250923,0.2184934,-1.01027488708496,-0.417545557022095,0.632600247859955,-0.979150439632689,-0.421301079877433,0.606140765536421,0
3.11999893188477,-1.75816667079926,1.57955062389374,2.4832227230072,-2.18603872829175,2.02522498650551,2.49611919846012,2741.147,3005.091,3756.835,339.8701,-0.1905923,0.08907863,0.2207206,-1.00829255580902,-0.41219836473465,0.63146561384201,-0.971054592046769,-0.41781766283301,0.601129050222034,0
3.13999938964844,-1.77825963497162,1.57143139839172,2.49571371078491,-2.20537738341953,2.01690410346351,2.50809074721212,2804.393,3020.365,3814.033,175.8568,-0.185683,0.08512339,0.2237718,-1.00464987754822,-0.405950546264648,0.624549090862274,-0.962728579444533,-0.414235212212131,0.595974851798267,0
3.15999603271484,-1.79833805561066,1.56342029571533,2.50828003883362,-2.22454360124808,2.00865741537402,2.51995554906156,2587.312,3066.509,3411.865,752.0262,-0.1772627,0.08196304,0.2255006,-1.00392889976501,-0.400563359260559,0.628311216831207,-0.95417746870157,-0.410555908149813,0.590681306902481,0
3.17999649047852,-1.81829273700714,1.55556511878967,2.52053308486938,-2.2435401949712,2.00048371179835,2.53171534550942,2787.724,3140.216,3837.048,0,-0.1739438,0.0778206,0.2297651,-0.997726917266846,-0.392758876085281,0.612652182579041,-0.9454015193052,-0.406779862296197,0.585248576169681,0
3.19999694824219,-1.8383127450943,1.54780912399292,2.53315234184265,-2.2623590635174,1.99238647840124,2.54336512160655,2294.962,3094.742,2810.069,1611.478,-0.1609343,0.0763033,0.2291813,-1.0010153055191,-0.387820512056351,0.630961537361145,-0.936405971974636,-0.402909329586355,0.579679903854719,0
3.21999740600586,-1.85814547538757,1.54022169113159,2.54526591300964,-2.28099585204123,1.98436758895103,2.55490218149615,2228.546,3855.554,3616.219,0,-0.1582983,0.07513764,0.2372865,-0.991623103618622,-0.37935009598732,0.60567319393158,-0.927194566064376,-0.398945918960059,0.573977604796153,0
3.23999786376953,-1.87811279296875,1.53273940086365,2.55798196792603,-2.29944628156995,1.97642888457015,2.56632387629027,2215.799,2802.1,2062.883,2710.855,-0.1399896,0.07787686,0.23315,-0.998366951942444,-0.374127954244614,0.635808289051056,-0.917771149318993,-0.394891285994308,0.568144060931169,0
3.2599983215332,-1.89782166481018,1.52544832229614,2.56995749473572,-2.31770615117141,1.96857217280235,2.57762760541179,1822.81,4472.764,3336.105,0,-0.1389147,0.08165712,0.2426817,-0.985451877117157,-0.364553153514862,0.598779022693634,-0.908139677873146,-0.390747132903322,0.562181721295578,0
3.27999877929688,-1.91770005226135,1.51830649375916,2.58266997337341,-2.33577134012187,1.96079922667992,2.58881081793642,2356.99,2368.265,1486.719,3549.979,-0.1184697,0.08951988,0.2324591,-0.993912160396576,-0.357086062431335,0.635625123977661,-0.898304216251578,-0.386515208538549,0.556093102023818,0
3.29999923706055,-1.93727207183838,1.5113799571991,2.59451532363892,-2.35363781007389,1.95311178379095,2.59987101393471,1453.678,5108.498,2995.418,0,-0.1211808,0.09910773,0.2407639,-0.978607952594757,-0.346335828304291,0.592264652252197,-0.888268937369113,-0.38219730838866,0.549880786348944,0
3.31999588012695,-1.95692729949951,1.50467491149902,2.60686922073364,-2.37129825777079,1.94551298652277,2.61080367234288,2751.961,1777.149,1630.894,3522.677,-0.1063134,0.1108614,0.2248251,-0.98276287317276,-0.335253655910492,0.617689788341522,-0.878040092225563,-0.377796122084242,0.54354864393762,0
3.33999633789063,-1.97627782821655,1.49821662902832,2.61847186088562,-2.38875555478454,1.93800159931817,2.62161057080077,1600.426,5003.758,2893.609,0,-0.1138203,0.1238753,0.2261225,-0.967522203922272,-0.322913765907288,0.580129027366638,-0.867618167158097,-0.373311858882592,0.53709697585572,0
3.3599967956543,-1.99549853801727,1.49203658103943,2.62997841835022,-2.40600253440574,1.930580705812,2.63228727277387,3311.991,1453.678,2829.704,1952.636,-0.1141133,0.1349994,0.2078704,-0.961033284664154,-0.308990478515625,0.575331389904022,-0.85700959304645,-0.368747285811601,0.530529763124145,0
3.37999725341797,-2.01446151733398,1.4861216545105,2.64110708236694,-2.42303550945299,1.9232518924954,2.64283149572124,2233.445,3868.342,3360.958,0,-0.1249347,0.14592,0.1981573,-0.948159217834473,-0.295756250619888,0.556438386440277,-0.846218976345105,-0.364104384899943,0.523849857357654,0
3.39999771118164,-2.03314805030823,1.480464220047,2.65179991722107,-2.43985088596004,1.91601670575165,2.65324101480657,3131.342,2253.031,4018.373,0,-0.138617,0.1536702,0.1846964,-0.934326767921448,-0.28286749124527,0.534646332263947,-0.835251031898626,-0.359385184813519,0.517060177269636,0
3.41999816894531,-2.05161023139954,1.47501361370087,2.66233777999878,-2.45644516534361,1.90887665092339,2.66351366424015,2594.91,2692.507,4093.029,0,-0.1494523,0.1601178,0.1722357,-0.923099875450134,-0.272525817155838,0.526890158653259,-0.824110582941664,-0.354591760855451,0.510163708672097,0
3.43999862670898,-2.06985664367676,1.46969842910767,2.67281341552734,-2.47281494657125,1.90183319137989,2.67364733862088,2076.74,3316.031,3915.432,0,-0.1572373,0.1668499,0.166401,-0.912320911884308,-0.265764355659485,0.523781299591064,-0.812802561098952,-0.34972623496609,0.503163504475677,0
3.45999908447266,-2.08786153793335,1.46448516845703,2.68306350708008,-2.48895692832918,1.89488774758421,2.68363999427827,2356.276,2843.73,4030.421,0,-0.1624459,0.1728043,0.1635258,-0.900239706039429,-0.260670900344849,0.512503147125244,-0.801332006385299,-0.344790775723006,0.496062684689628,0
3.47999572753906,-2.10564184188843,1.45935916900635,2.69309639930725,-2.50486489870395,1.88804299234919,2.69348778574196,2809.698,2267.345,4125.771,0,-0.1637333,0.1765822,0.1585714,-0.889013171195984,-0.256295293569565,0.501649022102356,-0.789706299681989,-0.339788558913217,0.488865818431069,0
3.49999618530273,-2.12322878837585,1.45429134368896,2.70308256149292,-2.52054183223243,1.88129764581471,2.703192554392,2667.798,2658.787,3855.734,0,-0.161599,0.1788208,0.1541894,-0.879358232021332,-0.253395408391953,0.499309480190277,-0.777926261338517,-0.334719937510192,0.481573413535413,0
3.51999664306641,-2.14060544967651,1.44926178455353,2.7129967212677,-2.53598168290031,1.87465430941181,2.7127505574575,2467.726,3056.546,3602.947,0,-0.1590908,0.1802188,0.1533402,-0.868815958499908,-0.251469224691391,0.495705544948578,-0.765999459475408,-0.329588167864767,0.474190155029786,0
3.53999710083008,-2.15774035453796,1.44428014755249,2.72267389297485,-2.55118156992615,1.86811422266028,2.72216001159753,2720.914,2675.059,3683.76,0,-0.1576245,0.1798904,0.1528774,-0.856761395931244,-0.249092191457748,0.483862966299057,-0.753931367647136,-0.324395605094516,0.466719431305148,0
3.55999755859375,-2.17464351654053,1.43935418128967,2.73211574554443,-2.56613872308604,1.86167857751006,2.73141920191151,2888.198,2396.042,3787.33,0,-0.1560714,0.177228,0.1505839,-0.845161616802216,-0.246279984712601,0.472097277641296,-0.741727567798258,-0.319144650954242,0.459164697851087,0
3.57999801635742,-2.19133567810059,1.43447613716125,2.74142956733704,-2.58085048488145,1.85534851740854,2.74052648328127,2620.383,2761.786,3683.984,0,-0.154025,0.1730584,0.1495837,-0.834610342979431,-0.24390022456646,0.465692400932312,-0.72939375026341,-0.313837753835969,0.451529477255809,0
3.59999847412109,-2.20781254768372,1.42964243888855,2.75058436393738,-2.59531431270705,1.84912513636775,2.74948028171299,2432.639,2962.662,3644.948,0,-0.1522785,0.1678935,0.1517884,-0.823839128017426,-0.241702109575272,0.457737922668457,-0.716935713767317,-0.308477408768949,0.443817359206151,0
3.61999893188477,-2.22407293319702,1.4248640537262,2.75949835777283,-2.6095277810186,1.84300947803163,2.75827909567923,2608.282,2624.133,3793.499,0,-0.1503573,0.1610613,0.154636,-0.813023328781128,-0.238913625478745,0.445701539516449,-0.704359365424783,-0.303066157419654,0.436032000487571,0
3.63999557495117,-2.24017071723938,1.4201318025589,2.76837229728699,-2.62348594498176,1.83700367002424,2.76691986409198,2378.815,2720.993,3545.064,398.6955,-0.1441676,0.1536026,0.1574457,-0.804875433444977,-0.236595839262009,0.443691402673721,-0.691673151171832,-0.297607633838406,0.428178629536803,0
3.65999603271484,-2.25607776641846,1.41546654701233,2.77703976631165,-2.63719194552437,1.83110636089208,2.77540453133521,2401.549,2966.587,3649.799,0,-0.1391912,0.1451589,0.1635864,-0.795350670814514,-0.233285039663315,0.43337070941925,-0.678878353700696,-0.292102389931838,0.420258040401444,0
3.67999649047852,-2.27187299728394,1.41085720062256,2.78581142425537,-2.65064103434641,1.825319593696,2.783730157985,2185.014,2810.29,3113.309,932.8641,-0.1275787,0.137235,0.1680031,-0.789759159088135,-0.230464085936546,0.438578724861145,-0.665983614869008,-0.28655414404986,0.412275582803033,0
3.69999694824219,-2.28747034072876,1.40635085105896,2.79423999786377,-2.66383127580226,1.81964420129024,2.79189554578451,2413.342,3064.984,3513.593,0,-0.1211211,0.1282309,0.1761586,-0.779863595962524,-0.225303187966347,0.42142653465271,-0.65299527533123,-0.280965624398954,0.404235181908735,0
3.71999740600586,-2.30304217338562,1.40192675590515,2.80307865142822,-2.67676086214623,1.81408096149726,2.79989957565303,1896.157,2858.589,2347.661,1955.281,-0.1023171,0.1217205,0.1783994,-0.778587460517883,-0.221209391951561,0.441935539245605,-0.639919784131907,-0.275339605822821,0.396140829984331,0
3.73999786376953,-2.31838440895081,1.39764416217804,2.81136083602905,-2.68942811570037,1.808630596175,2.80774120902801,1989.708,3780.409,3174.352,0,-0.0961039,0.1152225,0.1900102,-0.767109394073486,-0.214124426245689,0.414105653762817,-0.626763698705669,-0.269678909802388,0.38799658639423,0
3.7599983215332,-2.33378028869629,1.39349794387817,2.82030916213989,-2.70183149102237,1.80329377028414,2.81541948920704,1754.445,2589.81,1461.027,3252.212,-0.07119269,0.1129847,0.1877569,-0.769799411296844,-0.207313522696495,0.447415679693222,-0.613533684877225,-0.263986404455806,0.379806577601466,0
3.77999877929688,-2.34890627861023,1.38953495025635,2.82842206954956,-2.7139695770734,1.79807109095524,2.82293354268985,1557.407,4488.743,2837.569,0,-0.06732045,0.1116041,0.2005225,-0.756300866603851,-0.198165506124496,0.405648708343506,-0.60023651686137,-0.258265004538452,0.371574997167698,0
3.79999923706055,-2.3641300201416,1.38579535484314,2.83733296394348,-2.72584109938593,1.7929631065561,2.83028258052034,1866.086,2097.529,839.879,4236.576,-0.04024516,0.115028,0.1910168,-0.761203169822693,-0.186973705887794,0.445547431707382,-0.586879077262983,-0.252517671442928,0.363306105753209,0
3.81999588012695,-2.37906169891357,1.38227736949921,2.84526181221008,-2.73744273461857,1.78797124702766,2.83746454539187,1159.638,5170.04,2487.839,0,-0.04075648,0.1200537,0.2018484,-0.746580600738525,-0.175896093249321,0.396447777748108,-0.573470919541002,-0.246748515755721,0.355005817404173,0
3.83999633789063,-2.39402031898499,1.37906575202942,2.85372614860535,-2.74877791451009,1.78309403578861,2.84448156171422,2297.308,1462.444,1037.109,4170.535,-0.02003549,0.1279569,0.1856389,-0.747922539710999,-0.160567417740822,0.423213064670563,-0.560014026276881,-0.240958390526246,0.346675359432959,0
3.8599967956543,-2.40868616104126,1.37612342834473,2.86134195327759,-2.75984354851568,1.77833280261403,2.85133171629293,1338.435,5017.927,2413.769,0,-0.02561748,0.1367496,0.188056,-0.733294606208801,-0.147139996290207,0.380788207054138,-0.546518158200277,-0.23515149552379,0.33832077419619,0
3.87999725341797,-2.4231915473938,1.37350749969482,2.86888003349304,-2.77063893010371,1.77368785150474,2.85801457175126,2855.931,1253.579,2265.386,2465.216,-0.02133831,0.1442523,0.1691138,-0.725269258022308,-0.130786225199699,0.376902937889099,-0.532990631455729,-0.229330978680956,0.329946590735853,0
3.89999771118164,-2.4374053478241,1.37118542194366,2.87595629692078,-2.78116350015273,1.7691594230351,2.8645297819664,1951.313,3884.18,2912.271,0,-0.03094061,0.1509104,0.1600606,-0.710689127445221,-0.116099968552589,0.35381230711937,-0.519438870577852,-0.223500034567577,0.321557405192552,0
3.91999816894531,-2.45129323005676,1.36913681030273,2.88247895240784,-2.79141684911929,1.7647476934202,2.87087709341145,3018.639,1896.887,3784.979,0,-0.04434696,0.1530785,0.1456319,-0.694403290748596,-0.102440699934959,0.326128870248795,-0.505870408491346,-0.2176619043907,0.313157880805522,0
3.93999862670898,-2.46489810943604,1.36732196807861,2.88887548446655,-2.80139871920582,1.76045277358314,2.87705634649742,2334.53,2560.847,3809.553,0,-0.05478016,0.1529153,0.1326016,-0.680235862731934,-0.0907391160726547,0.31982958316803,-0.492292886511002,-0.21181987599461,0.304752747912623,0
3.95999908447266,-2.47822523117065,1.36566865444183,2.89524960517883,-2.81110900652845,1.75627470822223,2.88306747691526,1555.236,3514.784,3560.102,0,-0.0629811,0.1527238,0.1297059,-0.666354835033417,-0.0826631262898445,0.318709939718246,-0.478714054341681,-0.205977283860804,0.296346803950332,0
