t,x_s1,x_s2,x_s3,x_s_d1,x_s_d2,x_s_d3,propellers_rpms1,propellers_rpms2,propellers_rpms3,propellers_rpms4,rollRad,pitchRad,yawRad,v_s1,v_s2,v_s3,v_s_d1,v_s_d2,v_s_d3,insideCount
0,-0.0599999986588955,2.94000005722046,1.17999994754791,-0.0599999986588955,2.94000005722046,1.17999994754791,0,0,0,0,0,0,0,0,0,0,-1.06581410364015E-15,4.44089209850063E-16,4.44089209850063E-16,0
0.0199966430664063,-0.0599999986588955,2.94000005722046,1.17729234695435,-0.0600018680476204,2.93999925287472,1.18000110478858,0,0,0,0,0.0163538,-0.002474609,-2.024222E-05,3.71994488546079E-08,3.50004931704007E-08,-0.135377958416939,-0.000279892991557604,-0.000120430134961378,0.000173267094926113,5
0.0399971008300781,-0.0599999986588955,2.94000005722046,1.17105865478516,-0.0600148681826738,2.93999365927978,1.18000915249146,0,0,0,0,0.03270752,-0.004950816,-5.430172E-05,3.48044650877455E-08,3.30428591155396E-08,-0.311683237552643,-0.00111080915396111,-0.000477950146533378,0.000687643781479785,6
0.05999755859375,-0.0600004307925701,2.94013142585754,1.16552245616913,-0.0600498857373401,2.93997859220429,1.18003083002592,3161.768,2810.231,1469.374,2738.776,0.03139132,-0.004977981,-0.01632784,-2.15876007132465E-05,0.00656342040747404,-0.276808530092239,-0.00247936261166862,-0.00106680046642749,0.00153484356504269,6
0.0799980163574219,-0.0599182657897472,2.94037842750549,1.16100013256073,-0.0601175407449857,2.93994948214456,1.18007271169851,3028.808,3011.949,2083.598,1979.164,0.01921258,-0.004420315,-0.04309314,0.00410829996690154,0.0123496241867542,-0.226117596030235,-0.00437227586895222,-0.00188126815916228,0.00270664704326441,6
0.0999984741210938,-0.0596519336104393,2.94066071510315,1.15742897987366,-0.0602281887669101,2.93990187339187,1.18014120809498,2572.862,3764.094,2528.348,1069.502,-0.005656022,-0.003074353,-0.06910424,0.0133165325969458,0.0141148725524545,-0.178557008504868,-0.00677637982016689,-0.00291568692648091,0.00419490191241918,6
0.119998931884766,-0.0591362752020359,2.94084787368774,1.15462076663971,-0.0603919230601972,2.93983142309968,1.18024256742227,1989.814,4004.072,3075.556,694.7906,-0.03991013,-0.0007068029,-0.08794077,0.0257829129695892,0.00936207361519337,-0.14040806889534,-0.00967861374975049,-0.00416443710735115,0.00599152296740588,5
0.139999389648438,-0.0583610869944096,2.94078660011292,1.15244722366333,-0.0606185767455666,2.93973390035084,1.18038287685052,1381.44,3936.959,3641.074,663.9716,-0.07574829,0.002034066,-0.09641335,0.0387594550848007,-0.00306072738021612,-0.108675666153431,-0.0130660253322238,-0.00562194567796536,0.00808849210174802,4
0.159999847412109,-0.0573621354997158,2.94033217430115,1.15091979503632,-0.0609177249752248,2.93960518522485,1.18056806385509,1009.565,3669.28,3950.267,872.2612,-0.1041253,0.00383415,-0.09478883,0.0499476306140423,-0.0227182880043983,-0.0763699263334274,-0.0169257706321904,-0.00728268625174051,0.0104778583075938,4
0.179996490478516,-0.0561950653791428,2.93938517570496,1.15012347698212,-0.0612986060586912,2.93944130273522,1.18080384738964,1011.03,3363.186,3835.525,1161.063,-0.1193469,0.003851071,-0.0859743,0.0583535693585873,-0.0473467484116554,-0.0398143790662289,-0.0212442472567593,-0.00914080609902243,0.0131512010557717,3
0.199996948242188,-0.0549090132117271,2.93791794776917,1.15010964870453,-0.0617704296168641,2.93923829023936,1.18109592864822,1332.853,3133.107,3353.506,1401.637,-0.1214108,0.002340581,-0.07415625,0.0643025934696198,-0.0733591169118881,-0.000689573585987091,-0.0260104776919234,-0.0111915819022102,0.0161017247421801,3
0.219997406005859,-0.0535360909998417,2.93597269058228,1.15082931518555,-0.0623419453860714,2.93899238297017,1.18144972413443,1790.22,3014.725,2724.063,1533.258,-0.1151205,0.0002796659,-0.06327511,0.0686462074518204,-0.0972627848386765,0.0359820351004601,-0.0312111627562649,-0.0134292913950757,0.0193211965399932,3
0.239997863769531,-0.0520960465073586,2.93363213539124,1.15212345123291,-0.0630217183703222,2.93869989564571,1.18187053599376,2171.818,2982.653,2212.657,1547.025,-0.1071512,-0.001340103,-0.05581187,0.072002187371254,-0.117024511098862,0.0647046118974686,-0.0368338920540454,-0.0158485947310391,0.02280193382306,3
0.259998321533203,-0.0506039597094059,2.93098068237305,1.15377116203308,-0.063818066443955,2.93835724931701,1.18236351338666,2347.565,2985.572,2004.962,1459.773,-0.1029061,-0.001919606,-0.05235668,0.0746043622493744,-0.132567256689072,0.0823845788836479,-0.04286636357961,-0.0184441987007453,0.0265363210638542,3
0.279998779296875,-0.049074187874794,2.92807531356812,1.15557205677032,-0.0647390625194898,2.93796097043536,1.18293365383054,2308.664,2995.976,2122.918,1298.95,-0.104715,-0.001324656,-0.05185068,0.0764885246753693,-0.145270332694054,0.0900475606322289,-0.0492963837173861,-0.0212108567320638,0.030516809833474,3
0.299999237060547,-0.0475226379930973,2.92493534088135,1.15741086006165,-0.065792536715479,2.93750768991949,1.18358580454179,2137.796,3011.134,2441.975,1106.135,-0.1118735,0.000196462,-0.05227785,0.0775776654481888,-0.15699391067028,0.0919423401355743,-0.0561118672418845,-0.0241433688900884,0.0347359188016424,3
0.319999694824219,-0.04596933349967,2.92155051231384,1.15926575660706,-0.0669860785243584,2.93699414222283,1.18432466377777,1943.045,3019.54,2792.631,937.4008,-0.121821,0.002153953,-0.0516094,0.0776651874184608,-0.16924586892128,0.092746302485466,-0.0633008373176985,-0.0272365818771378,0.0391862337367069,3
0.340000152587891,-0.0444395132362843,2.91789531707764,1.16117596626282,-0.0683270389802989,2.93641716440073,1.1851547821788,1803.852,3001.115,3047.785,841.8182,-0.1315053,0.004016048,-0.04861228,0.0764909908175468,-0.182757243514061,0.0955120176076889,-0.0708514254995047,-0.0304853890327553,0.0438604075056398,3
0.359996795654297,-0.0429612398147583,2.91394639015198,1.16320323944092,-0.0698222324154443,2.93577382443646,1.1860803781411,1757.084,2955.717,3148.292,830.3939,-0.1385014,0.005408655,-0.043148,0.0739136636257172,-0.197444528341293,0.101361140608788,-0.0787503322603694,-0.0338840679420472,0.0487502070677249,3
0.379997253417969,-0.0415608808398247,2.90969371795654,1.16540157794952,-0.0714791088463715,2.935060916796,1.18710606357981,1802.57,2905.218,3097.125,874.9863,-0.1417446,0.006226013,-0.03593616,0.0700179859995842,-0.212631151080132,0.109916187822819,-0.0869889214763108,-0.0374289027221294,0.0538502862508218,3
0.399997711181641,-0.040259562432766,2.9051456451416,1.16779756546021,-0.0733040467096699,2.93427569701629,1.18823578705104,1908.814,2870.886,2945.447,936.5203,-0.141669,0.006602771,-0.02807824,0.0650658532977104,-0.227400466799736,0.119799345731735,-0.0955541759940907,-0.0411142924556206,0.059152586816983,3
0.419998168945313,-0.0390724800527096,2.90032649040222,1.17038214206696,-0.0753034649285836,2.93341540321397,1.18947352217404,2025.348,2858.018,2769.968,988.2786,-0.1397174,0.006794037,-0.02059742,0.0593538731336594,-0.240960195660591,0.129227593541145,-0.104434660908044,-0.0449353170220673,0.0646500300148815,3
0.439998626708984,-0.0380104966461658,2.89526844024658,1.17311811447144,-0.0774835548069347,2.93247737144397,1.19082310166083,2110.99,2859.216,2639.297,1016.209,-0.1375592,0.007042576,-0.01415364,0.0530994050204754,-0.252902925014496,0.136797413229942,-0.113619049702587,-0.0488871029382406,0.0703356041918149,3
0.459999084472656,-0.0370822735130787,2.89000344276428,1.1759569644928,-0.0798502821969742,2.93145903476675,1.19228821865812,2147.784,2867.235,2591.411,1012.077,-0.1364668,0.007498187,-0.008926383,0.04641118273139,-0.263250142335892,0.141941875219345,-0.123096124252221,-0.0529648233581361,0.0762023647937057,3
0.479999542236328,-0.036296159029007,2.88455677032471,1.17885732650757,-0.0824093896672336,2.93035792231548,1.19387242808941,2140.926,2876.413,2625.684,978.6954,-0.1370005,0.008197625,-0.004679706,0.0393056720495224,-0.272338300943375,0.145017340779305,-0.13285477482153,-0.0571636980729742,0.0822434343651008,4
0.5,-0.0356613472104073,2.87894415855408,1.18179631233215,-0.085166398670376,2.92917165836334,1.1955791479969,2108.93,2884.239,2713.854,926.8658,-0.1390383,0.009086856,-0.0009358348,0.0317408591508865,-0.280627459287643,0.146947100758553,-0.142884000065179,-0.0614789935111996,0.0884520025491718,4
0.519996643066406,-0.0351883433759212,2.8731734752655,1.18477141857147,-0.0881260274065667,2.92789821280061,1.19741129917127,2072.316,2887.902,2817.862,873.6112,-0.1420008,0.01006282,0.002808981,0.0236499719321728,-0.288532823324203,0.148752778768539,-0.153170920546857,-0.0659051680111775,0.0948200963613094,4
0.539997100830078,-0.0348887853324413,2.86724710464478,1.18779540061951,-0.0912944900108037,2.92653491185861,1.1993727284581,2046.838,2886.119,2905.243,833.4053,-0.1451433,0.01101723,0.0069053,0.0149778937920928,-0.296320706605911,0.151201203465462,-0.163708678212627,-0.0704392707438901,0.101343470339432,4
0.55999755859375,-0.0347745567560196,2.86116552352905,1.19088912010193,-0.094676112580471,2.92507989413848,1.20146611391775,2041.856,2880.712,2956.193,812.3925,-0.1478353,0.01187091,0.01147274,0.005711461417377,-0.304081171751022,0.154686138033867,-0.17448465888317,-0.0750758741803766,0.108014315705644,4
0.579998016357422,-0.0348566323518753,2.85493063926697,1.19407224655151,-0.0982755538235842,2.92353115512831,1.2036943395124,2056.293,2875.842,2968.874,808.0255,-0.1497485,0.0125935,0.01643442,-0.00410401821136475,-0.31174710392952,0.159155085682869,-0.185488294752812,-0.0798104312890852,0.11482609048482,4
0.599998474121094,-0.0351443365216255,2.8485472202301,1.19735896587372,-0.102097262171133,2.92188678079254,1.20606015903275,2084.225,2873.189,2951.914,816.1587,-0.1508665,0.01319847,0.02157821,-0.0143848545849323,-0.3191759288311,0.164335370063782,-0.196709126405959,-0.0846384416756885,0.121772319800455,4
0.619998931884766,-0.0356448478996754,2.84202313423157,1.20075488090515,-0.106145477944935,2.92014494663912,1.20856619743999,2116.873,2875.578,2922.401,826.397,-0.1514481,0.01372717,0.0266757,-0.0250261723995209,-0.326210290193558,0.169796496629715,-0.208136802817102,-0.0895554515830839,0.128846595874672,4
0.639999389648438,-0.0363636054098606,2.83536815643311,1.20425844192505,-0.110424235525481,2.91830391678686,1.21121495220784,2145.408,2880.724,2896.553,834.9016,-0.1518492,0.01422931,0.0315413,-0.035937674343586,-0.332747220993042,0.17517626285553,-0.219761081350814,-0.0945570538913933,0.136042578028218,4
0.659999847412109,-0.037304725497961,2.82859301567078,1.20786333084106,-0.114937365519793,2.91636204303257,1.21400879466451,2165.503,2887.842,2886.226,835.8867,-0.1524063,0.01474427,0.03608578,-0.0470555983483791,-0.338758438825607,0.180246129631996,-0.231571827761751,-0.0996388881179631,0.143353992680462,4
0.679996490478516,-0.0384717546403408,2.82170724868774,1.21156299114227,-0.119687567829752,2.91431816368388,1.21694939617789,2176.518,2894.599,2894.97,829.3642,-0.1533235,0.01529418,0.04030971,-0.0583515502512455,-0.344291836023331,0.184985041618347,-0.24355671368107,-0.104795649710095,0.15077320798381,4
0.699996948242188,-0.039868175983429,2.81471848487854,1.21535289287567,-0.124680083855354,2.91217002351282,1.22004000142426,2180.958,2900.52,2920.508,815.4795,-0.1546562,0.01588232,0.04428796,-0.0698213130235672,-0.349438935518265,0.189497828483582,-0.255710395848158,-0.11002503961202,0.158296916205407,4
0.719997406005859,-0.0414977632462978,2.80763220787048,1.21923327445984,-0.129917262555645,2.90991661182791,1.22328206452116,2183.597,2904.668,2954.18,798.7159,-0.1563254,0.0164974,0.0481152,-0.081479549407959,-0.354313522577286,0.194018676877022,-0.26802079535749,-0.115321860608138,0.165917639927336,4
0.739997863769531,-0.043364405632019,2.80045223236084,1.22320687770844,-0.135402141159277,2.90755662179454,1.22667746565781,2186.917,2908.334,2990.461,779.9357,-0.1582019,0.01712343,0.05189354,-0.093332439661026,-0.359003007411957,0.198677822947502,-0.280478211503383,-0.120681938755799,0.173629373950669,5
0.759998321533203,-0.0454722233116627,2.79318070411682,1.22728002071381,-0.141137563960274,2.90508882959244,1.2302279655877,2193.175,2909.685,3021.121,766.6497,-0.1601087,0.01774549,0.0556694,-0.105390653014183,-0.363579601049423,0.203655198216438,-0.293073051970232,-0.126101146749576,0.181426180175103,5
0.779998779296875,-0.0478249825537205,2.78581929206848,1.23145914077759,-0.147126184485884,2.90251209348295,1.23393520697061,2204.435,2912.608,3044.677,753.7069,-0.1619458,0.01835282,0.05946935,-0.117637760937214,-0.368067115545273,0.208955943584442,-0.305795832832518,-0.131575403921268,0.189302187598958,5
0.799999237060547,-0.0504260845482349,2.77836990356445,1.23575091362,-0.153370467664426,2.8998253528763,1.23780071571459,2218.556,2914.854,3059.731,746.9604,-0.1636486,0.01894382,0.06326727,-0.130054861307144,-0.372473269701004,0.21458725631237,-0.318637178554805,-0.1371006762399,0.197251592319181,5
0.819999694824219,-0.0532781891524792,2.77083420753479,1.24015963077545,-0.159872691993147,2.89702762739878,1.24182590231796,2235.234,2919.065,3070.028,740.1848,-0.1652412,0.01952174,0.06703329,-0.142605006694794,-0.376779824495316,0.220438539981842,-0.331587821991737,-0.142672976311719,0.205268657531342,5
0.839996337890625,-0.0563833676278591,2.76321482658386,1.24468851089478,-0.166633637018892,2.89411858163313,1.24601124935738,2251.66,2923.092,3077.957,736.308,-0.1667682,0.02009469,0.07072157,-0.155259042978287,-0.380975097417831,0.226444527506828,-0.344636106234817,-0.148287288494656,0.213346167053785,5
0.859996795654297,-0.0597430430352688,2.75551390647888,1.24933838844299,-0.173657794122436,2.89109628306371,1.25035953721147,2267.323,2928.21,3088.065,730.0671,-0.1683075,0.02067114,0.07430893,-0.167984619736671,-0.385045766830444,0.232495531439781,-0.357777960707973,-0.153941861333544,0.221481601006014,5
0.879997253417969,-0.0633584260940552,2.74773383140564,1.25411057472229,-0.180945630646592,2.88796053060595,1.25487105518773,2281.938,2932.72,3099.745,724.4532,-0.1699065,0.02125797,0.07777177,-0.18076990544796,-0.389005243778229,0.238612279295921,-0.371001963495383,-0.159631780297098,0.229667888678032,5
0.899997711181641,-0.0672302693128586,2.73987674713135,1.25900447368622,-0.188498701076517,2.88471065540831,1.25954676558649,2295.133,2938.215,3117.424,713.5107,-0.1716274,0.02185858,0.08112898,-0.193590924143791,-0.392856419086456,0.244692102074623,-0.384299280991351,-0.165353244531568,0.237899561647111,5
0.919998168945313,-0.0713594257831573,2.73194408416748,1.26402139663696,-0.196318384305134,2.8813460641717,1.26438752200817,2306.346,2940.938,3136.627,706.5095,-0.1734384,0.02247694,0.08437483,-0.206459015607834,-0.396637260913849,0.25084862112999,-0.397661187980262,-0.171102499820431,0.246171218589148,5
0.939998626708984,-0.07574662566185,2.72393679618835,1.26916193962097,-0.204405885800988,2.87786623821667,1.26939407069523,2319.154,2945.728,3159.52,692.2662,-0.1753564,0.02310954,0.08754726,-0.219359010457993,-0.400360494852066,0.257025867700577,-0.411079067636589,-0.176875838584386,0.254477525278661,5
0.959999084472656,-0.0803927034139633,2.71585559844971,1.2744288444519,-0.212762239776093,2.87427073255068,1.27456705187416,2330.834,2947.79,3180.931,683.8141,-0.1773154,0.02375711,0.09064468,-0.232304856181145,-0.40406322479248,0.263343781232834,-0.424544411524882,-0.18266959988136,0.262813214588797,5
0.979999542236328,-0.0852982550859451,2.70770049095154,1.27982342243195,-0.221388311353785,2.87055917493534,1.27990700109753,2344.963,2952.037,3203.33,669.6,-0.1793181,0.02441503,0.09369686,-0.245278015732765,-0.407749623060226,0.269731283187866,-0.438048819599778,-0.188480169406503,0.271173086491326,5
0.999996185302734,-0.0904640108346939,2.69947171211243,1.2853490114212,-0.230283076085251,2.86673200616235,1.28541328418271,2358.259,2953.984,3222.468,662.0444,-0.1813069,0.02508512,0.09668947,-0.25828742980957,-0.411444395780563,0.276281833648682,-0.45158141622203,-0.194302867676075,0.279550408447474,5
1.01999664306641,-0.0958901345729828,2.69116902351379,1.29100656509399,-0.239450461003889,2.86278753653895,1.29108833215045,2373.631,2958.202,3242.701,648.7607,-0.1833043,0.02576398,0.09964161,-0.271305978298187,-0.415136188268661,0.282879024744034,-0.465139182559269,-0.200136395770846,0.2879433116562,5
1.03999710083008,-0.101577088236809,2.68279194831848,1.296799659729,-0.248889165986195,2.85872632547195,1.29693134016237,2388.458,2960.373,3258.158,643.1978,-0.1852681,0.02645553,0.1025219,-0.284347474575043,-0.418849587440491,0.289657562971115,-0.478711464817306,-0.205976169660809,0.296345200911388,5
1.05999755859375,-0.107524394989014,2.67434096336365,1.30272746086121,-0.258599401509697,2.85454828239877,1.30294243851408,2405.032,2965.804,3277.934,627.8242,-0.187274,0.02715574,0.1053618,-0.297365963459015,-0.42255374789238,0.296390026807785,-0.492290296490434,-0.211818761581115,0.30475114456651,5
1.07999801635742,-0.113732278347015,2.66581535339355,1.30879318714142,-0.268581219802083,2.85025338484727,1.30912165953701,2418.072,2966.571,3293.237,625.7707,-0.1892464,0.02787351,0.1081126,-0.310394644737244,-0.426284313201904,0.303287774324417,-0.50586781946303,-0.217660790404144,0.31315627807366,5
1.09999847412109,-0.120199874043465,2.65721535682678,1.31499493122101,-0.278834517009062,2.84584167750307,1.31546893894041,2435.438,2972.633,3314.643,607.4238,-0.1912874,0.02860108,0.1108228,-0.323380321264267,-0.430003762245178,0.310090094804764,-0.519436284009554,-0.223498921639497,0.321555803983559,5
1.11999893188477,-0.126927316188812,2.64854025840759,1.32133638858795,-0.289359035362208,2.84131327127672,1.32198411715334,2447.697,2972.714,3330.605,606.3867,-0.1932949,0.02934873,0.1134393,-0.336371660232544,-0.433759450912476,0.31707501411438,-0.532988048794549,-0.229329867434001,0.329944991945551,5
1.13999938964844,-0.133913397789001,2.63979005813599,1.32781481742859,-0.300154365346813,2.83666834237095,1.3286669406667,2465.57,2979.049,3354.188,585.094,-0.195386,0.03010495,0.1160269,-0.349303811788559,-0.437504708766937,0.323921024799347,-0.546515580872639,-0.235150386571708,0.338319178707607,5
1.15999984741211,-0.141158297657967,2.63096404075623,1.33443474769592,-0.311219947869739,2.83190713134792,1.33551706337518,2476.973,2978.042,3370.025,586.2944,-0.1974201,0.03088329,0.1185195,-0.362245589494705,-0.441301703453064,0.33099690079689,-0.560011455688534,-0.240957284473894,0.346673768116318,6
1.17999649047852,-0.148660510778427,2.62206220626831,1.34119236469269,-0.322552888823985,2.82703088346102,1.34253269368871,2496.096,2984.98,3395.319,561.2899,-0.1995448,0.03166682,0.1210008,-0.37511071562767,-0.445085942745209,0.337879955768585,-0.573465794611364,-0.246746310641672,0.355002644828593,6
1.19999694824219,-0.15642037987709,2.61308360099792,1.34809327125549,-0.334156660511822,2.8220381046756,1.34971598112778,2506.193,2982.499,3410.128,566.3602,-0.2015709,0.03247458,0.1233825,-0.387992858886719,-0.448935687541962,0.34504833817482,-0.58687652428584,-0.252516572968185,0.36330452533874,6
1.21999740600586,-0.164435982704163,2.60402822494507,1.35513293743134,-0.346028131869748,2.8169301422008,1.35706498741494,2527.712,2990.691,3435.508,537.3735,-0.2036951,0.03328295,0.1257663,-0.400781035423279,-0.452768057584763,0.351985424757004,-0.600233974716476,-0.258263910724523,0.371573423458908,6
1.23999786376953,-0.172707751393318,2.59489464759827,1.36231791973114,-0.358166167196084,2.81170748469733,1.36457900949675,2536.979,2987.526,3448.075,546.1345,-0.2056999,0.0341166,0.1280438,-0.413589000701904,-0.456675738096237,0.359251320362091,-0.613531154887641,-0.263985315871967,0.379805011417393,6
1.2599983215332,-0.181233167648315,2.58568382263184,1.36964106559753,-0.370569492049568,2.80637068052165,1.37225725843336,2559.136,2996.168,3476.195,512.891,-0.2078288,0.03494667,0.1303412,-0.426271080970764,-0.460544615983963,0.366157412528992,-0.626761182173783,-0.269677827009021,0.387995028541113,6
1.27999877929688,-0.190013185143471,2.57639360427856,1.37711179256439,-0.383236695417198,2.80092033679326,1.3800988607405,2566.414,2991.09,3485.041,529.4517,-0.2097799,0.035808,0.1325059,-0.438999891281128,-0.464510858058929,0.37353852391243,-0.639917282339435,-0.275338529371412,0.396139281255613,6
1.29999923706055,-0.199044197797775,2.56702566146851,1.3847188949585,-0.396166231882091,2.79535711846185,1.3881028597315,2592.211,3002.461,3517.602,484.6985,-0.2119226,0.03665526,0.1347268,-0.451551526784897,-0.468400180339813,0.380355447530746,-0.652992789539212,-0.280964554832093,0.404233643085061,6
1.31999969482422,-0.208328202366829,2.55757713317871,1.39247667789459,-0.409356423791328,2.7896817473746,1.39626821685929,2594.795,2993.792,3520.455,515.8604,-0.2137964,0.03754449,0.1367729,-0.464199364185333,-0.472424775362015,0.387888222932816,-0.665981146317813,-0.286553081901244,0.412274054652251,6
1.33999633789063,-0.217859968543053,2.54805088043213,1.40036702156067,-0.422802873722428,2.78389611561957,1.40459220990988,2626.419,3009.369,3560.748,452.2729,-0.2159749,0.03840308,0.1389345,-0.476589053869247,-0.476310342550278,0.394520193338394,-0.678873453515705,-0.29210028151913,0.420255006953505,6
1.3599967956543,-0.227643266320229,2.53844308853149,1.40841245651245,-0.436508776648329,2.77799884848916,1.41307681672372,2620.731,2994.711,3554.188,507.7502,-0.2177273,0.03932217,0.1408516,-0.489164352416992,-0.480395495891571,0.402269303798676,-0.691668290305691,-0.297605542343502,0.428175620429107,6
1.37999725341797,-0.237670406699181,2.52875804901123,1.41658473014832,-0.450469530727146,2.77199192602736,1.42171918854144,2662.973,3017.452,3605.851,413.4364,-0.2199654,0.04018351,0.1429759,-0.501357555389404,-0.484247595071793,0.408612459897995,-0.704356955827446,-0.303065120637236,0.436030508832034,6
1.39999771118164,-0.247948110103607,2.51898980140686,1.42491936683655,-0.464682951063699,2.76587628833354,1.43051797280888,2644.667,2994.472,3582.564,507.723,-0.2215441,0.04113615,0.1447441,-0.513885676860809,-0.488411247730255,0.416732370853424,-0.716933326165324,-0.308476381450513,0.44381588116678,7
1.41999816894531,-0.258464217185974,2.50914645195007,1.43336927890778,-0.47914673136562,2.75965292774086,1.43947174182117,2702.437,3027.384,3657.101,362.2606,-0.2239244,0.04198476,0.146879,-0.525806784629822,-0.492169141769409,0.422496110200882,-0.729391385793766,-0.313836736470737,0.451528013536465,7
1.43999862670898,-0.26923143863678,2.49921727180481,1.44199538230896,-0.4938584461112,2.75332288788357,1.44857899406484,2661.303,2989.62,3602.936,527.561,-0.2251937,0.04298616,0.1484441,-0.538360774517059,-0.496456533670425,0.431307464838028,-0.741725227577294,-0.31914364402254,0.459163249142831,7
1.45999908447266,-0.280229240655899,2.48921680450439,1.45071613788605,-0.508815552717244,2.74688726276417,1.45783815555978,2750.763,3042.351,3718.724,284.866,-0.2278611,0.04379477,0.1506704,-0.549891650676727,-0.5000239610672,0.436040252447128,-0.753929052770513,-0.324394609067776,0.466717998286247,7
1.47999954223633,-0.291481584310532,2.4791259765625,1.4596391916275,-0.524015393706918,2.74034719582071,1.46724758120123,2665.972,2978.334,3607.131,582.3605,-0.228594,0.0448733,0.1519367,-0.562614321708679,-0.504531621932983,0.446153938770294,-0.76599717101811,-0.329587183205524,0.474188738365705,7
1.49999618530273,-0.302952170372009,2.46897149085999,1.46861863136292,-0.539452231337361,2.73370515584365,1.47680371905302,2814.568,3065.992,3800.665,159.9092,-0.2318378,0.045593,0.1544048,-0.573529243469238,-0.507733404636383,0.448974609375,-0.777921739365859,-0.334717991831687,0.481570614218926,7
1.51999664306641,-0.314686357975006,2.45871829986572,1.47785007953644,-0.555129074991064,2.72695984797977,1.48650843206629,2646.677,2954.99,3580.747,705.3066,-0.2316007,0.04681012,0.1551815,-0.586711823940277,-0.512663185596466,0.461575478315353,-0.789701834723693,-0.339786637766398,0.488863054409188,7
1.53999710083008,-0.326621532440186,2.44841003417969,1.4870867729187,-0.571040013494911,2.72011381564173,1.49635806094328,2864.002,3140.528,3877.145,0,-0.235587,0.04753124,0.1582289,-0.596758008003235,-0.515409588813782,0.4618319272995,-0.801329803423436,-0.344789827850059,0.496061320951293,7
1.55999755859375,-0.338833063840866,2.43799209594727,1.49663925170898,-0.587181951496087,2.71316839067337,1.50635068951315,2618.725,2905.769,3516.737,900.26,-0.234021,0.04905224,0.1583452,-0.610578835010529,-0.520895004272461,0.477624803781509,-0.812800388649436,-0.349725300221754,0.503162159625937,7
1.57999801635742,-0.351234078407288,2.4275164604187,1.50619435310364,-0.603551689586986,2.70612494969039,1.51648433719019,2764.77,3351.882,3806,0,-0.2376482,0.05051713,0.1622693,-0.620052695274353,-0.52377837896347,0.477755129337311,-0.824108441976122,-0.354590839657789,0.510162383312438,7
1.59999847412109,-0.363899946212769,2.4169385433197,1.51603186130524,-0.620145926473056,2.69898491314762,1.52675696031579,2708.083,2813.005,3507.07,954.1783,-0.2360269,0.05265147,0.1620604,-0.633289039134979,-0.528900504112244,0.491874665021896,-0.835248923368005,-0.359384277571697,0.517058871988737,7
1.61999893188477,-0.376746952533722,2.40631246566772,1.52585220336914,-0.636961261140657,2.69174974440622,1.53716645350051,2841.861,3288.961,3839.08,0,-0.2397868,0.05456972,0.1649852,-0.642353057861328,-0.531302511692047,0.491019278764725,-0.846216901179681,-0.364103492014234,0.523848572731403,7
1.63999938964844,-0.389851689338684,2.39559435844421,1.53594064712524,-0.653994195024907,2.68442094880091,1.54771065096602,2779.841,2804.674,3573.342,871.3106,-0.2388509,0.05698222,0.1638737,-0.655235350131989,-0.535900413990021,0.504424095153809,-0.857007552155828,-0.368746407673381,0.530528499715628,7
1.65999603271484,-0.403135687112808,2.38482904434204,1.54603397846222,-0.671237824488362,2.67700149677403,1.55838527903188,2826.151,3331.61,3858.01,0,-0.2428899,0.05930385,0.1661893,-0.664200186729431,-0.538260400295258,0.504665493965149,-0.867614155697522,-0.373310132863173,0.537094492570531,7
1.67999649047852,-0.416657954454422,2.37398505210876,1.55633807182312,-0.688695041988866,2.66949014378176,1.56919212826729,2862.876,2791.615,3709.709,699.6193,-0.2434182,0.06180901,0.1650093,-0.67611438035965,-0.542196869850159,0.515206277370453,-0.878036152828799,-0.377794427071868,0.543546205263364,8
1.69999694824219,-0.43036150932312,2.36309480667114,1.56666278839111,-0.706358800111611,2.66188992212981,1.58012683598675,2890.743,3208.404,3960.533,0,-0.2476005,0.06405926,0.1663451,-0.685177683830261,-0.544517040252686,0.516234159469604,-0.888267004546665,-0.382196476749158,0.549879589839776,8
1.71999740600586,-0.444293439388275,2.35213017463684,1.57717478275299,-0.724225231782013,2.65420249571236,1.5911870082869,2912.135,2826.801,3857.205,503.1853,-0.2489837,0.06628752,0.1652753,-0.696599721908569,-0.54822963476181,0.525600969791412,-0.898302321135456,-0.386514393123025,0.556091928856661,8
1.73999786376953,-0.458411604166031,2.34111070632935,1.58774173259735,-0.742290383213093,2.64642956573347,1.60237019758524,2905.046,3167.014,4026.117,0,-0.2527329,0.06828545,0.1664605,-0.705909669399261,-0.550969004631042,0.528345346450806,-0.908137821269591,-0.39074633405868,0.562180571969536,8
1.7599983215332,-0.472746700048447,2.33001708984375,1.59846842288971,-0.760550216073323,2.63857286977439,1.61367390396219,2957.719,2855.996,3967.379,346.8806,-0.2544128,0.07010558,0.1660908,-0.716752648353577,-0.554675281047821,0.53633588552475,-0.917769332013572,-0.394890504058555,0.568142935932543,8
1.77999877929688,-0.487270027399063,2.31886267662048,1.60926532745361,-0.779000609654483,2.63063418086074,1.62509557650306,2967.595,3073.594,4091.581,0,-0.2574813,0.07157727,0.1672307,-0.726165652275085,-0.557718515396118,0.539845407009125,-0.927192788821983,-0.398945154262308,0.57397650459845,8
1.79999923706055,-0.502006232738495,2.30762934684753,1.62022387981415,-0.79763736303951,2.62261530652977,1.63663261464007,2971.897,2903.457,4014.65,269.334,-0.2586947,0.07288641,0.167448,-0.736812114715576,-0.561664521694183,0.547928333282471,-0.936404235539493,-0.402908582446823,0.579678828918647,8
1.81999588012695,-0.516928434371948,2.29632973670959,1.63126182556152,-0.816452590859454,2.61451963963547,1.64828013695421,2990.276,3069.82,4104.21,0,-0.261026,0.07387898,0.1690629,-0.746114552021027,-0.56498259305954,0.551898419857025,-0.945398129488514,-0.406778403752778,0.585246477711674,8
1.83999633789063,-0.532059073448181,2.28494787216187,1.64246237277985,-0.835449117627072,2.60634596486888,1.66003989195343,2976.628,2931.222,4010.25,272.2165,-0.26154,0.07479966,0.1698635,-0.756526410579681,-0.569096744060516,0.560030400753021,-0.954174163352093,-0.410554485950274,0.590679260733698,8
1.8599967956543,-0.547368764877319,2.27350115776062,1.65373241901398,-0.854618942724365,2.59809772467243,1.67190692687406,3023.599,3063.175,4109.256,0,-0.263352,0.07539472,0.1718825,-0.765486478805542,-0.572339296340942,0.563504695892334,-0.962726969681477,-0.41423451957606,0.595973855278252,8
1.87999725341797,-0.562886297702789,2.26197075843811,1.66517925262451,-0.873957566090845,2.58977685529642,1.6838784559643,2969.098,2952.543,3975.417,328.7259,-0.2630548,0.07607748,0.1729023,-0.775874853134155,-0.576522648334503,0.572341561317444,-0.971053025860989,-0.417816988947023,0.601128080678429,8
1.89999771118164,-0.578574061393738,2.25038075447083,1.67668211460114,-0.893460418296025,2.58138532283915,1.69595165052899,3022.266,3111.665,4094.69,0,-0.2645462,0.07652563,0.1753957,-0.784387826919556,-0.579503953456879,0.575140833854675,-0.979148917665041,-0.421300425017273,0.606139823365946,8
1.91999816894531,-0.594468116760254,2.23871064186096,1.68836939334869,-0.913122862707269,2.57292512231409,1.70812364027167,2970.066,2950.24,3937.686,403.9037,-0.2636237,0.07718898,0.1764346,-0.794702589511871,-0.583509743213654,0.584364533424377,-0.987011339258123,-0.424683405378145,0.611007036871143,8
1.93999862670898,-0.610523402690887,2.22699046134949,1.7000960111618,-0.932940197657643,2.56439827671719,1.72039151463653,3026.192,3148.154,4088.033,0,-0.2649771,0.07767212,0.1791148,-0.802768468856812,-0.586003482341766,0.586329102516174,-0.99463709319481,-0.4279645542582,0.615727741822989,9
1.95999908447266,-0.626783728599548,2.21519804000854,1.71201229095459,-0.952907658613767,2.55580683609405,1.73275232415044,2981.582,2941.194,3916.507,458.8575,-0.2636902,0.07844105,0.1799179,-0.813014626502991,-0.589615404605865,0.595813751220703,-1.00202309041976,-0.431142542523221,0.620300025949072,9
1.97999954223633,-0.643198132514954,2.20336675643921,1.72395765781403,-0.973020420343666,2.54715287660719,1.74520308176496,3021.548,3188.663,4085.223,0,-0.2650096,0.07909645,0.1825875,-0.82072126865387,-0.591563522815704,0.597269952297211,-1.00916635026771,-0.434216087676217,0.62472204407561,9
1.99999618530273,-0.659812986850739,2.19147491455078,1.73608660697937,-0.993269723110518,2.53844016732665,1.7577383647857,3008.078,2926.548,3923.322,472.4982,-0.2637158,0.08001804,0.1831016,-0.830741882324219,-0.59458714723587,0.60644668340683,-1.01606270846678,-0.437183397947334,0.628991218319934,9
2.01999664306641,-0.676576733589172,2.17955565452576,1.7482396364212,-1.01365835337184,2.52966750931758,1.77035989816261,3026.975,3200.011,4098.956,0,-0.2650564,0.08084583,0.1855132,-0.838190674781799,-0.595969021320343,0.607649922370911,-1.02271203275434,-0.440044416427654,0.633107466805174,9
2.03999710083008,-0.693534553050995,2.16758871078491,1.76056408882141,-1.03417746715556,2.52083870789413,1.78306220705567,3041.024,2917.956,3957.638,441.1373,-0.2639922,0.08185974,0.185755,-0.847887814044952,-0.598333239555359,0.616222977638245,-1.02911032850577,-0.442797424341804,0.637068316668402,9
2.05999755859375,-0.710638225078583,2.15560388565063,1.77291560173035,-1.05482201812353,2.5119559343546,1.79584216754118,3035.374,3196.712,4120.08,0,-0.2653227,0.08278619,0.1878374,-0.855185627937317,-0.599249720573425,0.617574870586395,-1.03525504859546,-0.445441325732794,0.640872191117535,9
2.07999801635742,-0.72792637348175,2.14358472824097,1.78541803359985,-1.07558691007788,2.50302138145056,1.8086966248299,3075.433,2915.623,4013.769,373.6671,-0.2646309,0.08377806,0.1879733,-0.86440896987915,-0.6009521484375,0.62512344121933,-1.04114375428791,-0.447975071280863,0.644517580459114,9
2.09999847412109,-0.745358884334564,2.13155484199524,1.79795396327972,-1.09646699912883,2.4940372624541,1.82162239460902,3055.215,3166.014,4152.358,0,-0.2658575,0.08464844,0.1897031,-0.871624827384949,-0.601492166519165,0.626798570156097,-1.04677411523768,-0.450397658303471,0.648003042098304,9
2.11999893188477,-0.762966096401215,2.11950206756592,1.81062161922455,-1.11745709586255,2.485005810225,1.83461626438416,3102.543,2925.731,4075.182,290.5017,-0.2654591,0.08547377,0.1898981,-0.880362153053284,-0.60263866186142,0.633380353450775,-1.0521439094894,-0.452708130755304,0.651327200538896,9
2.13999938964844,-0.780716240406036,2.10744380950928,1.82333099842072,-1.138551967509,2.47592927627801,1.8476749948214,3074.71,3132.703,4182.487,0,-0.2664461,0.0861457,0.1914288,-0.887506723403931,-0.602913975715637,0.635466754436493,-1.05725102347782,-0.454905579228273,0.654488747383304,9
2.15999603271484,-0.798631727695465,2.09537100791931,1.83615589141846,-1.15974228854654,2.4668116731246,1.86079281297862,3118.416,2942.94,4124.213,219.3863,-0.2661292,0.08670408,0.1918538,-0.895774126052856,-0.60363906621933,0.641243159770966,-1.06209255378819,-0.456988754464129,0.657485885279498,9
2.17999649047852,-0.816687285900116,2.08329749107361,1.84902656078339,-1.18103083166728,2.45765180775279,1.8739714352843,3095.181,3099.866,4206.724,0,-0.2667688,0.08707111,0.1933551,-0.90277498960495,-0.603681683540344,0.643532156944275,-1.06666845113384,-0.45895763525619,0.660318583716675,10
2.19999694824219,-0.834900915622711,2.0712149143219,1.86200594902039,-1.20240821395574,2.44845371736898,1.88720505326679,3119.678,2965.077,4145.562,183.3801,-0.2662218,0.08732793,0.1940646,-0.910685658454895,-0.604123950004578,0.648972570896149,-1.07097597819164,-0.460811043810786,0.662985148161421,10
2.21999740600586,-0.853249251842499,2.05913639068604,1.87502944469452,-1.22386905090202,2.43921971877738,1.90049033365798,3107.866,3087.856,4214.395,0,-0.266477,0.08737829,0.195731,-0.917415082454681,-0.603922486305237,0.651175260543823,-1.07501345493598,-0.46254825725983,0.665484538597853,10
2.23999786376953,-0.871750056743622,2.04705357551575,1.88816130161285,-1.24540792547886,2.42995214277345,1.91382392305993,3108.928,2983.94,4136.567,191.7489,-0.2654692,0.08738454,0.196697,-0.925043940544128,-0.604141175746918,0.656595051288605,-1.07877930973132,-0.464168599372462,0.667815782108711,10
2.2599983215332,-0.89037698507309,2.0349817276001,1.90132689476013,-1.26701939030951,2.42065333321126,1.92720244928693,3113.441,3091.898,4210.822,0,-0.2653835,0.08718021,0.1986134,-0.931348383426666,-0.603591442108154,0.658282697200775,-1.08227207933222,-0.465671440555045,0.66997797287536,10
2.27999877929688,-0.909153401851654,2.02290964126587,1.91460907459259,-1.28869796983554,2.41132564607061,1.9406225227075,3090.426,2997.54,4099.209,241.4591,-0.2637568,0.08704775,0.1996846,-0.938814640045166,-0.603597581386566,0.664111137390137,-1.08549040888332,-0.467056197851165,0.67197027217779,10
2.29999923706055,-0.928044438362122,2.01085782051086,1.92790794372559,-1.31043816248474,2.40197144852433,1.95408073758635,3103.577,3122.114,4194.528,0,-0.2634335,0.0867344,0.2019009,-0.944550752639771,-0.602590262889862,0.664946317672729,-1.08843305191934,-0.468322334941636,0.673791908394614,10
2.31999588012695,-0.94708240032196,1.99881160259247,1.94133508205414,-1.33223028062798,2.39259490888859,1.96757109681956,3071.446,2999.283,4043.137,321.474,-0.2611693,0.0866226,0.202891,-0.951901853084564,-0.602324545383453,0.671356022357941,-1.09109838837379,-0.469469154757102,0.675441878627497,10
2.33999633789063,-0.966221570968628,1.98679673671722,1.9547563791275,-1.35407709248145,2.38319483607731,1.98109531406483,3083.446,3166.248,4172.618,0,-0.2607474,0.08637255,0.2053367,-0.956961512565613,-0.600740134716034,0.671066522598267,-1.09348640563071,-0.470496651869278,0.67692017506657,10
2.3599967956543,-0.985505700111389,1.97479474544525,1.96831810474396,-1.37596887940059,2.37377541175173,1.99464737301821,3058.102,2989.424,3981.573,411.2897,-0.2579543,0.08643203,0.2060332,-0.964203476905823,-0.600104153156281,0.678085923194885,-1.09559564748259,-0.471404199712748,0.678225896250009,10
2.37999725341797,-1.00487661361694,1.9628369808197,1.98185086250305,-1.39790005743958,2.36433903852774,2.00822381695123,3055.196,3219.489,4147.225,0,-0.2575852,0.08640628,0.2085775,-0.968547642230988,-0.597882330417633,0.676640450954437,-1.09742530100382,-0.472191448508328,0.679358538938131,10
2.39999771118164,-1.0243878364563,1.95090222358704,1.99552845954895,-1.41986502747765,2.35488812555058,2.02182117974142,3055.483,2967.789,3933.867,484.5819,-0.2545359,0.08673496,0.20884,-0.975556492805481,-0.596736371517181,0.683877468109131,-1.09897466165884,-0.47285809511406,0.680317666989874,10
2.41999816894531,-1.04397225379944,1.93902516365051,2.00915694236755,-1.44185817738692,2.34542508756209,2.03543598721428,3028.576,3260.369,4129.541,0,-0.2543351,0.08701324,0.2112713,-0.979228377342224,-0.593858778476715,0.681423127651215,-1.10024313330221,-0.473403883025206,0.681102911362803,10
2.43999862670898,-1.06368935108185,1.92718315124512,2.02292513847351,-1.46387388420027,2.33595234396796,2.0490647584853,3064.797,2941.848,3913.516,517.7579,-0.251347,0.08760847,0.2110494,-0.985851645469666,-0.59209680557251,0.688412666320801,-1.10123022817855,-0.473828602374257,0.681713970113108,10
2.45999908447266,-1.08346855640411,1.91541051864624,2.03663182258606,-1.48590651627916,2.32647231790489,2.06270400730194,3006.389,3282.927,4121.793,0,-0.2513561,0.08817214,0.2132032,-0.988966286182404,-0.588634550571442,0.685329079627991,-1.10193556692257,-0.474132089930926,0.682150608395601,10
2.47999572753906,-1.10336863994598,1.9036865234375,2.05046105384827,-1.50794623031618,2.31698924467309,2.07634764018804,3083.197,2916.663,3927.473,500.1465,-0.2487185,0.08893411,0.2125941,-0.995002865791321,-0.58620697259903,0.691465198993683,-1.10235882472314,-0.474314205938057,0.682412625136718,11
2.49999618530273,-1.1233229637146,1.89204084873199,2.06422472000122,-1.52999579362571,2.30750193357449,2.089997370243,2997.025,3274.368,4127.925,0,-0.2488809,0.08964715,0.2143517,-0.9977126121521,-0.582278370857239,0.688187301158905,-1.10250000049778,-0.474374949929889,0.682500019666355,11
2.51999664306641,-1.14338350296021,1.88045644760132,2.07808613777161,-1.55204535801192,2.29801462201262,2.10364710096447,3103.421,2901.199,3970.332,435.5105,-0.2467371,0.09039252,0.2135531,-1.00302445888519,-0.579228222370148,0.693068027496338,-1.10235893238473,-0.47431425226183,0.68241269178437,11
2.53999710083008,-1.16349303722382,1.86895632743835,2.09188675880432,-1.57408927882895,2.2885297387209,2.11729333804778,3000.682,3240.093,4142.187,0,-0.2469176,0.0910407,0.2149235,-1.0054794549942,-0.574996829032898,0.690026640892029,-1.10193567455836,-0.474132136243598,0.68215067502728,11
2.55999755859375,-1.18369269371033,1.85752785205841,2.10575485229492,-1.59612191359838,2.27904971150017,2.13093258853001,3116.28,2899.446,4029.345,342.573,-0.2452441,0.09155317,0.2142116,-1.00998628139496,-0.571434617042542,0.693407893180847,-1.10123038958312,-0.473828671822132,0.681714070030222,11
2.57999801635742,-1.20393824577332,1.84618711471558,2.11957049369812,-1.6181376241771,2.2695769662859,2.14456136213196,3016.334,3183.251,4162.983,0,-0.24525,0.0918875,0.215304,-1.01227915287018,-0.567030370235443,0.690787017345428,-1.10024334841354,-0.473403975581601,0.681103044526962,11
2.59999847412109,-1.22426009178162,1.83492422103882,2.13343048095703,-1.64013077892511,2.26011392621545,2.15817617260023,3112.334,2915.252,4078.988,254.9141,-0.2437666,0.09198304,0.2149195,-1.01608550548553,-0.563143670558929,0.692998588085175,-1.09897493039424,-0.472858210743393,0.680317833349887,11
2.61999893188477,-1.24462389945984,1.82375121116638,2.14724445343018,-1.66209575487342,2.25066301069528,2.17177353904914,3030.861,3130.374,4177.343,0,-0.2434023,0.09182271,0.2160007,-1.01819980144501,-0.558656275272369,0.690696895122528,-1.09742562325992,-0.472191587166126,0.67935873843001,11
2.63999557495117,-1.2650545835495,1.81265819072723,2.16109323501587,-1.68402276052401,2.24122843273345,2.18534740007499,3085.901,2942.261,4090.915,215.2146,-0.2416339,0.09143729,0.2160852,-1.0215265750885,-0.554651319980621,0.692443192005157,-1.09559639877797,-0.471404522974156,0.678226361337632,11
2.65999603271484,-1.28552055358887,1.80165696144104,2.17489194869995,-1.70591456353497,2.23180900148401,2.19889946898997,3035.595,3100.156,4176.068,0,-0.2407737,0.09073649,0.2174568,-1.0232994556427,-0.550061941146851,0.689939677715302,-1.09348726343002,-0.470497020956359,0.676920706085208,10
2.67999649047852,-1.30605018138885,1.79073464870453,2.18873810768127,-1.72776139360717,2.22240892083372,2.2124236975135,3036.461,2972.221,4040.886,259.0597,-0.2381564,0.08997372,0.2179388,-1.02647936344147,-0.546112596988678,0.692310690879822,-1.09109935234628,-0.469469569527535,0.67544247537239,9
2.69999694824219,-1.32660269737244,1.7799084186554,2.20251417160034,-1.74955768413056,2.21303058593937,2.22591663964878,3017.03,3118.188,4147.787,0,-0.2368243,0.08888663,0.2198793,-1.0276221036911,-0.541309773921967,0.688808560371399,-1.08843358680109,-0.468322565086308,0.673792239511893,9
2.71999740600586,-1.34722185134888,1.76915884017944,2.21637034416199,-1.77129788800495,2.2036763835632,2.23937486147656,2971.404,2990.668,3922.26,401.194,-0.2329265,0.0880298,0.2204734,-1.03095686435699,-0.537477254867554,0.69281393289566,-1.08549099645889,-0.467056450668518,0.671970635915057,8
2.73999786376953,-1.36784386634827,1.75851392745972,2.23011660575867,-1.79297647980783,2.19434869114016,2.25279494249708,2967.796,3189.205,4095.681,0,-0.2313147,0.08689764,0.2231045,-1.03110945224762,-0.532251358032227,0.687316715717316,-1.08227271937422,-0.465671715947234,0.669978369091845,8
2.7599983215332,-1.38854122161865,1.74794435501099,2.24399399757385,-1.81458795796224,2.18504987584512,2.26617347697213,2904.638,2986.378,3743.493,630.465,-0.2259335,0.08636277,0.2233178,-1.0348653793335,-0.528474807739258,0.693867385387421,-1.07878000199166,-0.464168897232749,0.667816210650842,7
2.77999877929688,-1.409215092659,1.73749196529388,2.25770425796509,-1.83612684690458,2.17578229366013,2.27950707526701,2879.67,3318.515,4022.167,0,-0.2243841,0.08567854,0.2266167,-1.03369092941284,-0.522620856761932,0.685512840747833,-1.07501419914593,-0.462548577472581,0.665484999299265,6
2.79999923706055,-1.42997360229492,1.72711801528931,2.27160120010376,-1.85758769925251,2.16654828844162,2.29279236519255,2854.662,2945.157,3535.549,908.9672,-0.2176825,0.08593038,0.2258846,-1.03792357444763,-0.518692374229431,0.69484931230545,-1.07097677406178,-0.460811386251471,0.662985640842947,5
2.81999588012695,-1.45067822933197,1.71687698364258,2.28526568412781,-1.87896102895071,2.15735194177419,2.30602347442862,2765,3482.005,3938.317,0,-0.2166162,0.08620412,0.2295779,-1.03523433208466,-0.512065052986145,0.683224439620972,-1.06667014556453,-0.458958364322378,0.660319632649988,5
2.83999633789063,-1.47147142887115,1.70672416687012,2.29915642738342,-1.90024960698239,2.14819206138118,2.31920211834584,2841.196,2862.359,3354.067,1161.79,-0.2092323,0.08758046,0.2274156,-1.03966104984283,-0.50764125585556,0.694539129734039,-1.06209435025759,-0.456989527434725,0.657486997379635,4
2.8599967956543,-1.49218249320984,1.69671976566315,2.31275916099548,-1.9214439980555,2.13907270700516,2.33232245604895,2650.433,3636.355,3860.195,0,-0.209048,0.08914383,0.2309669,-1.03555858135223,-0.50022280216217,0.680138766765594,-1.05725197237562,-0.454905987512489,0.654489334796247,3
2.87999725341797,-1.51297175884247,1.6868212223053,2.32658553123474,-1.94253888918396,2.12999616467562,2.34538119854648,2878.981,2748.343,3270.118,1287.362,-0.2021355,0.09165433,0.2272027,-1.03946244716644,-0.494920760393143,0.69131737947464,-1.05214490868305,-0.452708560680416,0.651327819087361,2
2.89999771118164,-1.53365957736969,1.67708468437195,2.34009885787964,-1.96352900640172,2.1209647036328,2.35837508100222,2575.923,3714.459,3814.901,0,-0.2030772,0.0944308,0.229868,-1.03438448905945,-0.486841648817062,0.675667226314545,-1.04677516433438,-0.450398109700476,0.648003691539142,1
2.91999816894531,-1.55439436435699,1.66747641563416,2.35377168655396,-1.98440911693069,2.11198057539494,2.37130086407726,2963.483,2632.836,3350.568,1189.343,-0.1980556,0.09760866,0.2248402,-1.03674817085266,-0.48040384054184,0.683639883995056,-1.04114485287423,-0.447975543971863,0.644518260536375,0
2.93999862670898,-1.57502353191376,1.65803706645966,2.36715602874756,-2.00517403134858,2.10304601282548,2.38415533527198,2579.847,3651.613,3829.529,0,-0.1999906,0.1009698,0.2258871,-1.03145468235016,-0.471969217061996,0.669212877750397,-1.03525619623725,-0.445441819530995,0.640872901562472,0
2.95999908447266,-1.59565091133118,1.64874815940857,2.3805775642395,-2.02581860575671,2.0941632292003,2.39693531026807,3070.33,2565.491,3613.19,823.5558,-0.1980508,0.1038707,0.2205462,-1.03136718273163,-0.464447557926178,0.671075880527496,-1.02911152474823,-0.442797939051516,0.637069057199471,0
2.97999572753906,-1.61618506908417,1.63962554931641,2.3937840461731,-2.04633384260397,2.08533609591429,2.40963521915279,2672.849,3419.054,3922.561,0,-0.2003858,0.1066732,0.2196676,-1.02670753002167,-0.456124395132065,0.660320997238159,-1.02271452148052,-0.440045487257004,0.633109007445237,0
2.99999618530273,-1.6366651058197,1.63066625595093,2.40688681602478,-2.06672252359526,2.07656341607755,2.42225678393395,3147.024,2592.007,3989.694,269.889,-0.2016418,0.1081346,0.2153874,-1.02399778366089,-0.447979539632797,0.655141770839691,-1.01606529245116,-0.437184509763622,0.628992817929355,0
3.01999664306641,-1.65707755088806,1.62185907363892,2.4198751449585,-2.08697572864857,2.06784902775215,2.4347944826559,2818.564,3077.633,4068.747,0,-0.2033483,0.1090824,0.2131763,-1.02062141895294,-0.440349996089935,0.649418950080872,-1.00916768936771,-0.434216663853534,0.624722873042298,0
3.03999710083008,-1.67742228507996,1.61319494247437,2.43275165557861,-2.10708851762775,2.05919505654068,2.44724525713902,2931.849,2874.264,4122.984,0,-0.2045041,0.1091233,0.2115015,-1.01723957061768,-0.433207929134369,0.643824696540833,-1.00202447609459,-0.431143138740389,0.620300883747801,0
3.05999755859375,-1.69770240783691,1.60466194152832,2.44553208351135,-2.12705600675913,2.05060360379452,2.45960608409476,2890.376,2880.902,4128.198,0,-0.2044898,0.108377,0.210582,-1.01402390003204,-0.426672011613846,0.63902074098587,-0.994638524886308,-0.427965170275055,0.615728628108227,0
3.07999801635742,-1.71791958808899,1.59624886512756,2.45822525024414,-2.14687337079936,2.04207674568107,2.47187397646763,2875.559,2895.664,4099.025,0,-0.2032562,0.1068839,0.2105567,-1.0108505487442,-0.42065092921257,0.634662508964539,-0.987012816387451,-0.424684040945629,0.611007951284564,0
3.09999847412109,-1.73807048797607,1.58795118331909,2.47082567214966,-2.16653584520328,2.033616532251,2.4840459847772,2897.304,2875.651,4069.722,0,-0.2010521,0.1045502,0.211225,-1.00754702091217,-0.414885759353638,0.630016982555389,-0.979150439632689,-0.421301079877433,0.606140765536421,0
3.11999893188477,-1.75816011428833,1.57976269721985,2.48335599899292,-2.18603872829175,2.02522498650551,2.49611919846012,2865.54,2894.66,3981.977,78.44886,-0.197606,0.1015322,0.2123663,-1.00448966026306,-0.40942108631134,0.626520872116089,-0.971054592046769,-0.41781766283301,0.601129050222034,0
3.13999557495117,-1.77818238735199,1.57168364524841,2.49579906463623,-2.20537371089838,2.01690568364676,2.50808847374658,2828.414,2949.277,3923.382,95.38508,-0.1935777,0.0979088,0.2143234,-1.00109481811523,-0.403933882713318,0.622155547142029,-0.962730189199339,-0.414235904844652,0.595975848313175,0
3.15999603271484,-1.79814827442169,1.56370997428894,2.50820255279541,-2.22454360124808,2.00865741537402,2.51995554906156,2733.056,2990.48,3756.455,300.5599,-0.1880069,0.0941411,0.2165417,-0.998293519020081,-0.398699879646301,0.62017560005188,-0.95417746870157,-0.410555908149813,0.590681306902481,0
3.17999649047852,-1.8180319070816,1.55585503578186,2.5204713344574,-2.2435401949712,2.00048371179835,2.53171534550942,2768.666,3008.463,3789.632,187.6701,-0.183087,0.08987375,0.2196101,-0.994179904460907,-0.392720997333527,0.6134432554245,-0.9454015193052,-0.406779862296197,0.585248576169681,0
3.19999694824219,-1.8378814458847,1.54810786247253,2.53278183937073,-2.2623590635174,1.99238647840124,2.54336512160655,2578.351,3046.567,3445.52,684.6267,-0.1750586,0.08622858,0.2216914,-0.992491841316223,-0.387380838394165,0.615523934364319,-0.936405971974636,-0.402909329586355,0.579679903854719,0
3.21999740600586,-1.85760343074799,1.54051220417023,2.54478788375854,-2.28099585204123,1.98436758895103,2.55490218149615,2804.418,3063.056,3841.139,0,-0.1715805,0.081475,0.2258316,-0.986094832420349,-0.379781305789948,0.600298643112183,-0.927194566064376,-0.398945918960059,0.573977604796153,0
3.23999786376953,-1.87737572193146,1.53301453590393,2.55713820457458,-2.29944628156995,1.97642888457015,2.56632387629027,2267.654,3102.123,2852.853,1529.866,-0.1586999,0.07923198,0.225766,-0.988614916801453,-0.374886840581894,0.617510437965393,-0.917771149318993,-0.394891285994308,0.568144060931169,0
3.2599983215332,-1.89696061611176,1.52568173408508,2.56899857521057,-2.31770615117141,1.96857217280235,2.57762760541179,2235.751,3794.659,3615.561,0,-0.1556026,0.07727196,0.2340436,-0.979250371456146,-0.366639107465744,0.593014121055603,-0.908139677873146,-0.390747132903322,0.562181721295578,0
3.27999877929688,-1.91667008399963,1.51845169067383,2.5814528465271,-2.33577134012187,1.96079922667992,2.58881081793642,2169.417,2822.24,2073.426,2669.863,-0.1369014,0.07922409,0.2306411,-0.985472559928894,-0.361504554748535,0.622708022594452,-0.898304216251578,-0.386515208538549,0.556093102023818,0
3.29999542236328,-1.93612146377563,1.51140975952148,2.59316897392273,-2.35363442159312,1.95311324175956,2.5998689163037,1832.319,4414.4,3331.232,0,-0.1351251,0.08213311,0.2405723,-0.972574293613434,-0.352081835269928,0.585803329944611,-0.888270870184445,-0.382198140025101,0.549881982853707,0
3.31999588012695,-1.95574474334717,1.50451600551605,2.6056501865387,-2.37129825777079,1.94551298652277,2.61080367234288,2282.991,2403.463,1413.741,3610.185,-0.1134821,0.08936996,0.2309353,-0.981151342391968,-0.344691336154938,0.624062836170197,-0.878040092225563,-0.377796122084242,0.54354864393762,0
3.33999633789063,-1.97505760192871,1.4978346824646,2.61723804473877,-2.38875555478454,1.93800159931817,2.62161057080077,1407.688,5130.224,2964.123,0,-0.1154699,0.09836576,0.2401603,-0.965643107891083,-0.33405202627182,0.579397737979889,-0.867618167158097,-0.373311858882592,0.53709697585572,0
3.3599967956543,-1.9944714307785,1.49137663841248,2.62940406799316,-2.40600253440574,1.930580705812,2.63228727277387,2659.486,1787.226,1441.117,3748.797,-0.09848316,0.1100251,0.2243512,-0.970690786838531,-0.322914391756058,0.608297348022461,-0.85700959304645,-0.368747285811601,0.530529763124145,0
3.37999725341797,-2.01357054710388,1.48516488075256,2.64076066017151,-2.42303550945299,1.9232518924954,2.64283149572124,1489.845,5141.27,2807.783,0,-0.1055304,0.1230937,0.2269912,-0.954946577548981,-0.310588836669922,0.567827582359314,-0.846218976345105,-0.364104384899943,0.523849857357654,0
3.39999771118164,-2.03256106376648,1.47923672199249,2.65209650993347,-2.43985088596004,1.91601670575165,2.65324101480657,3233.807,1389.524,2572.502,2309.224,-0.103353,0.1347863,0.2081116,-0.949527323246002,-0.296410411596298,0.566788017749786,-0.835251031898626,-0.359385184813519,0.517060177269636,0
3.41999816894531,-2.05127835273743,1.47358012199402,2.66299319267273,-2.45644516534361,1.90887665092339,2.66351366424015,2118.278,4071.182,3214.351,0,-0.1141804,0.1464257,0.1993133,-0.935867011547089,-0.282809555530548,0.544830977916718,-0.824110582941664,-0.354591760855451,0.510163708672097,0
3.43999862670898,-2.06969904899597,1.46820068359375,2.6733705997467,-2.47281494657125,1.90183319137989,2.67364733862088,3342.421,1962.734,4045.154,0,-0.1286104,0.15399,0.1842925,-0.921034693717957,-0.268975168466568,0.518875956535339,-0.812802561098952,-0.34972623496609,0.503163504475677,0
3.45999526977539,-2.08789324760437,1.46304655075073,2.68362474441528,-2.48895387148596,1.89488906285845,2.6836381019467,2612.869,2663.356,4065.953,0,-0.1399449,0.1600989,0.1700177,-0.909705877304077,-0.257714748382568,0.512712955474854,-0.801334209341438,-0.344791723593488,0.49606404842442,0
3.47999572753906,-2.10586404800415,1.45803499221802,2.693852186203,-2.50486489870395,1.88804299234919,2.69348778574196,1880.618,3563.12,3814.035,0,-0.1486821,0.1669899,0.1645332,-0.898544907569885,-0.250577092170715,0.511368989944458,-0.789706299681989,-0.339788558913217,0.488865818431069,0
3.49999618530273,-2.1235716342926,1.45313382148743,2.70379781723022,-2.52054183223243,1.88129764581471,2.703192554392,2287.838,2840.605,4039.283,0,-0.155258,0.1731013,0.1623012,-0.885396540164948,-0.245068803429604,0.497281432151794,-0.777926261338517,-0.334719937510192,0.481573413535413,0
3.51999664306641,-2.14104390144348,1.44833087921143,2.71348762512207,-2.53598168290031,1.87465430941181,2.7127505574575,2883.591,2045.536,4220.846,0,-0.1571095,0.176579,0.1564997,-0.873602211475372,-0.240130677819252,0.484493255615234,-0.765999459475408,-0.329588167864767,0.474190155029786,0
3.53999710083008,-2.15832734107971,1.44358968734741,2.72318029403687,-2.55118156992615,1.86811422266028,2.72216001159753,2617.228,2665.79,3854.347,0,-0.1545688,0.1785208,0.15153,-0.864167511463165,-0.237070515751839,0.48463836312294,-0.753931367647136,-0.324395605094516,0.466719431305148,0
3.55999755859375,-2.17539691925049,1.43888473510742,2.73283267021179,-2.56613872308604,1.86167857751006,2.73141920191151,2323.75,3218.723,3528.096,0,-0.1517245,0.1799397,0.1515885,-0.853487491607666,-0.235244482755661,0.482615888118744,-0.741727567798258,-0.319144650954242,0.459164697851087,0
3.57999801635742,-2.19221353530884,1.43423056602478,2.74221110343933,-2.58085048488145,1.85534851740854,2.74052648328127,2728.642,2612.052,3674.485,0,-0.1502337,0.1794551,0.1516555,-0.840824782848358,-0.232710793614388,0.468916863203049,-0.72939375026341,-0.313837753835969,0.451529477255809,0
3.59999847412109,-2.20879459381104,1.42963743209839,2.75134873390198,-2.59531431270705,1.84912513636775,2.74948028171299,2948.004,2249.78,3785.56,31.81106,-0.1481362,0.1763218,0.1486605,-0.829050064086914,-0.229659482836723,0.456877768039703,-0.716935713767317,-0.308477408768949,0.443817359206151,0
3.61999893188477,-2.22516298294067,1.42509353160858,2.76038599014282,-2.6095277810186,1.84300947803163,2.75827909567923,2572.363,2818.967,3619.242,0,-0.1456051,0.1717162,0.1474554,-0.818435072898865,-0.227190643548965,0.451863765716553,-0.704359365424783,-0.303066157419654,0.436032000487571,0
3.63999557495117,-2.24130773544312,1.42059540748596,2.76926016807556,-2.62348594498176,1.83700367002424,2.76691986409198,2368.729,3030.987,3577.086,0,-0.1438981,0.1661872,0.1500882,-0.807230830192566,-0.224903434514999,0.443703770637512,-0.691673151171832,-0.297607633838406,0.428178629536803,0
3.65999603271484,-2.25723099708557,1.4161536693573,2.77789640426636,-2.63719194552437,1.83110636089208,2.77540453133521,2546.881,2609.607,3707.649,99.35267,-0.1416019,0.1591067,0.153002,-0.79616516828537,-0.222093731164932,0.431809335947037,-0.678878353700696,-0.292102389931838,0.420258040401444,0
3.67999649047852,-2.27298164367676,1.41176187992096,2.78647565841675,-2.65064103434641,1.825319593696,2.783730157985,2334.3,2727.473,3484.751,434.2976,-0.1353173,0.1514224,0.155909,-0.787535846233368,-0.219584688544273,0.42896494269371,-0.665983614869008,-0.28655414404986,0.412275582803033,0
3.69999694824219,-2.28853344917297,1.4074422121048,2.7948260307312,-2.66383127580226,1.81964420129024,2.79189554578451,2422.867,2903.193,3630.98,0,-0.1305247,0.1425317,0.1617035,-0.777594745159149,-0.215994879603386,0.417517393827438,-0.65299527533123,-0.280965624398954,0.404235181908735,0
3.71999740600586,-2.30397415161133,1.40318131446838,2.80331659317017,-2.67676086214623,1.81408096149726,2.79989957565303,2095.544,2843.981,3014.839,1031.136,-0.1184175,0.1343871,0.1658138,-0.772050380706787,-0.213042393326759,0.424530863761902,-0.639919784131907,-0.275339605822821,0.396140829984331,0
3.73999786376953,-2.3192081451416,1.39902496337891,2.81143879890442,-2.68942811570037,1.808630596175,2.80774120902801,2320.675,3149.557,3456.725,0,-0.1121846,0.1252988,0.1745167,-0.761698007583618,-0.207809865474701,0.406107604503632,-0.626763698705669,-0.269678909802388,0.38799658639423,0
3.7599983215332,-2.33441877365112,1.39495444297791,2.82000756263733,-2.70183149102237,1.80329377028414,2.81541948920704,1815.322,2826.274,2206.071,2151.427,-0.09241435,0.1190035,0.1764419,-0.760532915592194,-0.203524902462959,0.428433150053024,-0.613533684877225,-0.263986404455806,0.379806577601466,0
3.77999877929688,-2.34939122200012,1.39102709293365,2.82797360420227,-2.7139695770734,1.79807109095524,2.82293354268985,1920.293,3843.198,3114.348,0,-0.0863317,0.1127786,0.1883802,-0.748623490333557,-0.196366012096405,0.398307234048843,-0.60023651686137,-0.258265004538452,0.371574997167698,0
3.79999542236328,-2.364422082901,1.38724589347839,2.83665108680725,-2.72583886061506,1.79296406983666,2.83028119461452,1709.647,2525.247,1299.205,3466.456,-0.06032433,0.1110538,0.1851851,-0.75154322385788,-0.189053133130074,0.433869898319244,-0.586881630238189,-0.252518769916838,0.363307686166475,0
3.81999588012695,-2.37917804718018,1.38364815711975,2.84445095062256,-2.73744273461857,1.78797124702766,2.83746454539187,1456.437,4613.276,2745.349,0,-0.0568031,0.1103492,0.1981249,-0.73778885602951,-0.179894149303436,0.389993816614151,-0.573470919541002,-0.246748515755721,0.355005817404173,0
3.83999633789063,-2.39402484893799,1.38028883934021,2.85304760932922,-2.74877791451009,1.78309403578861,2.84448156171422,1877.444,1980.133,741.6042,4378.075,-0.02949771,0.1144098,0.1874184,-0.742337644100189,-0.16796487569809,0.429834812879562,-0.560014026276881,-0.240958390526246,0.346675359432959,0
3.8599967956543,-2.40857839584351,1.37715291976929,2.86064529418945,-2.75984354851568,1.77833280261403,2.85133171629293,1125.217,5215.668,2409.767,0,-0.03068388,0.1200554,0.1974487,-0.727692484855652,-0.156799331307411,0.379880249500275,-0.546518158200277,-0.23515149552379,0.33832077419619,0
3.8799934387207,-2.42313289642334,1.37433302402496,2.8687105178833,-2.77063689690088,1.77368872633512,2.85801331310185,2352.221,1362.108,1096.411,4087.17,-0.01142656,0.1281268,0.1801622,-0.727724969387054,-0.140998378396034,0.403261959552765,-0.532993214116031,-0.229332089927533,0.329948189525607,0
3.89999771118164,-2.43739533424377,1.37178432941437,2.87596130371094,-2.78116350015273,1.7691594230351,2.8645297819664,1384.846,4926.264,2399.096,0,-0.01781175,0.1368871,0.1808119,-0.71310430765152,-0.127419874072075,0.362545013427734,-0.519438870577852,-0.223500034567577,0.321557405192552,0
3.91999435424805,-2.45146203041077,1.36955642700195,2.88303542137146,-2.79141491937189,1.76474852373659,2.87087589880588,2892.688,1270.483,2457.716,2145.483,-0.01642371,0.1437532,0.1617493,-0.703336417675018,-0.11139252781868,0.353701561689377,-0.505872997519337,-0.217663018377115,0.313159483537181,0
3.93999862670898,-2.46523237228394,1.36761569976807,2.88970041275024,-2.80139871920582,1.76045277358314,2.87705634649742,2018.804,3668.403,3006.266,0,-0.0266412,0.1494737,0.1511534,-0.688519597053528,-0.0970306098461151,0.333247870206833,-0.492292886511002,-0.21181987599461,0.304752747912623,0
3.95999526977539,-2.47867727279663,1.36592972278595,2.89589285850525,-2.81110718037432,1.75627549396533,2.88306634643886,2727.453,2206.083,3707.23,0,-0.04007791,0.1515494,0.1381506,-0.672242283821106,-0.084311231970787,0.309619665145874,-0.478716643866297,-0.205978398060903,0.296348406989425,0
