t,x_s1,x_s2,x_s3,x_s_d1,x_s_d2,x_s_d3,propellers_rpms1,propellers_rpms2,propellers_rpms3,propellers_rpms4,rollRad,pitchRad,yawRad,v_s1,v_s2,v_s3,v_s_d1,v_s_d2,v_s_d3,insideCount
0,-0.0599999986588955,2.94000005722046,1.17999994754791,-0.0599999986588955,2.94000005722046,1.17999994754791,0,0,0,0,0,0,0,0,0,0,-1.06581410364015E-15,4.44089209850063E-16,4.44089209850063E-16,0
0.0200042724609375,-0.0599999986588955,2.94000005722046,1.17729234695435,-0.0600018701838461,2.93999925195556,1.18000110611101,0,0,0,0,0.0163538,-0.002474609,-2.024222E-05,3.71994488546079E-08,3.50004931704007E-08,-0.135377958416939,-0.000280105751305916,-0.000120521679537258,0.00017339880334547,5
0.0400009155273438,-0.0599999986588955,2.94000005722046,1.17105865478516,-0.0600148724204753,2.93999365745638,1.18000915511487,0,0,0,0,0.03270752,-0.004950816,-5.430172E-05,3.48044650877455E-08,3.30428591155396E-08,-0.311683237552643,-0.00111101934050116,-0.00047804058392963,0.00068777389696065,6
0.0600051879882813,-0.0600004307925701,2.94013142585754,1.16552245616913,-0.0600499046557519,2.93997858406422,1.18003084173732,3161.645,2810.171,1469.512,2738.824,0.03139259,-0.004977448,-0.01632784,-2.15872623812174E-05,0.00656331889331341,-0.276811599731445,-0.00247998555168399,-0.00106706850011317,0.00153522919458695,6
0.0800018310546875,-0.0599182620644569,2.94037842750549,1.16100013256073,-0.0601175574246769,2.93994947496775,1.18007272202403,3028.985,3011.984,2083.463,1979.109,0.01921469,-0.004420315,-0.04309314,0.00410846760496497,0.0123498383909464,-0.226113572716713,-0.00437268608126799,-0.00188144466206175,0.00270690098422899,6
0.0999984741210938,-0.059651929885149,2.94066071510315,1.15742897987366,-0.0602281887669101,2.93990187339187,1.18014120809498,2572.8,3764.09,2528.343,1069.557,-0.005653359,-0.003074353,-0.06910477,0.0133166685700417,0.0141155291348696,-0.178556606173515,-0.00677637982016689,-0.00291568692648091,0.00419490191241918,6
0.120002746582031,-0.059136264026165,2.94084787368774,1.154620885849,-0.0603919599823235,2.93983140721312,1.18024259027882,1989.792,4004.072,3075.55,694.816,-0.03990694,-0.0007073356,-0.08794184,0.0257832985371351,0.0093631949275732,-0.140407741069794,-0.00967921398219614,-0.00416469537060396,0.00599189453988277,5
0.139999389648438,-0.0583610534667969,2.94078660011292,1.15244746208191,-0.0606185767455666,2.93973390035084,1.18038287685052,1381.665,3936.991,3640.933,663.8584,-0.07574669,0.002033688,-0.09641495,0.0387605093419552,-0.00305925961583853,-0.108672179281712,-0.0130660253322238,-0.00562194567796536,0.00808849210174802,4
0.160003662109375,-0.057362075895071,2.94033217430115,1.1509200334549,-0.0609177895434042,2.93960515744296,1.18056810382587,1009.347,3669.353,3950.342,872.3107,-0.1041248,0.003834028,-0.09478989,0.0499488152563572,-0.0227161310613155,-0.0763720571994781,-0.0169265510445065,-0.00728302204135792,0.0104783414199936,4
0.180000305175781,-0.0561949759721756,2.93938517570496,1.1501237154007,-0.0612986871007165,2.9394412678651,1.18080389755851,1011.167,3363.139,3835.494,1161.017,-0.119348,0.003850864,-0.08597589,0.0583550781011581,-0.047345083206892,-0.0398136712610722,-0.0212451141043368,-0.00914117907931815,0.0131517376757159,3
0.200004577636719,-0.0549088940024376,2.93791794776917,1.15010988712311,-0.0617706280683152,2.93923820485124,1.18109605149912,1332.702,3133.191,3353.6,1401.608,-0.1214135,0.00234048,-0.07415678,0.0643040761351585,-0.073357529938221,-0.000691849738359451,-0.026012379510746,-0.0111924002017188,0.0161029020586274,3
0.220001220703125,-0.0535359457135201,2.93597269058228,1.15082955360413,-0.0623420644491781,2.93899233174064,1.18144979784016,1790.29,3014.669,2724.054,1533.273,-0.1151242,0.0002794322,-0.06327511,0.0686474740505219,-0.0972622036933899,0.0359825752675533,-0.03121219533433,-0.0134297356845702,0.019321835755004,3
0.240005493164063,-0.0520958863198757,2.93363213539124,1.1521235704422,-0.0630219993990999,2.93869977472688,1.18187070996396,2171.511,2982.687,2212.847,1547.107,-0.1071544,-0.00133957,-0.05581027,0.072002962231636,-0.117024213075638,0.0647004991769791,-0.0368361158647881,-0.0158495515746756,0.0228033104678445,3
0.260002136230469,-0.0506037920713425,2.93098068237305,1.15377140045166,-0.0638182299684225,2.938357178957,1.18236361461609,2347.845,2985.454,2004.801,1459.805,-0.1029072,-0.001920139,-0.05235508,0.0746047496795654,-0.132568359375,0.0823894441127777,-0.0428675524613532,-0.0184447102433459,0.0265370570382875,3
0.279998779296875,-0.0490740202367306,2.92807531356812,1.1555722951889,-0.0647390625194898,2.93796097043536,1.18293365383054,2308.437,2996.118,2123.008,1298.927,-0.1047155,-0.001325189,-0.05184802,0.0764886662364006,-0.145270794630051,0.0900459215044975,-0.0492963837173861,-0.0212108567320638,0.030516809833474,3
0.300003051757813,-0.0475224703550339,2.92493534088135,1.15741121768951,-0.0657927507678135,2.93750759781875,1.18358593705038,2137.789,3010.91,2441.954,1106.395,-0.1118693,0.0001960683,-0.05227625,0.0775773152709007,-0.156994581222534,0.0919435396790504,-0.0561132031658829,-0.0241439437008635,0.0347367458022363,3
0.319999694824219,-0.0459691733121872,2.92155051231384,1.1592663526535,-0.0669860785243584,2.93699414222283,1.18432466377777,1943.504,3019.649,2792.306,937.1602,-0.1218172,0.002153416,-0.05160886,0.0776650905609131,-0.169246479868889,0.092754602432251,-0.0633008373176985,-0.0272365818771378,0.0391862337367069,3
0.340003967285156,-0.0444393530488014,2.91789531707764,1.16117656230927,-0.0683273092598492,2.93641704810699,1.18515494949472,1803.57,3001.238,3047.908,841.8091,-0.1315037,0.004015825,-0.04861175,0.0764911323785782,-0.182755798101425,0.0955086126923561,-0.0708528993697216,-0.0304860231979345,0.0438613199015142,3
0.360000610351563,-0.0429610796272755,2.91394639015198,1.16320383548737,-0.0698225328270578,2.93577369517774,1.1860805641102,1757.351,2955.494,3148.104,830.5606,-0.1385003,0.005408462,-0.0431496,0.0739137604832649,-0.197443872690201,0.101365603506565,-0.0787518717320621,-0.0338847303337087,0.0487511600740379,3
0.3800048828125,-0.0415607094764709,2.90969371795654,1.16540205478668,-0.0714797725314022,2.93506063123087,1.18710647443246,1802.425,2905.521,3097.301,874.632,-0.1417483,0.006226175,-0.03593669,0.0700185522437096,-0.212629288434982,0.10991171002388,-0.0869921272359981,-0.0374302820709642,0.0538522707687797,3
0.400001525878906,-0.0402593873441219,2.9051456451416,1.16779804229736,-0.0733044112230977,2.93427554017634,1.18823601270221,1908.883,2870.671,2945.41,936.7374,-0.1416738,0.006602787,-0.02807984,0.0650659948587418,-0.227400094270706,0.119800642132759,-0.0955558400788823,-0.0411150084648172,0.0591536169647403,3
0.419998168945313,-0.0390723124146461,2.90032649040222,1.17038238048553,-0.0753034649285836,2.93341540321397,1.18947352217404,2024.904,2858.196,2770.41,988.0935,-0.1397233,0.006794609,-0.02059636,0.0593538880348206,-0.240959271788597,0.129217565059662,-0.104434660908044,-0.0449353170220673,0.0646500300148815,3
0.44000244140625,-0.0380103550851345,2.89526844024658,1.17311835289001,-0.077483988232608,2.93247718495301,1.19082336997196,2110.864,2858.845,2639.394,1016.652,-0.1375581,0.007043118,-0.0141531,0.0530979558825493,-0.252904117107391,0.136796742677689,-0.113620829717891,-0.048887868829098,0.0703367061060819,3
0.459999084472656,-0.0370821580290794,2.89000344276428,1.17595744132996,-0.0798502821969742,2.93145903476675,1.19228821865812,2148.388,2867.506,2591.01,1011.618,-0.1364646,0.007497818,-0.008925318,0.0464096404612064,-0.263252526521683,0.141953006386757,-0.123096124252221,-0.0529648233581361,0.0762023647937057,3
0.480003356933594,-0.0362960547208786,2.88455677032471,1.17885768413544,-0.0824098964715798,2.93035770425173,1.19387274182544,2140.607,2876.515,2625.857,978.6809,-0.1369994,0.008197337,-0.004676511,0.0393049754202366,-0.272338449954987,0.145013421773911,-0.132856662250146,-0.057164510180779,0.0822446027733248,4
0.5,-0.0356612801551819,2.87894415855408,1.1817969083786,-0.085166398670376,2.92917165836334,1.1955791479969,2109.282,2883.869,2713.354,927.419,-0.139034,0.00908651,-0.0009369001,0.0317392945289612,-0.280629336833954,0.146959647536278,-0.142884000065179,-0.0614789935111996,0.0884520025491718,4
0.520004272460938,-0.0351882725954056,2.8731734752655,1.18477177619934,-0.088127196023106,2.92789770997757,1.19741202260058,2072.024,2888.401,2818.278,872.919,-0.1420019,0.01006277,0.00281129,0.0236500296741724,-0.288531243801117,0.148742273449898,-0.153174893518032,-0.065906877469682,0.0948225558197254,4
0.540000915527344,-0.0348887480795383,2.86724710464478,1.18779611587524,-0.0912951145137283,2.92653464315245,1.19937311505516,2047.352,2885.581,2904.528,834.2251,-0.1451418,0.01101676,0.006901206,0.0149763841181993,-0.296322822570801,0.151218891143799,-0.163710711144578,-0.0704401454577151,0.101344728821151,4
0.560005187988281,-0.0347744971513748,2.86116552352905,1.19088935852051,-0.0946774438086223,2.9250793213482,1.20146693801139,2041.356,2881.517,2957.069,811.1204,-0.1478459,0.01187129,0.01147576,0.0057127820327878,-0.304078310728073,0.15466445684433,-0.174488813605259,-0.0750776618412222,0.108016887676534,4
0.580001831054688,-0.0348566174507141,2.85493063926697,1.19407272338867,-0.0982762614093182,2.92353085067394,1.20369477754168,2056.308,2874.779,2968.364,809.718,-0.149749,0.01259406,0.01642998,-0.00410635024309158,-0.31175023317337,0.159168973565102,-0.185490414529404,-0.0798113433697334,0.11482740272751,4
0.599998474121094,-0.0351443104445934,2.8485472202301,1.19735908508301,-0.102097262171133,2.92188678079254,1.20606015903275,2084.127,2874.233,2952.787,814.267,-0.1508766,0.01319895,0.02158244,-0.0143844736739993,-0.319174855947495,0.16431525349617,-0.196709126405959,-0.0846384416756885,0.121772319800455,4
0.620002746582031,-0.0356449000537395,2.84202289581299,1.20075511932373,-0.106146271928021,2.92014460501038,1.20856668895334,2116.452,2874.419,2922.168,828.3074,-0.1514417,0.01372799,0.02667453,-0.0250297635793686,-0.326213747262955,0.169804662466049,-0.208139001499973,-0.0895563976148993,0.128847956964108,4
0.639999389648438,-0.0363637022674084,2.83536791801453,1.20425879955292,-0.110424235525481,2.91830391678686,1.21121495220784,2146.393,2881.681,2896.224,833.2651,-0.1518481,0.01422916,0.03154347,-0.0359399989247322,-0.332750022411346,0.17518575489521,-0.219761081350814,-0.0945570538913933,0.136042578028218,4
0.660003662109375,-0.03730483725667,2.8285927772522,1.20786368846893,-0.114938248900541,2.91636166293851,1.21400934151928,2164.937,2887.509,2886.412,836.5541,-0.1524042,0.01474438,0.03608883,-0.0470569618046284,-0.338759332895279,0.180242314934731,-0.231574097577923,-0.0996398647564507,0.143355397804799,4
0.680000305175781,-0.0384719297289848,2.82170677185059,1.21156370639801,-0.119688496929273,2.91431776391831,1.21694997133476,2176.958,2894.44,2894.274,829.8215,-0.1533176,0.01529418,0.04030807,-0.0583545006811619,-0.344294935464859,0.185002475976944,-0.243559016194652,-0.104796640417365,0.150774633349401,4
0.700004577636719,-0.0398683473467827,2.81471800804138,1.21535348892212,-0.124682034788652,2.91216918408072,1.22004120914491,2180.948,2901.119,2920.95,814.3717,-0.1546615,0.01588211,0.04429072,-0.0698208063840866,-0.349437892436981,0.189486771821976,-0.255715062526221,-0.110027047553219,0.158299805101433,4
0.720001220703125,-0.0414979755878448,2.80763173103333,1.21923410892487,-0.129918284978346,2.90991617190799,1.22328269744952,2183.48,2903.981,2953.629,800.1589,-0.1563265,0.01649772,0.04811159,-0.0814819633960724,-0.354316353797913,0.194032698869705,-0.268023157655716,-0.11532287703907,0.16591910230247,4
0.739997863769531,-0.0433645956218243,2.80045175552368,1.22320711612701,-0.135402141159277,2.90755662179454,1.22667746565781,2186.65,2909.007,2991.626,778.2908,-0.1582136,0.01712409,0.05189734,-0.0933308228850365,-0.359000623226166,0.198650360107422,-0.280478211503383,-0.120681938755799,0.173629373950669,5
0.760002136230469,-0.0454724989831448,2.79317998886108,1.22728037834167,-0.14113868194985,2.90508834855275,1.23022865767651,2192.606,2908.527,3020.868,768.7576,-0.1601012,0.01774697,0.05566611,-0.105394907295704,-0.363582581281662,0.20366407930851,-0.293075466693575,-0.12610218573757,0.181427675003881,5
0.779998779296875,-0.0478252954781055,2.78581857681274,1.23145961761475,-0.147126184485884,2.90251209348295,1.23393520697061,2205.671,2913.788,3044.48,751.4567,-0.1619468,0.01835324,0.0594711,-0.117640152573586,-0.368068963289261,0.208962604403496,-0.305795832832518,-0.131575403921268,0.189302187598958,5
0.800003051757813,-0.0504264272749424,2.77836918830872,1.23575127124786,-0.153371683173492,2.89982482987671,1.2378014681726,2217.777,2914.345,3059.992,747.9518,-0.163647,0.01894443,0.06326993,-0.130056381225586,-0.37247371673584,0.214582234621048,-0.318639638509124,-0.13710173468952,0.197253115148089,5
0.819999694824219,-0.0532786138355732,2.77083349227905,1.24016046524048,-0.159872691993147,2.89702762739878,1.24182590231796,2235.726,2918.999,3069.185,740.652,-0.1652348,0.01952209,0.06703147,-0.142609193921089,-0.376783549785614,0.220459997653961,-0.331587821991737,-0.142672976311719,0.205268657531342,5
0.840003967285156,-0.0563837625086308,2.76321411132813,1.24468886852264,-0.166636266402775,2.89411745028271,1.24601287707125,2251.434,2923.607,3078.952,734.9042,-0.166773,0.02009487,0.07072672,-0.155257344245911,-0.38097220659256,0.226420596241951,-0.344641102544584,-0.148289438267168,0.213349260007538,5
0.860000610351563,-0.0597435720264912,2.75551295280457,1.24933969974518,-0.173659158941841,2.89109569582005,1.2503603820997,2267.608,2927.375,3086.23,732.6248,-0.1682985,0.0206718,0.07430129,-0.167991563677788,-0.385052710771561,0.232540875673294,-0.357780475378537,-0.153942943326036,0.221483157706883,5
0.8800048828125,-0.0633588433265686,2.74773287773132,1.25411081314087,-0.180948461186242,2.88795931270381,1.25487280742661,2281.984,2934.257,3102.096,720.2845,-0.1699294,0.0212575,0.07778187,-0.180762648582458,-0.388998001813889,0.238555163145065,-0.371007022483504,-0.159633957038354,0.229671020432672,5
0.900001525878906,-0.0672308802604675,2.73987555503845,1.2590057849884,-0.188500167066783,2.88471002463366,1.2595476731043,2294.143,2935.828,3115.162,719.4868,-0.171613,0.02186067,0.08111674,-0.193601533770561,-0.392866492271423,0.244749486446381,-0.384301823631742,-0.165354338558695,0.237901135662636,5
0.919998168945313,-0.0713598728179932,2.73194289207458,1.26402127742767,-0.196318384305134,2.8813460641717,1.26438752200817,2307.645,2943.722,3139.708,699.0414,-0.1734677,0.02247613,0.08438917,-0.206450030207634,-0.396628528833389,0.250775456428528,-0.397661187980262,-0.171102499820431,0.246171218589148,5
0.94000244140625,-0.0757473260164261,2.72393536567688,1.26916301250458,-0.204407453948074,2.87786556348678,1.26939504145298,2316.927,2942.272,3157.171,700.6727,-0.1753276,0.02311254,0.08753523,-0.219373270869255,-0.400371551513672,0.257087051868439,-0.411081631631503,-0.176876941799768,0.254479112513653,5
0.959999084472656,-0.0803933292627335,2.71585416793823,1.27442908287048,-0.212762239776093,2.87427073255068,1.27456705187416,2333.982,2951.457,3182.563,675.0623,-0.1773324,0.02375562,0.09065776,-0.232300415635109,-0.404058188199997,0.2633056640625,-0.424544411524882,-0.18266959988136,0.262813214588797,5
0.980003356933594,-0.0852991044521332,2.70769906044006,1.27982461452484,-0.221389982382338,2.87055845593844,1.2799080355438,2342.283,2949.02,3201.553,677.2816,-0.1792952,0.02441678,0.09369033,-0.245288610458374,-0.40775728225708,0.269776254892349,-0.438051398499298,-0.18848127903492,0.271174682952979,5
1,-0.0904647707939148,2.69947028160095,1.28534972667694,-0.230284798736574,2.86673126495361,1.28541435058594,2360.597,2956.468,3223.465,656.015,-0.1813171,0.02508372,0.09669788,-0.25828430056572,-0.411440551280975,0.276257693767548,-0.451584000205995,-0.194303979492187,0.279552008056641,5
1.02000427246094,-0.095891073346138,2.69116735458374,1.29100799560547,-0.239454009753966,2.86278600961093,1.2910905289958,2371.918,2956.352,3241.317,653.8622,-0.1832921,0.02576512,0.09963554,-0.271313190460205,-0.415141493082047,0.282913029193878,-0.465144357597929,-0.200138622445408,0.287946515251652,5
1.04000091552734,-0.101577907800674,2.68279051780701,1.29680061340332,-0.24889099213045,2.8587255397331,1.29693247063265,2389.922,2962.062,3259.311,638.7538,-0.1852862,0.02645454,0.1025275,-0.284343004226685,-0.418845623731613,0.28962978720665,-0.478714054341683,-0.205977283860805,0.296346803950333,5
1.06000518798828,-0.107525303959846,2.67433929443359,1.30272853374481,-0.258603157406353,2.85454666634136,1.30294476359303,2403.145,2964.074,3277.671,631.8555,-0.1872714,0.02715733,0.105357,-0.297370225191116,-0.42255625128746,0.296398401260376,-0.492295476531527,-0.211820990408084,0.304754351258706,5
1.08000183105469,-0.113733232021332,2.6658136844635,1.30879414081573,-0.268583149539609,2.85025255453512,1.30912285413647,2419.599,2967.814,3293.615,622.6091,-0.1892575,0.02787368,0.108114,-0.310395449399948,-0.426284521818161,0.303281098604202,-0.50587040849135,-0.217661904390701,0.313157880805523,5
1.09999847412109,-0.120200872421265,2.65721368789673,1.31499576568604,-0.278834517009062,2.84584167750307,1.31546893894041,2434.327,2971.844,3315.102,608.9034,-0.1912911,0.02860206,0.1108236,-0.32338273525238,-0.43000453710556,0.310082405805588,-0.519436284009554,-0.223498921639497,0.321555803983559,5
1.12000274658203,-0.126928374171257,2.64853858947754,1.32133722305298,-0.289361068555186,2.84131239645058,1.32198537579665,2447.804,2972.676,3330.927,606.0134,-0.1932901,0.02934975,0.1134409,-0.336375802755356,-0.433760017156601,0.317071080207825,-0.532990631455731,-0.229330978680957,0.329946590735853,5
1.13999938964844,-0.133914634585381,2.63978838920593,1.32781636714935,-0.300154365346813,2.83666834237095,1.3286669406667,2466.396,2979.394,3352.782,585.3759,-0.1953748,0.0301056,0.1160255,-0.349313318729401,-0.437510788440704,0.32395738363266,-0.546515580872639,-0.235150386571708,0.338319178707607,5
1.16000366210938,-0.141159489750862,2.63096237182617,1.33443558216095,-0.311222084148811,2.83190621216671,1.33551838583369,2476.866,2978.452,3371.511,584.3046,-0.197426,0.03088199,0.1185287,-0.36224177479744,-0.441296458244324,0.330962091684341,-0.560014026276883,-0.240958390526247,0.34667535943296,6
1.18000030517578,-0.148661985993385,2.62206053733826,1.3411945104599,-0.322555076427271,2.82702994219644,1.34253404791935,2495.433,2983.882,3392.54,566.0502,-0.1995208,0.0316688,0.1209916,-0.375125378370285,-0.445096254348755,0.337947398424149,-0.573468357077025,-0.246747413199059,0.355004231116904,6
1.20000457763672,-0.156421557068825,2.61308217048645,1.34809410572052,-0.334161138043845,2.82203617811866,1.3497187529334,2507.927,2984.536,3413.023,559.3542,-0.201597,0.0324716,0.123396,-0.387979567050934,-0.448923945426941,0.344978123903275,-0.586881630238192,-0.252518769916838,0.363307686166476,6
1.22000122070313,-0.16443757712841,2.60402655601501,1.355135679245,-0.346030421585499,2.81692915700008,1.35706640485806,2525.161,2988.108,3431.526,546.9164,-0.203669,0.03328667,0.1257482,-0.400801002979279,-0.452784031629562,0.352081567049026,-0.600236516861372,-0.258265004538453,0.371574997167698,6
1.23999786376953,-0.172708824276924,2.59489345550537,1.36231780052185,-0.358166167196084,2.81170748469733,1.36457900949675,2539.842,2990.597,3454.136,533.6146,-0.2057532,0.03411195,0.1280663,-0.413561522960663,-0.456652909517288,0.359106749296188,-0.613531154887641,-0.263985315871967,0.379805011417393,6
1.26000213623047,-0.18123497068882,2.58568215370178,1.36964380741119,-0.370571882958536,2.80636965178032,1.3722587385199,2554.125,2991.377,3470.302,529.3228,-0.2077713,0.03495451,0.1303116,-0.426306039094925,-0.460568368434906,0.36630243062973,-0.626763698705669,-0.269678909802388,0.38799658639423,6
1.27999877929688,-0.190014287829399,2.57639241218567,1.37711143493652,-0.383236695417198,2.80092033679326,1.3800988607405,2573.559,2997.127,3491.731,508.8017,-0.2098416,0.03580059,0.1325371,-0.438967853784561,-0.464483648538589,0.373379617929459,-0.639917282339435,-0.275338529371412,0.396139281255613,6
1.30000305175781,-0.199046239256859,2.56702375411987,1.38472247123718,-0.396168722856641,2.79535604666509,1.38810440176341,2584.391,2996.039,3509.511,507.8687,-0.2118481,0.0366644,0.1346926,-0.451596826314926,-0.468432664871216,0.380551278591156,-0.652995275331231,-0.280965624398954,0.404235181908735,6
1.31999969482422,-0.208329275250435,2.55757594108582,1.39247584342957,-0.409356423791328,2.7896817473746,1.39626821685929,2603.623,3000.927,3529.663,489.6507,-0.2138779,0.03753382,0.1368157,-0.464152097702026,-0.472387045621872,0.387667417526245,-0.665981146317813,-0.286553081901244,0.412274054652251,6
1.34000396728516,-0.217862293124199,2.54804873466492,1.40037167072296,-0.422808053134535,2.78389388706324,1.40459541621271,2616.081,3001.202,3549.394,483.311,-0.215871,0.03841561,0.1388862,-0.476651608943939,-0.47635605931282,0.394792526960373,-0.678878353700697,-0.292102389931837,0.420258040401443,6
1.36000061035156,-0.227644175291061,2.5384418964386,1.4084107875824,-0.436511415158101,2.77799771321212,1.41307845008695,2633.367,3004.409,3567.139,471.047,-0.2178476,0.03930641,0.1409094,-0.489093899726868,-0.480342119932175,0.401958346366882,-0.691670720740693,-0.297606588091785,0.42817712498415,6
1.3800048828125,-0.237673074007034,2.52875566482544,1.41659069061279,-0.450474904562636,2.77198961381608,1.4217225152016,2648.013,3006.367,3589.843,457.1881,-0.2198296,0.04020198,0.1429063,-0.501445651054382,-0.484314471483231,0.408995538949966,-0.704361775018035,-0.303067194200314,0.436033492140578,6
1.40000152587891,-0.247948586940765,2.51898908615112,1.42491543292999,-0.464685685951852,2.76587511158757,1.43051966583492,2662.117,3007.112,3603.349,454.8079,-0.2217289,0.0411124,0.1448292,-0.513773322105408,-0.488326698541641,0.416236877441406,-0.716935713767318,-0.308477408768949,0.443817359206152,7
1.41999816894531,-0.258467614650726,2.50914359092712,1.43337774276733,-0.47914673136562,2.75965292774086,1.43947174182117,2680.702,3011.826,3631.155,428.1877,-0.2237061,0.04201544,0.1467677,-0.525953114032745,-0.492278784513474,0.423117935657501,-0.729391385793766,-0.313836736470737,0.451528013536465,7
1.44000244140625,-0.269230961799622,2.49921751022339,1.4419869184494,-0.493861275572861,2.75332167044526,1.4485807456364,2688.588,3008.291,3638.725,442.3857,-0.2254872,0.04294556,0.1485875,-0.538167238235474,-0.496307373046875,0.430458039045334,-0.741727567798258,-0.319144650954242,0.459164697851088,7
1.45999908447266,-0.28023424744606,2.48921298980713,1.45073091983795,-0.508815552717244,2.74688726276417,1.45783815555978,2715.681,3018.493,3670.164,397.0017,-0.2274579,0.04384954,0.1504733,-0.550164699554443,-0.500226676464081,0.437199085950851,-0.753929052770513,-0.324394609067776,0.466717998286247,7
1.48000335693359,-0.291479170322418,2.47912788391113,1.45962285995483,-0.524018315758597,2.74034593854351,1.46724939009041,2714.659,3009.911,3672.696,430.1873,-0.2291357,0.04479389,0.1521991,-0.562245488166809,-0.504253506660461,0.444596767425537,-0.765999459475408,-0.329588167864767,0.474190155029787,7
1.5,-0.302959859371185,2.46896576881409,1.46864485740662,-0.539455198877605,2.73370387899399,1.4768055561018,2748.205,3023.467,3711.228,366.7337,-0.2310985,0.04569516,0.1540403,-0.574034512042999,-0.508108556270599,0.451101660728455,-0.777924000354858,-0.334718964672088,0.481572013878822,7
1.52000427246094,-0.31467992067337,2.4587230682373,1.47781825065613,-0.555135099954955,2.72695725560613,1.48651216180595,2739.555,3010.818,3703.265,422.4681,-0.2326223,0.04665558,0.1556567,-0.586003720760345,-0.512136220932007,0.458671599626541,-0.789706299681991,-0.339788558913217,0.48886581843107,7
1.54000091552734,-0.326630562543869,2.44840550422668,1.48711359500885,-0.571043070329722,2.72011250037111,1.49635995326965,2783.48,3030.052,3755.423,327.39,-0.2346266,0.04754043,0.1574864,-0.597533404827118,-0.515878140926361,0.464769959449768,-0.801332006385301,-0.344790775723006,0.496062684689629,7
1.55999755859375,-0.338819354772568,2.43800687789917,1.49656820297241,-0.587181951496087,2.71316839067337,1.50635068951315,2759.403,3009.416,3727.12,428.0328,-0.2359097,0.04852484,0.1589622,-0.609437763690948,-0.519929587841034,0.47272777557373,-0.812800388649436,-0.349725300221754,0.503162159625937,7
1.58000183105469,-0.351231455802917,2.42753744125366,1.50612890720367,-0.60355483331529,2.70612359703193,1.51648628330776,2823.532,3038.849,3808.594,269.8846,-0.2380578,0.04937029,0.1608433,-0.620605766773224,-0.523467719554901,0.478033781051636,-0.824110582941666,-0.354591760855452,0.510163708672098,7
1.59999847412109,-0.363883137702942,2.41698479652405,1.51586866378784,-0.620145926473056,2.69898491314762,1.52675696031579,2770.029,3004.205,3733.457,464.0283,-0.2388978,0.05040427,0.1620898,-0.632587254047394,-0.527636766433716,0.486985743045807,-0.835248923368005,-0.359384277571697,0.517058871988737,7
1.62000274658203,-0.376746296882629,2.40636897087097,1.52568089962006,-0.636964489205914,2.69174835545992,1.53716845182668,2878.774,3055.421,3881.265,166.4288,-0.2414981,0.05115708,0.1641688,-0.643154740333557,-0.530791461467743,0.490609228610992,-0.846218976345106,-0.364104384899943,0.523849857357655,7
1.63999938964844,-0.389856457710266,2.39566349983215,1.53571486473083,-0.653994195024907,2.68442094880091,1.54771065096602,2754.157,2987.42,3710.13,568.8963,-0.2414704,0.05230613,0.1649985,-0.655508935451508,-0.535276293754578,0.501696884632111,-0.857007552155828,-0.368746407673381,0.530528499715628,7
1.66000366210938,-0.40315905213356,2.38490676879883,1.54576456546783,-0.671244443874359,2.67699864863716,1.55838937674714,2942.407,3103.989,3971.869,0,-0.2448782,0.0529651,0.1675764,-0.665129363536835,-0.537838637828827,0.50248509645462,-0.867618167158098,-0.373311858882592,0.53709697585572,7
1.68000030517578,-0.416724443435669,2.37404823303223,1.55611050128937,-0.688698391434734,2.66948870260877,1.56919420173384,2709.529,2949.296,3635.646,776.7014,-0.2433719,0.05438321,0.1677178,-0.678269922733307,-0.54293167591095,0.517296671867371,-0.878038122530658,-0.377795274579551,0.543547424602645,7
1.70000457763672,-0.430469214916229,2.36313533782959,1.56646883487701,-0.706365577065784,2.66188700619576,1.58013103124422,2821.023,3343.603,3888.919,0,-0.2463616,0.05581203,0.171384,-0.687238991260529,-0.545640587806702,0.517913937568665,-0.888270870184447,-0.382198140025102,0.549881982853708,8
1.72000122070313,-0.444464206695557,2.35212802886963,1.57709157466888,-0.724228658537036,2.6542010212754,1.5911891296115,2794.787,2848.215,3607.871,855.9967,-0.2446359,0.05787886,0.1712477,-0.699749171733856,-0.550364911556244,0.531136393547058,-0.898304216251578,-0.386515208538549,0.556093102023817,8
1.73999786376953,-0.4586281478405,2.34107828140259,1.58770096302032,-0.742290383213093,2.64642956573347,1.60237019758524,2900.772,3280.102,3914.425,0,-0.2477528,0.05977614,0.1739497,-0.708197474479675,-0.55248349905014,0.530470967292786,-0.908137821269591,-0.39074633405868,0.562180571969536,8
1.76000213623047,-0.473035037517548,2.32994604110718,1.59856247901917,-0.76055371708895,2.63857136338517,1.61367607125764,2862.209,2834.474,3661.032,791.4117,-0.2466194,0.06214709,0.172838,-0.720345795154572,-0.556607186794281,0.543078660964966,-0.917771149318994,-0.394891285994308,0.568144060931169,8
1.77999877929688,-0.48760798573494,2.31877398490906,1.60943114757538,-0.779000609654483,2.63063418086074,1.62509557650306,2880.135,3334.079,3921.334,0,-0.2500538,0.06448677,0.1749336,-0.728650510311127,-0.558597981929779,0.543433904647827,-0.927192788821983,-0.398945154262308,0.57397650459845,8
1.80000305175781,-0.502402007579803,2.30753588676453,1.62048888206482,-0.797640935141499,2.62261376955408,1.63663482594136,2947.237,2813.819,3796.83,619.8577,-0.2504884,0.06695986,0.1737158,-0.739695250988007,-0.561903476715088,0.552886009216309,-0.936405971974637,-0.402909329586356,0.579679903854719,8
1.81999969482422,-0.517363846302032,2.29626107215881,1.63156795501709,-0.816456197270346,2.61451808789761,1.64828236949435,2947.573,3201.162,4025.112,0,-0.2541508,0.06921988,0.1747307,-0.748093783855438,-0.563735902309418,0.553952157497406,-0.945399824400851,-0.406779133026206,0.585247526943151,8
1.84000396728516,-0.532535135746002,2.28492760658264,1.64280736446381,-0.835456397410825,2.6063428325813,1.66004439848636,2995.899,2846.477,3955.736,408.7614,-0.2555777,0.07138113,0.1736019,-0.7585608959198,-0.566668152809143,0.561971366405487,-0.95417746870157,-0.410555908149813,0.59068130690248,8
1.86000061035156,-0.547880709171295,2.27355003356934,1.65410554409027,-0.854622615239374,2.59809614449182,1.6719092003358,2960.852,3151.873,4093.553,0,-0.258814,0.07335084,0.1744063,-0.767277598381042,-0.568877458572388,0.564907729625702,-0.962728579444532,-0.414235212212131,0.595974851798267,8
1.8800048828125,-0.563422024250031,2.26211619377136,1.66553068161011,-0.873964974649439,2.58977366760063,1.68388304221498,3041.725,2876.073,4079.626,230.6178,-0.2606436,0.07503293,0.1740496,-0.777066171169281,-0.571695923805237,0.571254670619965,-0.971056158224177,-0.417818336715394,0.601130019760457,8
1.90000152587891,-0.579141199588776,2.25063228607178,1.67703282833099,-0.893464153455626,2.58138371570432,1.69595396277071,3028.387,3041.921,4163.94,0,-0.2631523,0.07637936,0.174774,-0.785959601402283,-0.57419341802597,0.57510769367218,-0.979150439632688,-0.421301079877433,0.606140765536421,8
1.91999816894531,-0.595051407814026,2.23908805847168,1.68866169452667,-0.913122862707269,2.57292512231409,1.70812364027167,3050.528,2929.818,4133.773,137.7069,-0.264511,0.07744691,0.1751167,-0.79551500082016,-0.577214002609253,0.5814448595047,-0.987011339258123,-0.424683405378145,0.611007036871143,8
1.94000244140625,-0.611137986183167,2.22748827934265,1.70037794113159,-0.932943991899774,2.5643966441608,1.72039386345315,3051.261,3028.698,4178.47,0,-0.2661824,0.0781966,0.1763785,-0.804327845573425,-0.579985797405243,0.585810601711273,-0.994638524886308,-0.427965170275055,0.615728628108227,9
1.95999908447266,-0.627411901950836,2.21582365036011,1.71222734451294,-0.952907658613767,2.55580683609405,1.73275232415044,3045.437,2965.748,4116.887,147.6721,-0.266674,0.07878579,0.1774112,-0.81369286775589,-0.583233892917633,0.592467606067657,-1.00202309041976,-0.431142542523221,0.620300025949072,9
1.98000335693359,-0.643853485584259,2.20410537719727,1.72415065765381,-0.973024270010337,2.54715122020317,1.74520546489201,3077.35,3029.377,4175.439,0,-0.2677526,0.07905596,0.1792535,-0.822082698345184,-0.585910379886627,0.596165180206299,-1.00916768936771,-0.434216663853535,0.624722873042297,9
2,-0.660483300685883,2.19231963157654,1.73622786998749,-0.993273599084619,2.53843849960327,1.7577407641983,3022.262,2988.119,4057.091,237.2833,-0.2671609,0.07938337,0.1805632,-0.831490635871887,-0.589291036128998,0.603862404823303,-1.01606400046349,-0.437183953857422,0.628992018127441,9
2.02000427246094,-0.677269279956818,2.18048691749573,1.74835956096649,-1.01366615605493,2.52966415204104,1.77036472839513,3069.378,3090.873,4146.96,0,-0.2678677,0.07948884,0.1830317,-0.839300572872162,-0.591632664203644,0.606581926345825,-1.02271452148052,-0.440045487257004,0.633109007445237,9
2.04000091552734,-0.694243609905243,2.16858959197998,1.76066088676453,-1.0341813929022,2.52083701875502,1.78306463727984,3010.072,2984.331,3987.024,353.8695,-0.2664061,0.07983567,0.1843203,-0.848712384700775,-0.594863414764404,0.615065157413483,-1.02911152474823,-0.442797939051516,0.637069057199471,9
2.05999755859375,-0.711361587047577,2.15665793418884,1.77299177646637,-1.05482201812353,2.5119559343546,1.79584216754118,3061.7,3147.655,4124.371,0,-0.2670176,0.08003033,0.1870893,-0.855899035930634,-0.596588611602783,0.616545736789703,-1.03525504859546,-0.445441325732794,0.640872191117535,9
2.08000183105469,-0.728667438030243,2.14467024803162,1.78550326824188,-1.07559088172821,2.50301967256038,1.80869908347065,3010.655,2967.826,3937.243,450.4053,-0.2650388,0.08057947,0.1880226,-0.865297079086304,-0.599383056163788,0.625577569007874,-1.04114485287423,-0.447975543971863,0.644518260536375,9
2.09999847412109,-0.746107041835785,2.13266181945801,1.79802799224854,-1.09646699912883,2.4940372624541,1.82162239460902,3046.832,3206.952,4106.085,0,-0.2657233,0.08105353,0.1908007,-0.871979713439941,-0.600418150424957,0.626237988471985,-1.04677411523768,-0.450397658303471,0.648003042098304,9
2.12000274658203,-0.763729691505432,2.12061166763306,1.81072747707367,-1.11746110947495,2.48500408327971,1.83461874900143,3032.965,2943.301,3928.217,487.8467,-0.2637685,0.08186555,0.1912941,-0.881131768226624,-0.602504670619965,0.634975969791412,-1.05214490868305,-0.452708560680417,0.651327819087362,9
2.13999938964844,-0.781479060649872,2.10855484008789,1.82343089580536,-1.138551967509,2.47592927627801,1.8476749948214,3044.637,3225.572,4113.238,0,-0.2646245,0.08261943,0.1937325,-0.887464702129364,-0.602827131748199,0.635170817375183,-1.05725102347782,-0.454905579228273,0.654488747383304,9
2.16000366210938,-0.799403786659241,2.09647297859192,1.83629441261292,-1.15975039167652,2.46680818657414,1.86079782920208,3065.687,2925.82,3961.786,459.2274,-0.2630431,0.08360481,0.1938124,-0.896237134933472,-0.604109942913055,0.643174111843109,-1.0620943502576,-0.456989527434725,0.657486997379635,9
2.18000030517578,-0.81745171546936,2.08439564704895,1.8491644859314,-1.18103490068612,2.45765005696766,1.87397395420079,3045.63,3222.708,4133.724,0,-0.2640024,0.08453788,0.1958133,-0.902399063110352,-0.60387122631073,0.643503367900848,-1.06666929835407,-0.458957999791384,0.660319108186354,10
2.20000457763672,-0.835663735866547,2.07230830192566,1.86216914653778,-1.20241638486008,2.44845020165711,1.88721011144582,3103.395,2916.603,4027.192,377.2915,-0.262976,0.08553322,0.1957147,-0.910601437091827,-0.604367434978485,0.650231719017029,-1.07097756992209,-0.460811728687929,0.662986133518392,10
2.22000122070313,-0.853997945785522,2.06023406982422,1.8751894235611,-1.22387315175433,2.43921795429519,1.90049287228091,3063.823,3183.016,4168.057,0,-0.26389,0.08642855,0.1972496,-0.916712045669556,-0.603717625141144,0.651016056537628,-1.07501419914593,-0.462548577472581,0.665484999299265,10
2.23999786376953,-0.872484028339386,2.04816269874573,1.8883181810379,-1.24540792547886,2.42995214277345,1.91382392305993,3132.763,2924.145,4103.402,269.4279,-0.263335,0.08722456,0.1972189,-0.924302160739899,-0.603569626808167,0.656436145305634,-1.07877930973132,-0.464168599372462,0.667815782108711,10
2.26000213623047,-0.891091883182526,2.03610944747925,1.90147411823273,-1.26702351885107,2.42065155681516,1.92720500505083,3084.855,3133.392,4203.487,0,-0.2640034,0.087867,0.1984724,-0.930393695831299,-0.602663218975067,0.657798230648041,-1.08227271937422,-0.465671715947234,0.669978369091845,10
2.27999877929688,-0.909840703010559,2.02406764030457,1.91471970081329,-1.28869796983554,2.41132564607061,1.9406225227075,3147.081,2945.265,4160.552,177.1802,-0.2636055,0.08831252,0.1987392,-0.937443554401398,-0.602093935012817,0.662282168865204,-1.08549040888332,-0.467056197851165,0.67197027217779,10
2.30000305175781,-0.928708910942078,2.01204752922058,1.92799878120422,-1.31044231452835,2.40196966201596,1.95408330789913,3104.204,3091.167,4227.937,0,-0.2638894,0.08855528,0.1999868,-0.943412601947784,-0.601010084152222,0.663955867290497,-1.08843358680109,-0.468322565086307,0.673792239511894,10
2.31999969482422,-0.94771021604538,2.0000433921814,1.94135916233063,-1.33223444283894,2.39259311800549,1.96757367342642,3139.392,2970.865,4182.456,135.4608,-0.2632205,0.08860822,0.2006526,-0.950056850910187,-0.600205540657043,0.668021380901337,-1.09109887036509,-0.469469362144493,0.675442177003072,10
2.34000396728516,-0.966825067996979,1.98806488513947,1.95475101470947,-1.35408543512393,2.38319124647132,1.98110047855794,3117.125,3070.317,4234.051,0,-0.263034,0.08842568,0.2021333,-0.955744504928589,-0.598922967910767,0.66959136724472,-1.09348726343002,-0.470497020956358,0.676920706085208,10
2.36000061035156,-0.986068069934845,1.9761049747467,1.96822822093964,-1.37597305876702,2.37377361348711,1.99464996024512,3115.96,2995.794,4159.59,154.83,-0.2617301,0.08815414,0.2031448,-0.962149381637573,-0.59799325466156,0.673859715461731,-1.09559602313537,-0.471404361345641,0.678226128796969,10
2.37999725341797,-1.00541484355927,1.96417689323425,1.98172318935394,-1.39790005743958,2.36433903852774,2.00822381695123,3116.456,3079.949,4221.088,0,-0.2611299,0.08764347,0.2050207,-0.967335820198059,-0.596391022205353,0.67475152015686,-1.09742530100382,-0.472191448508328,0.679358538938131,10
2.40000152587891,-1.02488768100739,1.95227026939392,1.99531841278076,-1.4198692197338,2.35488632173988,2.02182377494768,3081.083,3011.441,4096.536,236.0234,-0.2589573,0.08721965,0.2061802,-0.973655343055725,-0.5953449010849,0.679758667945862,-1.09897493039424,-0.472858210743393,0.680317833349887,10
2.41999816894531,-1.04445064067841,1.94040489196777,2.00890851020813,-1.44185817738692,2.34542508756209,2.03543598721428,3100.543,3121.672,4189.941,0,-0.2580933,0.08658332,0.208484,-0.978150427341461,-0.5932697057724,0.679509103298187,-1.10024313330221,-0.473403883025206,0.681102911362803,10
2.44000244140625,-1.06413996219635,1.92856454849243,2.02261829376221,-1.46387808506052,2.33595053645515,2.04906735901791,3046.598,3013.129,4007.569,357.0471,-0.2550685,0.08622776,0.2095176,-0.984453022480011,-0.592016875743866,0.685493290424347,-1.10123038958312,-0.473828671822132,0.681714070030222,10
2.45999908447266,-1.08390188217163,1.91677868366241,2.0362913608551,-1.48590651627916,2.32647231790489,2.06270400730194,3067.37,3183.555,4154.432,0,-0.254163,0.08571044,0.2121547,-0.988095104694366,-0.58929443359375,0.683657109737396,-1.10193556692257,-0.474132089930926,0.682150608395601,10
2.48000335693359,-1.10379040241241,1.90502429008484,2.0501070022583,-1.50795464064698,2.31698562594271,2.07635284658344,3019.489,2998.402,3909.593,495.3673,-0.2504144,0.08564757,0.2127502,-0.994432866573334,-0.587713360786438,0.690778613090515,-1.10235893238473,-0.47431425226183,0.68241269178437,10
2.5,-1.1237336397171,1.8933390378952,2.06385231018066,-1.52999999932945,2.30750012397766,2.08999997377396,3017.115,3264.334,4114.638,0,-0.2496644,0.08550625,0.2155792,-0.997156262397766,-0.584264099597931,0.687267422676086,-1.10250000050292,-0.474374949932098,0.682500019669533,10
2.52000427246094,-1.14380145072937,1.88169550895691,2.07775449752808,-1.55205376834272,2.29801100328223,2.10365230735988,3009.946,2964.113,3826.04,617.4112,-0.2455163,0.08590632,0.2155163,-1.00339388847351,-0.582180857658386,0.695106506347656,-1.10235882472314,-0.474314205938057,0.682412625136718,11
2.54000091552734,-1.16390645503998,1.87013566493988,2.09155654907227,-1.57409348237975,2.28852793005043,2.11729594024597,2968.31,3333.847,4081.394,0,-0.2450897,0.08629323,0.2182518,-1.00524175167084,-0.577985048294067,0.690105676651001,-1.10193556692257,-0.474132089930926,0.682150608395601,11
2.55999755859375,-1.18412888050079,1.8586311340332,2.10551452636719,-1.59612191359838,2.27904971150017,2.13093258853001,3021,2919.233,3781.805,683.9418,-0.2410198,0.08717922,0.217428,-1.01112353801727,-0.575227439403534,0.697894990444183,-1.10123038958312,-0.473828671822132,0.681714070030222,11
2.58000183105469,-1.20437383651733,1.84722399711609,2.11935329437256,-1.61814182127198,2.26957516039323,2.14456396033363,2928.13,3375.295,4063.344,0,-0.2410028,0.08809176,0.219784,-1.01225638389587,-0.570364117622375,0.691941857337952,-1.10024313330221,-0.473403883025206,0.681102911362804,11
2.59999847412109,-1.22472333908081,1.83588695526123,2.13332891464233,-1.64013077892511,2.26011392621545,2.15817617260023,3050.28,2874.771,3789.876,671.3016,-0.2375039,0.0893252,0.2182987,-1.01746940612793,-0.566848158836365,0.698776364326477,-1.09897493039424,-0.472858210743393,0.680317833349887,11
2.62000274658203,-1.24508571624756,1.82465708255768,2.14718079566956,-1.66209994121933,2.25066120942759,2.17177613059669,2906.72,3373.625,4064.705,0,-0.2378757,0.09058084,0.2200709,-1.01811873912811,-0.561494410037994,0.692588746547699,-1.09742530100382,-0.472191448508328,0.679358538938131,11
2.63999938964844,-1.2655326128006,1.81351268291473,2.16113042831421,-1.68402693989188,2.24122663446822,2.18534998730279,3085.512,2839.866,3857.369,574.8945,-0.2353004,0.09187851,0.2182312,-1.02234280109406,-0.557228863239288,0.697477400302887,-1.09559602313537,-0.471404361345641,0.67822612879697,11
2.66000366210938,-1.28598892688751,1.80248022079468,2.17496848106384,-1.70592290617745,2.23180541187802,2.19890463348308,2914.456,3317.352,4087.094,0,-0.2358453,0.09312683,0.2193191,-1.02281451225281,-0.551618635654449,0.691902637481689,-1.09348640563071,-0.470496651869278,0.67692017506657,10
2.68000030517578,-1.30650639533997,1.79154551029205,2.1888542175293,-1.72776555581996,2.22240712994983,2.2124262741215,3116.043,2830.279,3967.1,408.1149,-0.2342863,0.09409898,0.217582,-1.02587878704071,-0.546741604804993,0.694285035133362,-1.09109887036509,-0.469469362144494,0.675442177003072,9
2.70000457763672,-1.32703471183777,1.78072333335876,2.20265197753906,-1.74956598821573,2.2130270129235,2.22592178027309,2946.467,3216.793,4125.373,0,-0.2346836,0.09489272,0.2181113,-1.02641355991364,-0.541109979152679,0.689888298511505,-1.08843251702753,-0.468322104792631,0.6737915772711,9
2.72000122070313,-1.34760320186615,1.77000522613525,2.21645212173462,-1.77130202882336,2.20367460188472,2.23937742484041,3122.46,2852.789,4079.809,226.026,-0.2338016,0.09517056,0.216959,-1.02841877937317,-0.535892486572266,0.690002918243408,-1.08549040888332,-0.467056197851165,0.671970272177789,8
2.73999786376953,-1.36818504333496,1.75939702987671,2.23018860816956,-1.79297647980783,2.19434869114016,2.25279494249708,2987.05,3104.69,4163.113,0,-0.2336785,0.09511954,0.2173167,-1.02909326553345,-0.530416190624237,0.686820864677429,-1.08227271937422,-0.465671715947234,0.669978369091845,8
2.76000213623047,-1.38879311084747,1.74889326095581,2.24390292167664,-1.81459207318004,2.18504810518187,2.26617602448799,3090.715,2901.405,4145.537,102.7737,-0.2327033,0.09450111,0.2170926,-1.03039944171906,-0.525186896324158,0.685711026191711,-1.07877930973132,-0.464168599372462,0.667815782108711,6
2.77999877929688,-1.40941441059113,1.73849523067474,2.25756669044495,-1.83612684690458,2.17578229366013,2.27950707526701,3021.226,3020.739,4176.806,0,-0.2317573,0.0934168,0.2177953,-1.03107368946075,-0.519905924797058,0.683187246322632,-1.07501419914593,-0.462548577472581,0.665484999299265,5
2.80000305175781,-1.43005836009979,1.728196144104,2.27121639251709,-1.85759178470316,2.16654653058634,2.29279489428112,3018.432,2963.8,4117.63,103.8083,-0.2297482,0.09196235,0.2185385,-1.03219854831696,-0.514953315258026,0.682479918003082,-1.07097597819164,-0.460811043810786,0.662985148161422,5
2.81999969482422,-1.45070719718933,1.71800231933594,2.28480172157288,-1.87896509797278,2.15735019098767,2.30602599334712,3024.231,3001.507,4155.74,0,-0.2279101,0.08996983,0.2200948,-1.03244411945343,-0.509688675403595,0.679267227649689,-1.06666929835407,-0.458957999791384,0.660319108186353,4
2.84000396728516,-1.47138833999634,1.7078982591629,2.29842519760132,-1.90025771011236,2.14818857483073,2.3192071345693,2910.392,3019.79,3962.747,281.3642,-0.2238983,0.08808353,0.2214072,-1.03405773639679,-0.50520396232605,0.681170046329498,-1.06209255378819,-0.456988754464129,0.657485885279497,3
2.86000061035156,-1.49205279350281,1.69790554046631,2.31193470954895,-1.9214480311499,2.13907097167731,2.33232495272651,2967.067,3089.369,4086.84,0,-0.221379,0.08572081,0.2242337,-1.03323745727539,-0.49963453412056,0.675471544265747,-1.05725102347782,-0.454905579228273,0.654488747383304,2
2.87999725341797,-1.51277184486389,1.68799340724945,2.32557487487793,-1.94253888918396,2.12999616467562,2.34538119854648,2788.75,3039.997,3676.65,647.0667,-0.214703,0.08415205,0.2253152,-1.03594136238098,-0.495601803064346,0.682010531425476,-1.05214490868305,-0.452708560680416,0.651327819087361,1
2.90000152587891,-1.53343856334686,1.67820715904236,2.3390109539032,-1.96353299953007,2.12096298550123,2.3583775529389,2836.104,3291.536,3976.01,0,-0.2120244,0.08231259,0.2295261,-1.03333389759064,-0.489319533109665,0.671801447868347,-1.04677411523767,-0.450397658303471,0.648003042098304,0
2.91999816894531,-1.55418980121613,1.66849780082703,2.35270023345947,-1.98440911693069,2.11198057539494,2.37130086407726,2686.354,2999.348,3289.098,1160.991,-0.202567,0.08202133,0.2292467,-1.03756070137024,-0.485463440418243,0.684458792209625,-1.04114485287423,-0.447975543971863,0.644518260536375,0
2.94000244140625,-1.5748416185379,1.65893459320068,2.36606431007385,-2.00517798053537,2.10304431360073,2.38415778000673,2626.069,3604.592,3830.045,0,-0.2005366,0.08181977,0.23463,-1.03258848190308,-0.47816264629364,0.66820627450943,-1.03525504859546,-0.445441325732794,0.640872191117535,0
2.95999908447266,-1.59560453891754,1.64945733547211,2.37979316711426,-2.02581860575671,2.0941632292003,2.39693531026807,2643.254,2867.214,2892.865,1713.654,-0.189053,0.08371912,0.2318557,-1.03814721107483,-0.47386509180069,0.686446964740753,-1.02911152474823,-0.442797939051516,0.637069057199471,0
2.98000335693359,-1.61621952056885,1.64014863967896,2.3930778503418,-2.04634164528706,2.08533273863774,2.40964004938531,2386.319,3955.746,3671.448,0,-0.1885582,0.08611678,0.2375968,-1.03075194358826,-0.465428858995438,0.66423487663269,-1.02271203275434,-0.440044416427654,0.633107466805174,0
3,-1.63694739341736,1.63095235824585,2.40676474571228,-2.06672639957428,2.07656174835205,2.42225918334961,2704.808,2642.187,2646.382,2091.914,-0.1770549,0.09057394,0.2316225,-1.03639590740204,-0.459823131561279,0.684349954128265,-1.01606400046349,-0.437183953857422,0.628992018127441,0
3.02000427246094,-1.65749335289001,1.62194538116455,2.41994404792786,-2.0869834279768,2.06784571494631,2.43479924890685,2214.119,4203.953,3544.949,0,-0.178819,0.09580015,0.236173,-1.02730476856232,-0.450349092483521,0.658963859081268,-1.00916501115878,-0.434215511495054,0.624721215103391,0
3.04000091552734,-1.67810523509979,1.61309146881104,2.43341827392578,-2.10709234004513,2.05919341186127,2.44724762339747,2888.638,2376.473,2744.836,2018.716,-0.1705989,0.102107,0.2273139,-1.03058862686157,-0.442701637744904,0.673714578151703,-1.00202309041976,-0.43114254252322,0.620300025949072,0
3.05999755859375,-1.69853079319,1.60444164276123,2.4464316368103,-2.12705600675913,2.05060360379452,2.45960608409476,2231.081,4146.001,3535.94,0,-0.1747204,0.1090688,0.2285707,-1.02128303050995,-0.432491838932037,0.65066659450531,-0.994638524886308,-0.427965170275055,0.615728628108227,0
3.08000183105469,-1.7189234495163,1.59598612785339,2.45947527885437,-2.14687713595163,2.04207512564123,2.47187630727625,3151.384,2204.106,3297.3,1288.79,-0.1733595,0.115238,0.2185797,-1.01962292194366,-0.422768592834473,0.652186751365662,-0.987011339258122,-0.424683405378145,0.611007036871143,0
3.09999847412109,-1.73916065692902,1.587735414505,2.47222495079041,-2.16653584520328,2.033616532251,2.4840459847772,2470.574,3658.826,3736.136,0,-0.1788968,0.1214673,0.2151257,-1.01186037063599,-0.412537753582001,0.637486279010773,-0.979150439632689,-0.421301079877433,0.606140765536421,0
3.12000274658203,-1.75925433635712,1.57970142364502,2.48468828201294,-2.18604243256806,2.0252233926589,2.49612149158362,3368.494,2271.505,4163.469,29.91196,-0.1856799,0.1248666,0.2069885,-1.00469374656677,-0.401697158813477,0.623163461685181,-0.971053025860989,-0.417816988947023,0.601128080678429,0
3.13999938964844,-1.77925217151642,1.57184505462646,2.49708294868469,-2.20537738341953,2.01690410346351,2.50809074721212,2797.965,2892.921,4123.647,0,-0.1905588,0.127459,0.2000333,-0.999883711338043,-0.392809152603149,0.619738161563873,-0.962728579444533,-0.414235212212131,0.595974851798267,0
3.16000366210938,-1.79914283752441,1.56412398815155,2.50941491127014,-2.22455088103183,2.00865428308644,2.51996005559448,2445.525,3284.061,4020.95,0,-0.1938563,0.130314,0.1978564,-0.994525492191315,-0.386058479547501,0.616604149341583,-0.954174163352092,-0.410554485950274,0.590679260733698,0
3.18000030517578,-1.81890213489532,1.55652689933777,2.52156901359558,-2.24354380138856,2.00048216005771,2.53171757805356,2752.775,2812.809,4129.575,0,-0.1956949,0.1323076,0.1967041,-0.987967848777771,-0.379854083061218,0.607701480388641,-0.94539982440085,-0.406779133026206,0.58524752694315,0
3.19999694824219,-1.83854734897614,1.54904508590698,2.53358554840088,-2.2623590635174,1.99238647840124,2.54336512160655,2976.49,2548.983,4149.286,0,-0.1951522,0.1327791,0.1942219,-0.982268154621124,-0.374101430177689,0.600823521614075,-0.936405971974636,-0.402909329586355,0.579679903854719,0
3.22000122070313,-1.85809350013733,1.5416579246521,2.54555034637451,-2.28099938900442,1.98436606709459,2.55490437104486,2799.397,2875.849,3974.881,0,-0.1927404,0.1323941,0.1928585,-0.977299869060516,-0.369360327720642,0.598245441913605,-0.927192788821982,-0.398945154262308,0.573976504598449,0
3.23999786376953,-1.87752079963684,1.53435802459717,2.55741715431213,-2.29944628156995,1.97642888457015,2.56632387629027,2740.392,2990.233,3877.486,0,-0.1900687,0.1312874,0.1934643,-0.971366107463837,-0.364981085062027,0.593341767787933,-0.917771149318993,-0.394891285994308,0.568144060931169,0
3.26000213623047,-1.89681422710419,1.52715408802032,2.56911635398865,-2.31770961544581,1.96857068222185,2.57762974996267,2917.037,2737.468,3923.852,0,-0.1876058,0.1287922,0.1939534,-0.964676380157471,-0.360195994377136,0.584965467453003,-0.90813782126959,-0.39074633405868,0.562180571969535,0
3.27999877929688,-1.91599154472351,1.52004289627075,2.58071255683899,-2.33577134012187,1.96079922667992,2.58881081793642,2845.948,2766.605,3841.316,114.5042,-0.1841283,0.1252196,0.1941298,-0.958863437175751,-0.355563431978226,0.57981264591217,-0.898304216251578,-0.386515208538549,0.556093102023818,0
3.30000305175781,-1.93503904342651,1.51302909851074,2.59215950965881,-2.35364119854729,1.95311032582551,2.59987311156116,2742.879,2942.681,3858.739,0,-0.1812105,0.1207272,0.1960081,-0.952375948429108,-0.350686252117157,0.572344958782196,-0.888267004546666,-0.382196476749158,0.549879589839776,0
3.31999969482422,-1.953981757164,1.50610637664795,2.60354042053223,-2.37130160722417,1.94551154534655,2.61080574581408,2645.257,2896.59,3701.62,291.8173,-0.1763742,0.1158454,0.1981185,-0.947133839130402,-0.346142500638962,0.569040536880493,-0.878038122530657,-0.377795274579551,0.543547424602645,0
3.34000396728516,-1.97278845310211,1.49929356575012,2.61471605300903,-2.38876217417054,1.9379987511813,2.62161466851603,2700.905,2926.828,3844.723,36.96922,-0.1726698,0.1100412,0.2018217,-0.940342366695404,-0.340649157762527,0.558779776096344,-0.867614155697521,-0.373310132863173,0.537094492570531,0
3.36000061035156,-1.99154233932495,1.49256610870361,2.62599277496338,-2.406005803634,1.93057929915441,2.6322892965819,2400.456,2973.476,3342.044,809.415,-0.163427,0.1050873,0.2042722,-0.93768185377121,-0.336371570825577,0.563830435276031,-0.857007552155826,-0.36874640767338,0.530528499715627,0
3.37999725341797,-2.01013565063477,1.48596787452698,2.63694787025452,-2.42303550945299,1.9232518924954,2.64283149572124,2530.28,3209.633,3729.969,0,-0.1588165,0.0995198,0.2107356,-0.929674863815308,-0.329901933670044,0.547753155231476,-0.846218976345105,-0.364104384899943,0.523849857357654,0
3.40000152587891,-2.0287504196167,1.47945713996887,2.6482560634613,-2.43985407218584,1.9160153348077,2.65324298723213,2187.18,2938.607,2691.256,1704.665,-0.1434693,0.09637914,0.2116031,-0.930742561817169,-0.325559973716736,0.565410077571869,-0.835248923368004,-0.359384277571698,0.517058871988738,0
3.41999816894531,-2.04715752601624,1.47310137748718,2.6590473651886,-2.45644516534361,1.90887665092339,2.66351366424015,2187.132,3755.942,3474.41,0,-0.1387805,0.09333741,0.2208346,-0.920338034629822,-0.317769289016724,0.539569318294525,-0.824110582941664,-0.354591760855451,0.510163708672097,0
3.44000244140625,-2.06566023826599,1.46685910224915,2.67044472694397,-2.47281804716281,1.90183185728196,2.67364925803476,2091.219,2726.257,1890.209,2805.668,-0.1179455,0.094108,0.2175923,-0.925143599510193,-0.312114804983139,0.569862604141235,-0.812800388649434,-0.349725300221754,0.503162159625937,0
3.45999908447266,-2.08389472961426,1.46080350875854,2.68108415603638,-2.48895692832918,1.89488774758421,2.68363999427827,1744.254,4454.591,3152.794,0,-0.1153261,0.09580138,0.2282989,-0.911724150180817,-0.302774548530579,0.531967222690582,-0.801332006385299,-0.344790775723006,0.496062684689628,0
3.48000335693359,-2.10226225852966,1.45492172241211,2.69245934486389,-2.50487092366784,1.88804039997555,2.69349151548162,2184.492,2297.216,1284.237,3719.606,-0.09254591,0.1017286,0.2188625,-0.918359994888306,-0.294095426797867,0.568755686283112,-0.78970183472369,-0.339786637766397,0.488863054409187,0
3.5,-2.12031888961792,1.44925785064697,2.70292687416077,-2.5205447997813,1.88129636896134,2.70319439144611,1368.531,5079.949,2830.53,0,-0.09411292,0.1092339,0.2282406,-0.902840316295624,-0.283212631940842,0.523380935192108,-0.777924000354857,-0.334718964672089,0.481572013878822,0
3.52000427246094,-2.1384379863739,1.44384360313416,2.71392488479614,-2.53598752699493,1.87465179486116,2.71275417523047,2546.343,1709.747,1396.592,3759.332,-0.07663779,0.1193019,0.2127455,-0.905942618846893,-0.270694196224213,0.549898505210876,-0.765994882555673,-0.32958619854407,0.474187321698442,0
3.54000091552734,-2.15624642372131,1.43868434429169,2.72412157058716,-2.55118444594166,1.86811298519115,2.72216179198813,1464.819,5036.73,2718.826,0,-0.08303949,0.1305576,0.2153122,-0.890417814254761,-0.257964670658112,0.509836375713348,-0.753929052770513,-0.324394609067776,0.466717998286246,0
3.55999755859375,-2.17392063140869,1.4338219165802,2.73426222801208,-2.56613872308604,1.86167857751006,2.73141920191151,3097.822,1382.781,2540.078,2260.785,-0.08035716,0.1404059,0.1972129,-0.883712828159332,-0.243120312690735,0.507028579711914,-0.741727567798258,-0.319144650954242,0.459164697851087,0
3.58000183105469,-2.19131565093994,1.42923879623413,2.74396562576294,-2.58085326729328,1.85534732021446,2.74052820572674,2084.918,3944.162,3157.528,0,-0.0902018,0.1498795,0.1887075,-0.869747042655945,-0.229156196117401,0.485172927379608,-0.729391385793765,-0.313836736470737,0.451528013536464,0
3.59999847412109,-2.20840692520142,1.42493188381195,2.75315809249878,-2.59531431270705,1.84912513636775,2.74948028171299,3199.913,1982.785,3951.236,0,-0.1034137,0.155273,0.1746563,-0.854571402072906,-0.215346306562424,0.459626793861389,-0.716935713767317,-0.308477408768949,0.443817359206151,0
3.62000274658203,-2.22525405883789,1.42085552215576,2.76222062110901,-2.60953046793176,1.84300832192796,2.75828075900647,2518.421,2635.909,3971.294,0,-0.1136472,0.1589458,0.161621,-0.842352747917175,-0.203832134604454,0.453131139278412,-0.704356955827444,-0.303065120637236,0.436030508832034,0
3.63999938964844,-2.24186086654663,1.41693377494812,2.77124452590942,-2.6234885835008,1.83700253474321,2.76692149746096,1817.778,3490.931,3736.943,0,-0.1214231,0.1630227,0.1573133,-0.830343127250671,-0.196079134941101,0.451192200183868,-0.691670720740692,-0.297606588091786,0.428177124984152,0
3.66000366210938,-2.25819611549377,1.41313362121582,2.77998089790344,-2.63719712493647,1.83110413233575,2.77540773763803,2210.078,2779.303,3970.293,0,-0.1269587,0.1660155,0.1562813,-0.816759347915649,-0.190005093812943,0.436815083026886,-0.678873453515702,-0.29210028151913,0.420255006953505,0
3.68000030517578,-2.27428865432739,1.40944409370422,2.78846669197083,-2.65064357486757,1.82531850058072,2.78373173068862,2796.4,2008.299,4139.403,0,-0.1276331,0.1661064,0.1518211,-0.804618358612061,-0.184460997581482,0.424295395612717,-0.665981146317811,-0.286553081901244,0.412274054652249,0
3.69999694824219,-2.29018259048462,1.40583634376526,2.79695725440979,-2.66383127580226,1.81964420129024,2.79189554578451,2523.045,2638.447,3771.414,0,-0.1239339,0.1644041,0.148425,-0.79469907283783,-0.180395737290382,0.424527794122696,-0.65299527533123,-0.280965624398954,0.404235181908735,0
3.72000122070313,-2.30585765838623,1.40229058265686,2.80539655685425,-2.6767633032417,1.81407991116207,2.79990108680742,2247.403,3150.144,3471.106,0,-0.1198859,0.1618624,0.1500054,-0.783766448497772,-0.177290573716164,0.421969056129456,-0.639917282339434,-0.275338529371411,0.396139281255611,0
3.73999786376953,-2.32128477096558,1.39881944656372,2.8135621547699,-2.68942811570037,1.808630596175,2.80774120902801,2670.562,2526.257,3620.407,0,-0.1168888,0.1570489,0.1513424,-0.771340250968933,-0.173562675714493,0.408284395933151,-0.626763698705669,-0.269678909802388,0.38799658639423,0
3.76000213623047,-2.33651924133301,1.39541447162628,2.82171559333801,-2.70183383146282,1.803292763258,2.81542093805117,2412.882,2567.757,3242.794,607.215,-0.1093036,0.1512651,0.1504778,-0.761726796627045,-0.17025138437748,0.407674759626389,-0.613531154887639,-0.263985315871967,0.379805011417393,0
3.77999877929688,-2.35151338577271,1.3920886516571,2.82961654663086,-2.7139695770734,1.79807109095524,2.82293354268985,2305.731,3118.44,3358.942,0,-0.1056503,0.1443561,0.1541076,-0.749704480171204,-0.166288703680038,0.395050883293152,-0.60023651686137,-0.258265004538452,0.371574997167698,0
3.80000305175781,-2.36632823944092,1.38883829116821,2.8375198841095,-2.72584333814708,1.79296214327972,2.83028396642013,2185.967,2706.281,2957.487,946.3453,-0.09710471,0.1374146,0.155414,-0.740742206573486,-0.162513986229897,0.39516544342041,-0.586876524285838,-0.252516572968186,0.363304525338741,0
3.81999969482422,-2.38089489936829,1.38569116592407,2.84501814842224,-2.73744492223163,1.78797030575888,2.83746589962856,2353.756,2981.708,3414.279,0,-0.09425513,0.1289917,0.1602655,-0.728330969810486,-0.15734951198101,0.37491700053215,-0.573468357077023,-0.246747413199059,0.355004231116903,0
3.84000396728516,-2.3953549861908,1.38263332843781,2.85280203819275,-2.74878218705843,1.78309219743042,2.84448420662517,1824.582,2791.364,2456.918,1737.881,-0.08033053,0.1223669,0.1605218,-0.723000824451447,-0.152906641364098,0.389195054769516,-0.560008885098766,-0.240956178420931,0.346672176798797,0
3.86000061035156,-2.40955972671509,1.37969493865967,2.86005973815918,-2.75984563331209,1.77833190558438,2.85133300688122,1890.982,3656.03,3163.48,0,-0.07707028,0.1155931,0.1699673,-0.71023553609848,-0.14691536128521,0.362879723310471,-0.546515580872635,-0.235150386571708,0.338319178707605,0
3.87999725341797,-2.42372107505798,1.37687790393829,2.86779093742371,-2.77063893010371,1.77368785150474,2.85801457175126,1708.318,2509.51,1816.011,2771.622,-0.05709604,0.112009,0.1681898,-0.708080530166626,-0.140865311026573,0.386561989784241,-0.532990631455729,-0.229330978680956,0.329946590735853,0
3.90000152587891,-2.43761372566223,1.37421131134033,2.87479662895203,-2.78116548164984,1.76915857045225,2.8645310086075,1704.904,4034.116,2927.931,0,-0.05386616,0.1086187,0.1784083,-0.694632709026337,-0.133324176073074,0.350283265113831,-0.519436284009554,-0.223498921639498,0.32155580398356,0
3.91999816894531,-2.45151114463806,1.37173080444336,2.88243126869202,-2.79141684911929,1.7647476934202,2.87087709341145,1804.596,2183.388,1263.215,3546.442,-0.03049746,0.1089236,0.1710355,-0.694862961769104,-0.124033607542515,0.381735891103745,-0.505870408491346,-0.2176619043907,0.313157880805522,0
3.94000244140625,-2.46512818336487,1.36943364143372,2.8892228603363,-2.8014005971492,1.76045196555656,2.87705750903383,1384.028,4630.817,2597.719,0,-0.02979438,0.1101339,0.1802272,-0.680855870246887,-0.114851213991642,0.339577257633209,-0.492290296490434,-0.211818761581115,0.30475114456651,0
3.95999908447266,-2.4787175655365,1.36738753318787,2.89649868011475,-2.81110900652845,1.75627470822223,2.88306747691526,2094.756,1733.134,1233.052,3681.938,-0.009967679,0.1139945,0.1674744,-0.679466962814331,-0.1023128926754,0.363793581724167,-0.478714054341681,-0.205977283860804,0.296346803950332,0
