t,x_s1,x_s2,x_s3,x_s_d1,x_s_d2,x_s_d3,propellers_rpms1,propellers_rpms2,propellers_rpms3,propellers_rpms4,rollRad,pitchRad,yawRad,v_s1,v_s2,v_s3,v_s_d1,v_s_d2,v_s_d3,insideCount
0,-0.0599999986588955,2.94000005722046,1.17999994754791,-0.0599999986588955,2.94000005722046,1.17999994754791,0,0,0,0,0,0,0,0,0,0,-1.06581410364015E-15,4.44089209850063E-16,4.44089209850063E-16,0
0.0200042724609375,-0.0599999986588955,2.94000005722046,1.17729234695435,-0.0600018701838461,2.93999925195556,1.18000110611101,0,0,0,0,0.0163538,-0.002474609,-2.024222E-05,3.71994488546079E-08,3.50004931704007E-08,-0.135377958416939,-0.000280105751305916,-0.000120521679537258,0.00017339880334547,5
0.0400009155273438,-0.0599999986588955,2.94000005722046,1.17105865478516,-0.0600148724204753,2.93999365745638,1.18000915511487,0,0,0,0,0.03270752,-0.004950816,-5.430172E-05,3.48044650877455E-08,3.30428591155396E-08,-0.311683237552643,-0.00111101934050116,-0.00047804058392963,0.00068777389696065,6
0.0600051879882813,-0.0600004307925701,2.94013142585754,1.16552245616913,-0.0600499046557519,2.93997858406422,1.18003084173732,3161.645,2810.171,1469.512,2738.824,0.03139259,-0.004977448,-0.01632784,-2.15872623812174E-05,0.00656331889331341,-0.276811599731445,-0.00247998555168399,-0.00106706850011317,0.00153522919458695,6
0.0800018310546875,-0.0599182620644569,2.94037842750549,1.16100013256073,-0.0601175574246769,2.93994947496775,1.18007272202403,3028.985,3011.984,2083.463,1979.109,0.01921469,-0.004420315,-0.04309314,0.00410846760496497,0.0123498383909464,-0.226113572716713,-0.00437268608126799,-0.00188144466206175,0.00270690098422899,6
0.0999984741210938,-0.059651929885149,2.94066071510315,1.15742897987366,-0.0602281887669101,2.93990187339187,1.18014120809498,2572.8,3764.09,2528.343,1069.557,-0.005653359,-0.003074353,-0.06910477,0.0133166685700417,0.0141155291348696,-0.178556606173515,-0.00677637982016689,-0.00291568692648091,0.00419490191241918,6
0.120002746582031,-0.059136264026165,2.94084787368774,1.154620885849,-0.0603919599823235,2.93983140721312,1.18024259027882,1989.792,4004.072,3075.55,694.816,-0.03990694,-0.0007073356,-0.08794184,0.0257832985371351,0.0093631949275732,-0.140407741069794,-0.00967921398219614,-0.00416469537060396,0.00599189453988277,5
0.139999389648438,-0.0583610534667969,2.94078660011292,1.15244746208191,-0.0606185767455666,2.93973390035084,1.18038287685052,1381.665,3936.991,3640.933,663.8584,-0.07574669,0.002033688,-0.09641495,0.0387605093419552,-0.00305925961583853,-0.108672179281712,-0.0130660253322238,-0.00562194567796536,0.00808849210174802,4
0.160003662109375,-0.057362075895071,2.94033217430115,1.1509200334549,-0.0609177895434042,2.93960515744296,1.18056810382587,1009.347,3669.353,3950.342,872.3107,-0.1041248,0.003834028,-0.09478989,0.0499488152563572,-0.0227161310613155,-0.0763720571994781,-0.0169265510445065,-0.00728302204135792,0.0104783414199936,4
0.180000305175781,-0.0561949759721756,2.93938517570496,1.1501237154007,-0.0612986871007165,2.9394412678651,1.18080389755851,1011.167,3363.139,3835.494,1161.017,-0.119348,0.003850864,-0.08597589,0.0583550781011581,-0.047345083206892,-0.0398136712610722,-0.0212451141043368,-0.00914117907931815,0.0131517376757159,3
0.200004577636719,-0.0549088940024376,2.93791794776917,1.15010988712311,-0.0617706280683152,2.93923820485124,1.18109605149912,1332.702,3133.191,3353.6,1401.608,-0.1214135,0.00234048,-0.07415678,0.0643040761351585,-0.073357529938221,-0.000691849738359451,-0.026012379510746,-0.0111924002017188,0.0161029020586274,3
0.220001220703125,-0.0535359457135201,2.93597269058228,1.15082955360413,-0.0623420644491781,2.93899233174064,1.18144979784016,1790.29,3014.669,2724.054,1533.273,-0.1151242,0.0002794322,-0.06327511,0.0686474740505219,-0.0972622036933899,0.0359825752675533,-0.03121219533433,-0.0134297356845702,0.019321835755004,3
0.239997863769531,-0.0520958863198757,2.93363213539124,1.1521235704422,-0.0630217183703222,2.93869989564571,1.18187053599376,2171.511,2982.687,2212.847,1547.107,-0.1071544,-0.00133957,-0.05581027,0.072002962231636,-0.117024213075638,0.0647004991769791,-0.0368338920540454,-0.0158485947310391,0.02280193382306,3
0.260002136230469,-0.0506037957966328,2.93098068237305,1.15377128124237,-0.0638182299684225,2.938357178957,1.18236361461609,2347.531,2985.416,2005.001,1459.942,-0.1029045,-0.001919606,-0.05235455,0.0746044740080833,-0.132567837834358,0.0823845341801643,-0.0428675524613532,-0.0184447102433459,0.0265370570382875,3
0.279998779296875,-0.0490740202367306,2.92807531356812,1.15557241439819,-0.0647390625194898,2.93796097043536,1.18293365383054,2309.076,2996.046,2122.605,1298.791,-0.1047123,-0.001325189,-0.05184961,0.0764887258410454,-0.145271331071854,0.0900558307766914,-0.0492963837173861,-0.0212108567320638,0.030516809833474,3
0.300003051757813,-0.0475224629044533,2.92493534088135,1.15741121768951,-0.0657927507678135,2.93750759781875,1.18358593705038,2137.59,3011.23,2442.009,1106.168,-0.1118709,0.0001959894,-0.05227625,0.0775779411196709,-0.156993299722672,0.0919413045048714,-0.0561132031658829,-0.0241439437008635,0.0347367458022363,3
0.319999694824219,-0.0459691546857357,2.92155051231384,1.15926623344421,-0.0669860785243584,2.93699414222283,1.18432466377777,1943.354,3019.349,2792.402,937.5249,-0.1218183,0.002153577,-0.05160993,0.0776654854416847,-0.169245466589928,0.092751756310463,-0.0633008373176985,-0.0272365818771378,0.0391862337367069,3
0.340003967285156,-0.0444393269717693,2.91789531707764,1.16117632389069,-0.0683273092598492,2.93641704810699,1.18515494949472,1803.54,3001.351,3047.994,841.6534,-0.1315053,0.004015967,-0.04861228,0.0764914378523827,-0.182755202054977,0.095506452023983,-0.0708528993697216,-0.0304860231979345,0.0438613199015142,3
0.360000610351563,-0.0429610460996628,2.91394639015198,1.16320359706879,-0.0698225328270578,2.93577369517774,1.1860805641102,1757.345,2955.485,3148.142,830.5491,-0.1385014,0.005408675,-0.0431496,0.0739139318466187,-0.197443768382072,0.101364843547344,-0.0787518717320621,-0.0338847303337087,0.0487511600740379,3
0.3800048828125,-0.0415606796741486,2.90969371795654,1.1654018163681,-0.0714797725314022,2.93506063123087,1.18710647443246,1802.431,2905.518,3097.301,874.6349,-0.1417489,0.006226218,-0.03593616,0.0700186192989349,-0.212629541754723,0.109911844134331,-0.0869921272359981,-0.0374302820709642,0.0538522707687797,3
0.400001525878906,-0.0402593612670898,2.9051456451416,1.16779780387878,-0.0733044112230977,2.93427554017634,1.18823601270221,1908.898,2870.659,2945.384,936.7632,-0.1416738,0.00660292,-0.0280793,0.0650660172104836,-0.227400466799736,0.119801357388496,-0.0955558400788823,-0.0411150084648172,0.0591536169647403,3
0.419998168945313,-0.0390722863376141,2.90032649040222,1.17038214206696,-0.0753034649285836,2.93341540321397,1.18947352217404,2024.934,2858.192,2770.366,988.1129,-0.1397227,0.006794682,-0.02059582,0.0593538582324982,-0.240959629416466,0.12921866774559,-0.104434660908044,-0.0449353170220673,0.0646500300148815,3
0.44000244140625,-0.0380103290081024,2.89526844024658,1.17311811447144,-0.077483988232608,2.93247718495301,1.19082336997196,2110.884,2858.851,2639.36,1016.661,-0.1375571,0.007043086,-0.01415257,0.0530979819595814,-0.252904266119003,0.136797562241554,-0.113620829717891,-0.048887868829098,0.0703367061060819,3
0.459999084472656,-0.0370821356773376,2.89000344276428,1.17595720291138,-0.0798502821969742,2.93145903476675,1.19228821865812,2148.402,2867.506,2590.988,1011.626,-0.1364641,0.007497872,-0.008925318,0.0464097000658512,-0.263252526521683,0.141953572630882,-0.123096124252221,-0.0529648233581361,0.0762023647937057,3
0.480003356933594,-0.0362960360944271,2.88455677032471,1.17885744571686,-0.0824098964715798,2.93035770425173,1.19387274182544,2140.605,2876.524,2625.864,978.6689,-0.1369994,0.00819753,-0.004676511,0.0393050499260426,-0.272338271141052,0.145013362169266,-0.132856662250146,-0.057164510180779,0.0822446027733248,4
0.5,-0.0356612466275692,2.87894415855408,1.18179666996002,-0.085166398670376,2.92917165836334,1.1955791479969,2109.27,2883.866,2713.372,927.4202,-0.139034,0.009086595,-0.0009369001,0.0317394211888313,-0.280629128217697,0.14695942401886,-0.142884000065179,-0.0614789935111996,0.0884520025491718,4
0.520004272460938,-0.0351882427930832,2.8731734752655,1.18477153778076,-0.088127196023106,2.92789770997757,1.19741202260058,2072.023,2888.411,2818.297,872.8944,-0.1420024,0.01006303,0.002810982,0.0236502010375261,-0.288531064987183,0.14874204993248,-0.153174893518032,-0.065906877469682,0.0948225558197254,4
0.540000915527344,-0.0348887071013451,2.86724710464478,1.18779587745667,-0.0912951145137283,2.92653464315245,1.19937311505516,2047.341,2885.578,2904.549,834.2204,-0.1451423,0.01101701,0.006900998,0.0149765200912952,-0.296322733163834,0.151218697428703,-0.163710711144578,-0.0704401454577151,0.101344728821151,4
0.55999755859375,-0.0347744524478912,2.86116552352905,1.19088912010193,-0.094676112580471,2.92507989413848,1.20146611391775,2041.35,2881.514,2957.081,811.1211,-0.1478464,0.01187135,0.01147568,0.00571287609636784,-0.30407840013504,0.154664546251297,-0.17448465888317,-0.0750758741803766,0.108014315705644,4
0.580001831054688,-0.0348565764725208,2.85493063926697,1.19407224655151,-0.0982762614093182,2.92353085067394,1.20369477754168,2055.772,2874.691,2968.876,809.7983,-0.1497453,0.01259454,0.01643191,-0.00410612300038338,-0.311748594045639,0.159156963229179,-0.185490414529404,-0.0798113433697334,0.11482740272751,4
0.599998474121094,-0.0351442955434322,2.84854698181152,1.19735908508301,-0.102097262171133,2.92188678079254,1.20606015903275,2085.136,2874.063,2951.682,814.607,-0.1508681,0.01319862,0.02157851,-0.0143863558769226,-0.319177687168121,0.164342597126961,-0.196709126405959,-0.0846384416756885,0.121772319800455,4
0.620002746582031,-0.0356448367238045,2.84202289581299,1.20075488090515,-0.106146271928021,2.92014460501038,1.20856668895334,2116.334,2875.379,2922.731,826.7652,-0.1514492,0.01372772,0.02667848,-0.0250268690288067,-0.326210349798203,0.16978956758976,-0.208139001499973,-0.0895563976148993,0.128847956964108,4
0.639999389648438,-0.0363636463880539,2.83536791801453,1.20425879955292,-0.110424235525481,2.91830391678686,1.21121495220784,2145.802,2880.429,2895.9,835.5143,-0.1518449,0.01422949,0.03153976,-0.0359403416514397,-0.332750469446182,0.175193428993225,-0.219761081350814,-0.0945570538913933,0.136042578028218,4
0.660003662109375,-0.0373047441244125,2.8285927772522,1.20786345005035,-0.114938248900541,2.91636166293851,1.21400934151928,2165.271,2888.422,2886.884,834.7896,-0.1524095,0.01474443,0.03609001,-0.0470550991594791,-0.33875697851181,0.180230513215065,-0.231574097577923,-0.0996398647564507,0.143355397804799,4
0.680000305175781,-0.038471844047308,2.82170677185059,1.21156358718872,-0.119688496929273,2.91431776391831,1.21694997133476,2176.693,2893.79,2894.071,830.9991,-0.1533166,0.01529443,0.04030583,-0.0583549849689007,-0.344295531511307,0.185007944703102,-0.243559016194652,-0.104796640417365,0.150774633349401,4
0.700004577636719,-0.0398682430386543,2.81471800804138,1.21535325050354,-0.124682034788652,2.91216918408072,1.22004120914491,2181.164,2901.637,2921.219,813.338,-0.1546652,0.01588215,0.0442922,-0.0698198452591896,-0.349436968564987,0.189480543136597,-0.255715062526221,-0.110027047553219,0.158299805101433,4
0.720001220703125,-0.041497889906168,2.80763173103333,1.21923398971558,-0.129918284978346,2.90991617190799,1.22328269744952,2183.308,2903.554,2953.422,801.0008,-0.1563249,0.01649811,0.04811088,-0.0814826413989067,-0.354317456483841,0.19403837621212,-0.268023157655716,-0.11532287703907,0.16591910230247,4
0.739997863769531,-0.0433644913136959,2.80045175552368,1.22320687770844,-0.135402141159277,2.90755662179454,1.22667746565781,2186.829,2909.347,2991.76,777.6113,-0.1582152,0.01712386,0.05189904,-0.0933303982019424,-0.359000533819199,0.1986473351717,-0.280478211503383,-0.120681938755799,0.173629373950669,5
0.760002136230469,-0.0454724170267582,2.79317998886108,1.22728025913239,-0.14113868194985,2.90508834855275,1.23022865767651,2192.486,2908.239,3020.674,769.3818,-0.1600991,0.01774693,0.0556659,-0.105395652353764,-0.363583654165268,0.203669130802155,-0.293075466693575,-0.12610218573757,0.181427675003881,5
0.779998779296875,-0.0478252060711384,2.78581857681274,1.23145949840546,-0.147126184485884,2.90251209348295,1.23393520697061,2205.813,2914.037,3044.57,750.9546,-0.1619474,0.01835296,0.05947227,-0.1176398396492,-0.368068814277649,0.208960443735123,-0.305795832832518,-0.131575403921268,0.189302187598958,5
0.800003051757813,-0.0504263378679752,2.77836918830872,1.23575127124786,-0.153371683173492,2.89982482987671,1.2378014681726,2217.677,2914.146,3059.845,748.413,-0.1636449,0.01894423,0.06326945,-0.130056858062744,-0.372474282979965,0.214585915207863,-0.318639638509124,-0.13710173468952,0.197253115148089,5
0.819999694824219,-0.0532785169780254,2.77083349227905,1.24016046524048,-0.159872691993147,2.89702762739878,1.24182590231796,2235.826,2919.188,3069.292,740.238,-0.1652358,0.01952195,0.06703205,-0.142608761787415,-0.376783043146133,0.220457389950752,-0.331587821991737,-0.142672976311719,0.205268657531342,5
0.840003967285156,-0.0563836731016636,2.76321411132813,1.24468886852264,-0.166636266402775,2.89411745028271,1.24601287707125,2251.323,2923.44,3078.868,735.2818,-0.1667725,0.02009478,0.07072603,-0.155257686972618,-0.380972325801849,0.226422771811485,-0.344641102544584,-0.148289438267168,0.213349260007538,5
0.860000610351563,-0.0597434900701046,2.75551295280457,1.24933958053589,-0.173659158941841,2.89109569582005,1.2503603820997,2267.683,2927.518,3086.348,732.2769,-0.1683001,0.02067155,0.07430162,-0.167991101741791,-0.385052144527435,0.232538118958473,-0.357780475378537,-0.153942943326036,0.221483157706883,5
0.8800048828125,-0.0633587539196014,2.74773287773132,1.25411069393158,-0.180948461186242,2.88795931270381,1.25487280742661,2281.898,2934.123,3102.023,720.5931,-0.1699288,0.02125739,0.07778122,-0.180762887001038,-0.3889981508255,0.238557204604149,-0.371007022483504,-0.159633957038354,0.229671020432672,5
0.900001525878906,-0.0672307759523392,2.73987555503845,1.25900566577911,-0.188500167066783,2.88471002463366,1.2595476731043,2294.227,2935.958,3115.256,719.1686,-0.1716141,0.02186046,0.08111711,-0.193601176142693,-0.392866164445877,0.244747474789619,-0.384301823631742,-0.165354338558695,0.237901135662636,5
0.919998168945313,-0.071359783411026,2.73194289207458,1.26402115821838,-0.196318384305134,2.8813460641717,1.26438752200817,2307.561,2943.604,3139.639,699.3231,-0.1734671,0.02247612,0.08438879,-0.206450417637825,-0.39662891626358,0.250777512788773,-0.397661187980262,-0.171102499820431,0.246171218589148,5
0.94000244140625,-0.0757472515106201,2.72393536567688,1.26916289329529,-0.204407453948074,2.87786556348678,1.26939504145298,2316.995,2942.37,3157.255,700.4137,-0.1753287,0.0231124,0.08753575,-0.219373062252998,-0.400371372699738,0.25708532333374,-0.411081631631503,-0.176876941799768,0.254479112513653,5
0.959999084472656,-0.0803932547569275,2.71585416793823,1.27442908287048,-0.212762239776093,2.87427073255068,1.27456705187416,2333.923,2951.355,3182.469,675.3287,-0.1773314,0.02375563,0.09065742,-0.232300937175751,-0.4040587246418,0.263308316469193,-0.424544411524882,-0.18266959988136,0.262813214588797,5
0.980003356933594,-0.0852990448474884,2.70769906044006,1.27982461452484,-0.221389982382338,2.87055845593844,1.2799080355438,2342.369,2949.134,3201.633,676.989,-0.1792957,0.0244167,0.09369092,-0.245288372039795,-0.407757163047791,0.269774556159973,-0.438051398499298,-0.18848127903492,0.271174682952979,5
1,-0.0904647409915924,2.69947028160095,1.28534984588623,-0.230284798736574,2.86673126495361,1.28541435058594,2360.508,2956.356,3223.366,656.3246,-0.181316,0.02508374,0.09669757,-0.258284866809845,-0.411441147327423,0.27626034617424,-0.451584000205995,-0.194303979492187,0.279552008056641,5
1.02000427246094,-0.095890998840332,2.69116735458374,1.29100811481476,-0.239454009753966,2.86278600961093,1.2910905289958,2372.003,2956.461,3241.422,653.5494,-0.1832931,0.0257649,0.09963617,-0.271312952041626,-0.415141254663467,0.282910615205765,-0.465144357597929,-0.200138622445408,0.287946515251652,5
1.04000091552734,-0.10157784819603,2.68279051780701,1.29680073261261,-0.24889099213045,2.8587255397331,1.29693247063265,2389.835,2961.945,3259.189,639.0917,-0.1852852,0.0264547,0.102527,-0.284343719482422,-0.418846219778061,0.289632886648178,-0.478714054341683,-0.205977283860805,0.296346803950333,5
1.05999755859375,-0.107525259256363,2.67433929443359,1.3027286529541,-0.258599401509697,2.85454828239877,1.30294243851408,2403.246,2964.203,3277.799,631.4799,-0.1872724,0.02715733,0.1053577,-0.297369837760925,-0.422555834054947,0.29639533162117,-0.492290296490434,-0.211818761581115,0.30475114456651,5
1.08000183105469,-0.113733127713203,2.6658136844635,1.30879378318787,-0.268583149539609,2.85025255453512,1.30912285413647,2418.818,2967.364,3294.665,622.7402,-0.1892527,0.02787416,0.1081167,-0.310393065214157,-0.426279783248901,0.303256273269653,-0.50587040849135,-0.217661904390701,0.313157880805523,5
1.09999847412109,-0.120200976729393,2.65721344947815,1.31499671936035,-0.278834517009062,2.84584167750307,1.31546893894041,2435.463,2972.019,3312.478,610.3593,-0.1912709,0.02860271,0.1108155,-0.323393017053604,-0.430011957883835,0.310145080089569,-0.519436284009554,-0.223498921639497,0.321555803983559,5
1.12000274658203,-0.126928210258484,2.64853835105896,1.3213369846344,-0.289361068555186,2.84131239645058,1.32198537579665,2448.474,2974.169,3333.259,601.1893,-0.1933135,0.02934686,0.1134531,-0.336362719535828,-0.433749407529831,0.317012250423431,-0.532990631455731,-0.229330978680957,0.329946590735853,5
1.13999938964844,-0.133914723992348,2.63978791236877,1.32781732082367,-0.300154365346813,2.83666834237095,1.3286669406667,2463.963,2976.783,3350.277,593.2388,-0.1953535,0.03010788,0.1160127,-0.349323958158493,-0.437519282102585,0.324016600847244,-0.546515580872639,-0.235150386571708,0.338319178707607,5
1.16000366210938,-0.141159221529961,2.63096237182617,1.33443486690521,-0.311222084148811,2.83190621216671,1.33551838583369,2479.442,2981.158,3374.854,575.3498,-0.1974563,0.0308792,0.1185423,-0.36222517490387,-0.441282421350479,0.33088031411171,-0.560014026276883,-0.240958390526247,0.34667535943296,6
1.18000030517578,-0.14866204559803,2.62206029891968,1.34119558334351,-0.322555076427271,2.82702994219644,1.34253404791935,2492.531,2980.836,3388.89,576.0805,-0.1994899,0.03167236,0.120974,-0.375142991542816,-0.445109605789185,0.338035494089127,-0.573468357077025,-0.246747413199059,0.355004231116904,6
1.20000457763672,-0.156421214342117,2.61308217048645,1.34809291362762,-0.334161138043845,2.82203617811866,1.3497187529334,2511.463,2988.096,3417.544,547.254,-0.201638,0.03246729,0.1234161,-0.387957394123077,-0.44890558719635,0.344868659973145,-0.586881630238192,-0.252518769916838,0.363307686166476,6
1.22000122070313,-0.164437755942345,2.60402607917786,1.35513710975647,-0.346030421585499,2.81692915700008,1.35706640485806,2520.904,2983.942,3426.187,561.2682,-0.2036232,0.03329212,0.1257246,-0.400827914476395,-0.452804684638977,0.352210462093353,-0.600236516861372,-0.258265004538453,0.371574997167698,6
1.23999786376953,-0.172708317637444,2.59489345550537,1.3623161315918,-0.358166167196084,2.81170748469733,1.36457900949675,2545.005,2995.464,3460.597,516.4261,-0.2058091,0.03410548,0.1280958,-0.413529306650162,-0.456627130508423,0.358950763940811,-0.613531154887641,-0.263985315871967,0.379805011417393,6
1.26000213623047,-0.181235283613205,2.58568143844604,1.3696460723877,-0.370571882958536,2.80636965178032,1.3722587385199,2547.893,2985.649,3462.285,550.1479,-0.2077015,0.03496275,0.1302775,-0.426347106695175,-0.460600167512894,0.366495311260223,-0.626763698705669,-0.269678909802388,0.38799658639423,6
1.27999877929688,-0.190013602375984,2.57639265060425,1.37710893154144,-0.383236695417198,2.80092033679326,1.3800988607405,2581.269,3004.012,3501.524,483.3718,-0.2099258,0.03579023,0.1325811,-0.43891778588295,-0.464444249868393,0.373143553733826,-0.639917282339435,-0.275338529371412,0.396139281255613,6
1.30000305175781,-0.199046835303307,2.56702303886414,1.38472592830658,-0.396168722856641,2.79535604666509,1.38810440176341,2574.784,2987.745,3497.149,539.4161,-0.211741,0.03667742,0.1346401,-0.451661348342896,-0.468482255935669,0.380847871303558,-0.652995275331231,-0.280965624398954,0.404235181908735,6
1.31999969482422,-0.208328276872635,2.55757665634155,1.39247179031372,-0.409356423791328,2.7896817473746,1.39626821685929,2615.686,3011.065,3545.116,450.3915,-0.2140095,0.03751726,0.1368828,-0.464071184396744,-0.472324222326279,0.387295931577682,-0.665981146317813,-0.286553081901244,0.412274054652251,6
1.34000396728516,-0.217863410711288,2.54804801940918,1.40037703514099,-0.422808053134535,2.78389388706324,1.40459541621271,2600.768,2988.787,3529.694,532.7573,-0.2157022,0.03843744,0.1388027,-0.47675633430481,-0.476435929536819,0.39526429772377,-0.678878353700697,-0.292102389931837,0.420258040401443,6
1.36000061035156,-0.227642595767975,2.53844332695007,1.40840411186218,-0.436511415158101,2.77799771321212,1.41307845008695,2652.868,3019.829,3592.301,408.4052,-0.2180623,0.03927914,0.141016,-0.488959521055222,-0.480238914489746,0.401355177164078,-0.691670720740693,-0.297606588091785,0.42817712498415,6
1.37999725341797,-0.237675026059151,2.52875447273254,1.41659951210022,-0.450469530727146,2.77199192602736,1.42171918854144,2622.817,2987.183,3557.333,537.3533,-0.2195542,0.04023917,0.1427702,-0.501621901988983,-0.48444801568985,0.409772515296936,-0.704356955827446,-0.303065120637236,0.436030508832034,6
1.40000152587891,-0.247945815324783,2.51899170875549,1.42490327358246,-0.464685685951852,2.76587511158757,1.43051966583492,2694.054,3030.889,3647.221,350.9138,-0.2220837,0.04106549,0.1450103,-0.51353794336319,-0.488144040107727,0.415188699960709,-0.716935713767318,-0.308477408768949,0.443817359206152,7
1.41999816894531,-0.258471339941025,2.50914120674133,1.43339395523071,-0.47914673136562,2.75965292774086,1.43947174182117,2638.546,2981.511,3571.649,565.8813,-0.2232081,0.04208319,0.1465278,-0.526279628276825,-0.492523699998856,0.424535810947418,-0.729391385793766,-0.313836736470737,0.451528013536465,7
1.44000244140625,-0.26922607421875,2.49922156333923,1.44196605682373,-0.493861275572861,2.75332167044526,1.4485807456364,2746.694,3049.388,3716.241,257.972,-0.2261407,0.0428572,0.1489114,-0.537736475467682,-0.495983779430389,0.42860621213913,-0.741727567798258,-0.319144650954242,0.459164697851088,7
1.45999908447266,-0.28024098277092,2.48920822143555,1.45075929164886,-0.508815552717244,2.74688726276417,1.45783815555978,2635.586,2965.055,3566.45,644.3514,-0.2265881,0.04397463,0.1500567,-0.550746738910675,-0.500663995742798,0.439664125442505,-0.753929052770513,-0.324394609067776,0.466717998286247,7
1.48000335693359,-0.291470319032669,2.47913479804993,1.45958507061005,-0.524018315758597,2.74034593854351,1.46724939009041,2820.594,3079.943,3811.522,101.9879,-0.230291,0.04463634,0.1527725,-0.56146764755249,-0.503673136234283,0.441289395093918,-0.765999459475408,-0.329588167864767,0.474190155029787,7
1.5,-0.302972763776779,2.4689564704895,1.46869683265686,-0.539455198877605,2.73370387899399,1.4768055561018,2603.236,2933.72,3522.006,808.7501,-0.2295187,0.04593249,0.1533027,-0.575120806694031,-0.508919656276703,0.455589026212692,-0.777924000354858,-0.334718964672088,0.481572013878822,7
1.52000427246094,-0.314674437046051,2.45872116088867,1.47781038284302,-0.555135099954955,2.72695725560613,1.48651216180595,2797.889,3234.228,3823.098,0,-0.2335262,0.04691008,0.1568809,-0.585082232952118,-0.511765897274017,0.455679714679718,-0.789706299681991,-0.339788558913217,0.48886581843107,7
1.54000091552734,-0.3266521692276,2.44837641716003,1.4872339963913,-0.571043070329722,2.72011250037111,1.49635995326965,2622.52,2858.846,3475.244,960.2793,-0.2318708,0.04866092,0.1569304,-0.598886549472809,-0.517234802246094,0.471180200576782,-0.801332006385301,-0.344790775723006,0.496062684689629,7
1.55999755859375,-0.33881887793541,2.43797707557678,1.49664747714996,-0.587181951496087,2.71316839067337,1.50635068951315,2775.855,3329.139,3794.877,0,-0.2356924,0.05027705,0.1606152,-0.608335077762604,-0.519962012767792,0.470676749944687,-0.812800388649436,-0.349725300221754,0.503162159625937,7
1.58000183105469,-0.351252794265747,2.42747664451599,1.50634729862213,-0.60355483331529,2.70612359703193,1.51648628330776,2705.064,2798.952,3493.553,964.4673,-0.2342133,0.05252664,0.1600523,-0.621696591377258,-0.525022566318512,0.484993427991867,-0.824110582941666,-0.354591760855452,0.510163708672098,7
1.59999847412109,-0.36387026309967,2.41692733764648,1.51603651046753,-0.620145926473056,2.69898491314762,1.52675696031579,2815.163,3317.697,3815.345,0,-0.2382214,0.05460627,0.1628871,-0.630874574184418,-0.527471303939819,0.484459072351456,-0.835248923368005,-0.359384277571697,0.517058871988737,7
1.62000274658203,-0.37674206495285,2.40628886222839,1.52597630023956,-0.636964489205914,2.69174835545992,1.53716845182668,2785.067,2788.34,3590.386,841.2536,-0.2378347,0.05707861,0.1617544,-0.643592536449432,-0.531924664974213,0.496989190578461,-0.846218976345106,-0.364104384899943,0.523849857357655,7
1.63999938964844,-0.38979709148407,2.39560270309448,1.53592360019684,-0.653994195024907,2.68442094880091,1.54771065096602,2838.17,3282.791,3874.297,0,-0.2421234,0.05936681,0.1637436,-0.652748942375183,-0.534313023090363,0.497368007898331,-0.857007552155828,-0.368746407673381,0.530528499715628,7
1.66000366210938,-0.403091609477997,2.38483667373657,1.54607975482941,-0.671244443874359,2.67699864863716,1.55838937674714,2852.935,2798.85,3734.945,655.5021,-0.2429964,0.06178418,0.1625764,-0.664725959300995,-0.538302361965179,0.50780713558197,-0.867618167158098,-0.373311858882592,0.53709697585572,7
1.68000030517578,-0.416572570800781,2.37401914596558,1.5562686920166,-0.688698391434734,2.66948870260877,1.56919420173384,2876.713,3199.747,3962.342,0,-0.2472095,0.06394758,0.1639459,-0.674050450325012,-0.540873467922211,0.509444892406464,-0.878038122530658,-0.377795274579551,0.543547424602645,8
1.70000457763672,-0.430282473564148,2.36312413215637,1.56664001941681,-0.706365577065784,2.66188700619576,1.58013103124422,2902.081,2830.65,3870.735,472.941,-0.2487382,0.06604999,0.1631533,-0.685494542121887,-0.544745981693268,0.518567681312561,-0.888270870184447,-0.382198140025102,0.549881982853708,8
1.72000122070313,-0.444182842969894,2.35216999053955,1.5770708322525,-0.724228658537036,2.6542010212754,1.5911891296115,2914.685,3130.969,4031.955,0,-0.2524091,0.06785268,0.16439,-0.69501805305481,-0.54770702123642,0.521540939807892,-0.898304216251578,-0.386515208538549,0.556093102023817,8
1.73999786376953,-0.458304286003113,2.34113574028015,1.58767032623291,-0.742290383213093,2.64642956573347,1.60237019758524,2935.662,2869.098,3956.193,347.1914,-0.2539052,0.06950994,0.1642399,-0.706070601940155,-0.55170750617981,0.529974222183228,-0.908137821269591,-0.39074633405868,0.562180571969536,8
1.76000213623047,-0.472616463899612,2.3300359249115,1.59834265708923,-0.76055371708895,2.63857136338517,1.61367607125764,2958.301,3078.255,4076.016,0,-0.2568512,0.07082105,0.165666,-0.715612649917603,-0.554987132549286,0.533614277839661,-0.917771149318994,-0.394891285994308,0.568144060931169,8
1.77999877929688,-0.487146139144897,2.31885099411011,1.60918736457825,-0.779000609654483,2.63063418086074,1.62509557650306,2949.238,2908.454,3977.754,305.6663,-0.2577642,0.07203393,0.1660897,-0.72647899389267,-0.559242963790894,0.542235672473907,-0.927192788821983,-0.398945154262308,0.57397650459845,8
1.80000305175781,-0.501861751079559,2.30759763717651,1.62010443210602,-0.797640935141499,2.62261376955408,1.63663482594136,2982.937,3077.727,4084.92,0,-0.2600833,0.07292602,0.1679839,-0.735784649848938,-0.562662899494171,0.545854091644287,-0.936405971974637,-0.402909329586356,0.579679903854719,8
1.81999969482422,-0.516792058944702,2.29625630378723,1.63120126724243,-0.816456197270346,2.61451808789761,1.64828236949435,2950.241,2930.023,3958.479,337.1367,-0.2602302,0.07384301,0.168802,-0.746518909931183,-0.567072153091431,0.554843008518219,-0.945399824400851,-0.406779133026206,0.585247526943151,8
1.84000396728516,-0.531900703907013,2.28484916687012,1.64235889911652,-0.835456397410825,2.6063428325813,1.66004439848636,3000.556,3098.651,4080.277,0,-0.2621253,0.07448207,0.1711217,-0.755430996417999,-0.57035493850708,0.557882726192474,-0.95417746870157,-0.410555908149813,0.59068130690248,8
1.86000061035156,-0.547222673892975,2.27335476875305,1.65370571613312,-0.854622615239374,2.59809614449182,1.6719092003358,2950.799,2938.004,3925.786,398.786,-0.2615847,0.07527994,0.1720451,-0.766098618507385,-0.574720144271851,0.567342519760132,-0.962728579444532,-0.414235212212131,0.595974851798267,8
1.87999725341797,-0.562714397907257,2.26180148124695,1.66509938240051,-0.873957566090845,2.58977685529642,1.6838784559643,3004.344,3139.128,4071.262,0,-0.2632567,0.0758713,0.1746603,-0.774582982063293,-0.577659785747528,0.569683134555817,-0.971053025860989,-0.417816988947023,0.601128080678429,8
1.90000152587891,-0.578417181968689,2.25016689300537,1.67668557167053,-0.893464153455626,2.58138371570432,1.69595396277071,2960.513,2931.902,3905.154,453.6299,-0.2622878,0.07670581,0.1754826,-0.785143315792084,-0.581730008125305,0.57930850982666,-0.979150439632688,-0.421301079877433,0.606140765536421,8
1.91999816894531,-0.594282805919647,2.23848295211792,1.68830835819244,-0.913122862707269,2.57292512231409,1.70812364027167,3010.72,3170.845,4069.019,0,-0.2638751,0.07738224,0.1781287,-0.793280124664307,-0.584200739860535,0.581138968467712,-0.987011339258123,-0.424683405378145,0.611007036871143,9
1.94000244140625,-0.610355615615845,2.22672772407532,1.70011866092682,-0.932943991899774,2.5643966441608,1.72039386345315,2982.803,2923.205,3910.632,470.4243,-0.2628306,0.07830913,0.1787346,-0.803640186786652,-0.587767124176025,0.590514063835144,-0.994638524886308,-0.427965170275055,0.615728628108227,9
1.95999908447266,-0.626586258411407,2.21493315696716,1.71196055412292,-0.952907658613767,2.55580683609405,1.73275232415044,3018.133,3184.508,4082.353,0,-0.2644029,0.0791044,0.1811994,-0.811532855033875,-0.589726984500885,0.59209281206131,-1.00202309041976,-0.431142542523221,0.620300025949072,9
1.98000335693359,-0.64301872253418,2.20307922363281,1.72397994995117,-0.973024270010337,2.54715122020317,1.74520546489201,3012.555,2917.527,3941.395,447.5218,-0.2635022,0.08009754,0.1815895,-0.821621537208557,-0.592701137065887,0.600967884063721,-1.00916768936771,-0.434216663853535,0.624722873042297,9
2,-0.659606039524078,2.19119501113892,1.7360326051712,-0.993273599084619,2.53843849960327,1.7577407641983,3027.604,3183.89,4104.414,0,-0.2650239,0.08097167,0.1837918,-0.829368591308594,-0.59421044588089,0.602631032466888,-1.01606400046349,-0.437183953857422,0.628992018127441,9
2.02000427246094,-0.676387786865234,2.1792631149292,1.74824726581573,-1.01366615605493,2.52966415204104,1.77036472839513,3045.266,2916.812,3989.444,393.8583,-0.2643725,0.08195303,0.1840768,-0.839084923267365,-0.59658271074295,0.610734403133392,-1.02271452148052,-0.440045487257004,0.633109007445237,9
2.04000091552734,-0.693322479724884,2.16730880737305,1.7605003118515,-1.0341813929022,2.52083701875502,1.78306463727984,3044.98,3164.088,4133.254,0,-0.2657664,0.08279899,0.1859942,-0.846739292144775,-0.597713708877563,0.612654805183411,-1.02911152474823,-0.442797939051516,0.637069057199471,9
2.05999755859375,-0.710443258285522,2.15531802177429,1.77289950847626,-1.05482201812353,2.5119559343546,1.79584216754118,3073.442,2924.895,4042.178,326.0767,-0.2653249,0.08366206,0.1863007,-0.856042385101318,-0.59954959154129,0.61995792388916,-1.03525504859546,-0.445441325732794,0.640872191117535,9
2.08000183105469,-0.727715313434601,2.143310546875,1.78534269332886,-1.07559088172821,2.50301967256038,1.80869908347065,3062.783,3138.678,4162.352,0,-0.2664908,0.08436877,0.1880298,-0.863597393035889,-0.600372433662415,0.6221604347229,-1.04114485287423,-0.447975543971863,0.644518260536375,9
2.09999847412109,-0.745165705680847,2.13127470016479,1.79792070388794,-1.09646699912883,2.4940372624541,1.82162239460902,3093.266,2939.972,4081.789,268.5395,-0.2660897,0.08503606,0.1884682,-0.87251615524292,-0.601795554161072,0.628901183605194,-1.04677411523768,-0.450397658303471,0.648003042098304,9
2.12000274658203,-0.762763440608978,2.11922764778137,1.81054472923279,-1.11746110947495,2.48500408327971,1.83461874900143,3077.094,3120.286,4183.267,0,-0.266975,0.08553516,0.1901709,-0.87988668680191,-0.602348864078522,0.63120448589325,-1.05214490868305,-0.452708560680417,0.651327819087362,9
2.13999938964844,-0.780532360076904,2.10715889930725,1.82329607009888,-1.138551967509,2.47592927627801,1.8476749948214,3100.602,2954.604,4103.332,238.9889,-0.2663992,0.08598948,0.1907941,-0.888453483581543,-0.603443324565887,0.637569725513458,-1.05725102347782,-0.454905579228273,0.654488747383304,9
2.16000366210938,-0.79844343662262,2.09508466720581,1.83609139919281,-1.15975039167652,2.46680818657414,1.86079782920208,3089.68,3110.487,4193.985,0,-0.2669638,0.08626585,0.1925744,-0.895553290843964,-0.60371059179306,0.639764726161957,-1.0620943502576,-0.456989527434725,0.657486997379635,9
2.18000030517578,-0.816519796848297,2.08299446105957,1.84901118278503,-1.18103490068612,2.45765005696766,1.87397395420079,3100.369,2968.577,4104.292,236.4385,-0.2660615,0.086531,0.1933587,-0.903817534446716,-0.604515016078949,0.645988523960114,-1.06666929835407,-0.458957999791384,0.660319108186354,10
2.19999694824219,-0.834730684757233,2.0709056854248,1.86196744441986,-1.20240821395574,2.44845371736898,1.88720505326679,3096.156,3113.382,4195.458,0,-0.2663411,0.08661965,0.1952838,-0.910541892051697,-0.604433238506317,0.64781242609024,-1.07097597819164,-0.460811043810786,0.662985148161421,10
2.22000122070313,-0.853101491928101,2.05880689620972,1.87504863739014,-1.22387315175433,2.43921795429519,1.90049287228091,3093.631,2977.859,4089.469,259.4879,-0.265025,0.08675943,0.1961513,-0.918545186519623,-0.60493415594101,0.65406060218811,-1.07501419914593,-0.462548577472581,0.665484999299265,10
2.23999786376953,-0.871598064899445,2.04671812057495,1.8881561756134,-1.24540792547886,2.42995214277345,1.91382392305993,3098.244,3127.767,4187.728,0,-0.2650863,0.08673042,0.1982205,-0.924828171730042,-0.60443776845932,0.65537565946579,-1.07877930973132,-0.464168599372462,0.667815782108711,10
2.26000213623047,-0.89024943113327,2.03462648391724,1.90138912200928,-1.26702351885107,2.42065155681516,1.92720500505083,3086.339,2982.391,4066.233,294.5673,-0.2634053,0.08681592,0.1990773,-0.932565033435822,-0.604579567909241,0.661650240421295,-1.08227271937422,-0.465671715947234,0.669978369091845,10
2.27999877929688,-0.909016251564026,2.02255487442017,1.91463422775269,-1.28869796983554,2.41132564607061,1.9406225227075,3093.889,3145.311,4181.107,0,-0.2633429,0.086743,0.2012412,-0.938344240188599,-0.603580892086029,0.662257552146912,-1.08549040888332,-0.467056197851165,0.67197027217779,10
2.30000305175781,-0.927933573722839,2.01048803329468,1.92800831794739,-1.31044231452835,2.40196966201596,1.95408330789913,3078.877,2982.242,4038.635,337.0831,-0.2613216,0.08684682,0.2019706,-0.945859014987946,-0.603329956531525,0.668703615665436,-1.08843358680109,-0.468322565086307,0.673792239511894,10
2.31999969482422,-0.946955621242523,1.99845218658447,1.9413800239563,-1.33223444283894,2.39259311800549,1.96757367342642,3079.57,3173.667,4170.846,0,-0.2611917,0.08682334,0.2042109,-0.951106309890747,-0.601804077625275,0.668585598468781,-1.09109887036509,-0.469469362144493,0.675442177003072,10
2.34000396728516,-0.966122567653656,1.98643016815186,1.95488166809082,-1.35408543512393,2.38319124647132,1.98110047855794,3075.911,2974.387,4012.299,378.2993,-0.2589088,0.08701311,0.204743,-0.958356320858002,-0.601107835769653,0.675083220005035,-1.09348726343002,-0.470497020956358,0.676920706085208,10
2.36000061035156,-0.985383927822113,1.97444939613342,1.96836650371552,-1.37597305876702,2.37377361348711,1.99464996024512,3065.943,3197.317,4161.488,0,-0.2587639,0.08709383,0.2069625,-0.963064312934875,-0.599034190177917,0.674242496490479,-1.09559602313537,-0.471404361345641,0.678226128796969,10
2.37999725341797,-1.00478386878967,1.9624924659729,1.98197901248932,-1.39790005743958,2.36433903852774,2.00822381695123,3077.312,2963.477,3993.584,406.7669,-0.2563452,0.08739135,0.2072403,-0.969988286495209,-0.597842991352081,0.680626630783081,-1.09742530100382,-0.472191448508328,0.679358538938131,10
2.40000152587891,-1.02426731586456,1.9505877494812,1.99556195735931,-1.4198692197338,2.35488632173988,2.02182377494768,3050.305,3216.001,4155.447,0,-0.2562153,0.08759484,0.2093648,-0.974171459674835,-0.59523344039917,0.679145991802216,-1.09897493039424,-0.472858210743393,0.680317833349887,10
2.41999816894531,-1.04388153553009,1.93871688842773,2.00926852226257,-1.44185817738692,2.34542508756209,2.03543598721428,3082.865,2952.431,3981.068,420.5581,-0.2537673,0.08798902,0.2093808,-0.98071825504303,-0.593546390533447,0.685322999954224,-1.10024313330221,-0.473403883025206,0.681102911362803,10
2.44000244140625,-1.06356930732727,1.92690777778625,2.02293419837952,-1.46387808506052,2.33595053645515,2.04906735901791,3033.72,3230.019,4150.818,0,-0.2536837,0.08830159,0.2113833,-0.984383821487427,-0.590452313423157,0.683280766010284,-1.10123038958312,-0.473828671822132,0.681714070030222,10
2.45999908447266,-1.0833785533905,1.91514253616333,2.03671383857727,-1.48590651627916,2.32647231790489,2.06270400730194,3087.727,2939.151,3980.349,420.6143,-0.2512847,0.08875716,0.2111837,-0.990460336208344,-0.588267743587494,0.688979268074036,-1.10193556692257,-0.474132089930926,0.682150608395601,10
2.48000335693359,-1.10325181484222,1.90344738960266,2.05044484138489,-1.50795464064698,2.31698562594271,2.07635284658344,3023.563,3230.82,4149.256,0,-0.2512075,0.08912256,0.2130143,-0.993665277957916,-0.584752202033997,0.686554849147797,-1.10235893238473,-0.47431425226183,0.68241269178437,10
2.5,-1.12323570251465,1.89180564880371,2.06427645683289,-1.52999999932945,2.30750012397766,2.08999997377396,3093.184,2930.04,3989.728,401.2127,-0.2489203,0.08956054,0.2126818,-0.999200522899628,-0.582091212272644,0.691586434841156,-1.10250000050292,-0.474374949932098,0.682500019669533,11
2.52000427246094,-1.14327561855316,1.88024115562439,2.07805490493774,-1.55205376834272,2.29801100328223,2.10365230735988,3018.298,3219.917,4150.784,0,-0.2488032,0.08988309,0.2143417,-1.00199270248413,-0.578221201896667,0.688920319080353,-1.10235882472314,-0.474314205938057,0.682412625136718,11
2.54000091552734,-1.16341483592987,1.86873841285706,2.09191966056824,-1.57409348237975,2.28852793005043,2.11729594024597,3093.571,2927.03,4003.096,372.7301,-0.2466082,0.09021211,0.2139841,-1.00696420669556,-0.575141966342926,0.693239688873291,-1.10193556692257,-0.474132089930926,0.682150608395601,11
2.55999755859375,-1.18360209465027,1.85731887817383,2.10572743415833,-1.59612191359838,2.27904971150017,2.13093258853001,3015.342,3202.392,4153.081,0,-0.2463807,0.09039164,0.2155375,-1.00936758518219,-0.570979118347168,0.690386712551117,-1.10123038958312,-0.473828671822132,0.681714070030222,11
2.58000183105469,-1.20387828350067,1.8459677696228,2.11960935592651,-1.61814182127198,2.26957516039323,2.14456396033363,3085.035,2929.315,4012.231,348.9123,-0.2441517,0.09054025,0.2152576,-1.01380562782288,-0.567558228969574,0.694092631340027,-1.10024313330221,-0.473403883025206,0.681102911362804,11
2.59999847412109,-1.22419476509094,1.83470475673676,2.13343071937561,-1.64013077892511,2.26011392621545,2.15817617260023,3015.102,3184.446,4150.052,0,-0.2437346,0.09049585,0.2167934,-1.01582777500153,-0.563149333000183,0.691066086292267,-1.09897493039424,-0.472858210743393,0.680317833349887,11
2.62000274658203,-1.24459075927734,1.82351541519165,2.14731812477112,-1.66209994121933,2.25066120942759,2.17177613059669,3067.306,2937.322,4006.871,340.8347,-0.2413245,0.09042326,0.2166573,-1.0197936296463,-0.559464454650879,0.694365084171295,-1.09742530100382,-0.472191448508328,0.679358538938131,11
2.63999938964844,-1.26501798629761,1.81241941452026,2.16113615036011,-1.68402693989188,2.24122663446822,2.18534998730279,3010.209,3171.364,4144.085,0,-0.2406821,0.09011668,0.2182877,-1.02136099338531,-0.554793059825897,0.690900027751923,-1.09559602313537,-0.471404361345641,0.67822612879697,11
2.66000366210938,-1.28551864624023,1.80140066146851,2.17502379417419,-1.70592290617745,2.23180541187802,2.19890463348308,3037.086,2948.283,3973.533,369.579,-0.2378272,0.08985772,0.2182616,-1.02503609657288,-0.550941944122314,0.694383084774017,-1.09348640563071,-0.470496651869278,0.67692017506657,10
2.68000030517578,-1.30603897571564,1.79048109054565,2.18882632255554,-1.72776555581996,2.22240712994983,2.2124262741215,2989.573,3184.174,4125.247,0,-0.2369505,0.08935994,0.2201545,-1.0260181427002,-0.545979499816895,0.690128326416016,-1.09109887036509,-0.469469362144494,0.675442177003072,9
2.69999694824219,-1.32663011550903,1.77964067459106,2.20271277427673,-1.74955768413056,2.21303058593937,2.22591663964878,2998.669,2952.72,3904.967,447.7929,-0.2334021,0.08904982,0.220121,-1.0295604467392,-0.542018115520477,0.694325745105743,-1.08843358680109,-0.468322565086308,0.673792239511893,9
2.72000122070313,-1.34722566604614,1.76890707015991,2.21648788452148,-1.77130202882336,2.20367460188472,2.23937742484041,2953.327,3222.124,4094.356,0,-0.2323549,0.08852221,0.2223569,-1.02977049350739,-0.536674618721008,0.688755631446838,-1.08549040888332,-0.467056197851165,0.671970272177789,8
2.73999786376953,-1.36789274215698,1.75825488567352,2.23037385940552,-1.79297647980783,2.19434869114016,2.25279494249708,2958.294,2947.064,3798.247,576.1558,-0.2279442,0.08837073,0.2220615,-1.03335678577423,-0.532616794109344,0.694299221038818,-1.08227271937422,-0.465671715947234,0.669978369091845,8
2.76000213623047,-1.38854444026947,1.74771881103516,2.24411177635193,-1.81459207318004,2.18504810518187,2.26617602448799,2893.527,3296.508,4047.711,0,-0.2269061,0.08807132,0.2246768,-1.03258454799652,-0.526806116104126,0.686899900436401,-1.07877930973132,-0.464168599372462,0.667815782108711,7
2.77999877929688,-1.40926897525787,1.73726749420166,2.25798988342285,-1.83612684690458,2.17578229366013,2.27950707526701,2923.15,2919.435,3672.054,739.2957,-0.2216725,0.08833422,0.2238224,-1.03623414039612,-0.522561013698578,0.69390332698822,-1.07501419914593,-0.462548577472581,0.665484999299265,6
2.80000305175781,-1.42995643615723,1.72694325447083,2.27167844772339,-1.85759178470316,2.16654653058634,2.29279489428112,2821.523,3388.705,3992.845,0,-0.2208591,0.08853596,0.226664,-1.03436613082886,-0.516204833984375,0.684431076049805,-1.07097597819164,-0.460811043810786,0.662985148161422,6
2.81999969482422,-1.45071482658386,1.71671152114868,2.2855281829834,-1.87896509797278,2.15735019098767,2.30602599334712,2906.861,2870.452,3556.361,891.1362,-0.2151435,0.08939625,0.224977,-1.03792834281921,-0.511597156524658,0.692491412162781,-1.06666929835407,-0.458957999791384,0.660319108186353,5
2.84000396728516,-1.47141480445862,1.70661783218384,2.29915118217468,-1.90025771011236,2.14818857483073,2.3192071345693,2747.648,3477.284,3940.585,0,-0.2147914,0.09027992,0.2277597,-1.03499412536621,-0.504677891731262,0.681144833564758,-1.06209255378819,-0.456988754464129,0.657485885279497,4
2.86000061035156,-1.49217700958252,1.69662761688232,2.31293535232544,-1.9214480311499,2.13907097167731,2.33232495272651,2915.581,2804.62,3489.349,980.0989,-0.2091988,0.09175777,0.2251297,-1.0381110906601,-0.499508053064346,0.689209401607513,-1.05725102347782,-0.454905579228273,0.654488747383304,3
2.87999725341797,-1.51286363601685,1.68678569793701,2.32647013664246,-1.94253888918396,2.12999616467562,2.34538119854648,2691.177,3528.633,3905.214,0,-0.2094496,0.09330375,0.2274731,-1.03432989120483,-0.49209913611412,0.676742434501648,-1.05214490868305,-0.452708560680416,0.651327819087361,1
2.90000152587891,-1.53359341621399,1.67706108093262,2.34013485908508,-1.96353299953007,2.12096298550123,2.3583775529389,2948.438,2735.698,3506.799,955.1695,-0.2047113,0.09517714,0.2240601,-1.03648912906647,-0.486218631267548,0.683239281177521,-1.04677411523767,-0.450397658303471,0.648003042098304,0
2.91999816894531,-1.55423891544342,1.66749119758606,2.35355448722839,-1.98440911693069,2.11198057539494,2.37130086407726,2675.532,3508.309,3898.145,0,-0.2055087,0.09707481,0.2255756,-1.03227913379669,-0.478501051664352,0.670976400375366,-1.04114485287423,-0.447975543971863,0.644518260536375,0
2.94000244140625,-1.57489824295044,1.65805327892303,2.36703968048096,-2.00517798053537,2.10304431360073,2.38415778000673,2995.196,2689.184,3621.925,786.9703,-0.202298,0.09885211,0.22187,-1.0329692363739,-0.471906751394272,0.674264788627625,-1.03525504859546,-0.445441325732794,0.640872191117535,0
2.95999908447266,-1.59547424316406,1.64877045154572,2.38030982017517,-2.02581860575671,2.0941632292003,2.39693531026807,2707.951,3395.185,3933.502,0,-0.2033547,0.1004993,0.2223621,-1.02879667282104,-0.464127868413925,0.663510382175446,-1.02911152474823,-0.442797939051516,0.637069057199471,0
2.98000335693359,-1.61603164672852,1.63962936401367,2.39356970787048,-2.04634164528706,2.08533273863774,2.40964004938531,3027.773,2690.241,3802.963,512.7213,-0.2017792,0.1015489,0.2190786,-1.02787852287292,-0.457052499055862,0.662997663021088,-1.02271203275434,-0.440044416427654,0.633107466805174,0
3,-1.63651382923126,1.63063907623291,2.40666246414185,-2.06672639957428,2.07656174835205,2.42225918334961,2770.884,3221.987,3995.858,0,-0.2025558,0.1022467,0.218823,-1.02411794662476,-0.449526309967041,0.654635488986969,-1.01606400046349,-0.437183953857422,0.628992018127441,0
3.01999664306641,-1.65695226192474,1.62179112434387,2.41968369483948,-2.08697572864857,2.06784902775215,2.4347944826559,3017.691,2744.134,3976.121,233.8143,-0.2019209,0.1020366,0.2167168,-1.02191174030304,-0.442390561103821,0.651063919067383,-1.00916768936771,-0.434216663853534,0.624722873042298,0
3.04000091552734,-1.67732524871826,1.61308431625366,2.43258142471313,-2.10709234004513,2.05919341186127,2.44724762339747,2841.178,3040.537,4056.585,0,-0.2017787,0.1012278,0.2163966,-1.01864278316498,-0.43533593416214,0.644891262054443,-1.00202309041976,-0.43114254252322,0.620300025949072,0
3.05999755859375,-1.69764423370361,1.60451173782349,2.44539475440979,-2.12705600675913,2.05060360379452,2.45960608409476,2943.752,2840.264,4042.434,87.75561,-0.2006058,0.09956534,0.2158783,-1.01596283912659,-0.428635597229004,0.640665352344513,-0.994638524886308,-0.427965170275055,0.615728628108227,0
3.08000183105469,-1.71790087223053,1.5960705280304,2.4580991268158,-2.14687713595163,2.04207512564123,2.47187630727625,2878.006,2937.815,4069.804,0,-0.1991027,0.09713631,0.2164546,-1.01282584667206,-0.422056257724762,0.635224282741547,-0.987011339258122,-0.424683405378145,0.611007036871143,0
3.09999847412109,-1.73811435699463,1.58774745464325,2.47076988220215,-2.16653584520328,2.033616532251,2.4840459847772,2803.094,2942.165,3924.11,197.0159,-0.1956108,0.09437613,0.2173336,-1.01067197322845,-0.416154772043228,0.633541524410248,-0.979150439632689,-0.421301079877433,0.606140765536421,0
3.12000274658203,-1.75825178623199,1.57955312728882,2.48329401016235,-2.18604243256806,2.0252233926589,2.49612149158362,2849.075,2973.183,4009.717,0,-0.1927266,0.09083099,0.2196137,-1.00687849521637,-0.409718662500381,0.626206874847412,-0.971053025860989,-0.417816988947023,0.601128080678429,0
3.13999938964844,-1.77837812900543,1.57145929336548,2.49590754508972,-2.20537738341953,2.01690410346351,2.50809074721212,2621.144,3012.156,3580.755,617.7786,-0.1854253,0.08791705,0.2209181,-1.0063089132309,-0.404691070318222,0.630679726600647,-0.962728579444533,-0.414235212212131,0.595974851798267,0
3.16000366210938,-1.79839336872101,1.56350219249725,2.50826787948608,-2.22455088103183,2.00865428308644,2.51996005559448,2707.48,3197.962,3871.726,0,-0.1817538,0.08444447,0.2254054,-1.00076794624329,-0.397847503423691,0.618019044399261,-0.954174163352092,-0.410554485950274,0.590679260733698,0
3.18000030517578,-1.81844747066498,1.55563545227051,2.52090334892273,-2.24354380138856,2.00048216005771,2.53171757805356,2442.037,2999.482,3030.177,1337.734,-0.1698782,0.08284888,0.2254935,-1.00270092487335,-0.393351435661316,0.631775975227356,-0.94539982440085,-0.406779133026206,0.58524752694315,0
3.19999694824219,-1.83833503723145,1.54792380332947,2.53311228752136,-2.2623590635174,1.99238647840124,2.54336512160655,2425.169,3625.843,3668.381,0,-0.1665525,0.08120637,0.2322212,-0.99437415599823,-0.385584950447083,0.610452353954315,-0.936405971974636,-0.402909329586355,0.579679903854719,0
3.22000122070313,-1.85831737518311,1.54030895233154,2.54580163955688,-2.28099938900442,1.98436606709459,2.55490437104486,2333.734,2846.591,2377.184,2234.26,-0.150516,0.08260142,0.2291304,-0.999122083187103,-0.380733788013458,0.634471595287323,-0.927192788821982,-0.398945154262308,0.573976504598449,0
3.23999786376953,-1.87806928157806,1.53287315368652,2.55786490440369,-2.29944628156995,1.97642888457015,2.56632387629027,2038.819,4201.522,3416.312,0,-0.1490028,0.08466377,0.2373529,-0.987598240375519,-0.371796607971191,0.60316002368927,-0.917771149318993,-0.394891285994308,0.568144060931169,0
3.26000213623047,-1.89794588088989,1.52556872367859,2.5705292224884,-2.31770961544581,1.96857068222185,2.57762974996267,2381.031,2512.416,1861.191,3008.556,-0.1312107,0.09017562,0.2294976,-0.99383682012558,-0.365220248699188,0.633212924003601,-0.90813782126959,-0.39074633405868,0.562180571969535,0
3.27999877929688,-1.91754388809204,1.51846730709076,2.58243203163147,-2.33577134012187,1.96079922667992,2.58881081793642,1708.369,4717.793,3164.946,0,-0.1329301,0.09694134,0.2370477,-0.979896903038025,-0.355068981647491,0.595139980316162,-0.898304216251578,-0.386515208538549,0.556093102023818,0
3.30000305175781,-1.93721854686737,1.51155591011047,2.59482049942017,-2.35364119854729,1.95311032582551,2.59987311156116,2645.75,2047.511,1857.422,3151.684,-0.1185714,0.1060016,0.2242579,-0.983741044998169,-0.345577627420425,0.619418084621429,-0.888267004546666,-0.382196476749158,0.549879589839776,0
3.31999969482422,-1.95660638809204,1.5048725605011,2.60649800300598,-2.37130160722417,1.94551154534655,2.61080574581408,1701.287,4782.01,3049.554,0,-0.1241401,0.1162231,0.2271664,-0.969393253326416,-0.334156632423401,0.583879470825195,-0.878038122530657,-0.377795274579551,0.543547424602645,0
3.34000396728516,-1.97591996192932,1.49843430519104,2.61823463439941,-2.38876217417054,1.9379987511813,2.62161466851603,3086.709,1708.278,2659.857,2139.337,-0.120459,0.1257412,0.211791,-0.965671837329865,-0.321924924850464,0.586827039718628,-0.867614155697521,-0.373310132863173,0.537094492570531,0
3.36000061035156,-1.99498093128204,1.49224090576172,2.62952756881714,-2.406005803634,1.93057929915441,2.6322892965819,2134.163,4035.563,3320.67,0,-0.1289369,0.1353688,0.2063015,-0.953058242797852,-0.309662312269211,0.564648866653442,-0.857007552155826,-0.36874640767338,0.530528499715627,0
3.37999725341797,-2.01379013061523,1.48631024360657,2.64035987854004,-2.42303550945299,1.9232518924954,2.64283149572124,3461.748,1857.556,4044.36,91.18567,-0.1398399,0.1408608,0.1930887,-0.940445840358734,-0.296532034873962,0.541620194911957,-0.846218976345105,-0.364104384899943,0.523849857357654,0
3.40000152587891,-2.03241300582886,1.48059630393982,2.65110015869141,-2.43985407218584,1.9160153348077,2.65324298723213,2649.821,2787.497,4009.655,0,-0.1484835,0.1450838,0.1811098,-0.931161463260651,-0.28569620847702,0.537013828754425,-0.835248923368004,-0.359384277571698,0.517058871988738,0
3.41999816894531,-2.05084252357483,1.47502994537354,2.661789894104,-2.45644516534361,1.90887665092339,2.66351366424015,2012.844,3529.941,3820.174,0,-0.1554737,0.1499737,0.1771217,-0.921463787555695,-0.278303980827332,0.534485101699829,-0.824110582941664,-0.354591760855451,0.510163708672097,0
3.44000244140625,-2.06903958320618,1.46958947181702,2.67219972610474,-2.47281804716281,1.90183185728196,2.67364925803476,2442.592,2774.349,4066.522,0,-0.1607356,0.1538922,0.1753335,-0.909858584403992,-0.272037327289581,0.520486414432526,-0.812800388649434,-0.349725300221754,0.503162159625937,0
3.45999908447266,-2.0870361328125,1.46426272392273,2.68239188194275,-2.48895692832918,1.89488774758421,2.68363999427827,2913.733,2163.17,4192.353,0,-0.1618217,0.1554053,0.170459,-0.899824202060699,-0.266327500343323,0.509603202342987,-0.801332006385299,-0.344790775723006,0.496062684689628,0
3.48000335693359,-2.10487079620361,1.45901584625244,2.69257688522339,-2.50487092366784,1.88804039997555,2.69349151548162,2600.029,2785.625,3865.515,0,-0.1592272,0.1557285,0.167107,-0.891728460788727,-0.262349516153336,0.509250402450562,-0.78970183472369,-0.339786637766397,0.488863054409187,0
3.5,-2.12251687049866,1.45383024215698,2.70268607139587,-2.5205447997813,1.88129636896134,2.70319439144611,2414.166,3134.458,3640.705,0,-0.1562658,0.1554596,0.1679178,-0.882311165332794,-0.259282320737839,0.505455672740936,-0.777924000354857,-0.334718964672089,0.481572013878822,0
3.51999664306641,-2.13994598388672,1.44871926307678,2.71254801750183,-2.53598168290031,1.87465430941181,2.7127505574575,2800.458,2578.12,3766.317,0,-0.1539664,0.1532519,0.1682492,-0.871439576148987,-0.255557179450989,0.493098378181458,-0.765999459475408,-0.329588167864767,0.474190155029786,0
3.54000091552734,-2.15719056129456,1.44368004798889,2.72229170799255,-2.55118444594166,1.86811298519115,2.72216179198813,2759.606,2521.17,3641.978,223.3573,-0.1496313,0.1494099,0.1667293,-0.862240493297577,-0.251959204673767,0.48718199133873,-0.753929052770513,-0.324394609067776,0.466717998286246,0
3.55999755859375,-2.17423725128174,1.43871402740479,2.73187661170959,-2.56613872308604,1.86167857751006,2.73141920191151,2528.358,2985.75,3604.797,0,-0.1465511,0.1444676,0.1680551,-0.852333009243011,-0.24829475581646,0.479242593050003,-0.741727567798258,-0.319144650954242,0.459164697851087,0
3.58000183105469,-2.19109010696411,1.4338264465332,2.741286277771,-2.58085326729328,1.85534732021446,2.74052820572674,2584.383,2747.875,3608.928,159.3791,-0.1432339,0.1382609,0.169849,-0.842651963233948,-0.244390577077866,0.470487475395203,-0.729391385793765,-0.313836736470737,0.451528013536464,0
3.59999847412109,-2.20776796340942,1.42901706695557,2.75056958198547,-2.59531431270705,1.84912513636775,2.74948028171299,2429.062,2834.061,3524.317,307.8878,-0.1384322,0.1313495,0.1724311,-0.833880484104156,-0.240462049841881,0.46417099237442,-0.716935713767317,-0.308477408768949,0.443817359206151,0
3.62000274658203,-2.22427177429199,1.42429494857788,2.7596960067749,-2.60953046793176,1.84300832192796,2.75828075900647,2396.659,2888.873,3513.999,282.9223,-0.1330441,0.1237717,0.1763607,-0.825194597244263,-0.236100509762764,0.456322073936462,-0.704356955827444,-0.303065120637236,0.436030508832034,0
3.63999938964844,-2.24063730239868,1.41966080665588,2.7687840461731,-2.6234885835008,1.83700253474321,2.76692149746096,2253.236,2917.677,3262.786,650.4739,-0.1245385,0.1163186,0.1803652,-0.8182692527771,-0.23169918358326,0.454407840967178,-0.691670720740692,-0.297606588091786,0.428177124984152,0
3.66000366210938,-2.25683450698853,1.41513991355896,2.77765536308289,-2.63719712493647,1.83110413233575,2.77540773763803,2372.592,2949.51,3391.53,344.793,-0.1173421,0.108241,0.185763,-0.809861063957214,-0.226045876741409,0.443563044071198,-0.678873453515702,-0.29210028151913,0.420255006953505,0
3.68000030517578,-2.27295184135437,1.41072773933411,2.7866735458374,-2.65064357486757,1.82531850058072,2.78373173068862,2060.019,2969.875,2762.838,1289.452,-0.1038122,0.1015271,0.1887714,-0.805865585803986,-0.220617040991783,0.45091238617897,-0.665981146317811,-0.286553081901244,0.412274054652249,0
3.69999694824219,-2.28885793685913,1.40647280216217,2.79520726203918,-2.66383127580226,1.81964420129024,2.79189554578451,2448.956,3107.006,3454.207,0,-0.09858064,0.09332266,0.1955458,-0.795302927494049,-0.212741538882256,0.426688462495804,-0.65299527533123,-0.280965624398954,0.404235181908735,0
3.72000122070313,-2.30480480194092,1.40235161781311,2.80437207221985,-2.6767633032417,1.81407991116207,2.79990108680742,1657.406,2982.486,1813.294,2646.438,-0.07725457,0.08924874,0.1942332,-0.797358155250549,-0.206071108579636,0.458241850137711,-0.639917282339434,-0.275338529371411,0.396139281255611,0
3.73999786376953,-2.32048654556274,1.39840269088745,2.81276822090149,-2.68942811570037,1.808630596175,2.80774120902801,1549.063,4334.451,3044.224,0,-0.07330617,0.08607366,0.2071722,-0.784092307090759,-0.197440043091774,0.419811338186264,-0.626763698705669,-0.269678909802388,0.38799658639423,0
3.76000213623047,-2.33629512786865,1.39464211463928,2.82206344604492,-2.70183383146282,1.803292763258,2.81542093805117,1646.303,2382.4,801.1331,4247.153,-0.04485615,0.08870378,0.2001773,-0.790433764457703,-0.188032209873199,0.464762985706329,-0.613531154887639,-0.263985315871967,0.379805011417393,0
3.77999877929688,-2.35179138183594,1.39107823371887,2.8302686214447,-2.7139695770734,1.79807109095524,2.82293354268985,1081.656,5112.519,2649.632,0,-0.04352138,0.09304688,0.2135984,-0.774808645248413,-0.178188771009445,0.410253882408142,-0.60023651686137,-0.258265004538452,0.371574997167698,0
3.80000305175781,-2.36742401123047,1.38780403137207,2.83939456939697,-2.72584333814708,1.79296214327972,2.83028396642013,2040.739,1628.179,347.1952,5020.209,-0.01480238,0.1024878,0.1972916,-0.781626224517822,-0.163724645972252,0.456293314695358,-0.586876524285838,-0.252516572968186,0.363304525338741,0
3.81999969482422,-2.38273477554321,1.384765625,2.84740829467773,-2.73744492223163,1.78797030575888,2.83746589962856,804.9843,5761.753,2202.099,0,-0.01899846,0.1141466,0.2059432,-0.765535771846771,-0.151908278465271,0.400687426328659,-0.573468357077023,-0.246747413199059,0.355004231116903,0
3.83999633789063,-2.39799642562866,1.38207769393921,2.85570645332336,-2.74877791451009,1.78309403578861,2.84448156171422,2760.458,884.3096,1238.813,4028.332,-0.004196077,0.1266897,0.1832516,-0.763088166713715,-0.134403914213181,0.414908885955811,-0.560014026276881,-0.240958390526246,0.346675359432959,0
3.86000061035156,-2.41294050216675,1.37968719005585,2.86326694488525,-2.75984563331209,1.77833190558438,2.85133300688122,1515.501,4856.98,2371.105,0,-0.01424578,0.1394852,0.1774179,-0.747198402881622,-0.119518376886845,0.378023833036423,-0.546515580872635,-0.235150386571708,0.338319178707605,0
3.87999725341797,-2.42756366729736,1.37761223316193,2.87025380134583,-2.77063893010371,1.77368785150474,2.85801457175126,3353.93,1169.659,3248.256,973.2101,-0.02480788,0.1475776,0.1555075,-0.731164395809174,-0.103758938610554,0.349338680505753,-0.532990631455729,-0.229330978680956,0.329946590735853,0
3.90000152587891,-2.44186091423035,1.37582230567932,2.877028465271,-2.78116548164984,1.76915857045225,2.8645310086075,2302.643,3008.512,3429.813,0,-0.0387703,0.1536989,0.1373355,-0.714858710765839,-0.0894912034273148,0.338732004165649,-0.519436284009554,-0.223498921639498,0.32155580398356,0
3.91999816894531,-2.455815076828,1.37423777580261,2.88364148139954,-2.79141684911929,1.7647476934202,2.87087709341145,1718.68,3474.733,3458.598,0,-0.05415751,0.1594755,0.1282127,-0.697697162628174,-0.0792137607932091,0.330653190612793,-0.505870408491346,-0.2176619043907,0.313157880805522,0
3.94000244140625,-2.46940851211548,1.37279367446899,2.88986349105835,-2.8014005971492,1.76045196555656,2.87705750903383,1948.77,2687.57,3934.896,0,-0.06772418,0.1637238,0.1230489,-0.679668247699738,-0.072202242910862,0.311103165149689,-0.492290296490434,-0.211818761581115,0.30475114456651,0
3.95999908447266,-2.48268055915833,1.37145328521729,2.89581274986267,-2.81110900652845,1.75627470822223,2.88306747691526,2392.052,1977.12,4194.488,0,-0.07436824,0.1648923,0.1160752,-0.663611769676208,-0.0670261308550835,0.297464996576309,-0.478714054341681,-0.205977283860804,0.296346803950332,0
