t,x_s1,x_s2,x_s3,x_s_d1,x_s_d2,x_s_d3,propellers_rpms1,propellers_rpms2,propellers_rpms3,propellers_rpms4,rollRad,pitchRad,yawRad,v_s1,v_s2,v_s3,v_s_d1,v_s_d2,v_s_d3,insideCount
0,-0.0599999986588955,2.94000005722046,1.17999994754791,-0.0599999986588955,2.94000005722046,1.17999994754791,0,0,0,0,0,0,0,0,0,0,-1.06581410364015E-15,4.44089209850063E-16,4.44089209850063E-16,0
0.0200042724609375,-0.0599999986588955,2.94000005722046,1.17729234695435,-0.0600018701838461,2.93999925195556,1.18000110611101,0,0,0,0,0.0163538,-0.002474609,-2.024222E-05,3.71994488546079E-08,3.50004931704007E-08,-0.135377958416939,-0.000280105751305916,-0.000120521679537258,0.00017339880334547,5
0.0400009155273438,-0.0599999986588955,2.94000005722046,1.17105865478516,-0.0600148724204753,2.93999365745638,1.18000915511487,0,0,0,0,0.03270752,-0.004950816,-5.430172E-05,3.48044650877455E-08,3.30428591155396E-08,-0.311683237552643,-0.00111101934050116,-0.00047804058392963,0.00068777389696065,6
0.05999755859375,-0.0600004307925701,2.94013142585754,1.16552245616913,-0.0600498857373401,2.93997859220429,1.18003083002592,3161.645,2810.171,1469.512,2738.824,0.03139259,-0.004977448,-0.01632784,-2.15872623812174E-05,0.00656331889331341,-0.276811599731445,-0.00247936261166862,-0.00106680046642749,0.00153484356504269,6
0.0800018310546875,-0.0599182620644569,2.94037842750549,1.16100013256073,-0.0601175574246769,2.93994947496775,1.18007272202403,3028.851,3011.934,2083.585,1979.165,0.019216,-0.004420315,-0.04309314,0.00410841964185238,0.0123497452586889,-0.226116538047791,-0.00437268608126799,-0.00188144466206175,0.00270690098422899,6
0.0999984741210938,-0.0596519224345684,2.94066071510315,1.15742909908295,-0.0602281887669101,2.93990187339187,1.18014120809498,2573.092,3764.134,2528.135,1069.444,-0.005652293,-0.003074886,-0.0691053,0.0133169954642653,0.0141157731413841,-0.178551480174065,-0.00677637982016689,-0.00291568692648091,0.00419490191241918,6
0.120002746582031,-0.0591362528502941,2.94084787368774,1.154620885849,-0.0603919599823235,2.93983140721312,1.18024259027882,1989.706,4004.103,3075.543,694.8513,-0.03990694,-0.0007073356,-0.08794237,0.0257835201919079,0.0093637378886342,-0.140408098697662,-0.00967921398219614,-0.00416469537060396,0.00599189453988277,5
0.139999389648438,-0.0583610385656357,2.94078660011292,1.15244734287262,-0.0606185767455666,2.93973390035084,1.18038287685052,1381.581,3936.988,3641,663.8789,-0.07574722,0.002033752,-0.09641548,0.0387606397271156,-0.00305870082229376,-0.108674220740795,-0.0130660253322238,-0.00562194567796536,0.00808849210174802,4
0.160003662109375,-0.0573620609939098,2.94033217430115,1.15091991424561,-0.0609177895434042,2.93960515744296,1.18056810382587,1009.32,3669.345,3950.392,872.3066,-0.1041259,0.003834145,-0.09479042,0.0499488785862923,-0.02271593734622,-0.0763733685016632,-0.0169265510445065,-0.00728302204135792,0.0104783414199936,4
0.180000305175781,-0.0561949610710144,2.93938517570496,1.15012359619141,-0.0612986871007165,2.9394412678651,1.18080389755851,1011.159,3363.139,3835.517,1161.008,-0.1193485,0.003850823,-0.08597589,0.0583550781011581,-0.0473452657461166,-0.039814155548811,-0.0212451141043368,-0.00914117907931815,0.0131517376757159,3
0.200004577636719,-0.0549088828265667,2.93791794776917,1.15010976791382,-0.0617706280683152,2.93923820485124,1.18109605149912,1332.708,3133.183,3353.594,1401.619,-0.1214135,0.002340576,-0.07415625,0.0643040239810944,-0.0733579248189926,-0.000691581517457962,-0.026012379510746,-0.0111924002017188,0.0161029020586274,3
0.220001220703125,-0.0535359345376492,2.93597269058228,1.15082943439484,-0.0623420644491781,2.93899233174064,1.18144979784016,1790.308,3014.664,2724.025,1533.29,-0.1151237,0.0002792698,-0.06327458,0.0686474293470383,-0.0972626656293869,0.0359833687543869,-0.03121219533433,-0.0134297356845702,0.019321835755004,3
0.239997863769531,-0.0520958751440048,2.93363213539124,1.15212345123291,-0.0630217183703222,2.93869989564571,1.18187053599376,2171.534,2982.69,2212.813,1547.114,-0.1071533,-0.001340103,-0.05580974,0.0720029398798943,-0.117024466395378,0.0647013410925865,-0.0368338920540454,-0.0158485947310391,0.02280193382306,3
0.260002136230469,-0.0506037883460522,2.93098068237305,1.15377116203308,-0.0638182299684225,2.938357178957,1.18236361461609,2347.548,2985.414,2004.974,1459.953,-0.1029035,-0.001920139,-0.05235455,0.0746044367551804,-0.132567867636681,0.0823851302266121,-0.0428675524613532,-0.0184447102433459,0.0265370570382875,3
0.279998779296875,-0.0490740165114403,2.92807531356812,1.1555722951889,-0.0647390625194898,2.93796097043536,1.18293365383054,2309.075,2996.052,2122.6,1298.791,-0.1047118,-0.001325722,-0.05184961,0.0764887109398842,-0.145271167159081,0.0900559201836586,-0.0492963837173861,-0.0212108567320638,0.030516809833474,3
0.300003051757813,-0.0475224554538727,2.92493534088135,1.15741109848022,-0.0657927507678135,2.93750759781875,1.18358593705038,2137.584,3011.234,2442.019,1106.161,-0.1118709,0.0001960034,-0.05227625,0.0775779560208321,-0.156993061304092,0.0919410809874535,-0.0561132031658829,-0.0241439437008635,0.0347367458022363,3
0.319999694824219,-0.0459691509604454,2.92155051231384,1.15926611423492,-0.0669860785243584,2.93699414222283,1.18432466377777,1943.345,3019.355,2792.421,937.5118,-0.1218188,0.0021536,-0.05160993,0.0776655301451683,-0.169245287775993,0.0927514061331749,-0.0633008373176985,-0.0272365818771378,0.0391862337367069,3
0.340003967285156,-0.044439323246479,2.91789531707764,1.1611762046814,-0.0683273092598492,2.93641704810699,1.18515494949472,1803.527,3001.351,3048.018,841.6447,-0.1315058,0.004016045,-0.04861228,0.0764914974570274,-0.182755097746849,0.095506064593792,-0.0708528993697216,-0.0304860231979345,0.0438613199015142,3
0.360000610351563,-0.0429610460996628,2.91394639015198,1.1632034778595,-0.0698225328270578,2.93577369517774,1.1860805641102,1757.34,2955.479,3148.155,830.5493,-0.138502,0.005408685,-0.0431496,0.0739139392971992,-0.197443798184395,0.101364828646183,-0.0787518717320621,-0.0338847303337087,0.0487511600740379,3
0.379997253417969,-0.041560672223568,2.90969371795654,1.16540169715881,-0.0714791088463715,2.935060916796,1.18710606357981,1802.427,2905.519,3097.305,874.6349,-0.1417489,0.006226213,-0.03593616,0.0700185969471931,-0.212629660964012,0.109912075102329,-0.0869889214763108,-0.0374289027221294,0.0538502862508218,3
0.400001525878906,-0.0402593612670898,2.9051456451416,1.16779756546021,-0.0733044112230977,2.93427554017634,1.18823601270221,1908.473,2870.617,2945.678,936.9146,-0.14167,0.006603066,-0.02807824,0.0650657191872597,-0.227399602532387,0.119794458150864,-0.0955558400788823,-0.0411150084648172,0.0591536169647403,3
0.419998168945313,-0.0390722937881947,2.90032649040222,1.17038226127625,-0.0753034649285836,2.93341540321397,1.18947352217404,2025.776,2858.056,2769.709,988.1081,-0.1397174,0.006794007,-0.02059795,0.0593533962965012,-0.240961164236069,0.129234969615936,-0.104434660908044,-0.0449353170220673,0.0646500300148815,3
0.44000244140625,-0.0380103066563606,2.89526844024658,1.17311811447144,-0.077483988232608,2.93247718495301,1.19082336997196,2110.684,2859.427,2639.547,1016.015,-0.1375603,0.007042713,-0.01415097,0.0530993938446045,-0.252902239561081,0.136791855096817,-0.113620829717891,-0.048887868829098,0.0703367061060819,3
0.459999084472656,-0.037082102149725,2.89000344276428,1.17595720291138,-0.0798502821969742,2.93145903476675,1.19228821865812,2148.129,2866.866,2591.002,1012.555,-0.1364646,0.007497877,-0.008926916,0.0464102737605572,-0.263251662254333,0.141952738165855,-0.123096124252221,-0.0529648233581361,0.0762023647937057,3
0.480003356933594,-0.0362959839403629,2.88455677032471,1.17885732650757,-0.0824098964715798,2.93035770425173,1.19387274182544,2140.635,2876.87,2626.036,978.1205,-0.1370021,0.008197621,-0.004677043,0.0393058657646179,-0.272337138652802,0.14500892162323,-0.132856662250146,-0.057164510180779,0.0822446027733248,4
0.5,-0.0356611907482147,2.87894415855408,1.18179655075073,-0.085166398670376,2.92917165836334,1.1955791479969,2109.231,2883.71,2713.398,927.6089,-0.1390357,0.009086695,-0.0009374327,0.0317397713661194,-0.280628979206085,0.146958976984024,-0.142884000065179,-0.0614789935111996,0.0884520025491718,4
0.520004272460938,-0.0351881794631481,2.8731734752655,1.18477141857147,-0.088127196023106,2.92789770997757,1.19741202260058,2072.044,2888.506,2818.344,872.732,-0.142004,0.01006299,0.00281153,0.0236504673957825,-0.28853103518486,0.148741111159325,-0.153174893518032,-0.065906877469682,0.0948225558197254,4
0.540000915527344,-0.0348886474967003,2.86724710464478,1.18779575824738,-0.0912951145137283,2.92653464315245,1.19937311505516,2047.337,2885.501,2904.509,834.3484,-0.1451423,0.01101697,0.006901567,0.0149765117093921,-0.296323210000992,0.151219949126244,-0.163710711144578,-0.0704401454577151,0.101344728821151,4
0.55999755859375,-0.0347743928432465,2.86116552352905,1.19088912010193,-0.094676112580471,2.92507989413848,1.20146611391775,2041.389,2881.557,2957.049,811.0672,-0.1478459,0.01187123,0.01147657,0.00571286771446466,-0.304078906774521,0.154665499925613,-0.17448465888317,-0.0750758741803766,0.108014315705644,4
0.580001831054688,-0.0348565131425858,2.85493063926697,1.19407224655151,-0.0982762614093182,2.92353085067394,1.20369477754168,2055.788,2874.668,2968.827,809.8531,-0.1497442,0.01259426,0.01643262,-0.00410617794841528,-0.311749041080475,0.159158229827881,-0.185490414529404,-0.0798113433697334,0.11482740272751,4
0.599998474121094,-0.0351442359387875,2.84854698181152,1.19735908508301,-0.102097262171133,2.92188678079254,1.20606015903275,2085.155,2874.076,2951.652,814.6023,-0.150867,0.01319859,0.02157898,-0.014386385679245,-0.319177985191345,0.164343371987343,-0.196709126405959,-0.0846384416756885,0.121772319800455,4
0.620002746582031,-0.0356447771191597,2.84202265739441,1.20075488090515,-0.106146271928021,2.92014460501038,1.20856668895334,2116.332,2875.377,2922.723,826.7766,-0.1514481,0.01372759,0.0266787,-0.0250268466770649,-0.32621043920517,0.169789791107178,-0.208139001499973,-0.0895563976148993,0.128847956964108,4
0.639999389648438,-0.0363635793328285,2.83536767959595,1.20425868034363,-0.110424235525481,2.91830391678686,1.21121495220784,2145.784,2880.447,2895.942,835.472,-0.1518449,0.01422946,0.03154011,-0.0359402745962143,-0.332750260829926,0.175192475318909,-0.219761081350814,-0.0945570538913933,0.136042578028218,4
0.660003662109375,-0.0373046919703484,2.82859253883362,1.20786333084106,-0.114938248900541,2.91636166293851,1.21400934151928,2165.264,2888.385,2886.872,834.8531,-0.1524095,0.01474462,0.03608993,-0.0470552258193493,-0.338756859302521,0.180230975151062,-0.231574097577923,-0.0996398647564507,0.143355397804799,4
0.680000305175781,-0.0384717844426632,2.82170653343201,1.21156346797943,-0.119688496929273,2.91431776391831,1.21694997133476,2176.711,2893.832,2894.094,830.916,-0.1533166,0.01529454,0.04030592,-0.0583549812436104,-0.34429520368576,0.185007601976395,-0.243559016194652,-0.104796640417365,0.150774633349401,4
0.700004577636719,-0.0398681834340096,2.8147177696228,1.21535313129425,-0.124682034788652,2.91216918408072,1.22004120914491,2181.154,2901.61,2921.208,813.3891,-0.1546652,0.01588222,0.0442921,-0.0698199719190598,-0.349436730146408,0.189481049776077,-0.255715062526221,-0.110027047553219,0.158299805101433,4
0.720001220703125,-0.0414978377521038,2.80763149261475,1.21923387050629,-0.129918284978346,2.90991617190799,1.22328269744952,2183.311,2903.577,2953.443,800.9528,-0.1563249,0.01649809,0.04811101,-0.0814827233552933,-0.354317039251328,0.194038063287735,-0.268023157655716,-0.11532287703907,0.16591910230247,4
0.739997863769531,-0.0433644503355026,2.8004515171051,1.22320687770844,-0.135402141159277,2.90755662179454,1.22667746565781,2186.816,2909.32,2991.751,777.6643,-0.1582152,0.01712387,0.05189897,-0.0933305770158768,-0.359000235795975,0.198647826910019,-0.280478211503383,-0.120681938755799,0.173629373950669,5
0.760002136230469,-0.0454723797738552,2.7931797504425,1.22728025913239,-0.14113868194985,2.90508834855275,1.23022865767651,2192.503,2908.269,3020.686,769.3209,-0.1600991,0.01774691,0.05566604,-0.105395704507828,-0.363583236932755,0.20366907119751,-0.293075466693575,-0.12610218573757,0.181427675003881,5
0.779998779296875,-0.047825176268816,2.78581833839417,1.23145949840546,-0.147126184485884,2.90251209348295,1.23393520697061,2205.802,2914.015,3044.556,751.0027,-0.1619474,0.01835302,0.0594723,-0.117640011012554,-0.36806857585907,0.208961024880409,-0.305795832832518,-0.131575403921268,0.189302187598958,5
0.800003051757813,-0.0504263080656528,2.77836894989014,1.23575115203857,-0.153371683173492,2.89982482987671,1.2378014681726,2217.68,2914.162,3059.863,748.3731,-0.1636449,0.01894439,0.06326965,-0.13005693256855,-0.372473925352097,0.214585646986961,-0.318639638509124,-0.13710173468952,0.197253115148089,5
0.819999694824219,-0.0532784797251225,2.77083325386047,1.24016034603119,-0.159872691993147,2.89702762739878,1.24182590231796,2235.816,2919.162,3069.272,740.2981,-0.1652353,0.01952185,0.06703201,-0.142608910799026,-0.376782864332199,0.22045810520649,-0.331587821991737,-0.142672976311719,0.205268657531342,5
0.840003967285156,-0.0563836358487606,2.76321387290955,1.24468874931335,-0.166636266402775,2.89411745028271,1.24601287707125,2251.349,2923.475,3078.877,735.2096,-0.1667725,0.02009471,0.07072617,-0.155257657170296,-0.380972027778625,0.226422742009163,-0.344641102544584,-0.148289438267168,0.213349260007538,5
0.860000610351563,-0.059743445366621,2.75551295280457,1.2493394613266,-0.173659158941841,2.89109569582005,1.2503603820997,2267.665,2927.498,3086.334,732.3318,-0.1682995,0.02067162,0.07430157,-0.167991191148758,-0.385051965713501,0.232538655400276,-0.357780475378537,-0.153942943326036,0.221483157706883,5
0.879997253417969,-0.0633587092161179,2.74773287773132,1.25411057472229,-0.180945630646592,2.88796053060595,1.25487105518773,2281.915,2934.131,3101.999,720.5914,-0.1699288,0.02125736,0.07778099,-0.180763006210327,-0.388998091220856,0.238557904958725,-0.371001963495383,-0.159631780297098,0.229667888678032,5
0.900001525878906,-0.0672307014465332,2.73987555503845,1.25900506973267,-0.188500167066783,2.88471002463366,1.2595476731043,2293.575,2935.746,3116.228,719.0056,-0.1716104,0.02186062,0.08111978,-0.193599224090576,-0.392862051725388,0.244724303483963,-0.384301823631742,-0.165354338558695,0.237901135662636,5
0.919998168945313,-0.071359857916832,2.73194289207458,1.26402163505554,-0.196318384305134,2.8813460641717,1.26438752200817,2308.622,2943.496,3137.486,700.6596,-0.1734506,0.02247626,0.08438121,-0.206457376480103,-0.396634429693222,0.250829577445984,-0.397661187980262,-0.171102499820431,0.246171218589148,5
0.94000244140625,-0.0757471323013306,2.72393560409546,1.26916253566742,-0.204407453948074,2.87786556348678,1.26939504145298,2317.39,2943.887,3158.912,696.5737,-0.1753468,0.02311053,0.08754478,-0.219364300370216,-0.40036353468895,0.257042765617371,-0.411081631631503,-0.176876941799768,0.254479112513653,5
0.959999084472656,-0.0803932547569275,2.71585440635681,1.27442944049835,-0.212762239776093,2.87427073255068,1.27456705187416,2332.223,2949.036,3180.906,681.1387,-0.1773181,0.02375674,0.09064753,-0.232306197285652,-0.404063433408737,0.263345420360565,-0.424544411524882,-0.18266959988136,0.262813214588797,5
0.980003356933594,-0.0852988362312317,2.70769953727722,1.2798238992691,-0.221389982382338,2.87055845593844,1.2799080355438,2343.929,2951.311,3203.625,671.0534,-0.1793154,0.02441536,0.09369838,-0.245279148221016,-0.407748907804489,0.269725173711777,-0.438051398499298,-0.18848127903492,0.271174682952979,5
1,-0.0904646813869476,2.69947052001953,1.28534996509552,-0.230284798736574,2.86673126495361,1.28541435058594,2358.928,2954.171,3221.544,662.1704,-0.1813011,0.02508541,0.0966867,-0.258292198181152,-0.411447525024414,0.276304960250854,-0.451584000205995,-0.194303979492187,0.279552008056641,5
1.02000427246094,-0.0958907455205917,2.6911678314209,1.29100716114044,-0.239454009753966,2.86278600961093,1.2910905289958,2373.727,2958.754,3243.599,647.1119,-0.183315,0.02576318,0.09964592,-0.27130314707756,-0.415132969617844,0.282857596874237,-0.465144357597929,-0.200138622445408,0.287946515251652,5
1.04000091552734,-0.101577833294868,2.68279075622559,1.29680097103119,-0.24889099213045,2.8587255397331,1.29693247063265,2387.965,2959.508,3256.88,645.9948,-0.1852655,0.02645666,0.1025157,-0.284353762865067,-0.418855309486389,0.289689630270004,-0.478714054341683,-0.205977283860805,0.296346803950333,5
1.05999755859375,-0.1075249761343,2.67433977127075,1.30272769927979,-0.258599401509697,2.85454828239877,1.30294243851408,2405.347,2966.804,3280.338,623.9368,-0.1872959,0.02715505,0.1053703,-0.297358274459839,-0.422546803951263,0.296333640813828,-0.492290296490434,-0.211818761581115,0.30475114456651,5
1.08000183105469,-0.113733097910881,2.66581392288208,1.30879426002502,-0.268583149539609,2.85025255453512,1.30912285413647,2416.524,2964.556,3291.723,631.1231,-0.1892266,0.02787643,0.1081035,-0.310406297445297,-0.426291763782501,0.30332812666893,-0.50587040849135,-0.217661904390701,0.313157880805523,5
1.09999847412109,-0.120200663805008,2.65721392631531,1.31499564647675,-0.278834517009062,2.84584167750307,1.31546893894041,2438.104,2975.112,3315.686,601.0378,-0.1912996,0.02859978,0.1108313,-0.323377907276154,-0.430000483989716,0.310067057609558,-0.519436284009554,-0.223498921639497,0.321555803983559,5
1.12000274658203,-0.126928240060806,2.64853858947754,1.32133769989014,-0.289361068555186,2.84131239645058,1.32198537579665,2445.479,2970.763,3329.501,611.7768,-0.1932794,0.02935001,0.113436,-0.336380034685135,-0.433764636516571,0.31710359454155,-0.532990631455731,-0.229330978680957,0.329946590735853,5
1.13999938964844,-0.133914336562157,2.63978862762451,1.32781600952148,-0.300154365346813,2.83666834237095,1.3286669406667,2467.416,2980.592,3354.551,581.2178,-0.1953908,0.03010394,0.1160324,-0.349303364753723,-0.437503516674042,0.323912858963013,-0.546515580872639,-0.235150386571708,0.338319178707607,5
1.16000366210938,-0.141159296035767,2.63096261024475,1.33443605899811,-0.311222084148811,2.83190621216671,1.33551838583369,2475.442,2976.878,3369.828,589.2201,-0.1974121,0.03088386,0.118519,-0.362248957157135,-0.441302567720413,0.331002205610275,-0.560014026276883,-0.240958390526247,0.34667535943296,6
1.18000030517578,-0.148661568760872,2.62206077575684,1.34119391441345,-0.322555076427271,2.82702994219644,1.34253404791935,2497.23,2985.729,3394.851,559.8709,-0.1995432,0.03166683,0.1210005,-0.375113636255264,-0.445087015628815,0.337891280651093,-0.573468357077025,-0.246747413199059,0.355004231116904,6
1.19999694824219,-0.156421393156052,2.61308217048645,1.34809470176697,-0.334156660511822,2.8220381046756,1.34971598112778,2505.839,2982.445,3410.567,566.2859,-0.2015773,0.03247415,0.1233841,-0.387991607189178,-0.448933631181717,0.345037668943405,-0.58687652428584,-0.252516572968185,0.36330452533874,6
1.22000122070313,-0.164437040686607,2.60402679443359,1.35513412952423,-0.346030421585499,2.81692915700008,1.35706640485806,2526.953,2990.104,3436.01,538.246,-0.2036945,0.03328371,0.1257658,-0.400781452655792,-0.452765643596649,0.351974278688431,-0.600236516861372,-0.258265004538453,0.371574997167698,6
1.23999786376953,-0.172708928585052,2.59489321708679,1.36231958866119,-0.358166167196084,2.81170748469733,1.36457900949675,2537.815,2987.929,3447.102,545.9374,-0.2056956,0.0341174,0.1280402,-0.413595139980316,-0.456678539514542,0.359275460243225,-0.613531154887641,-0.263985315871967,0.379805011417393,6
1.26000213623047,-0.181234210729599,2.58568239212036,1.36964190006256,-0.370571882958536,2.80636965178032,1.3722587385199,2559.005,2996.405,3478.005,510.8176,-0.2078411,0.03494544,0.1303481,-0.426264524459839,-0.460536807775497,0.366114616394043,-0.626763698705669,-0.269678909802388,0.38799658639423,6
1.27999877929688,-0.190014496445656,2.57639193534851,1.37711405754089,-0.383236695417198,2.80092033679326,1.3800988607405,2565.734,2990.169,3482.211,534.1288,-0.2097596,0.03581032,0.1324956,-0.43901538848877,-0.464521378278732,0.37360680103302,-0.639917282339435,-0.275338529371412,0.396139281255613,6
1.30000305175781,-0.199045166373253,2.56702423095703,1.38471925258636,-0.396168722856641,2.79535604666509,1.38810440176341,2593.861,3004.178,3521.679,476.8604,-0.2119535,0.03665149,0.1347442,-0.451532870531082,-0.468383222818375,0.38025775551796,-0.652995275331231,-0.280965624398954,0.404235181908735,6
1.31999969482422,-0.208329811692238,2.55757522583008,1.39247977733612,-0.409356423791328,2.7896817473746,1.39626821685929,2591.868,2991.076,3514.644,527.864,-0.2137501,0.03754997,0.1367504,-0.464230746030807,-0.472447365522385,0.388027429580688,-0.665981146317813,-0.286553081901244,0.412274054652251,6
1.34000396728516,-0.217860788106918,2.54804968833923,1.40036642551422,-0.422808053134535,2.78389388706324,1.40459541621271,2630.993,3013.35,3568.65,435.0391,-0.2160372,0.038395,0.138968,-0.476549655199051,-0.476277440786362,0.394330680370331,-0.678878353700697,-0.292102389931837,0.420258040401443,6
1.36000061035156,-0.227645263075829,2.53844094276428,1.40841734409332,-0.436511415158101,2.77799771321212,1.41307845008695,2614.292,2989.406,3542.548,532.2239,-0.2176394,0.03933369,0.140806,-0.48922598361969,-0.4804427921772,0.402547091245651,-0.691670720740693,-0.297606588091785,0.42817712498415,6
1.37999725341797,-0.237670823931694,2.52875733375549,1.41658210754395,-0.450469530727146,2.77199192602736,1.42171918854144,2672.539,3025.172,3621.513,378.9914,-0.2200991,0.04016702,0.1430406,-0.501275181770325,-0.484184682369232,0.408237606287003,-0.704356955827446,-0.303065120637236,0.436030508832034,6
1.40000152587891,-0.247950673103333,2.51898741722107,1.42492580413818,-0.464685685951852,2.76587511158757,1.43051966583492,2629.514,2983.11,3563.573,555.2306,-0.2213758,0.04115973,0.1446633,-0.513994157314301,-0.488490521907806,0.417187243700027,-0.716935713767318,-0.308477408768949,0.443817359206152,7
1.41999816894531,-0.258464217185974,2.50914597511292,1.43336415290833,-0.47914673136562,2.75965292774086,1.43947174182117,2723.02,3042.174,3681.244,300.2889,-0.2241311,0.04195754,0.1469828,-0.525676786899567,-0.492069244384766,0.421920359134674,-0.729391385793766,-0.313836736470737,0.451528013536465,7
1.44000244140625,-0.269235044717789,2.49921417236328,1.44200539588928,-0.493861275572861,2.75332167044526,1.4485807456364,2635.203,2971.892,3571.162,606.2831,-0.2249199,0.04302495,0.1483174,-0.538541615009308,-0.496590167284012,0.43206450343132,-0.741727567798258,-0.319144650954242,0.459164697851088,7
1.45999908447266,-0.280228346586227,2.48921704292297,1.45070672035217,-0.508815552717244,2.74688726276417,1.45783815555978,2783.839,3064.926,3759.666,184.1921,-0.2282047,0.04374872,0.150846,-0.549665868282318,-0.499853849411011,0.435063391923904,-0.753929052770513,-0.324394609067776,0.466717998286247,7
1.48000335693359,-0.291487008333206,2.47912168502808,1.45965600013733,-0.524018315758597,2.74034593854351,1.46724939009041,2621.903,2950.37,3551.906,714.9442,-0.2281232,0.04494366,0.1517229,-0.562932372093201,-0.504767656326294,0.447464227676392,-0.765999459475408,-0.329588167864767,0.474190155029787,7
1.5,-0.302950292825699,2.46897196769714,1.46860587596893,-0.539455198877605,2.73370387899399,1.4768055561018,2860.593,3111.385,3862.362,0,-0.2323422,0.04555717,0.1547291,-0.573165357112885,-0.507487833499908,0.447491884231567,-0.777924000354858,-0.334718964672088,0.481572013878822,7
1.52000427246094,-0.314695239067078,2.45871019363403,1.47788214683533,-0.555135099954955,2.72695725560613,1.48651216180595,2577.055,2907.983,3485.419,925.7642,-0.2307698,0.04699929,0.1548701,-0.587247371673584,-0.513091087341309,0.46381089091301,-0.789706299681991,-0.339788558913217,0.48886581843107,7
1.54000091552734,-0.326633781194687,2.44838881492615,1.48716235160828,-0.571043070329722,2.72011250037111,1.49635995326965,2734.432,3366.638,3774.702,0,-0.2345531,0.04839597,0.1590284,-0.596926212310791,-0.516073822975159,0.464011967182159,-0.801332006385301,-0.344790775723006,0.496062684689629,7
1.55999755859375,-0.338841080665588,2.43796229362488,1.49672913551331,-0.587181951496087,2.71316839067337,1.50635068951315,2671.786,2803.768,3471.056,990.0695,-0.2328913,0.05048735,0.1589745,-0.610364615917206,-0.521327555179596,0.478338897228241,-0.812800388649436,-0.349725300221754,0.503162159625937,7
1.58000183105469,-0.351233392953873,2.42748689651489,1.5062735080719,-0.60355483331529,2.70612359703193,1.51648628330776,2830.531,3275.742,3818.218,0,-0.2367774,0.05231374,0.1620321,-0.619616746902466,-0.523771047592163,0.477221190929413,-0.824110582941666,-0.354591760855452,0.510163708672098,7
1.59999847412109,-0.363890588283539,2.41691517829895,1.51610136032104,-0.620145926473056,2.69898491314762,1.52675696031579,2740.783,2801.211,3525.751,919.274,-0.2356386,0.05469086,0.1609442,-0.63285881280899,-0.528586268424988,0.491390019655228,-0.835248923368005,-0.359384277571697,0.517058871988737,7
1.62000274658203,-0.37673008441925,2.40629458427429,1.52593064308167,-0.636964489205914,2.69174835545992,1.53716845182668,2795.564,3354.773,3821.239,0,-0.2398022,0.05699675,0.1635351,-0.641978442668915,-0.531035840511322,0.491467088460922,-0.846218976345106,-0.364104384899943,0.523849857357655,7
1.63999938964844,-0.389814257621765,2.39559102058411,1.53598177433014,-0.653994195024907,2.68442094880091,1.54771065096602,2829.191,2779.055,3655.07,759.3619,-0.2401708,0.05953785,0.162379,-0.654206156730652,-0.535175323486328,0.502556622028351,-0.857007552155828,-0.368746407673381,0.530528499715628,7
1.66000366210938,-0.403081655502319,2.38484072685242,1.54604458808899,-0.671244443874359,2.67699864863716,1.55838937674714,2869.454,3217.898,3930.256,0,-0.2445586,0.06181026,0.1638774,-0.663372159004211,-0.53751939535141,0.503143727779388,-0.867618167158098,-0.373311858882592,0.53709697585572,7
1.68000030517578,-0.416585177183151,2.37401175498962,1.55630970001221,-0.688698391434734,2.66948870260877,1.56919420173384,2877.386,2814.254,3802.88,566.9254,-0.2457863,0.06411968,0.162698,-0.675173938274384,-0.541446208953857,0.51325523853302,-0.878038122530658,-0.377795274579551,0.543547424602645,8
1.69999694824219,-0.430276930332184,2.36312675476074,1.56662428379059,-0.706358800111611,2.66188992212981,1.58012683598675,2873.051,3195.369,3989.978,0,-0.2497741,0.0662218,0.1640577,-0.684589564800262,-0.544244289398193,0.515732109546661,-0.888267004546665,-0.382196476749158,0.549879589839776,8
1.72000122070313,-0.444191575050354,2.35216450691223,1.57710707187653,-0.724228658537036,2.6542010212754,1.5911891296115,2930.355,2837.765,3921.815,401.2905,-0.2514413,0.06817518,0.1635792,-0.695733189582825,-0.548114061355591,0.524137735366821,-0.898304216251578,-0.386515208538549,0.556093102023817,8
1.73999786376953,-0.458297222852707,2.34114027023315,1.58765542507172,-0.742290383213093,2.64642956573347,1.60237019758524,2948.403,3082.929,4064.243,0,-0.2548011,0.06976299,0.164739,-0.70528256893158,-0.551208555698395,0.527419924736023,-0.908137821269591,-0.39074633405868,0.562180571969536,8
1.76000213623047,-0.472621619701385,2.33003425598145,1.59837234020233,-0.76055371708895,2.63857136338517,1.61367607125764,2947.201,2889.829,3982.266,305.2919,-0.2561242,0.07119826,0.1648104,-0.716220319271088,-0.555306732654572,0.535846889019012,-0.917771149318994,-0.394891285994308,0.568144060931169,8
1.77999877929688,-0.487135946750641,2.31885957717896,1.60916841030121,-0.779000609654483,2.63063418086074,1.62509557650306,2969.333,3078.439,4081.44,0,-0.2587511,0.07230662,0.1664141,-0.725716352462769,-0.558739304542542,0.539806604385376,-0.927192788821983,-0.398945154262308,0.57397650459845,8
1.80000305175781,-0.501863598823547,2.30759906768799,1.62013113498688,-0.797640935141499,2.62261376955408,1.63663482594136,2956.435,2919.818,3988.656,291.6467,-0.2594697,0.07333294,0.1671244,-0.736383318901062,-0.563021600246429,0.548134505748749,-0.936405971974637,-0.402909329586356,0.579679903854719,8
1.81999969482422,-0.516775190830231,2.2962703704834,1.63116443157196,-0.816456197270346,2.61451808789761,1.64828236949435,3007.894,3060.131,4094.635,0,-0.2615597,0.07400867,0.1691059,-0.745578527450562,-0.566430449485779,0.55166220664978,-0.945399824400851,-0.406779133026206,0.585247526943151,8
1.84000396728516,-0.531899929046631,2.28485369682312,1.64237880706787,-0.835456397410825,2.6063428325813,1.66004439848636,2948.915,2944.353,3960.802,339.4922,-0.2614468,0.07476099,0.1700775,-0.7562375664711,-0.57083523273468,0.560720562934875,-0.95417746870157,-0.410555908149813,0.59068130690248,8
1.86000061035156,-0.547200620174408,2.27337217330933,1.65365326404572,-0.854622615239374,2.59809614449182,1.6719092003358,3008.14,3108.53,4080.243,0,-0.2631496,0.07525866,0.1725686,-0.765031397342682,-0.574062168598175,0.563721895217896,-0.962728579444532,-0.414235212212131,0.595974851798267,8
1.87999725341797,-0.562712609767914,2.26180577278137,1.66511535644531,-0.873957566090845,2.58977685529642,1.6838784559643,2951.96,2944.255,3925.424,409.3378,-0.2623943,0.07595813,0.1736284,-0.775599718093872,-0.57833206653595,0.573104619979858,-0.971053025860989,-0.417816988947023,0.601128080678429,8
1.90000152587891,-0.578391790390015,2.25018358230591,1.67662024497986,-0.893464153455626,2.58138371570432,1.69595396277071,3017.052,3138.339,4077.07,0,-0.2639177,0.07644823,0.1763196,-0.783957004547119,-0.581100225448608,0.575243830680847,-0.979150439632688,-0.421301079877433,0.606140765536421,8
1.91999816894531,-0.59428197145462,2.23848247528076,1.68832230567932,-0.913122862707269,2.57292512231409,1.70812364027167,2962.689,2939.505,3898.478,468.9795,-0.2627187,0.07722842,0.1771552,-0.794514775276184,-0.585055887699127,0.585105240345001,-0.987011339258123,-0.424683405378145,0.611007036871143,8
1.94000244140625,-0.610331654548645,2.22673654556274,1.70005583763123,-0.932943991899774,2.5643966441608,1.72039386345315,3007.062,3189.527,4070.729,0,-0.2641952,0.07789031,0.1799267,-0.802485764026642,-0.587313055992126,0.586679339408875,-0.994638524886308,-0.427965170275055,0.615728628108227,9
1.95999908447266,-0.626588642597198,2.21492195129395,1.71198201179504,-0.952907658613767,2.55580683609405,1.73275232415044,2988.265,2922.066,3898.737,495.4479,-0.2629153,0.07884138,0.1804793,-0.812844693660736,-0.590727627277374,0.596307456493378,-1.00202309041976,-0.431142542523221,0.620300025949072,9
1.98000335693359,-0.642999231815338,2.20307350158691,1.7239328622818,-0.973024270010337,2.54715122020317,1.74520546489201,3013.934,3204.242,4082.28,0,-0.2644135,0.07969655,0.18301,-0.820535898208618,-0.592420935630798,0.597543060779572,-1.00916768936771,-0.434216663853535,0.624722873042297,9
2,-0.659611225128174,2.19116973876953,1.73606503009796,-0.993273599084619,2.53843849960327,1.7577407641983,3022.392,2911.575,3930.335,470.7664,-0.2633408,0.08076852,0.1832531,-0.830595970153809,-0.59518563747406,0.606605887413025,-1.01606400046349,-0.437183953857422,0.628992018127441,9
2.01999664306641,-0.676373839378357,2.17924165725708,1.74822413921356,-1.01365835337184,2.52966750931758,1.77035989816261,3021.316,3205.163,4103.334,0,-0.2648428,0.08175862,0.1854438,-0.838130414485931,-0.596405029296875,0.607958078384399,-1.02271203275434,-0.440044416427654,0.633107466805174,9
2.04000091552734,-0.693328261375427,2.16727185249329,1.76054346561432,-1.0341813929022,2.52083701875502,1.78306463727984,3059.916,2906.915,3988.869,403.2653,-0.2641637,0.08284029,0.185544,-0.84772515296936,-0.598488330841064,0.615968465805054,-1.02911152474823,-0.442797939051516,0.637069057199471,9
2.05999755859375,-0.710432529449463,2.1552848815918,1.77289831638336,-1.05482201812353,2.5119559343546,1.79584216754118,3044.755,3174.67,4135.168,0,-0.2655837,0.08380285,0.1873297,-0.855207920074463,-0.599338054656982,0.617739975452423,-1.03525504859546,-0.445441325732794,0.640872191117535,9
2.08000183105469,-0.727717876434326,2.14326882362366,1.78539001941681,-1.07559088172821,2.50301967256038,1.80869908347065,3091.917,2916.827,4059.57,308.7809,-0.2653126,0.08472692,0.1874795,-0.864272773265839,-0.60081821680069,0.624583005905151,-1.04114485287423,-0.447975543971863,0.644518260536375,9
2.09999847412109,-0.745152592658997,2.13124084472656,1.79792702198029,-1.09646699912883,2.4940372624541,1.82162239460902,3069.775,3132.08,4172.436,0,-0.2665206,0.08548576,0.1889854,-0.871730744838715,-0.60140335559845,0.626847445964813,-1.04677411523768,-0.450397658303471,0.648003042098304,9
2.12000274658203,-0.762759029865265,2.11919164657593,1.8105833530426,-1.11746110947495,2.48500408327971,1.83461874900143,3110.85,2937.228,4119.607,223.1555,-0.2664125,0.0861243,0.1893714,-0.880322277545929,-0.60244745016098,0.632816791534424,-1.05214490868305,-0.452708560680417,0.651327819087362,9
2.13999938964844,-0.780512928962708,2.10713505744934,1.82329225540161,-1.138551967509,2.47592927627801,1.8476749948214,3091.948,3095.957,4201.283,0,-0.2672626,0.08656147,0.1908303,-0.887698471546173,-0.602841734886169,0.635445415973663,-1.05725102347782,-0.454905579228273,0.654488747383304,9
2.16000366210938,-0.798431158065796,2.09506273269653,1.83611130714417,-1.15975039167652,2.46680818657414,1.86079782920208,3115.024,2961.395,4151.154,174.2775,-0.2669734,0.0868689,0.1915565,-0.895910382270813,-0.603603661060333,0.640953123569489,-1.0620943502576,-0.456989527434725,0.657486997379635,9
2.18000030517578,-0.8164923787117,2.0829873085022,1.8489830493927,-1.18103490068612,2.45765005696766,1.87397395420079,3110.039,3074.948,4215.433,0,-0.2673942,0.0869496,0.193167,-0.903068959712982,-0.603785812854767,0.643588960170746,-1.06666929835407,-0.458957999791384,0.660319108186354,9
2.19999694824219,-0.834713041782379,2.07090020179749,1.86196553707123,-1.20240821395574,2.44845371736898,1.88720505326679,3105.497,2984.642,4146.506,175.3373,-0.2666155,0.08696826,0.1941961,-0.911023199558258,-0.604358553886414,0.649127185344696,-1.07097597819164,-0.460811043810786,0.662985148161421,10
2.22000122070313,-0.853068649768829,2.05881571769714,1.87499153614044,-1.22387315175433,2.43921795429519,1.90049287228091,3115.815,3079.363,4213.836,0,-0.2666346,0.08676386,0.1961045,-0.917781233787537,-0.604225933551788,0.651299238204956,-1.07501419914593,-0.462548577472581,0.665484999299265,10
2.23999786376953,-0.871580839157104,2.04672288894653,1.88813972473145,-1.24540792547886,2.42995214277345,1.91382392305993,3087.771,3001.279,4103.834,229.3791,-0.2651555,0.08662606,0.1972738,-0.925617218017578,-0.604647159576416,0.657409727573395,-1.07877930973132,-0.464168599372462,0.667815782108711,10
2.26000213623047,-0.890216469764709,2.03464126586914,1.90131258964539,-1.26702351885107,2.42065155681516,1.92720500505083,3104.684,3115.021,4195.829,0,-0.2649153,0.08630716,0.199551,-0.931775987148285,-0.604066789150238,0.658641219139099,-1.08227271937422,-0.465671715947234,0.669978369091845,10
2.27999877929688,-0.90900719165802,2.02255630493164,1.91462194919586,-1.28869796983554,2.41132564607061,1.9406225227075,3067.279,3002.038,4040.315,322.6543,-0.2627054,0.08620635,0.2006324,-0.939537703990936,-0.604257047176361,0.66547042131424,-1.08549040888332,-0.467056197851165,0.67197027217779,10
2.30000305175781,-0.927906930446625,2.01049447059631,1.92793202400208,-1.31044231452835,2.40196966201596,1.95408330789913,3083.996,3166.719,4169.942,0,-0.2623629,0.08597759,0.2031736,-0.944990396499634,-0.603092074394226,0.665506064891815,-1.08843358680109,-0.468322565086307,0.673792239511894,10
2.31999969482422,-0.946959972381592,1.99843633174896,1.94139111042023,-1.33223444283894,2.39259311800549,1.96757367342642,3055.716,2989.609,3975.179,420.357,-0.2596065,0.08608055,0.2039292,-0.952648520469666,-0.602905213832855,0.672953963279724,-1.09109887036509,-0.469469362144493,0.675442177003072,10
2.34000396728516,-0.966107249259949,1.98641490936279,1.95482647418976,-1.35408543512393,2.38319124647132,1.98110047855794,3056.074,3222.865,4144.783,0,-0.2593429,0.08611298,0.2065501,-0.957368433475494,-0.601069152355194,0.671769738197327,-1.09348726343002,-0.470497020956358,0.676920706085208,10
2.36000061035156,-0.985403418540955,1.97440791130066,1.96841537952423,-1.37597305876702,2.37377361348711,1.99464996024512,3056.743,2966.052,3928.519,494.5156,-0.2563607,0.08651681,0.2068217,-0.964802742004395,-0.600345492362976,0.679443120956421,-1.09559602313537,-0.471404361345641,0.678226128796969,10
2.37999725341797,-1.00478041172028,1.96245121955872,1.98196089267731,-1.39790005743958,2.36433903852774,2.00822381695123,3028.619,3267.179,4127.975,0,-0.2562994,0.08689379,0.2093008,-0.968858540058136,-0.597834050655365,0.677276194095612,-1.09742530100382,-0.472191448508328,0.679358538938131,10
2.40000152587891,-1.0242977142334,1.95052254199982,1.99565124511719,-1.4198692197338,2.35488632173988,2.02182377494768,3071.073,2936.554,3917.872,519.5168,-0.25346,0.08758435,0.2090669,-0.975864827632904,-0.59643542766571,0.684518754482269,-1.09897493039424,-0.472858210743393,0.680317833349887,10
2.41999816894531,-1.04388630390167,1.93865585327148,2.00928950309753,-1.44185817738692,2.34542508756209,2.03543598721428,3014.166,3283.088,4122.807,0,-0.2536251,0.08825376,0.2111788,-0.979431688785553,-0.593339800834656,0.681909799575806,-1.10024313330221,-0.473403883025206,0.681102911362803,10
2.44000244140625,-1.06360137462616,1.92683184146881,2.02304840087891,-1.46387808506052,2.33595053645515,2.04906735901791,3096.394,2912.345,3950.449,477.7332,-0.251306,0.08907965,0.210584,-0.985756695270538,-0.591197967529297,0.687943398952484,-1.10123038958312,-0.473828671822132,0.681714070030222,10
2.45999908447266,-1.08338189125061,1.91507875919342,2.03675603866577,-1.48590651627916,2.32647231790489,2.06270400730194,3015.426,3258.309,4138.146,0,-0.2516288,0.08984382,0.2121962,-0.989021241664886,-0.587648391723633,0.68537837266922,-1.10193556692257,-0.474132089930926,0.682150608395601,10
2.48000335693359,-1.10327303409576,1.90338206291199,2.05055356025696,-1.50795464064698,2.31698562594271,2.07635284658344,3120.198,2903.078,4014.827,383.9699,-0.2499425,0.09057014,0.2114939,-0.994555830955505,-0.584841072559357,0.689878761768341,-1.10235893238473,-0.47431425226183,0.68241269178437,11
2.5,-1.12322652339935,1.891761302948,2.06430959701538,-1.52999999932945,2.30750012397766,2.08999997377396,3026.646,3208.932,4163.169,0,-0.2502232,0.0911744,0.2126906,-0.9976806640625,-0.581030607223511,0.687804460525513,-1.10250000050292,-0.474374949932098,0.682500019669533,11
2.51999664306641,-1.14327478408813,1.88020670413971,2.07812428474426,-1.55204535801192,2.29801462201262,2.10364710096447,3133.011,2910.019,4087.07,271.3838,-0.2490098,0.09156921,0.2122055,-1.00240993499756,-0.577731072902679,0.690738141536713,-1.10235893238473,-0.47431425226183,0.68241269178437,11
2.54000091552734,-1.16338360309601,1.86873090267181,2.0919086933136,-1.57409348237975,2.28852793005043,2.11729594024597,3047.131,3143.016,4190.941,0,-0.2489981,0.09175549,0.2131878,-1.00544774532318,-0.57379549741745,0.689216434955597,-1.10193556692257,-0.474132089930926,0.682150608395601,11
2.55999755859375,-1.18357503414154,1.85732555389404,2.10573387145996,-1.59612191359838,2.27904971150017,2.13093258853001,3124.954,2935.536,4130.873,186.9226,-0.2478082,0.09166286,0.2131418,-1.00957190990448,-0.570259690284729,0.691256046295166,-1.10123038958312,-0.473828671822132,0.681714070030222,11
2.58000183105469,-1.20382332801819,1.84600019454956,2.11953282356262,-1.61814182127198,2.26957516039323,2.14456396033363,3059.814,3096.407,4203.241,0,-0.2473256,0.09129581,0.2142655,-1.01240730285645,-0.566267311573029,0.689941942691803,-1.10024313330221,-0.473403883025206,0.681102911362804,11
2.59999847412109,-1.22414684295654,1.83474612236023,2.13337135314941,-1.64013077892511,2.26011392621545,2.15817617260023,3089.938,2966.401,4122.15,176.4968,-0.2455791,0.09072775,0.2147273,-1.01618468761444,-0.562707901000977,0.691931545734406,-1.09897493039424,-0.472858210743393,0.680317833349887,11
2.62000274658203,-1.24451863765717,1.8235741853714,2.14717435836792,-1.66209994121933,2.25066120942759,2.17177613059669,3060.468,3082.845,4192.18,0,-0.2445474,0.08984254,0.2162837,-1.01858592033386,-0.558588802814484,0.690153241157532,-1.09742530100382,-0.472191448508328,0.679358538938131,11
2.63999938964844,-1.26496517658234,1.81247174739838,2.16103768348694,-1.68402693989188,2.24122663446822,2.18534998730279,3034.741,2995.157,4045.583,258.5321,-0.2417325,0.08897659,0.2170811,-1.02233350276947,-0.555130839347839,0.693160891532898,-1.09559602313537,-0.471404361345641,0.67822612879697,11
2.66000366210938,-1.28544449806213,1.80145764350891,2.17483758926392,-1.70592290617745,2.23180541187802,2.19890463348308,3033.75,3121.397,4154.78,0,-0.2402688,0.08780707,0.2192857,-1.02396011352539,-0.550705254077911,0.689993381500244,-1.09348640563071,-0.470496651869278,0.67692017506657,10
2.68000030517578,-1.3060040473938,1.79051029682159,2.18873810768127,-1.72776555581996,2.22240712994983,2.2124262741215,2968.321,3007.801,3901.822,438.0991,-0.2360487,0.0869898,0.2200314,-1.0279768705368,-0.54735940694809,0.695031464099884,-1.09109887036509,-0.469469362144494,0.675442177003072,9
2.69999694824219,-1.32657325267792,1.77966237068176,2.20252823829651,-1.74955768413056,2.21303058593937,2.22591663964878,2971.304,3217.679,4093.921,0,-0.2344269,0.08595285,0.2229504,-1.0284640789032,-0.542398989200592,0.689510881900787,-1.08843358680109,-0.468322565086308,0.673792239511893,9
2.72000122070313,-1.34723174571991,1.76888203620911,2.21647167205811,-1.77130202882336,2.20367460188472,2.23937742484041,2907.028,2990.092,3712.318,690.3483,-0.2287554,0.08563366,0.2231124,-1.03292417526245,-0.53902679681778,0.697170436382294,-1.08549040888332,-0.467056197851165,0.671970272177789,8
2.73999786376953,-1.3678719997406,1.7582151889801,2.23024559020996,-1.79297647980783,2.19434869114016,2.25279494249708,2878.668,3360.457,4014.909,0,-0.2273525,0.0852325,0.2265849,-1.0320200920105,-0.533341467380524,0.688699424266815,-1.08227271937422,-0.465671715947234,0.669978369091845,8
2.76000213623047,-1.38860845565796,1.74762201309204,2.2442193031311,-1.81459207318004,2.18504810518187,2.26617602448799,2872.5,2935.101,3519.849,954.2609,-0.2206578,0.0858149,0.2256351,-1.03681540489197,-0.529654085636139,0.698688507080078,-1.07877930973132,-0.464168599372462,0.667815782108711,7
2.77999877929688,-1.40929746627808,1.73715949058533,2.25796270370483,-1.83612684690458,2.17578229366013,2.27950707526701,2770.353,3513.871,3938.166,0,-0.2198993,0.08647209,0.2292542,-1.0344500541687,-0.523128807544708,0.687175035476685,-1.07501419914593,-0.462548577472581,0.665484999299265,6
2.80000305175781,-1.4300811290741,1.72678399085999,2.2719292640686,-1.85759178470316,2.16654653058634,2.29279489428112,2878.441,2845.461,3381.373,1152.193,-0.2129938,0.08815853,0.2268258,-1.03918313980103,-0.518774688243866,0.698330342769623,-1.07097597819164,-0.460811043810786,0.662985148161422,5
2.81999969482422,-1.45079326629639,1.71655440330505,2.2856228351593,-1.87896509797278,2.15735019098767,2.30602599334712,2671.95,3638.327,3876.729,0,-0.213193,0.09005623,0.2300279,-1.03559255599976,-0.511471211910248,0.684675395488739,-1.06666929835407,-0.458957999791384,0.660319108186353,5
2.83999633789063,-1.47158205509186,1.70643210411072,2.29951429367065,-1.90024960698239,2.14819206138118,2.31920211834584,2933.053,2734.304,3362.305,1191.885,-0.207269,0.09269088,0.2261599,-1.03945171833038,-0.506117939949036,0.694570779800415,-1.06209435025759,-0.456989527434725,0.657486997379635,4
2.86000061035156,-1.4922856092453,1.69646763801575,2.31312561035156,-1.9214480311499,2.13907097167731,2.33232495272651,2627.97,3662.069,3857.999,0,-0.2084941,0.09555572,0.228224,-1.03518438339233,-0.498235940933228,0.680570185184479,-1.05725102347782,-0.454905579228273,0.654488747383304,3
2.87999725341797,-1.51303100585938,1.68663239479065,2.32685494422913,-1.94253888918396,2.12999616467562,2.34538119854648,3025.204,2641.569,3501.797,1002.735,-0.2047981,0.09852009,0.2234467,-1.03726351261139,-0.491757869720459,0.686470508575439,-1.05214490868305,-0.452708560680416,0.651327819087361,2
2.90000152587891,-1.53369212150574,1.67695879936218,2.34034299850464,-1.96353299953007,2.12096298550123,2.3583775529389,2657.757,3547.377,3900.506,0,-0.2067742,0.1015813,0.223869,-1.03305542469025,-0.483672499656677,0.674398064613342,-1.04677411523767,-0.450397658303471,0.648003042098304,0
2.91999816894531,-1.55434668064117,1.66743350028992,2.35382699966431,-1.98440911693069,2.11198057539494,2.37130086407726,3118.205,2606.737,3789.294,593.3564,-0.2060248,0.1039188,0.2192324,-1.03273129463196,-0.476264744997025,0.674196422100067,-1.04114485287423,-0.447975543971863,0.644518260536375,0
2.94000244140625,-1.57493329048157,1.65806412696838,2.36714696884155,-2.00517798053537,2.10304431360073,2.38415778000673,2761.068,3292.6,4006.655,0,-0.2080211,0.1060502,0.2180278,-1.02932929992676,-0.468476474285126,0.666003108024597,-1.03525504859546,-0.445441325732794,0.640872191117535,0
2.95999908447266,-1.59546852111816,1.64885032176971,2.38034152984619,-2.02581860575671,2.0941632292003,2.39693531026807,3166.167,2661.854,4133.885,74.80208,-0.2097847,0.1067403,0.2148252,-1.02675461769104,-0.460681617259979,0.659732580184937,-1.02911152474823,-0.442797939051516,0.637069057199471,0
2.98000335693359,-1.61596035957336,1.6397762298584,2.39346241950989,-2.04634164528706,2.08533273863774,2.40964004938531,2897.071,2975.219,4139.314,0,-0.2107913,0.1068306,0.2128295,-1.02459418773651,-0.453698217868805,0.656039416790009,-1.02271203275434,-0.440044416427654,0.633107466805174,0
3,-1.63640475273132,1.63082778453827,2.40650916099548,-2.06672639957428,2.07656174835205,2.42225918334961,2853.099,3001.229,4120.916,0,-0.2108813,0.1064367,0.2123713,-1.02221989631653,-0.447425961494446,0.65233987569809,-1.01606400046349,-0.437183953857422,0.628992018127441,0
3.01999664306641,-1.65679526329041,1.62199926376343,2.41945767402649,-2.08697572864857,2.06784902775215,2.4347944826559,2924.021,2882.45,4137.591,0,-0.210002,0.1052791,0.2125382,-1.01952362060547,-0.441429108381271,0.647420644760132,-1.00916768936771,-0.434216663853534,0.624722873042298,0
3.04000091552734,-1.67713594436646,1.613285779953,2.43232226371765,-2.10709234004513,2.05919341186127,2.44724762339747,2968.659,2832.116,4114.392,7.127192,-0.2079844,0.1032238,0.2128292,-1.01704132556915,-0.435674339532852,0.643228650093079,-1.00202309041976,-0.43114254252322,0.620300025949072,0
3.05999755859375,-1.69742810726166,1.60468244552612,2.44511651992798,-2.12705600675913,2.05060360379452,2.45960608409476,2920.185,2912.445,4053.204,14.0951,-0.2051049,0.1004275,0.2138203,-1.01460134983063,-0.430165022611618,0.639712452888489,-0.994638524886308,-0.427965170275055,0.615728628108227,0
3.08000183105469,-1.71767127513885,1.59618520736694,2.45784997940063,-2.14687713595163,2.04207512564123,2.47187630727625,2855.259,2963.331,3961.229,97.56848,-0.2012844,0.09713189,0.2155727,-1.01215779781342,-0.424859970808029,0.636674344539642,-0.987011339258122,-0.424683405378145,0.611007036871143,0
3.09999847412109,-1.73786294460297,1.58779382705688,2.47051930427551,-2.16653584520328,2.033616532251,2.4840459847772,2805.35,2994.448,3868.525,188.229,-0.196635,0.09351575,0.2179411,-1.00958454608917,-0.419566839933395,0.633464097976685,-0.979150439632689,-0.421301079877433,0.606140765536421,0
3.12000274658203,-1.75800323486328,1.57951092720032,2.4831268787384,-2.18604243256806,2.0252233926589,2.49612149158362,2756.672,3016.251,3766.017,300.714,-0.1911202,0.08977009,0.2206015,-1.00701749324799,-0.414149284362793,0.630381226539612,-0.971053025860989,-0.417816988947023,0.601128080678429,0
3.13999938964844,-1.77808785438538,1.57134437561035,2.4956579208374,-2.20537738341953,2.01690410346351,2.50809074721212,2736.789,3035.732,3694.063,356.8443,-0.1852319,0.08592755,0.2234166,-1.00423741340637,-0.408331900835037,0.626558244228363,-0.962728579444533,-0.414235212212131,0.595974851798267,0
3.16000366210938,-1.79812073707581,1.56330132484436,2.50812554359436,-2.22455088103183,2.00865428308644,2.51996005559448,2691.534,3055.329,3595.518,468.2574,-0.178794,0.082164,0.2260412,-1.0016405582428,-0.402142852544785,0.623375535011292,-0.954174163352092,-0.410554485950274,0.590679260733698,0
3.18000030517578,-1.8180900812149,1.55539727210999,2.52048754692078,-2.24354380138856,2.00048216005771,2.53171757805356,2696.457,3068.129,3587.999,439.989,-0.1728248,0.07831465,0.2286836,-0.998467803001404,-0.395200490951538,0.618101298809052,-0.94539982440085,-0.406779133026206,0.58524752694315,0
3.19999694824219,-1.83801352977753,1.54763686656952,2.53280806541443,-2.2623590635174,1.99238647840124,2.54336512160655,2609.341,3087.256,3444.773,641.5018,-0.1659394,0.07481408,0.2306591,-0.996179938316345,-0.388028174638748,0.616026341915131,-0.936405971974636,-0.402909329586355,0.579679903854719,0
3.22000122070313,-1.85785138607025,1.54004502296448,2.54494285583496,-2.28099938900442,1.98436606709459,2.55490437104486,2696.268,3080.843,3610.161,365.3284,-0.1611708,0.07089076,0.2331502,-0.991886734962463,-0.37959223985672,0.60673576593399,-0.927192788821982,-0.398945154262308,0.573976504598449,0
3.23999786376953,-1.87767851352692,1.53260660171509,2.55716681480408,-2.29944628156995,1.97642888457015,2.56632387629027,2447.134,3118.26,3185.962,1006.266,-0.1526737,0.06814103,0.2337414,-0.991348743438721,-0.371910810470581,0.611202001571655,-0.917771149318993,-0.394891285994308,0.568144060931169,0
3.26000213623047,-1.89735674858093,1.52537107467651,2.56898713111877,-2.31770961544581,1.96857068222185,2.57762974996267,2706.43,3176.667,3806.143,0,-0.1507956,0.06415657,0.2374027,-0.983918190002441,-0.361790359020233,0.591019332408905,-0.90813782126959,-0.39074633405868,0.562180571969535,0
3.27999877929688,-1.91713309288025,1.51827430725098,2.5813000202179,-2.33577134012187,1.96079922667992,2.58881081793642,2102.451,3125.414,2508.556,2009.491,-0.1365467,0.06367326,0.2349577,-0.988816618919373,-0.354831665754318,0.615645051002502,-0.898304216251578,-0.386515208538549,0.556093102023818,0
3.30000305175781,-1.93668746948242,1.51137709617615,2.59298801422119,-2.35364119854729,1.95311032582551,2.59987311156116,1923.091,4132.371,3543.218,0,-0.1348662,0.06396496,0.243966,-0.977713048458099,-0.344861596822739,0.584397971630096,-0.888267004546666,-0.382196476749158,0.549879589839776,0
3.31999969482422,-1.95641946792603,1.50462090969086,2.60544466972351,-2.37130160722417,1.94551154534655,2.61080574581408,2092.621,2685.552,1609.574,3319.73,-0.1136722,0.06907662,0.2372829,-0.986607372760773,-0.337810635566711,0.622828245162964,-0.878038122530657,-0.377795274579551,0.543547424602645,0
3.33999633789063,-1.97584986686707,1.49807441234589,2.61699724197388,-2.38875555478454,1.93800159931817,2.62161057080077,1475.105,4851.99,3177.862,0,-0.1134794,0.07568102,0.247752,-0.97151517868042,-0.327320098876953,0.577631890773773,-0.867618167158097,-0.373311858882592,0.53709697585572,0
3.36000061035156,-1.99547946453094,1.49172580242157,2.62942409515381,-2.406005803634,1.93057929915441,2.6322892965819,2355.629,2103.813,995.5544,4203.35,-0.09034667,0.086859,0.2335439,-0.981485843658447,-0.317445427179337,0.621340453624725,-0.857007552155826,-0.36874640767338,0.530528499715627,0
3.37999725341797,-2.01476430892944,1.48560547828674,2.64084529876709,-2.42303550945299,1.9232518924954,2.64283149572124,1110.685,5572.555,2728.698,0,-0.09499868,0.1002116,0.2417382,-0.964228510856628,-0.306001901626587,0.571057498455048,-0.846218976345105,-0.364104384899943,0.523849857357654,0
3.40000152587891,-2.03409385681152,1.47976040840149,2.65271067619324,-2.43985407218584,1.9160153348077,2.65324298723213,2912.155,1360.506,1456.747,3815.829,-0.08119445,0.1150566,0.2212933,-0.966491103172302,-0.292265564203262,0.593271672725677,-0.835248923368004,-0.359384277571698,0.517058871988738,0
3.41999816894531,-2.05309391021729,1.47418427467346,2.66381192207336,-2.45644516534361,1.90887665092339,2.66351366424015,1533.192,5124.911,2696.703,0,-0.09155628,0.1310065,0.2189272,-0.950003385543823,-0.278799176216125,0.555064916610718,-0.824110582941664,-0.354591760855451,0.510163708672097,0
3.44000244140625,-2.07184886932373,1.46891927719116,2.67452001571655,-2.47281804716281,1.90183185728196,2.67364925803476,3588.567,1177.469,3228.591,1380.777,-0.09920115,0.1430804,0.1974924,-0.937763929367065,-0.263252049684525,0.535403907299042,-0.812800388649434,-0.349725300221754,0.503162159625937,0
3.45999908447266,-2.09032726287842,1.46393477916718,2.68496513366699,-2.48895692832918,1.89488774758421,2.68363999427827,2411.067,3407.673,3516.284,0,-0.1128791,0.1542479,0.1813927,-0.923920512199402,-0.249232083559036,0.522258341312408,-0.801332006385299,-0.344790775723006,0.496062684689628,0
3.48000335693359,-2.1085057258606,1.45917356014252,2.69513654708862,-2.50487092366784,1.88804039997555,2.69349151548162,2370.693,3086.559,3788.015,0,-0.1284709,0.1645307,0.1692452,-0.908911406993866,-0.238054051995277,0.508571743965149,-0.78970183472369,-0.339786637766397,0.488863054409187,0
3.5,-2.12638020515442,1.45458257198334,2.70500063896179,-2.5205447997813,1.88129636896134,2.70319439144611,2362.398,2709.85,4109.32,0,-0.1418463,0.1737003,0.1592559,-0.893731534481049,-0.229559645056725,0.493207663297653,-0.777924000354857,-0.334718964672089,0.481572013878822,0
3.51999664306641,-2.14398455619812,1.45010852813721,2.71467542648315,-2.53598168290031,1.87465430941181,2.7127505574575,2409.442,2563.969,4170.916,0,-0.1500111,0.1815536,0.1505201,-0.880213737487793,-0.22369521856308,0.483743131160736,-0.765999459475408,-0.329588167864767,0.474190155029786,0
3.54000091552734,-2.16134214401245,1.4456992149353,2.72427368164063,-2.55118444594166,1.86811298519115,2.72216179198813,2311.646,2823.358,3962.68,0,-0.1533001,0.1884755,0.1448551,-0.867879509925842,-0.220464110374451,0.479907363653183,-0.753929052770513,-0.324394609067776,0.466717998286246,0
3.55999755859375,-2.17844486236572,1.44132494926453,2.73375010490417,-2.56613872308604,1.86167857751006,2.73141920191151,2415.092,2814.747,3807.488,0,-0.1538721,0.1942278,0.1417374,-0.855123579502106,-0.218715637922287,0.473817855119705,-0.741727567798258,-0.319144650954242,0.459164697851087,0
3.58000183105469,-2.19528341293335,1.43697845935822,2.74303483963013,-2.58085326729328,1.85534732021446,2.74052820572674,2695.013,2515.517,3783.414,0,-0.1529523,0.1979975,0.1383046,-0.841931939125061,-0.217320561408997,0.464235126972198,-0.729391385793765,-0.313836736470737,0.451528013536464,0
3.59999847412109,-2.21186447143555,1.43265354633331,2.75216007232666,-2.59531431270705,1.84912513636775,2.74948028171299,2754.44,2520.463,3695.017,0,-0.1510982,0.1996579,0.13429,-0.829062879085541,-0.216252863407135,0.45626363158226,-0.716935713767317,-0.308477408768949,0.443817359206151,0
3.62000274658203,-2.22818732261658,1.42834055423737,2.76114749908447,-2.60953046793176,1.84300832192796,2.75828075900647,2587.562,2794.828,3558.289,0,-0.1495013,0.1997477,0.1318846,-0.816147029399872,-0.215637192130089,0.449371933937073,-0.704356955827444,-0.303065120637236,0.436030508832034,0
3.63999938964844,-2.24424076080322,1.42404079437256,2.76992511749268,-2.6234885835008,1.83700253474321,2.76692149746096,2551.073,2785.23,3572.671,0,-0.1489788,0.1983067,0.1312099,-0.802675664424896,-0.21498940885067,0.438880205154419,-0.691670720740692,-0.297606588091786,0.428177124984152,0
3.65999603271484,-2.26002883911133,1.41976046562195,2.77844858169556,-2.63719194552437,1.83110636089208,2.77540453133521,2632.49,2562.159,3702.763,0,-0.1487189,0.1949488,0.1307372,-0.78938901424408,-0.214014947414398,0.426176488399506,-0.678878353700696,-0.292102389931838,0.420258040401444,0
3.68000030517578,-2.27557349205017,1.41549944877625,2.78677892684937,-2.65064357486757,1.82531850058072,2.78373173068862,2572.315,2592.576,3736.441,0,-0.1475311,0.1897795,0.1309127,-0.777236461639404,-0.21305775642395,0.416521936655045,-0.665981146317811,-0.286553081901244,0.412274054652249,0
3.69999694824219,-2.29089260101318,1.41125512123108,2.79496264457703,-2.66383127580226,1.81964420129024,2.79189554578451,2424.541,2782.147,3691.249,0,-0.1453069,0.183231,0.13341,-0.765971481800079,-0.212224915623665,0.409182965755463,-0.65299527533123,-0.280965624398954,0.404235181908735,0
3.72000122070313,-2.30599594116211,1.40703523159027,2.80296850204468,-2.6767633032417,1.81407991116207,2.79990108680742,2454.357,2709.337,3726.282,0,-0.1421745,0.1751797,0.1377002,-0.755152106285095,-0.21098567545414,0.400290906429291,-0.639917282339434,-0.275338529371411,0.396139281255611,0
3.73999786376953,-2.32091856002808,1.4028422832489,2.81090402603149,-2.68942811570037,1.808630596175,2.80774120902801,2358.837,2691.271,3555.562,294.3324,-0.1356305,0.1661493,0.1424795,-0.746129214763641,-0.209645569324493,0.39678105711937,-0.626763698705669,-0.269678909802388,0.38799658639423,0
3.76000213623047,-2.33565735816956,1.39869666099548,2.81869029998779,-2.70183383146282,1.803292763258,2.81542093805117,2395.402,2811.394,3561.506,121.6087,-0.1287601,0.1559746,0.1491217,-0.736953973770142,-0.207280069589615,0.389310777187347,-0.613531154887639,-0.263985315871967,0.379805011417393,0
3.77999877929688,-2.35027098655701,1.39459955692291,2.82656311988831,-2.7139695770734,1.79807109095524,2.82293354268985,2134.763,2863.35,3083.139,827.1866,-0.1165362,0.1460989,0.1551519,-0.730683982372284,-0.20485956966877,0.393639028072357,-0.60023651686137,-0.258265004538452,0.371574997167698,0
3.80000305175781,-2.36469602584839,1.39059805870056,2.83413577079773,-2.72584333814708,1.79296214327972,2.83028396642013,2418.298,2950.199,3413.262,85.98325,-0.1087038,0.1350007,0.1637909,-0.721257627010345,-0.200082406401634,0.378630816936493,-0.586876524285838,-0.252516572968186,0.363304525338741,0
3.81999969482422,-2.37908601760864,1.38667964935303,2.84212398529053,-2.73744492223163,1.78797030575888,2.83746589962856,1773.492,2935.625,2258.993,1963.407,-0.08901776,0.1264761,0.1674892,-0.719502627849579,-0.195900201797485,0.399412781000137,-0.573468357077023,-0.246747413199059,0.355004231116903,0
3.83999633789063,-2.39325404167175,1.38290524482727,2.84954237937927,-2.74877791451009,1.78309403578861,2.84448156171422,2019.195,3671.847,3128.694,0,-0.08225759,0.1176853,0.1798467,-0.708387911319733,-0.188723459839821,0.370922029018402,-0.560014026276881,-0.240958390526246,0.346675359432959,0
3.86000061035156,-2.40748715400696,1.3792769908905,2.85772180557251,-2.75984563331209,1.77833190558438,2.85133300688122,1538.01,2660.265,1241.684,3504.978,-0.05503316,0.1138226,0.1783872,-0.711659848690033,-0.181402951478958,0.408966928720474,-0.546515580872635,-0.235150386571708,0.338319178707605,0
3.87999725341797,-2.42146015167236,1.37583374977112,2.86501145362854,-2.77063893010371,1.77368785150474,2.85801457175126,1415.376,4607.392,2732.149,0,-0.0505223,0.111088,0.1932479,-0.698649525642395,-0.172174617648125,0.364479005336761,-0.532990631455729,-0.229330978680956,0.329946590735853,0
3.90000152587891,-2.43555951118469,1.37263774871826,2.87322807312012,-2.78116548164984,1.76915857045225,2.8645310086075,1675.587,2037.513,477.808,4741.936,-0.0196488,0.1140942,0.1837323,-0.704969167709351,-0.159795537590981,0.410830557346344,-0.519436284009554,-0.223498921639498,0.32155580398356,0
3.91999816894531,-2.44937944412231,1.36966729164124,2.88035917282104,-2.79141684911929,1.7647476934202,2.87087709341145,982.7157,5374.314,2329.188,0,-0.01949594,0.119014,0.1964892,-0.690997898578644,-0.148529425263405,0.356556862592697,-0.505870408491346,-0.2176619043907,0.313157880805522,0
3.94000244140625,-2.46326017379761,1.36704277992249,2.88814783096313,-2.8014005971492,1.76045196555656,2.87705750903383,2204.555,1282.329,628.8472,4748.408,0.005150746,0.1275474,0.1786293,-0.694034218788147,-0.131219372153282,0.389427334070206,-0.492290296490434,-0.211818761581115,0.30475114456651,0
3.95999908447266,-2.47686147689819,1.36470007896423,2.89499878883362,-2.81110900652845,1.75627470822223,2.88306747691526,1148.899,5319.105,2171.149,0,-0.0004745753,0.137281,0.1818652,-0.680077135562897,-0.117146424949169,0.342551589012146,-0.478714054341681,-0.205977283860804,0.296346803950332,0
