t,x_s1,x_s2,x_s3,x_s_d1,x_s_d2,x_s_d3,propellers_rpms1,propellers_rpms2,propellers_rpms3,propellers_rpms4,rollRad,pitchRad,yawRad,v_s1,v_s2,v_s3,v_s_d1,v_s_d2,v_s_d3,insideCount
0,-0.0599999986588955,2.94000005722046,1.17999994754791,-0.0599999986588955,2.94000005722046,1.17999994754791,0,0,0,0,0,0,0,0,0,0,-1.06581410364015E-15,4.44089209850063E-16,4.44089209850063E-16,0
0.019989013671875,-0.0599999986588955,2.94000005722046,1.17729234695435,-0.0600018659130177,2.93999925379318,1.18000110346716,0,0,0,0,0.0163538,-0.002474609,-2.024222E-05,3.71994488546079E-08,3.50004931704007E-08,-0.135377958416939,-0.000279680311988734,-0.000120338624884473,0.000173135436141649,5
0.0399932861328125,-0.0599999986588955,2.94000005722046,1.17105865478516,-0.060014863945674,2.93999366110285,1.18000914986856,0,0,0,0,0.03270752,-0.004950816,-5.430172E-05,3.48044650877455E-08,3.30428591155396E-08,-0.311683237552643,-0.00111059898697896,-0.000477859717552347,0.000687513678106196,6
0.05999755859375,-0.0600004307925701,2.94013142585754,1.16552257537842,-0.0600498857373401,2.93997859220429,1.18003083002592,3161.891,2810.291,1469.237,2738.728,0.03139007,-0.004977981,-0.01632784,-2.15879354072968E-05,0.00656352238729596,-0.276805400848389,-0.00247936261166862,-0.00106680046642749,0.00153484356504269,6
0.079986572265625,-0.0599182695150375,2.94037842750549,1.16100025177002,-0.0601174907153006,2.93994950367094,1.18007268072775,3028.767,3011.964,2083.611,1979.162,0.01920914,-0.004419782,-0.04309314,0.00410812301561236,0.0123493764549494,-0.226118445396423,-0.00437104534358026,-0.00188073869847162,0.00270588528944111,6
0.0999908447265625,-0.0596519522368908,2.94066071510315,1.15742897987366,-0.0602281370710988,2.93990189563514,1.18014117609281,2572.463,3764.018,2528.687,1069.631,-0.005658152,-0.003073821,-0.06910317,0.0133159477263689,0.0141137456521392,-0.178565442562103,-0.00677536694902951,-0.00291525111632684,0.0041942748969354,6
0.1199951171875,-0.059136301279068,2.94084787368774,1.154620885849,-0.0603918861403606,2.93983143898525,1.18024254456713,1990.079,4004.024,3075.48,694.6837,-0.03991013,-0.0007068029,-0.08793917,0.0257825404405594,0.00936014950275421,-0.140405654907227,-0.00967801353495435,-0.00416417885169243,0.00599115140585487,5
0.139999389648438,-0.0583611205220222,2.94078660011292,1.15244746208191,-0.0606185767455666,2.93973390035084,1.18038287685052,1381.589,3936.982,3640.941,663.9172,-0.07574829,0.002034014,-0.09641176,0.0387589633464813,-0.00306249037384987,-0.10867241024971,-0.0130660253322238,-0.00562194567796536,0.00808849210174802,4
0.159988403320313,-0.0573621802031994,2.94033217430115,1.1509200334549,-0.0609175312885481,2.93960526856281,1.18056794395381,1009.606,3669.273,3950.202,872.2739,-0.1041259,0.003834042,-0.09478776,0.049947015941143,-0.0227195657789707,-0.0763688385486603,-0.0169234294955564,-0.00728167892605071,0.0104764090324936,4
0.17999267578125,-0.0561951361596584,2.93938517570496,1.15012359619141,-0.0612985250199726,2.93944133760391,1.18080379722281,1010.528,3363.177,3835.764,1161.309,-0.1193448,0.003851383,-0.0859727,0.0583522766828537,-0.0473472401499748,-0.0398209132254124,-0.0212433804254414,-0.00914043312572283,0.0131506644458931,3
0.199996948242188,-0.0549091026186943,2.93791794776917,1.15010988712311,-0.0617704296168641,2.93923829023936,1.18109592864822,1333.461,3132.982,3353.235,1401.451,-0.1214082,0.002340466,-0.07415732,0.0643016397953033,-0.0733606666326523,-0.00068342313170433,-0.0260104776919234,-0.0111915819022102,0.0161017247421801,3
0.219985961914063,-0.0535361841320992,2.93597269058228,1.15082955360413,-0.0623415882203848,2.93899253664859,1.18144950303185,1790.231,3014.977,2723.998,1533.027,-0.1151215,0.0002796745,-0.06327564,0.0686458647251129,-0.0972629487514496,0.0359824076294899,-0.031208065114187,-0.0134279585662277,0.0193192789519858,3
0.239990234375,-0.0520961582660675,2.93363213539124,1.15212345123291,-0.0630214373585105,2.93870001655724,1.18187036203406,2171.18,2982.482,2213.053,1547.41,-0.1071507,-0.001339037,-0.05581133,0.0720013305544853,-0.117023587226868,0.0646937340497971,-0.0368316683029241,-0.015847637913056,0.022800557215184,3
0.259994506835938,-0.050604086369276,2.93098068237305,1.15377128124237,-0.0638179029240226,2.93835731967507,1.18236341216003,2348.052,2985.428,2004.737,1459.693,-0.1029024,-0.001919606,-0.05235828,0.0746035575866699,-0.132567808032036,0.0823894515633583,-0.0428651747123285,-0.0184436871643672,0.0265355850983733,3
0.279998779296875,-0.0490743145346642,2.92807531356812,1.1555722951889,-0.0647390625194898,2.93796097043536,1.18293365383054,2308.813,2996.331,2122.762,1298.568,-0.104715,-0.001325189,-0.05185175,0.0764886140823364,-0.145269840955734,0.0900497883558273,-0.0492963837173861,-0.0212108567320638,0.030516809833474,3
0.29998779296875,-0.0475227534770966,2.92493534088135,1.15741109848022,-0.0657918945890516,2.93750796620855,1.18358540703494,2137.771,3011.009,2441.948,1106.295,-0.1118762,0.0001962706,-0.05227945,0.0775781720876694,-0.156993091106415,0.0919411033391953,-0.0561078595514081,-0.0241416444928383,0.0347334378503248,3
0.319992065429688,-0.0459694527089596,2.92155051231384,1.15926575660706,-0.0669855955880233,2.93699435001684,1.18432436481717,1942.211,3019.506,2793.195,937.6761,-0.121821,0.002154565,-0.05160833,0.0776651427149773,-0.169244155287743,0.0927309617400169,-0.0632980253096114,-0.0272353719486164,0.0391844929697465,3
0.339996337890625,-0.0444396436214447,2.91789531707764,1.16117608547211,-0.068326768706371,2.93641728069206,1.18515461486636,1804.478,3000.83,3047.453,841.8662,-0.1315,0.004015743,-0.04861441,0.0764905735850334,-0.182758346199989,0.0955193638801575,-0.0708499516420146,-0.0304847548730522,0.0438594951176439,3
0.3599853515625,-0.0429613515734673,2.91394639015198,1.16320335865021,-0.0698213312158394,2.93577421219747,1.18607982025561,1757.362,2956.232,3148.103,829.7418,-0.1385014,0.005408102,-0.04314747,0.0739144533872604,-0.197444245219231,0.101363845169544,-0.0787457139191101,-0.0338820807988248,0.0487473480944833,3
0.379989624023438,-0.0415609776973724,2.90969371795654,1.16540145874023,-0.0714784451857985,2.93506120235061,1.1871056527423,1801.875,2904.927,3097.449,875.6031,-0.141742,0.006225894,-0.0359351,0.0700186789035797,-0.212629154324532,0.109906017780304,-0.0869857157641562,-0.0374275233937465,0.0538483017622888,3
0.399993896484375,-0.0402596518397331,2.9051456451416,1.16779756546021,-0.0733036822025899,2.9342758538535,1.18823556140379,1909.324,2870.697,2945.069,936.6118,-0.1416626,0.00660219,-0.0280809,0.0650662332773209,-0.227400243282318,0.119806580245495,-0.0955525119207663,-0.0411135764513579,0.0591515566763244,3
0.419998168945313,-0.0390725396573544,2.90032649040222,1.17038214206696,-0.0753034649285836,2.93341540321397,1.18947352217404,2025.572,2858.517,2769.861,987.6166,-0.139718,0.006793436,-0.02059795,0.0593557357788086,-0.240958049893379,0.129227310419083,-0.104434660908044,-0.0449353170220673,0.0646500300148815,3
0.439987182617188,-0.0380105078220367,2.89526844024658,1.17311799526215,-0.0774822545706558,2.93247793089932,1.19082229675263,2110.875,2858.962,2639.26,1016.614,-0.1375635,0.007042271,-0.01415577,0.0531014911830425,-0.252900898456573,0.136795565485954,-0.113613709720558,-0.0488848052931553,0.0703322984885602,3
0.459991455078125,-0.0370822437107563,2.89000344276428,1.17595636844635,-0.0798493430620752,2.93145943885026,1.19228763728888,2146.758,2867.225,2592.323,1012.167,-0.1364684,0.007498693,-0.008924785,0.0464131310582161,-0.263245970010757,0.141917631030083,-0.123092454730403,-0.0529632444654124,0.0762000931848968,3
0.479995727539063,-0.0362961404025555,2.88455677032471,1.1788569688797,-0.0824088828700873,2.93035814037613,1.19387211435783,2141.685,2875.933,2625.05,979.1549,-0.1369914,0.008197084,-0.004683435,0.0393053516745567,-0.272339075803757,0.145032182335854,-0.132852887402757,-0.0571628859694044,0.0822422659629699,4
0.5,-0.0356612801551819,2.87894415855408,1.18179595470428,-0.085166398670376,2.92917165836334,1.1955791479969,2109.379,2885.26,2713.739,925.4282,-0.1390399,0.009086096,-0.0009342369,0.031743012368679,-0.280625492334366,0.146947592496872,-0.142884000065179,-0.0614789935111996,0.0884520025491718,4
0.519989013671875,-0.0351882427930832,2.8731734752655,1.1847710609436,-0.0881248588203387,2.92789871561062,1.19741057576073,2072.089,2887.264,2817.631,874.7139,-0.1420029,0.01006189,0.002807751,0.0236519332975149,-0.288531750440598,0.148755982518196,-0.153166947611899,-0.0659034585682559,0.0948176369253132,4
0.539993286132813,-0.0348886325955391,2.86724710464478,1.18779468536377,-0.091293865515634,2.92653518056143,1.19937234186584,2046.054,2886.293,2906.069,833.1434,-0.1451455,0.01101699,0.006907702,0.0149805108085275,-0.296316832304001,0.151179030537605,-0.163706645289342,-0.0704383960337938,0.101342211863077,4
0.55999755859375,-0.0347744077444077,2.86116552352905,1.19088876247406,-0.094676112580471,2.92507989413848,1.20146611391775,2042.429,2880.174,2955.52,813.1387,-0.1478283,0.01187038,0.01146911,0.00571117643266916,-0.304082304239273,0.154701888561249,-0.17448465888317,-0.0750758741803766,0.108014315705644,4
0.579986572265625,-0.0348564274609089,2.85493063926697,1.19407176971436,-0.0982734311149,2.92353206847056,1.2036930254546,2056.778,2876.891,2968.93,806.362,-0.1497538,0.01259245,0.0164366,-0.00410144496709108,-0.311745166778564,0.159151792526245,-0.185481935470438,-0.0798076950675377,0.114822153786096,4
0.599990844726563,-0.0351440906524658,2.8485472202301,1.1973580121994,-0.102095761416081,2.92188742652551,1.20605922999388,2082.794,2872.276,2952.732,817.6583,-0.1508633,0.01319832,0.02158073,-0.0143828811123967,-0.319172203540802,0.164314165711403,-0.19670480600515,-0.0846365827279185,0.121769645266545,4
0.6199951171875,-0.035644643008709,2.84202289581299,1.20075440406799,-0.106144683970236,2.92014528826426,1.20856570593183,2117.872,2875.455,2921.453,826.5632,-0.1514337,0.01372655,0.02667197,-0.0250275060534477,-0.326211303472519,0.169819056987762,-0.208134604141382,-0.0895545055543457,0.128845234789665,4
0.639999389648438,-0.0363633334636688,2.83536791801453,1.2042578458786,-0.110424235525481,2.91830391678686,1.21121495220784,2145.994,2881.86,2896.539,833.0758,-0.1518508,0.01422789,0.03154396,-0.0359346754848957,-0.332743644714355,0.175173997879028,-0.219761081350814,-0.0945570538913933,0.136042578028218,4
0.659988403320313,-0.0373044013977051,2.8285927772522,1.2078629732132,-0.114934715429503,2.91636318329238,1.21400715413238,2165.052,2886.987,2885.807,837.6392,-0.1524069,0.01474332,0.03608321,-0.0470536313951015,-0.338756769895554,0.180253848433495,-0.231565018351745,-0.0996359582190702,0.143349777331291,4
0.67999267578125,-0.0384713299572468,2.82170701026917,1.21156179904938,-0.119686638739014,2.91431856344567,1.21694882102647,2175.464,2894.89,2896.603,828.3979,-0.1533272,0.01529425,0.04031404,-0.0583464540541172,-0.344283670186996,0.184943348169327,-0.243554411173546,-0.104794659005432,0.150771782621969,4
0.699996948242188,-0.0398678220808506,2.81471824645996,1.21535265445709,-0.124680083855354,2.91217002351282,1.22004000142426,2181.914,2899.561,2918.727,817.4752,-0.1546396,0.01588201,0.04427863,-0.0698246508836746,-0.349441528320313,0.189540967345238,-0.255710395848158,-0.11002503961202,0.158296916205407,4
0.719985961914063,-0.0414972938597202,2.80763220787048,1.2192325592041,-0.129914195341611,2.90991793156443,1.22328016576956,2184.41,2906.877,2955.046,794.6097,-0.1563419,0.01649592,0.04812165,-0.0814731866121292,-0.354306608438492,0.193994700908661,-0.2680137084949,-0.11531881132915,0.165913252821798,4
0.739990234375,-0.0433638989925385,2.80045223236084,1.22320580482483,-0.135400001298574,2.90755754251682,1.2266761409821,2184.556,2905.929,2990.977,784.2566,-0.1581944,0.01712394,0.05189193,-0.0933308154344559,-0.358998984098434,0.198664277791977,-0.280473432677602,-0.12067988256057,0.173626415629864,5
0.759994506835938,-0.0454717315733433,2.79318070411682,1.22727918624878,-0.14113644597991,2.90508931062815,1.2302272735046,2194.803,2910.662,3020.435,764.7723,-0.1600975,0.01774504,0.05566676,-0.105391129851341,-0.363577991724014,0.203671023249626,-0.293070637251543,-0.126100107763583,0.181424685349205,5
0.779998779296875,-0.0478244312107563,2.78581953048706,1.23145842552185,-0.147126184485884,2.90251209348295,1.23393520697061,2204.829,2913.143,3044.394,752.9791,-0.1619463,0.01835154,0.05947036,-0.117635004222393,-0.368063360452652,0.208960130810738,-0.305795832832518,-0.131575403921268,0.189302187598958,5
0.79998779296875,-0.0504254586994648,2.77837014198303,1.23575031757355,-0.153366821193532,2.89982692185086,1.2377984583754,2218.209,2914.45,3059.367,748.0732,-0.1636518,0.01894279,0.06326548,-0.130051970481873,-0.372470647096634,0.21459299325943,-0.318629798715703,-0.137097500901303,0.197247023847227,5
0.819992065429688,-0.0532774142920971,2.77083468437195,1.24015808105469,-0.159870162197751,2.89702871589906,1.2418243362541,2233.978,2918.923,3071.962,739.5522,-0.165246,0.01952145,0.06703775,-0.142597645521164,-0.376769959926605,0.220389500260353,-0.33158286215529,-0.142670842232658,0.205265587156312,5
0.839996337890625,-0.056382704526186,2.76321506500244,1.24468791484833,-0.166633637018892,2.89411858163313,1.24601124935738,2252.36,2922.189,3075.977,738.7184,-0.1667458,0.0200952,0.07071107,-0.155264124274254,-0.380977690219879,0.226492136716843,-0.344636106234817,-0.148287288494656,0.213346167053785,5
0.8599853515625,-0.0597422607243061,2.75551438331604,1.24933743476868,-0.173653699721778,2.89109804476993,1.25035700258242,2269.068,2930.715,3088.648,725.0027,-0.1683235,0.02066871,0.07431523,-0.167977213859558,-0.385038673877716,0.232477873563766,-0.357770416714212,-0.153938615363784,0.221476930914505,5
0.879989624023438,-0.0633575767278671,2.7477343082428,1.2541092634201,-0.18094280014554,2.88796174849148,1.25486930297274,2278.951,2930.241,3100.501,729.1948,-0.1699006,0.02125801,0.07777105,-0.180765867233276,-0.388999223709106,0.23859179019928,-0.370996904517929,-0.159629603560431,0.229664756929996,5
0.899993896484375,-0.0672293901443481,2.73987722396851,1.2590035200119,-0.18849723509595,2.8847112861788,1.25954585807468,2296.745,2938.961,3116.503,712.1486,-0.1716146,0.02185826,0.08112454,-0.193591594696045,-0.39285472035408,0.244712725281715,-0.384296738353309,-0.165352150505452,0.237897987633041,5
0.919998168945313,-0.0713584721088409,2.73194456100464,1.26402044296265,-0.196318384305134,2.8813460641717,1.26438752200817,2306.96,2941.814,3136.627,704.9083,-0.1734432,0.02247503,0.08437692,-0.206454157829285,-0.396631896495819,0.250845193862915,-0.397661187980262,-0.171102499820431,0.246171218589148,5
0.939987182617188,-0.0757455974817276,2.72393751144409,1.26916122436523,-0.204401181418416,2.87786826238106,1.26939115845832,2318.5,2945.027,3158.921,694.2592,-0.1753596,0.02310841,0.0875444,-0.219356343150139,-0.400358617305756,0.257036834955215,-0.411071375662203,-0.176872528942697,0.254472763580097,5
0.959991455078125,-0.0803914666175842,2.71585655212402,1.27442681789398,-0.212759000778906,2.87427212620069,1.27456504678061,2329.792,2947.794,3183.496,682.1511,-0.1773244,0.02375634,0.09065133,-0.232293710112572,-0.4040507376194,0.263279467821121,-0.424539267042903,-0.182667386354485,0.262810029909387,5
0.979995727539063,-0.0852972120046616,2.70770144462585,1.2798228263855,-0.22138664033507,2.87055989392801,1.27990596665734,2345.323,2950.843,3200.489,673.5807,-0.1792883,0.02441636,0.0936832,-0.245287343859673,-0.407755106687546,0.2697993516922,-0.438046240701377,-0.188479059778567,0.271171490030365,5
1,-0.0904626995325089,2.69947290420532,1.28534746170044,-0.230284798736574,2.86673126495361,1.28541435058594,2360.473,2957.03,3224.338,654.5486,-0.1813293,0.0250816,0.09670158,-0.258274346590042,-0.411432266235352,0.276232600212097,-0.451584000205995,-0.194303979492187,0.279552008056641,5
1.01998901367188,-0.0958890020847321,2.69116997718811,1.29100656509399,-0.239446912293295,2.86278906344998,1.29108613532954,2371.497,2955.342,3239.316,657.462,-0.1832894,0.02576446,0.09962708,-0.271314233541489,-0.415145725011826,0.282957464456558,-0.46513400752272,-0.200134169097193,0.287940108062054,5
1.03999328613281,-0.101575389504433,2.68279337882996,1.29679679870605,-0.248887339851819,2.85872711120656,1.2969302096982,2389.13,2962.881,3264.08,633.6186,-0.1853118,0.02645231,0.1025434,-0.284320741891861,-0.418826192617416,0.289511620998383,-0.478708875293167,-0.205975055460915,0.29634359787259,5
1.05999755859375,-0.107523247599602,2.67434191703796,1.30272769927979,-0.258599401509697,2.85454828239877,1.30294243851408,2402.638,2961.314,3271.663,641.7437,-0.187217,0.02716093,0.1053309,-0.297392398118973,-0.422575056552887,0.296542555093765,-0.492290296490434,-0.211818761581115,0.30475114456651,5
1.07998657226563,-0.113730490207672,2.66581678390503,1.30879044532776,-0.268575430648764,2.85025587575821,1.30911807577533,2423.658,2973.365,3299.393,606.4339,-0.1893108,0.02786676,0.1081443,-0.310363113880157,-0.426259070634842,0.303136259317398,-0.50586005237609,-0.217657448443621,0.313151469876847,5
1.09999084472656,-0.120198607444763,2.6572163105011,1.31499481201172,-0.278830554044452,2.84584338265603,1.31546648567654,2427.819,2964.816,3309.412,628.8311,-0.191224,0.02860701,0.1107951,-0.323405534029007,-0.430022656917572,0.310217171907425,-0.519431110871131,-0.223496695782555,0.321552601564445,5
1.1199951171875,-0.126925498247147,2.64854168891907,1.32133364677429,-0.289357002179081,2.84131414609862,1.32198285851614,2455.096,2979.863,3335.932,585.7933,-0.1933364,0.02934283,0.1134675,-0.336344748735428,-0.433735191822052,0.316944181919098,-0.532985466132485,-0.229328756186667,0.329943393154705,5
1.13999938964844,-0.133912220597267,2.6397910118103,1.32781577110291,-0.300154365346813,2.83666834237095,1.3286669406667,2460.054,2973.094,3346.368,605.1024,-0.1953189,0.03011009,0.1159956,-0.349336057901382,-0.437530815601349,0.324107140302658,-0.546515580872639,-0.235150386571708,0.338319178707607,5
1.15998840332031,-0.141156256198883,2.63096570968628,1.33443176746368,-0.31121353909136,2.83190988886621,1.33551309603608,2483.249,2985,3377.958,564.1605,-0.1974984,0.0308742,0.1185575,-0.362201690673828,-0.441268086433411,0.330799996852875,-0.560003743914979,-0.240953966313175,0.346668994161124,6
1.17999267578125,-0.148659124970436,2.62206339836121,1.34119272232056,-0.322550701230474,2.8270318247214,1.34253133946411,2486.833,2976.157,3388.304,587.3676,-0.199466,0.03167574,0.1209621,-0.375144630670547,-0.445110589265823,0.33804789185524,-0.573463232144024,-0.246745208083563,0.355001058539242,6
1.19999694824219,-0.156418159604073,2.61308526992798,1.34808993339539,-0.334156660511822,2.8220381046756,1.34971598112778,2516.174,2991.359,3417.729,538.9967,-0.2016407,0.03246605,0.1234173,-0.3879514336586,-0.448900759220123,0.344862192869186,-0.58687652428584,-0.252516572968185,0.36330452533874,6
1.21998596191406,-0.164434686303139,2.60402917861938,1.3551344871521,-0.34602126278068,2.81693309777792,1.35706073512159,2519.284,2982.941,3425.296,564.7965,-0.2036178,0.03329185,0.1257217,-0.400826305150986,-0.452804893255234,0.352228671312332,-0.600226348268632,-0.258260629277074,0.371568702324394,6
1.239990234375,-0.172704964876175,2.59489679336548,1.36231231689453,-0.358161486344149,2.81170949873715,1.36457611182642,2544.732,2995.516,3462.91,514.1415,-0.2058139,0.0341037,0.1281032,-0.41351455450058,-0.456614285707474,0.358892202377319,-0.613526094901141,-0.263983138701136,0.379801879044709,6
1.25999450683594,-0.181232199072838,2.58568453788757,1.36964428424835,-0.3705671011502,2.80637170925886,1.37225577835275,2547.927,2984.969,3457.868,555.5197,-0.2076658,0.03496518,0.1302614,-0.426362097263336,-0.460612565279007,0.366597324609756,-0.626758665639206,-0.269676744214496,0.387993470686331,6
1.27999877929688,-0.190009936690331,2.57639622688293,1.37710475921631,-0.383236695417198,2.80092033679326,1.3800988607405,2583.706,3006.719,3506.222,472.9686,-0.2099684,0.03578402,0.1326021,-0.438885807991028,-0.464421451091766,0.373025208711624,-0.639917282339435,-0.275338529371412,0.396139281255613,6
1.29998779296875,-0.199043706059456,2.56702613830566,1.38472509384155,-0.396158759015336,2.79536033382764,1.388098233671,2570.543,2983.95,3489.954,555.3441,-0.2116947,0.03668318,0.1346094,-0.451689302921295,-0.468509197235107,0.381015300750732,-0.652985332144132,-0.280961346123326,0.404229026602261,6
1.31999206542969,-0.208323791623116,2.5575807094574,1.39246487617493,-0.409351342777246,2.78968393359302,1.39626507146953,2620.063,3015.339,3557.799,428.0266,-0.2140995,0.03750699,0.1369276,-0.464003711938858,-0.47227144241333,0.386989593505859,-0.665976209205206,-0.286550957599616,0.412270998344359,6
1.33999633789063,-0.217860549688339,2.54805064201355,1.4003781080246,-0.422802873722428,2.78389611561957,1.40459220990988,2592.71,2981.36,3513.096,566.4708,-0.2155621,0.03845487,0.138733,-0.47683972120285,-0.47649946808815,0.395660310983658,-0.678873453515705,-0.29210028151913,0.420255006953505,6
1.3599853515625,-0.227637439966202,2.5384476184845,1.40839529037476,-0.436500861174643,2.77800225429635,1.41307191666844,2667.716,3032.117,3612.745,358.6581,-0.2182391,0.03925586,0.1411053,-0.488844692707062,-0.480152636766434,0.400862067937851,-0.69166099897751,-0.297602405088682,0.428171106749628,6
1.37998962402344,-0.237672612071037,2.52875661849976,1.41660273075104,-0.450464156928423,2.77199423822282,1.42171586190405,2601.092,2970.813,3532.126,603.2425,-0.2193236,0.04026907,0.1426647,-0.501756310462952,-0.484548807144165,0.410372018814087,-0.704352136620515,-0.303063047067127,0.436027525513373,6
1.39999389648438,-0.247939884662628,2.5189962387085,1.42489171028137,-0.464680216184654,2.76587746507559,1.43051627978847,2721.467,3051.107,3677.969,269.2823,-0.2223447,0.04103008,0.1451464,-0.513364315032959,-0.488013356924057,0.414448469877243,-0.716930938559026,-0.308475354130225,0.443814403124744,7
1.41999816894531,-0.25846990942955,2.50914239883423,1.43340218067169,-0.47914673136562,2.75965292774086,1.43947174182117,2605.094,2958.269,3529.994,668.27,-0.222856,0.04213219,0.1463633,-0.526503503322601,-0.492695361375809,0.425522774457932,-0.729391385793766,-0.313836736470737,0.451528013536465,7
1.43998718261719,-0.269218653440475,2.49922704696655,1.44194900989532,-0.49384995777978,2.75332654017544,1.44857373938334,2788.694,3079.25,3769.046,128.0302,-0.2265967,0.04279885,0.1491396,-0.537438035011292,-0.495765656232834,0.42733907699585,-0.741718206886022,-0.319140623215221,0.459158903000492,7
1.45999145507813,-0.280241310596466,2.48920798301697,1.45077431201935,-0.508809800712713,2.74688973769103,1.45783459479497,2577.739,2927.278,3498.868,814.3726,-0.2259964,0.04406521,0.1497888,-0.551131784915924,-0.500952243804932,0.441266506910324,-0.753924423002454,-0.324392617007921,0.466715132239272,7
1.47999572753906,-0.291467696428299,2.47913265228271,1.45959937572479,-0.524012471663969,2.74034845309416,1.46724577231745,2801.807,3197.129,3808.77,0,-0.2302132,0.04490808,0.1532707,-0.561319351196289,-0.503769755363464,0.441252857446671,-0.765994882555672,-0.329586198544069,0.474187321698441,7
1.5,-0.302974879741669,2.4689462184906,1.46874308586121,-0.539455198877605,2.73370387899399,1.4768055561018,2581.293,2866.524,3448.214,974.6668,-0.2286127,0.04654429,0.1533795,-0.575356185436249,-0.509327411651611,0.457182735204697,-0.777924000354858,-0.334718964672088,0.481572013878822,7
1.51998901367188,-0.3146753013134,2.45870327949524,1.47787833213806,-0.555123050061237,2.72696244033876,1.48650470234772,2747.99,3337.34,3767.026,0,-0.2326005,0.04804663,0.1572879,-0.585023939609528,-0.512148976325989,0.456763625144958,-0.789697369743256,-0.339784716610053,0.488860290373601,7
1.53999328613281,-0.326647162437439,2.44835638999939,1.48730444908142,-0.571036956668503,2.72011513090874,1.49635616862212,2663.782,2793.407,3459.734,998.7338,-0.2310633,0.05021749,0.1569215,-0.598592102527618,-0.517346978187561,0.47130885720253,-0.801327600455846,-0.344788879974649,0.496059957209413,7
1.55999755859375,-0.338806569576263,2.43795943260193,1.49671578407288,-0.587181951496087,2.71316839067337,1.50635068951315,2804.031,3304.254,3793.773,0,-0.2351635,0.05216932,0.1599289,-0.607972800731659,-0.519850432872772,0.47056770324707,-0.812800388649436,-0.349725300221754,0.503162159625937,7
1.57998657226563,-0.351227819919586,2.42746877670288,1.50639390945435,-0.603542258451077,2.7061290076447,1.51647849886779,2742.94,2787.652,3539.486,892.0436,-0.2345259,0.05458149,0.1588715,-0.621061384677887,-0.524537801742554,0.483906269073486,-0.82410201904291,-0.354588076049064,0.510158407210813,7
1.59999084472656,-0.363834798336029,2.41692900657654,1.51607370376587,-0.620139554045575,2.69898765502515,1.52675301547962,2806.313,3304.599,3839.163,0,-0.2389031,0.05682855,0.1611868,-0.630349636077881,-0.526991844177246,0.483992487192154,-0.835244706287931,-0.359382463079953,0.517056261415284,7
1.6199951171875,-0.376688987016678,2.40630435943604,1.5259792804718,-0.636958033083316,2.69175113334911,1.53716445517924,2815.072,2787.229,3668.839,729.8698,-0.2394693,0.05928081,0.1600341,-0.642711043357849,-0.53122752904892,0.495279520750046,-0.846214826007804,-0.364102599125749,0.523847288101157,7
1.63999938964844,-0.389730900526047,2.39562821388245,1.53590762615204,-0.653994195024907,2.68442094880091,1.54771065096602,2849.343,3224.091,3922.081,0,-0.243871,0.06148786,0.1616595,-0.652096450328827,-0.533811271190643,0.496418863534927,-0.857007552155828,-0.368746407673381,0.530528499715628,7
1.65998840332031,-0.40300914645195,2.3848705291748,1.54603338241577,-0.67123120513297,2.67700434489773,1.55838118133557,2866.423,2813.511,3805.883,551.9716,-0.2451935,0.0637042,0.160743,-0.663911581039429,-0.53788149356842,0.506285488605499,-0.867610144209785,-0.373308406832068,0.537092009268528,7
1.67999267578125,-0.416478753089905,2.3740541934967,1.55620837211609,-0.688691692550512,2.66949158495151,1.56919005480539,2881.978,3159.372,3995.586,0,-0.2491313,0.06564018,0.1621423,-0.673481285572052,-0.540821194648743,0.508751273155212,-0.878034183119987,-0.377793579561193,0.543544985919778,7
1.69999694824219,-0.430176675319672,2.36315441131592,1.56656610965729,-0.706358800111611,2.66188992212981,1.58012683598675,2908.026,2849.042,3898.546,416.0474,-0.2505566,0.06747284,0.1617797,-0.684897840023041,-0.544990956783295,0.517888188362122,-0.888267004546665,-0.382196476749158,0.549879589839776,8
1.71998596191406,-0.444067060947418,2.35218858718872,1.57699024677277,-0.724214951560321,2.65420691900456,1.59118064433996,2926.796,3107.273,4040.155,0,-0.2538573,0.06897911,0.1632774,-0.694515943527222,-0.548286616802216,0.521207571029663,-0.898296635743475,-0.386511946857687,0.556088409328192,8
1.739990234375,-0.458179324865341,2.34113621711731,1.58758926391602,-0.74228345468553,2.64643254688532,1.60236590849663,2926.234,2883.894,3946.346,348.7526,-0.2549274,0.07038579,0.1635027,-0.705616116523743,-0.552614986896515,0.52995103597641,-0.908134108040217,-0.390744736359816,0.562178273303667,8
1.75999450683594,-0.47248187661171,2.3300142288208,1.59826076030731,-0.760546715064628,2.63857437616062,1.61367173667103,2968.666,3078.325,4063.118,0,-0.257582,0.07143922,0.1652605,-0.715128421783447,-0.556099414825439,0.533573865890503,-0.917767514700581,-0.394889722119545,0.568141810929231,8
1.77999877929688,-0.487003207206726,2.31880235671997,1.60911202430725,-0.779000609654483,2.63063418086074,1.62509557650306,2935.019,2918.313,3946.733,340.9264,-0.2580779,0.0724766,0.16593,-0.726064801216125,-0.560590803623199,0.54256534576416,-0.927192788821983,-0.398945154262308,0.57397650459845,8
1.79998779296875,-0.501708269119263,2.30752158164978,1.62002813816071,-0.797626646773287,2.62261991743975,1.63662598076079,2986.081,3089.853,4069.415,0,-0.2602979,0.07320264,0.1681185,-0.735255718231201,-0.564035713672638,0.54580557346344,-0.936399026186941,-0.402906341007953,0.579675604081262,8
1.81999206542969,-0.516630530357361,2.29615068435669,1.63113141059875,-0.816448984455027,2.61452119137054,1.64827790441807,2932.543,2930.513,3928.41,387.4877,-0.2600944,0.07404564,0.1690236,-0.74610960483551,-0.568547010421753,0.555166482925415,-0.945396434568188,-0.406777674475912,0.585245428475252,8
1.83999633789063,-0.531729638576508,2.28471541404724,1.64229023456573,-0.835449117627072,2.60634596486888,1.66003989195343,2998.54,3119.523,4063.894,0,-0.2619629,0.07463325,0.1715451,-0.754958212375641,-0.571763336658478,0.557940304279327,-0.954174163352093,-0.410554485950274,0.590679260733698,8
1.8599853515625,-0.547044277191162,2.273193359375,1.65364253520966,-0.854607925216182,2.59810246519841,1.67190010651166,2943.423,2934.206,3903.772,436.5836,-0.2612588,0.07543206,0.172465,-0.765732705593109,-0.576100051403046,0.567614495754242,-0.962722140342816,-0.41423244164655,0.595970865687568,8
1.87998962402344,-0.562528014183044,2.26161575317383,1.66503536701202,-0.873950157556149,2.58978004298193,1.6838738697284,3000.244,3151.473,4066.935,0,-0.2629749,0.07603868,0.1751576,-0.774182915687561,-0.578877627849579,0.569639980792999,-0.971049893464309,-0.417815641164241,0.601126141575667,8
1.89999389648438,-0.578226447105408,2.24995803833008,1.67662882804871,-0.893456683142228,2.58138692997148,1.69594933829086,2958.257,2927.097,3887.938,483.6037,-0.2618862,0.07692281,0.1758676,-0.784922420978546,-0.582889080047607,0.579672455787659,-0.979147395688901,-0.421299770153459,0.606138881190213,8
1.91999816894531,-0.594087481498718,2.23825359344482,1.68825602531433,-0.913122862707269,2.57292512231409,1.70812364027167,2998.013,3194.735,4061.685,0,-0.263532,0.07769017,0.1785794,-0.793053030967712,-0.585217118263245,0.581357598304749,-0.987011339258123,-0.424683405378145,0.611007036871143,9
1.93998718261719,-0.610157608985901,2.22648048400879,1.70007264614105,-0.932928814964021,2.56440317437226,1.72038446820694,2987.938,2912.167,3902.665,488.6693,-0.2624812,0.07870594,0.1790647,-0.803505539894104,-0.588659465312958,0.590831816196442,-0.994632798067981,-0.427962706185118,0.615725082934877,9
1.95999145507813,-0.626385688781738,2.21467161178589,1.71191763877869,-0.952900013794853,2.55581012544606,1.73274759164336,3012.307,3191.572,4084.546,0,-0.2641099,0.07960249,0.1814705,-0.811407387256622,-0.590449035167694,0.592251718044281,-1.00202031904361,-0.431141350077486,0.620298310335216,9
1.97999572753906,-0.642817795276642,2.202805519104,1.72394406795502,-0.973016570682103,2.54715453300902,1.74520069864106,3021.688,2910.03,3938.219,452.6387,-0.2632385,0.08067823,0.181691,-0.82160085439682,-0.593307077884674,0.60131973028183,-1.00916501115878,-0.434215511495054,0.624721215103391,9
1.99998474121094,-0.659405171871185,2.19091129302979,1.73600435256958,-0.99325809521779,2.53844517048404,1.75773116656619,3018.153,3198.521,4101.377,0,-0.2648322,0.08166358,0.1838395,-0.829371273517609,-0.594714105129242,0.603017270565033,-1.01605883242245,-0.437181730193742,0.628988818863851,9
2.01998901367188,-0.676185846328735,2.17897319793701,1.74822044372559,-1.01365055070775,2.52967086658596,1.77035506794184,3056.378,2905.739,4001.328,382.8898,-0.2643448,0.08270739,0.1840286,-0.839034795761108,-0.596910119056702,0.610802054405212,-1.02270954399163,-0.440043345582587,0.633105926142498,9
2.03999328613281,-0.693121194839478,2.16701412200928,1.76047813892365,-1.03417354141348,2.52084039703127,1.78305977683431,3052.336,3152.243,4139.403,0,-0.2657952,0.08359213,0.185756,-0.846773505210876,-0.597959041595459,0.612883687019348,-1.02910913225408,-0.442796909628122,0.637067576131623,9
2.05999755859375,-0.710241377353668,2.15502119064331,1.77287530899048,-1.05482201812353,2.5119559343546,1.79584216754118,3085.379,2925.233,4062.939,292.8528,-0.265612,0.08443289,0.1860139,-0.85600483417511,-0.599647343158722,0.619858026504517,-1.03525504859546,-0.445441325732794,0.640872191117535,9
2.07998657226563,-0.727514743804932,2.14301204681396,1.78532159328461,-1.07557499515204,2.50302650811029,1.80868924892322,3066.187,3126.088,4172.096,0,-0.2668322,0.08510558,0.1876152,-0.863664984703064,-0.600461184978485,0.622314095497131,-1.04114045847258,-0.4479736531836,0.644515540192423,9
2.09999084472656,-0.744963943958282,2.1309769153595,1.79789233207703,-1.09645901288412,2.49404069871208,1.82161745074311,3098.108,2940.842,4112.983,229.9627,-0.2666485,0.08568738,0.1881346,-0.872466742992401,-0.601762056350708,0.628537476062775,-1.04677201701582,-0.450396755497224,0.648001743199023,9
2.1199951171875,-0.762564301490784,2.11892938613892,1.81051802635193,-1.11745308225396,2.48500753716864,1.83461377976925,3091.927,3094.406,4194.63,0,-0.2674671,0.08606084,0.1897205,-0.88001948595047,-0.602372229099274,0.63128250837326,-1.0521429102862,-0.45270770082608,0.651326581984514,9
2.13999938964844,-0.780334174633026,2.10686111450195,1.8232626914978,-1.138551967509,2.47592927627801,1.8476749948214,3104.137,2965.73,4130.941,194.6076,-0.2670479,0.08634789,0.1905273,-0.888488590717316,-0.60341203212738,0.637231469154358,-1.05725102347782,-0.454905579228273,0.654488747383304,9
2.15998840332031,-0.798249065876007,2.09478569030762,1.83605778217316,-1.15973418543027,2.46681515966915,1.86078779676364,3104.144,3083.768,4205.993,0,-0.267506,0.08641768,0.1922913,-0.895743489265442,-0.603754818439484,0.639753580093384,-1.06209075728,-0.456987981476842,0.657484773155346,9
2.17999267578125,-0.816328525543213,2.08269429206848,1.84897363185883,-1.18102676265167,2.45765355853653,1.8739689163698,3092.397,2982.656,4122.208,210.838,-0.2665638,0.08648352,0.1933167,-0.903983533382416,-0.604577422142029,0.645793378353119,-1.06666760390386,-0.458957270716794,0.660318059240953,10
2.19999694824219,-0.834545433521271,2.07060265541077,1.86193192005157,-1.20240821395574,2.44845371736898,1.88720505326679,3109.933,3096.176,4198.674,0,-0.266657,0.08634229,0.195334,-0.910844087600708,-0.604584217071533,0.647915959358215,-1.07097597819164,-0.460811043810786,0.662985148161421,10
2.21998596191406,-0.852923452854156,2.05849885940552,1.87501776218414,-1.22385674836213,2.4392250122166,1.90048271779974,3082.431,2995.506,4085.078,256.9838,-0.265164,0.08629548,0.1964476,-0.918898463249207,-0.605173945426941,0.654292047023773,-1.07501122224684,-0.462547296596067,0.665483156456917,10
2.239990234375,-0.87142676115036,2.04640555381775,1.88812577724457,-1.24539969505118,2.42995568409656,1.91381882803312,3100.153,3122.494,4190.719,0,-0.2650671,0.08607284,0.1987287,-0.925163269042969,-0.604670584201813,0.65540224313736,-1.07877792518082,-0.464168003639063,0.667814925005999,10
2.25999450683594,-0.890090346336365,2.03430557250977,1.90137767791748,-1.26701526177039,2.4206551096063,1.92719989352455,3066.023,2996.414,4028.278,341.1823,-0.2629062,0.08608213,0.1996843,-0.933181583881378,-0.605010628700256,0.662597119808197,-1.08227143928024,-0.465671165158559,0.669977576652695,10
2.27999877929688,-0.908866167068481,2.02222585678101,1.91463220119476,-1.28869796983554,2.41132564607061,1.9406225227075,3075.252,3182.348,4162.226,0,-0.2627336,0.08599047,0.202219,-0.938787579536438,-0.603968679904938,0.66272383928299,-1.08549040888332,-0.467056197851165,0.67197027217779,10
2.29998779296875,-0.927797555923462,2.01014852523804,1.92803382873535,-1.31042570636616,2.40197680804417,1.95407302665558,3061.392,2978.651,3979.805,420.6273,-0.2601839,0.08620277,0.2028887,-0.94657301902771,-0.603864252567291,0.670083701610565,-1.08843144721369,-0.468321644481621,0.673790915005368,10
2.31999206542969,-0.946827828884125,1.99810588359833,1.94141554832458,-1.33222611841886,2.3925966997709,1.96756852021384,3059.028,3215.413,4150.081,0,-0.260071,0.08633603,0.205374,-0.951515555381775,-0.602145791053772,0.669088184833527,-1.09109790637238,-0.469468947365361,0.675441580245663,10
2.33999633789063,-0.966009557247162,1.98607552051544,1.954949259758,-1.35407709248145,2.38319483607731,1.98109531406483,3066.859,2961.619,3945.771,472.0615,-0.2573541,0.0867911,0.2055763,-0.959083199501038,-0.601511001586914,0.676684439182281,-1.09348640563071,-0.470496651869278,0.67692017506657,10
2.3599853515625,-0.985278308391571,1.97409152984619,1.96844923496246,-1.37595634130987,2.37378080654189,1.99463961134278,3032.364,3260.76,4132.319,0,-0.2574121,0.08722227,0.2079375,-0.963440716266632,-0.599203646183014,0.67500102519989,-1.09559452046326,-0.471403714787811,0.678225198571351,10
2.37998962402344,-1.00468719005585,1.96213400363922,1.98208355903625,-1.39789168475144,2.36434264106153,2.00821863385843,3082.616,2932.714,3952.482,477.1782,-0.2549295,0.08789258,0.2077661,-0.97044962644577,-0.59786981344223,0.681718826293945,-1.09742465646102,-0.47219117117957,0.679358139935436,10
2.39999389648438,-1.02417540550232,1.95023393630981,1.99567854404449,-1.41986083522252,2.35488992936084,2.02181858453579,3034.583,3250.887,4137.776,0,-0.2551399,0.08849968,0.2096872,-0.974408149719238,-0.595007300376892,0.679751992225647,-1.09897439291323,-0.472857979480329,0.680317500623536,10
2.41999816894531,-1.04379117488861,1.93837404251099,2.00938677787781,-1.44185817738692,2.34542508756209,2.03543598721428,3106.549,2922.306,3988.922,420.3291,-0.2531601,0.08919703,0.2092449,-0.980781316757202,-0.592996418476105,0.685410976409912,-1.10024313330221,-0.473403883025206,0.681102911362803,10
2.43998718261719,-1.0634800195694,1.92657923698425,2.02305674552917,-1.46386128162322,2.33595776650478,2.04905695688976,3030.635,3229.552,4155.7,0,-0.2534658,0.08981147,0.2107977,-0.984447479248047,-0.589736938476563,0.683498859405518,-1.10122974390336,-0.473828394004169,0.681713670323692,10
2.45999145507813,-1.08328199386597,1.91483640670776,2.03681254386902,-1.48589810917879,2.32647593524532,2.06269880290633,3120.893,2915.807,4048.183,339.8453,-0.2519254,0.09036727,0.2103574,-0.990094900131226,-0.587140917778015,0.687785387039185,-1.10193535162022,-0.474131997292339,0.68215047511319,10
2.47999572753906,-1.10315442085266,1.90316343307495,2.05053949356079,-1.50794623031618,2.31698924467309,2.07634764018804,3045.746,3182.368,4176.138,0,-0.2520677,0.09077477,0.2115989,-0.993626117706299,-0.583648681640625,0.686342358589172,-1.10235882472314,-0.474314205938057,0.682412625136718,10
2.49998474121094,-1.12312602996826,1.89155066013336,2.06432795524597,-1.5299831765145,2.30750736236496,2.08998955965012,3129.55,2928.79,4099.837,248.5932,-0.2508064,0.09099548,0.211404,-0.99857896566391,-0.580642521381378,0.689429044723511,-1.10250000042077,-0.474374949896755,0.682500019618683,11
2.51998901367188,-1.14316415786743,1.88001108169556,2.07809114456177,-1.5520369476803,2.29801824074336,2.10364189456856,3058.354,3130.112,4199.55,0,-0.2506445,0.09100016,0.2125648,-1.00190472602844,-0.576977789402008,0.688163638114929,-1.10235904000526,-0.474314298567936,0.682412758406603,11
2.53999328613281,-1.16329276561737,1.86853492259979,2.09190964698792,-1.57408507527774,2.28853154739156,2.11729073584934,3112.133,2952.583,4115.295,207.3329,-0.2491377,0.09082042,0.2127222,-1.00642776489258,-0.573804318904877,0.690926730632782,-1.10193578218388,-0.474132182551855,0.682150741652607,11
2.55999755859375,-1.18348121643066,1.8571343421936,2.10570192337036,-1.59612191359838,2.27904971150017,2.13093258853001,3060.219,3113.024,4194.987,0,-0.2485384,0.09039335,0.2141356,-1.00942957401276,-0.5700364112854,0.689608514308929,-1.10123038958312,-0.473828671822132,0.681714070030222,11
2.57998657226563,-1.20375382900238,1.84579825401306,2.11954998970032,-1.61812503288753,2.26958238396605,2.14455356752391,3077.5,2973.261,4087.005,229.3986,-0.2464191,0.08988021,0.2146697,-1.01362657546997,-0.566799104213715,0.692407250404358,-1.1002439936861,-0.473404253224357,0.681103443981416,11
2.59999084472656,-1.22407531738281,1.83454287052155,2.13335490226746,-1.64012239440973,2.26011753383818,2.15817098218581,3055.955,3108.452,4182.27,0,-0.2453847,0.08908117,0.2164529,-1.01606810092926,-0.562769114971161,0.69024920463562,-1.09897546783438,-0.47285844198887,0.680318166050934,11
2.6199951171875,-1.24448132514954,1.82335138320923,2.14724183082581,-1.66209156852628,2.2506648119635,2.17177094750084,3027.71,2994.8,3998.656,328.4692,-0.2422278,0.08841679,0.2170987,-1.02031195163727,-0.559573113918304,0.69434380531311,-1.09742594550583,-0.472191725819537,0.679358937915576,11
2.63999938964844,-1.26491963863373,1.81224775314331,2.16105651855469,-1.68402693989188,2.24122663446822,2.18534998730279,3016.282,3170.04,4136.585,0,-0.2409261,0.08751855,0.2194803,-1.02191185951233,-0.555178999900818,0.690733075141907,-1.09559602313537,-0.471404361345641,0.67822612879697,11
2.65998840332031,-1.28544509410858,1.80120873451233,2.17498445510864,-1.70590622088595,2.23181259109281,2.19889430449282,2973.716,2991.415,3867.349,500.1329,-0.2366272,0.08702847,0.2199366,-1.02628099918365,-0.55195277929306,0.696396887302399,-1.09348812118877,-0.470497390025984,0.676921237078733,10
2.67999267578125,-1.30598056316376,1.79026973247528,2.18879461288452,-1.72775723139253,2.2224107117184,2.21242112090437,2958.862,3252.482,4086.476,0,-0.235294,0.08636826,0.222802,-1.02676916122437,-0.546956062316895,0.690503656864166,-1.09109983431736,-0.469469776906228,0.675442773735451,9
2.69999694824219,-1.32660961151123,1.77939796447754,2.20276308059692,-1.74955768413056,2.21303058593937,2.22591663964878,2929.866,2968.832,3705.405,712.481,-0.2298739,0.0863917,0.2225758,-1.0314599275589,-0.543588519096375,0.69841855764389,-1.08843358680109,-0.468322565086308,0.673792239511893,9
2.71998596191406,-1.34722328186035,1.76863956451416,2.21656346321106,-1.77128546553625,2.20368172860443,2.23936717137667,2868.581,3385.802,4015.498,0,-0.2288422,0.08638902,0.2258346,-1.03067922592163,-0.537915170192719,0.690024852752686,-1.08549275912543,-0.467057209094684,0.671971727089609,8
2.739990234375,-1.36793112754822,1.75795745849609,2.23054814338684,-1.79296822271738,2.1943522439355,2.25278983096475,2910.498,2906.887,3564.951,913.7554,-0.2228006,0.08721717,0.2246014,-1.03538584709167,-0.534107029438019,0.699234545230865,-1.08227399942825,-0.465672266718727,0.669979161506271,7
2.75999450683594,-1.38859927654266,1.74740409851074,2.24432039260864,-1.81458384274179,2.18505164650952,2.26617092945464,2791.611,3492.078,3955.946,0,-0.2223505,0.08810707,0.2277312,-1.03341710567474,-0.527680158615112,0.688611686229706,-1.07878069424208,-0.464169195088763,0.667816639186824,7
2.77999877929688,-1.40935432910919,1.73694062232971,2.25828051567078,-1.83612684690458,2.17578229366013,2.27950707526701,2930.295,2832.411,3485.149,1021.114,-0.2165342,0.08975055,0.2252842,-1.03774511814117,-0.52316015958786,0.698003172874451,-1.07501419914593,-0.462548577472581,0.665484999299265,6
2.79998779296875,-1.43005073070526,1.72661900520325,2.27200055122375,-1.85757544288233,2.1665535620153,2.29278477791556,2721.592,3563.618,3920.07,0,-0.2169123,0.09153543,0.2278656,-1.03482437133789,-0.516082227230072,0.686005532741547,-1.07097916161324,-0.460812413548163,0.662987118851036,5
2.81999206542969,-1.45081305503845,1.71640610694885,2.2858715057373,-1.87895695992541,2.1573536925621,2.30602095550813,2977.415,2746.514,3515.286,991.7624,-0.2121996,0.09375392,0.2244055,-1.03811597824097,-0.510649383068085,0.693551957607269,-1.06667099276523,-0.458958728849171,0.660320157107579,5
2.83999633789063,-1.47150909900665,1.70634269714355,2.29951000213623,-1.90024960698239,2.14819206138118,2.31920211834584,2705.427,3543.386,3918.835,0,-0.2132734,0.09607993,0.2259288,-1.03480076789856,-0.503168225288391,0.681929349899292,-1.06209435025759,-0.456989527434725,0.657486997379635,4
2.8599853515625,-1.49223721027374,1.69640636444092,2.3132221698761,-1.92143189875059,2.13907791299805,2.33231496600284,3050.203,2689.443,3664.267,776.9537,-0.2105335,0.09826946,0.2220507,-1.03640270233154,-0.496817409992218,0.685613512992859,-1.05725481901126,-0.454907212340279,0.654491096999312,3
2.87998962402344,-1.51290154457092,1.68662130832672,2.32673859596252,-1.94253086194772,2.12999961857111,2.34537622930486,2744.43,3408.235,3973.674,0,-0.2119764,0.1004056,0.2222827,-1.03322434425354,-0.489245742559433,0.67581981420517,-1.05214690704168,-0.452709420518306,0.651329056166547,1
2.89999389648438,-1.53356122970581,1.67697584629059,2.34023857116699,-1.96352501326936,2.1209664217661,2.35837260906308,3104.11,2687.939,3893.4,436.6026,-0.2112899,0.1018124,0.2188373,-1.03298401832581,-0.482276827096939,0.675003349781036,-1.04677621342161,-0.450398561093403,0.648004340974112,0
2.91999816894531,-1.55417013168335,1.66747426986694,2.35360431671143,-1.98440911693069,2.11198057539494,2.37130086407726,2822.215,3206.952,4052.265,0,-0.212442,0.1029263,0.2181228,-1.03043723106384,-0.475064873695374,0.668289840221405,-1.04114485287423,-0.447975543971863,0.644518260536375,0
2.93998718261719,-1.57474172115326,1.65811550617218,2.36686992645264,-2.00516218376194,2.10305111051103,2.38414800105147,3111.281,2745.397,4128.368,73.78166,-0.2131216,0.1028788,0.2160882,-1.02857315540314,-0.467943757772446,0.663282513618469,-1.03525963910674,-0.445443300901551,0.640875032862689,0
2.95999145507813,-1.59527778625488,1.64888870716095,2.38005995750427,-2.02581075424974,2.0941666074844,2.39693044981124,2923.597,2969.63,4140.85,0,-0.2131994,0.10222,0.2151214,-1.02681398391724,-0.461348235607147,0.659496963024139,-1.02911391720548,-0.442798968459032,0.637070538244476,0
2.97999572753906,-1.61577713489532,1.63978457450867,2.39317750930786,-2.04633384260397,2.08533609591429,2.40963521915279,2921.363,2954.417,4128.152,0,-0.2124904,0.100939,0.2151548,-1.02496337890625,-0.455209732055664,0.655872225761414,-1.02271452148052,-0.440045487257004,0.633109007445237,0
2.99998474121094,-1.63623511791229,1.63079905509949,2.40620946884155,-2.0667108956286,2.07656841926675,2.42224958566868,2946.413,2901.273,4129.445,0,-0.2109682,0.09891414,0.2158086,-1.02290594577789,-0.449272364377975,0.651599526405334,-1.01606916835995,-0.437186177458897,0.628995217301535,0
3.01998901367188,-1.65666198730469,1.62192344665527,2.4191951751709,-2.0869680292999,2.06785234056679,2.43478971639231,2892.668,2926.156,4035.677,103.3488,-0.2078959,0.0964106,0.2168423,-1.02133297920227,-0.443779915571213,0.649291455745697,-1.00917036754089,-0.434217816196637,0.624724530959079,0
3.03999328613281,-1.67704236507416,1.61316132545471,2.43209171295166,-2.10708469520508,2.05919670122237,2.4472428908773,2901.214,2967.142,4024.425,39.02161,-0.2045989,0.09328397,0.2187988,-1.0190292596817,-0.438114583492279,0.644825756549835,-1.00202586176059,-0.431143734953757,0.620301741541063,0
3.05999755859375,-1.69740331172943,1.60449886322021,2.44499969482422,-2.12705600675913,2.05060360379452,2.45960608409476,2770.295,3008.874,3788.243,353.4419,-0.1989701,0.09025377,0.2206396,-1.01803934574127,-0.433112055063248,0.645396769046783,-0.994638524886308,-0.427965170275055,0.615728628108227,0
3.07998657226563,-1.71768724918365,1.5959644317627,2.45772171020508,-2.14686207530873,2.04208160581513,2.47186698402085,2897.421,3017.854,3969.784,0,-0.1954856,0.08637717,0.2239097,-1.01419746875763,-0.42672723531723,0.636103987693787,-0.987017247723776,-0.424685947625853,0.611010694492843,0
3.09999084472656,-1.73799812793732,1.58751809597015,2.47063088417053,-2.16652837486666,2.03361974652815,2.48404136028297,2544.59,3072.222,3348.163,938.1475,-0.1860607,0.08386208,0.2249866,-1.01555442810059,-0.4223273396492,0.645458042621613,-0.979153483542501,-0.421302389586788,0.606142649861596,0
3.1199951171875,-1.75818514823914,1.57921409606934,2.48321723937988,-2.18603502400946,2.02522658035469,2.49611690533293,2605.033,3425.317,3803.317,0,-0.1826423,0.08112058,0.2308787,-1.00934326648712,-0.415189206600189,0.629315376281738,-0.971056158224178,-0.417818336715394,0.601130019760458,0
3.13999938964844,-1.77845442295074,1.57099485397339,2.49618744850159,-2.20537738341953,2.01690410346351,2.50809074721212,2398.691,2966.185,2747.259,1775.488,-0.1688242,0.08096865,0.229863,-1.01345658302307,-0.410968810319901,0.648513376712799,-0.962728579444533,-0.414235212212131,0.595974851798267,0
3.15998840332031,-1.79853677749634,1.56294226646423,2.5086407661438,-2.22453632143911,2.00866054767245,2.51995104251302,2278.559,3904.006,3596.135,0,-0.1663586,0.08115965,0.2375755,-1.00411665439606,-0.402630925178528,0.622670710086823,-0.954180774018563,-0.410557330335374,0.590683353051152,0
3.17999267578125,-1.81875252723694,1.55499339103699,2.52166318893433,-2.24353658854737,2.00048526354177,2.53171311296128,2372.154,2724.999,2136.931,2637.549,-0.1492073,0.08476933,0.2323671,-1.01078867912292,-0.39743173122406,0.651125192642212,-0.945403214201559,-0.406780591562751,0.585249625391267,0
3.19999694824219,-1.83872199058533,1.5472366809845,2.53399634361267,-2.2623590635174,1.99238647840124,2.54336512160655,1888.531,4499.433,3328.851,0,-0.1491573,0.08945031,0.2406605,-0.998471736907959,-0.387854933738708,0.616652846336365,-0.936405971974636,-0.402909329586355,0.579679903854719,0
3.21998596191406,-1.85882019996643,1.53963184356689,2.54691481590271,-2.280985241111,1.98437215453788,2.55489561282487,2539.882,2311.879,1830.146,3148.097,-0.1325956,0.09719241,0.230366,-1.00491309165955,-0.380220621824265,0.645918369293213,-0.927199897745278,-0.398948213033402,0.573980905360615,0
3.239990234375,-1.87863981723785,1.53224503993988,2.55908584594727,-2.2994392795179,1.97643189735754,2.5663195416865,1698.64,4827.881,3127.283,0,-0.1362915,0.1062773,0.236051,-0.990979373455048,-0.369349837303162,0.608553051948547,-0.917774783907129,-0.394892849856044,0.568146310914365,0
3.25999450683594,-1.89848601818085,1.52507400512695,2.57157039642334,-2.31770268688992,1.96857366338589,2.57762546085652,2906.845,1871.643,2212.802,2755.111,-0.1267835,0.1163054,0.2215849,-0.992310464382172,-0.35854896903038,0.624227702617645,-0.90814153446928,-0.390747931744771,0.562182870617026,0
3.27999877929688,-1.91806840896606,1.51814365386963,2.58347225189209,-2.33577134012187,1.96079922667992,2.58881081793642,1910.406,4521.188,3170.635,0,-0.1341679,0.1271408,0.2205103,-0.97912585735321,-0.346523821353912,0.595096230506897,-0.898304216251578,-0.386515208538549,0.556093102023818,0
3.29998779296875,-1.93749284744263,1.51147294044495,2.59516096115112,-2.35362764460945,1.95311615770631,2.59986472102797,3360.403,1727.574,3385.995,1142.395,-0.1382761,0.1354119,0.2056309,-0.971218645572662,-0.333529114723206,0.584430873394012,-0.888274735793772,-0.382199803288803,0.549884375850026,0
3.31999206542969,-1.95670902729034,1.50504171848297,2.60659670829773,-2.37129490830989,1.94551442770222,2.61080159886703,2454.925,3418.217,3689.155,0,-0.1474001,0.1431657,0.1960562,-0.960809767246246,-0.321567177772522,0.571793079376221,-0.878042061913513,-0.37779696958594,0.54354986326829,0
3.33999633789063,-1.97570860385895,1.49882292747498,2.61777186393738,-2.38875555478454,1.93800159931817,2.62161057080077,2764.451,2747.823,3984.438,0,-0.1574232,0.1493337,0.1870001,-0.949984014034271,-0.310925394296646,0.558755338191986,-0.867618167158097,-0.373311858882592,0.53709697585572,0
3.3599853515625,-1.99450850486755,1.49277698993683,2.6287624835968,-2.40599272667425,1.93058492580486,2.63228120132087,2585.182,2765.482,4101.02,0,-0.1651645,0.1544432,0.1794133,-0.939990997314453,-0.30230849981308,0.549533307552338,-0.857015715678588,-0.368749920209162,0.530533553325099,0
3.37998962402344,-2.01312208175659,1.48685896396637,2.6396312713623,-2.42302905329872,1.92325467039821,2.6428274990542,2463.664,2884.135,4053.803,0,-0.1696551,0.1588715,0.1744864,-0.93067592382431,-0.295884341001511,0.543438196182251,-0.846223126656603,-0.364106170663035,0.523852426598178,0
3.39999389648438,-2.03154826164246,1.48104000091553,2.65036678314209,-2.43984769972619,1.91601807669906,2.65323904237604,2538.235,2814.072,3997.23,0,-0.1713179,0.1623769,0.1715358,-0.921308219432831,-0.290961444377899,0.536779344081879,-0.835253140422974,-0.35938609205264,0.51706148254665,0
3.41999816894531,-2.04978680610657,1.47530341148376,2.6609570980072,-2.45644516534361,1.90887665092339,2.66351366424015,2703.617,2657.998,3947.521,0,-0.1707203,0.1644642,0.1690048,-0.911932408809662,-0.286831587553024,0.529510915279388,-0.824110582941664,-0.354591760855451,0.510163708672097,0
3.43998718261719,-2.06784081459045,1.46963810920715,2.67142248153687,-2.47280564474684,1.90183719369507,2.67364158034846,2748.759,2683.71,3844.625,0,-0.1686393,0.1650413,0.1668078,-0.902708470821381,-0.283271819353104,0.523264646530151,-0.812809078412023,-0.349729039183832,0.50316753900293,0
3.45999145507813,-2.0857048034668,1.4640371799469,2.68175530433655,-2.48895081463434,1.8948903781363,2.68363620960993,2706.665,2788.258,3748.395,0,-0.166185,0.1642409,0.1656652,-0.893205225467682,-0.280046552419662,0.516640305519104,-0.80133641229185,-0.344792671461508,0.496065412155666,0
3.47999572753906,-2.10337018966675,1.4585018157959,2.69191551208496,-2.50486489870395,1.88804299234919,2.69348778574196,2727.029,2751.309,3734.889,0,-0.1640347,0.1619413,0.165288,-0.883264482021332,-0.276775121688843,0.508011877536774,-0.789706299681989,-0.339788558913217,0.488865818431069,0
3.49998474121094,-2.12083697319031,1.45303511619568,2.70188617706299,-2.52053292953407,1.8813014763971,2.70318704319762,2739.35,2687.543,3767.645,0,-0.1620363,0.1580237,0.1652887,-0.873341619968414,-0.273324996232986,0.498531967401505,-0.777933044257461,-0.334722856010721,0.481577612485354,0
3.51998901367188,-2.13811421394348,1.44763910770416,2.71168279647827,-2.53597583877076,1.87465682397749,2.71274693966292,2676.627,2724.095,3781.985,0,-0.1597732,0.1526217,0.1661408,-0.863845646381378,-0.269802778959274,0.489836037158966,-0.766004036374581,-0.329590137176618,0.474192988348404,0
3.53999328613281,-2.15521001815796,1.44231534004211,2.72131681442261,-2.55117869390181,1.86811546013321,2.72215823120146,2610.443,2769.298,3785.385,6.242545,-0.1569593,0.1458936,0.1683406,-0.854808270931244,-0.266203135251999,0.481699138879776,-0.753933682518821,-0.324396601119134,0.466720864320997,0
3.55999755859375,-2.17214798927307,1.43705940246582,2.73085260391235,-2.56613872308604,1.86167857751006,2.73141920191151,2459.266,2843.34,3661.865,201.2738,-0.152051,0.1384458,0.1718569,-0.846889197826385,-0.262771964073181,0.476787984371185,-0.741727567798258,-0.319144650954242,0.459164697851087,0
3.57998657226563,-2.18892788887024,1.43188190460205,2.74025058746338,-2.58084213759183,1.85535210901407,2.74052131591136,2434.679,2885.206,3627.54,204.5843,-0.146068,0.130334,0.1769834,-0.839001715183258,-0.258890897035599,0.469895213842392,-0.72940084364523,-0.31384080592,0.451533868397061,0
3.59999084472656,-2.20559120178223,1.42678093910217,2.7496485710144,-2.59530884290342,1.84912748987145,2.74947689564398,2280.745,2914.217,3308.876,653.0604,-0.1361701,0.1224751,0.1820252,-0.833154618740082,-0.255040735006332,0.469905316829681,-0.716940488958392,-0.308479463400265,0.4438203152769,0
3.6199951171875,-2.22209692001343,1.42179012298584,2.75882601737976,-2.60952509409627,1.84301063413925,2.75827743234631,2453.72,2949.796,3458.831,266.8983,-0.1280592,0.1138893,0.188532,-0.825286686420441,-0.249546200037003,0.458877444267273,-0.704361775018033,-0.303067194200314,0.436033492140578,0
3.63998413085938,-2.23855209350586,1.41690015792847,2.76822066307068,-2.623478029369,1.83700707589127,2.76691496395061,2069.534,2990.398,2694.046,1407.42,-0.1125883,0.1069971,0.1920214,-0.822760879993439,-0.244497358798981,0.469738364219666,-0.691680442442073,-0.297610771068296,0.428183143180413,0
3.65998840332031,-2.25480079650879,1.41216945648193,2.77711868286133,-2.63718676607487,1.8311085894645,2.77540132500924,2399.873,3260.918,3420.312,0,-0.1064641,0.09895685,0.2003102,-0.812445402145386,-0.23654343187809,0.444899201393127,-0.678883253871145,-0.292104498338286,0.420261073840379,0
3.67999267578125,-2.27111887931824,1.40757131576538,2.7866907119751,-2.65063849381582,1.82532068681534,2.78372858527554,1691.396,2956.159,1694.546,2836.198,-0.08352578,0.09534672,0.1991063,-0.815901219844818,-0.22990146279335,0.478605180978775,-0.665986083416798,-0.286555206197011,0.41227711095171,0
3.69999694824219,-2.28716945648193,1.40315508842468,2.7954535484314,-2.66383127580226,1.81964420129024,2.79189554578451,1533.807,4443.996,3023.848,0,-0.07934569,0.09277017,0.2127868,-0.802517831325531,-0.22080297768116,0.438146442174911,-0.65299527533123,-0.280965624398954,0.404235181908735,0
3.71998596191406,-2.30337715148926,1.39893674850464,2.80516600608826,-2.67675353880252,1.81408411252746,2.79989504215442,1684.239,2355.909,685.0459,4436.11,-0.04988633,0.0962676,0.2051113,-0.810385823249817,-0.210922494530678,0.485617935657501,-0.639927289491732,-0.275342835169479,0.396145476159594,0
3.739990234375,-2.31926798820496,1.39492678642273,2.81375694274902,-2.68942333385363,1.80863265367006,2.80773824883709,996.9223,5308.48,2612.676,0,-0.04900429,0.1017697,0.2192334,-0.794537663459778,-0.200491428375244,0.429550558328629,-0.62676873176137,-0.26968107538565,0.387999702095468,0
3.75999450683594,-2.33531212806702,1.39122104644775,2.82327032089233,-2.70182915057228,1.80329477731443,2.81541804035694,2109.481,1544.376,316.4234,5144.463,-0.0202869,0.1123874,0.2021543,-0.802211165428162,-0.185292169451714,0.475674331188202,-0.613536214864365,-0.263987493038594,0.379808143784027,0
3.77999877929688,-2.35103344917297,1.3877671957016,2.83167362213135,-2.7139695770734,1.79807109095524,2.82293354268985,796.1639,5864.475,2183.827,0,-0.02518285,0.125284,0.210556,-0.786065876483917,-0.172694981098175,0.420161545276642,-0.60023651686137,-0.258265004538452,0.371574997167698,0
3.79998779296875,-2.36669683456421,1.38467741012573,2.84029078483582,-2.72583438304408,1.79296599641037,2.83027842278479,2884.12,802.6234,1382.303,3910.743,-0.01204601,0.1385681,0.1872504,-0.783168375492096,-0.154490068554878,0.43085241317749,-0.586886736182787,-0.252520966862155,0.36331084698941,0
3.81999206542969,-2.38204574584961,1.38190412521362,2.84822201728821,-2.73744054699573,1.78797218830065,2.83746319114912,1610.349,4781.741,2429.256,0,-0.02268587,0.1519362,0.1799416,-0.767448008060455,-0.138655409216881,0.396562695503235,-0.573473482003301,-0.246749618311662,0.355007403690404,0
3.83999633789063,-2.39704895019531,1.37945640087128,2.85547280311584,-2.74877791451009,1.78309403578861,2.84448156171422,3509.274,1184.188,3543.114,563.7884,-0.03648318,0.1597701,0.1581555,-0.75017637014389,-0.122391939163208,0.36254495382309,-0.560014026276881,-0.240958390526246,0.346675359432959,0
3.8599853515625,-2.41173696517944,1.37730431556702,2.86257553100586,-2.75983729406747,1.77833549372837,2.85132784449154,2417.834,2780.538,3615.557,0,-0.05076464,0.165404,0.1384225,-0.734389245510101,-0.107605442404747,0.355134874582291,-0.546525890176286,-0.235154822377061,0.338325560657667,0
3.87998962402344,-2.42609810829163,1.37535381317139,2.86962914466858,-2.7706348636882,1.77368960116974,2.85801205444635,1461.384,3842.202,3409.288,0,-0.06558567,0.1716545,0.130897,-0.718054473400116,-0.097507007420063,0.352681070566177,-0.532995796775444,-0.22933320117373,0.329949788314816,0
3.89999389648438,-2.44009852409363,1.37354040145874,2.87624669075012,-2.78116151864576,1.76916027562219,2.86452855531919,1886.876,2766.46,3954.27,0,-0.0790341,0.1766814,0.1280565,-0.700027823448181,-0.0906875878572464,0.330881714820862,-0.519441457145543,-0.223501147495394,0.321559006401168,0
3.91999816894531,-2.45378255844116,1.37183773517609,2.88251805305481,-2.79141684911929,1.7647476934202,2.87087709341145,2638.997,1613.548,4357.911,0,-0.08480517,0.1779707,0.1203737,-0.684199333190918,-0.0851332023739815,0.313564151525497,-0.505870408491346,-0.2176619043907,0.313157880805522,0
3.93998718261719,-2.46721792221069,1.37020218372345,2.88890957832336,-2.80139308531637,1.76045519768837,2.87705285885147,2221.057,2601.926,3794.223,0,-0.08277903,0.1771201,0.1149553,-0.671750664710999,-0.0817772969603539,0.319578111171722,-0.492300656572426,-0.211823219234969,0.304757557950781,0
3.95999145507813,-2.48038649559021,1.36860108375549,2.895348072052,-2.81110535421031,1.75627627971269,2.88306521595634,1805.45,3428.697,3294.023,0,-0.07946819,0.1757301,0.1180687,-0.658431053161621,-0.0800579786300659,0.321921736001968,-0.478719233391147,-0.205979512261105,0.296350010028665,0
