t,x_s1,x_s2,x_s3,x_s_d1,x_s_d2,x_s_d3,propellers_rpms1,propellers_rpms2,propellers_rpms3,propellers_rpms4,rollRad,pitchRad,yawRad,v_s1,v_s2,v_s3,v_s_d1,v_s_d2,v_s_d3,insideCount
0,-0.0599999986588955,2.94000005722046,1.17999994754791,-0.0599999986588955,2.94000005722046,1.17999994754791,0,0,0,0,0,0,0,0,0,0,-1.06581410364015E-15,4.44089209850063E-16,4.44089209850063E-16,0
0.0200042724609375,-0.0599999986588955,2.94000005722046,1.1771354675293,-0.0600018701838461,2.93999925195556,1.18000110611101,0,0,0,0,0.0163538,-0.002474609,-2.024222E-05,3.71994488546079E-08,3.50004931704007E-08,-0.143225952982903,-0.000280105751305916,-0.000120521679537258,0.00017339880334547,5
0.0399932861328125,-0.0599999986588955,2.94000005722046,1.17048275470734,-0.060014863945674,2.93999366110285,1.18000914986856,0,0,0,0,0.03270752,-0.004950816,-5.430172E-05,3.62924410524101E-08,3.44428769949445E-08,-0.332637369632721,-0.00111059898697896,-0.000477859717552347,0.000687513678106196,6
0.05999755859375,-0.0600004345178604,2.94013237953186,1.16416537761688,-0.0600498857373401,2.93997859220429,1.18003083002592,3185.182,2835.672,1501.344,2767.742,0.03128216,-0.00494336,-0.01646952,-2.17777997022495E-05,0.00662205973640084,-0.315866738557816,-0.00247936261166862,-0.00106680046642749,0.00153484356504269,6
0.0800018310546875,-0.0599162131547928,2.9403874874115,1.15857708454132,-0.0601175574246769,2.93994947496775,1.18007272202403,3066.065,3067.351,2154.765,2023.927,0.01897811,-0.004311125,-0.04351445,0.00421100296080112,0.0127505138516426,-0.279414087533951,-0.00437268608126799,-0.00188144466206175,0.00270690098422899,6
0.0999908447265625,-0.0596375465393066,2.94068741798401,1.15374851226807,-0.0602281370710988,2.93990189563514,1.18014117609281,2640.412,3831.792,2620.119,1134.785,-0.00585203,-0.002888997,-0.07014553,0.0139334248378873,0.0149990078061819,-0.241430014371872,-0.00677536694902951,-0.00291525111632684,0.0041942748969354,6
0.1199951171875,-0.0590848922729492,2.94089865684509,1.14957022666931,-0.0603918861403606,2.93983143898525,1.18024254456713,2091.776,4101.945,3169.588,756.1396,-0.04011733,-0.0004511395,-0.08993602,0.0276327654719353,0.0105631491169333,-0.208917021751404,-0.00967801353495435,-0.00416417885169243,0.00599115140585487,5
0.139999389648438,-0.058231458067894,2.94085597991943,1.14596676826477,-0.0606185767455666,2.93973390035084,1.18038287685052,1510.593,4074.767,3735.712,701.8418,-0.07649025,0.002388201,-0.09949943,0.0426716506481171,-0.00212877616286278,-0.180171564221382,-0.0130660253322238,-0.00562194567796536,0.00808849210174802,4
0.160003662109375,-0.0570994019508362,2.94039463996887,1.14297819137573,-0.0609177895434042,2.93960515744296,1.18056810382587,1135.255,3847.088,4069.746,879.8453,-0.1062788,0.004335145,-0.09870207,0.05660280585289,-0.0230664666742086,-0.149431586265564,-0.0169265510445065,-0.00728302204135792,0.0104783414199936,4
0.17999267578125,-0.0557376518845558,2.93938779830933,1.14071130752563,-0.0612985250199726,2.93944133760391,1.18080379722281,1100.909,3565.318,4009.986,1148.941,-0.1236325,0.004492053,-0.09000206,0.0680875405669212,-0.050338014960289,-0.113343343138695,-0.0212433804254414,-0.00914043312572283,0.0131506644458931,3
0.199996948242188,-0.0541963838040829,2.93777704238892,1.13924849033356,-0.0617704296168641,2.93923829023936,1.18109592864822,1372.708,3339.679,3595.18,1386.553,-0.1278765,0.003023183,-0.07724871,0.0770634263753891,-0.0805338174104691,-0.0731412768363953,-0.0260104776919234,-0.0111915819022102,0.0161017247421801,3
0.220001220703125,-0.0525141283869743,2.93557596206665,1.13858389854431,-0.0623420644491781,2.93899233174064,1.18144979784016,1791.25,3212.734,3016.763,1527.041,-0.1229741,0.0008609058,-0.06426048,0.0841128975152969,-0.110050976276398,-0.0332269594073296,-0.03121219533433,-0.0134297356845702,0.019321835755004,3
0.240005493164063,-0.0507194399833679,2.93284702301025,1.13860702514648,-0.0630219993990999,2.93869977472688,1.18187070996396,2159.383,3168.755,2517.156,1558.261,-0.1149665,-0.0009885654,-0.05362115,0.0897342562675476,-0.136452406644821,0.00115444883704185,-0.0368361158647881,-0.0158495515746756,0.0228033104678445,3
0.259994506835938,-0.048837099224329,2.92966485023499,1.13913786411285,-0.0638179029240226,2.93835731967507,1.18236341216003,2351.95,3159.016,2273.792,1495.959,-0.1090543,-0.001905225,-0.04623621,0.0941172912716866,-0.15910679101944,0.0265423152595758,-0.0428651747123285,-0.0184436871643672,0.0265355850983733,3
0.279998779296875,-0.046891562640667,2.92608761787415,1.13999593257904,-0.0647390625194898,2.93796097043536,1.18293365383054,2351.958,3152.216,2324.686,1363.87,-0.1078159,-0.001744903,-0.04151975,0.0972769111394882,-0.178860127925873,0.0429017022252083,-0.0492963837173861,-0.0212108567320638,0.030516809833474,3
0.300003051757813,-0.0449085459113121,2.92214369773865,1.14106202125549,-0.0657927507678135,2.93750759781875,1.18358593705038,2229.829,3143.796,2572.415,1194.514,-0.1110842,-0.000737163,-0.03798626,0.0991508886218071,-0.197191655635834,0.0533061176538467,-0.0561132031658829,-0.0241439437008635,0.0347367458022363,3
0.319992065429688,-0.0429167002439499,2.91783547401428,1.142294049263,-0.0669855955880233,2.93699435001684,1.18432436481717,2074.216,3133.076,2873.074,1032.02,-0.1169325,0.0006854448,-0.03397927,0.0995922759175301,-0.215405806899071,0.0616021789610386,-0.0632980253096114,-0.0272353719486164,0.0391844929697465,3
0.339996337890625,-0.0409486964344978,2.91315102577209,1.14370715618134,-0.068326768706371,2.93641728069206,1.18515461486636,1954.49,3107.053,3109.741,922.1714,-0.122841,0.002069888,-0.02837279,0.0984001457691193,-0.234222173690796,0.0706570520997047,-0.0708499516420146,-0.0304847548730522,0.0438594951176439,3
0.360000610351563,-0.0390399321913719,2.90807723999023,1.14534342288971,-0.0698225328270578,2.93577369517774,1.1860805641102,1905.266,3065.485,3221.88,880.8502,-0.126702,0.003092303,-0.02087279,0.0954381078481674,-0.253692805767059,0.0818120613694191,-0.0787518717320621,-0.0338847303337087,0.0487511600740379,3
0.3800048828125,-0.0372254326939583,2.90261054039001,1.14724361896515,-0.0714797725314022,2.93506063123087,1.18710647443246,1924.121,3021.798,3206.999,895.2779,-0.1274211,0.00364189,-0.01188462,0.0907250791788101,-0.273340821266174,0.0950074568390846,-0.0869921272359981,-0.0374302820709642,0.0538522707687797,3
0.399993896484375,-0.0355369709432125,2.8967616558075,1.14943170547485,-0.0733036822025899,2.9342758538535,1.18823556140379,1991.108,2988.882,3098.729,939.6855,-0.125045,0.003790764,-0.002210424,0.0844230726361275,-0.292449533939362,0.109403818845749,-0.0955525119207663,-0.0411135764513579,0.0591515566763244,3
0.419998168945313,-0.0340016484260559,2.89055514335632,1.1519056558609,-0.0753034649285836,2.93341540321397,1.18947352217404,2071.411,2974.48,2954.246,986.7257,-0.120507,0.003708421,0.007338996,0.0767663046717644,-0.310321867465973,0.123696111142635,-0.104434660908044,-0.0449353170220673,0.0646500300148815,3
0.44000244140625,-0.0326422303915024,2.88402485847473,1.15464174747467,-0.077483988232608,2.93247718495301,1.19082336997196,2137.131,2972.486,2824.697,1023.439,-0.1150731,0.003564374,0.0161467,0.067970909178257,-0.32650887966156,0.136806905269623,-0.113620829717891,-0.048887868829098,0.0703367061060819,4
0.459991455078125,-0.0314780473709106,2.87720775604248,1.15760159492493,-0.0798493430620752,2.93145943885026,1.19228763728888,2168.584,2978.565,2748.93,1037.892,-0.109874,0.003474688,0.02394651,0.058209016919136,-0.340849936008453,0.147992566227913,-0.123092454730403,-0.0529632444654124,0.0762000931848968,4
0.479995727539063,-0.0305263996124268,2.87013864517212,1.16074752807617,-0.0824088828700873,2.93035814037613,1.19387211435783,2167.197,2983.301,2733.211,1033.974,-0.10554,0.003482601,0.0307496,0.047582782804966,-0.353457987308502,0.157295599579811,-0.132852887402757,-0.0571628859694044,0.0822422659629699,4
0.5,-0.0298032891005278,2.86284708976746,1.1640522480011,-0.085166398670376,2.92917165836334,1.1955791479969,2147.569,2989.489,2762.189,1009.171,-0.102259,0.003568971,0.03679438,0.0361553765833378,-0.364583373069763,0.165234491229057,-0.142884000065179,-0.0614789935111996,0.0884520025491718,4
0.520004272460938,-0.0293239932507277,2.85535717010498,1.16749930381775,-0.088127196023106,2.92789770997757,1.19741202260058,2117.108,2993.373,2816.848,976.7595,-0.09984031,0.003685528,0.04241279,0.0239645726978779,-0.374493896961212,0.172355264425278,-0.153174893518032,-0.065906877469682,0.0948225558197254,4
0.539993286132813,-0.029103696346283,2.84768867492676,1.17108595371246,-0.091293865515634,2.92653518056143,1.19937234186584,2088.831,2991.365,2870.767,952.0885,-0.09782963,0.003776529,0.04785783,0.0110148908570409,-0.383423626422882,0.179331377148628,-0.163706645289342,-0.0704383960337938,0.101342211863077,4
0.55999755859375,-0.029157143086195,2.8398585319519,1.17481577396393,-0.094676112580471,2.92507989413848,1.20146611391775,2069.831,2989.069,2910.006,934.0271,-0.09579177,0.003796217,0.05329823,-0.00267196539789438,-0.391501396894455,0.186492070555687,-0.17448465888317,-0.0750758741803766,0.108014315705644,5
0.580001831054688,-0.029498603194952,2.8318829536438,1.17869865894318,-0.0982762614093182,2.92353085067394,1.20369477754168,2064.596,2985.051,2920.914,932.4221,-0.09337948,0.003717689,0.05873271,-0.0170731879770756,-0.398783147335052,0.194143816828728,-0.185490414529404,-0.0798113433697334,0.11482740272751,5
0.599990844726563,-0.0301407873630524,2.8237783908844,1.18273937702179,-0.102095761416081,2.92188742652551,1.20605922999388,2067.257,2986.031,2912.915,935.5983,-0.09051179,0.003537562,0.06411687,-0.0321089066565037,-0.405231028795242,0.202033042907715,-0.19670480600515,-0.0846365827279185,0.121769645266545,5
0.6199951171875,-0.0310950577259064,2.81556224822998,1.18694174289703,-0.106144683970236,2.92014528826426,1.20856570593183,2073,2984.934,2887.581,954.9043,-0.08717165,0.0032734,0.06929096,-0.04771414026618,-0.410805612802505,0.210116192698479,-0.208134604141382,-0.0895545055543457,0.128845234789665,5
0.639999389648438,-0.0323708206415176,2.80725312232971,1.19130504131317,-0.110424235525481,2.91830391678686,1.21121495220784,2084.066,2992.241,2854.525,967.7931,-0.08358757,0.002941259,0.07414583,-0.0637876242399216,-0.415457546710968,0.218163579702377,-0.219761081350814,-0.0945570538913933,0.136042578028218,5
0.660003662109375,-0.0339753292500973,2.79886984825134,1.19582271575928,-0.114938248900541,2.91636166293851,1.21400934151928,2088.219,2999.867,2826.643,982.1227,-0.08000668,0.0025658,0.0786022,-0.080225870013237,-0.419168263673782,0.225882321596146,-0.231574097577923,-0.0996398647564507,0.143355397804799,5
0.67999267578125,-0.0359144024550915,2.79043054580688,1.20048773288727,-0.119686638739014,2.91431856344567,1.21694882102647,2087.526,3006.714,2806.175,995.612,-0.07660796,0.002168171,0.08260804,-0.0969536751508713,-0.421970248222351,0.233248323202133,-0.243554411173546,-0.104794659005432,0.150771782621969,6
0.699996948242188,-0.0381921641528606,2.78195214271545,1.20529043674469,-0.124680083855354,2.91217002351282,1.22004000142426,2082.205,3015.071,2799.48,999.0829,-0.07355278,0.001759661,0.08619936,-0.113887593150139,-0.423917919397354,0.240135788917542,-0.255710395848158,-0.11002503961202,0.158296916205407,6
0.720001220703125,-0.0408120788633823,2.77344989776611,1.21022701263428,-0.129918284978346,2.90991617190799,1.22328269744952,2075.86,3020.711,2795.712,1004.74,-0.07086192,0.001346527,0.08939363,-0.130996212363243,-0.425110131502151,0.246830508112907,-0.268023157655716,-0.11532287703907,0.16591910230247,6
0.740005493164063,-0.0437760837376118,2.76493740081787,1.21528887748718,-0.13540428105644,2.90755570105657,1.22667879035609,2066.931,3028.73,2805.351,997.0976,-0.0686041,0.0009262818,0.09230797,-0.148199945688248,-0.425626456737518,0.2530916929245,-0.280482990349159,-0.120683994959631,0.173632332283853,6
0.759994506835938,-0.0470863096415997,2.75642585754395,1.2204761505127,-0.14113644597991,2.90508931062815,1.2302272735046,2056.026,3028.033,2810.531,1006.023,-0.06659554,0.0005088235,0.09493608,-0.1655113697052,-0.425579637289047,0.259365051984787,-0.293070637251543,-0.126100107763583,0.181424685349205,6
0.779998779296875,-0.0507434569299221,2.74792528152466,1.22578346729279,-0.147126184485884,2.90251209348295,1.23393520697061,2050.039,3034.146,2822.927,995.2817,-0.06485703,8.300076E-05,0.09738989,-0.18285796046257,-0.425029575824738,0.265365988016129,-0.305795832832518,-0.131575403921268,0.189302187598958,6
0.800003051757813,-0.0547490082681179,2.73944401741028,1.23121678829193,-0.153371683173492,2.89982482987671,1.2378014681726,2045.533,3032.754,2818.795,1008.278,-0.06319255,-0.0003424825,0.09960686,-0.200276985764503,-0.424067586660385,0.271668165922165,-0.318639638509124,-0.13710173468952,0.197253115148089,6
0.819992065429688,-0.0591020919382572,2.73098969459534,1.23676872253418,-0.159870162197751,2.89702871589906,1.2418243362541,2045.111,3041.552,2825.673,994.1916,-0.06175657,-0.0007819041,0.1017041,-0.217654764652252,-0.422716081142426,0.277596145868301,-0.33158286215529,-0.142670842232658,0.205265587156312,6
0.839996337890625,-0.0638030916452408,2.72256875038147,1.24244499206543,-0.166633637018892,2.89411858163313,1.24601124935738,2038.115,3035.829,2816.533,1018.904,-0.06029556,-0.001207477,0.1035465,-0.235050514340401,-0.421050310134888,0.283812493085861,-0.344636106234817,-0.148287288494656,0.213346167053785,6
0.860000610351563,-0.068850114941597,2.71418714523315,1.24823939800262,-0.173659158941841,2.89109569582005,1.2503603820997,2044.627,3047.525,2815.657,1002.785,-0.05906785,-0.001642638,0.1052433,-0.252350836992264,-0.419079780578613,0.289722740650177,-0.357780475378537,-0.153942943326036,0.221483157706883,6
0.8800048828125,-0.074241891503334,2.70584964752197,1.25415468215942,-0.180948461186242,2.88795931270381,1.25487280742661,2039.106,3044.98,2805.422,1023.599,-0.05792535,-0.002059156,0.1066905,-0.269589394330978,-0.416870027780533,0.29576501250267,-0.371007022483504,-0.159633957038354,0.229671020432672,6
0.899993896484375,-0.0799752026796341,2.69756078720093,1.26018261909485,-0.18849723509595,2.8847112861788,1.25954585807468,2041.076,3053.527,2808.533,1011.412,-0.05707101,-0.002470348,0.1079841,-0.286665797233582,-0.414440751075745,0.301396399736404,-0.384296738353309,-0.165352150505452,0.237897987633041,7
0.919998168945313,-0.0860477834939957,2.68932366371155,1.26632583141327,-0.196318384305134,2.8813460641717,1.26438752200817,2034.766,3050.226,2803.245,1029.41,-0.05633331,-0.002849582,0.109037,-0.30362856388092,-0.41185998916626,0.307159751653671,-0.397661187980262,-0.171102499820431,0.246171218589148,7
0.94000244140625,-0.0924556255340576,2.68114066123962,1.27257823944092,-0.204407453948074,2.87786556348678,1.26939504145298,2039.51,3059.711,2807.526,1013.057,-0.05591892,-0.003220294,0.10996,-0.320392429828644,-0.409155905246735,0.31262344121933,-0.411081631631503,-0.176876941799768,0.254479112513653,7
0.959991455078125,-0.0991954952478409,2.67301273345947,1.27894127368927,-0.212759000778906,2.87427212620069,1.27456504678061,2033.287,3057.266,2806.949,1025.727,-0.05567977,-0.003557983,0.1107004,-0.336993038654327,-0.40639653801918,0.318151324987411,-0.424539267042903,-0.182667386354485,0.262810029909387,7
0.979995727539063,-0.106262713670731,2.66494059562683,1.28540778160095,-0.22138664033507,2.87055989392801,1.27990596665734,2032.658,3061.527,2819.234,1012.599,-0.0557096,-0.003875432,0.1113534,-0.353360772132874,-0.403610080480576,0.323324292898178,-0.438046240701377,-0.188479059778567,0.271171490030365,7
1,-0.113654315471649,2.65692329406738,1.29198563098907,-0.230284798736574,2.86673126495361,1.28541435058594,2031.636,3058.879,2813.714,1026.484,-0.05581773,-0.004155597,0.1118334,-0.36958110332489,-0.400864332914352,0.328893035650253,-0.451584000205995,-0.194303979492187,0.279552008056641,7
1.02000427246094,-0.121364682912827,2.64896011352539,1.29866325855255,-0.239454009753966,2.86278600961093,1.2910905289958,2035.281,3067.48,2830.843,999.7668,-0.05625715,-0.004427772,0.1123113,-0.385517358779907,-0.398164391517639,0.333881229162216,-0.465144357597929,-0.200138622445408,0.287946515251652,7
1.03999328613281,-0.12939116358757,2.64104843139648,1.30545270442963,-0.248887339851819,2.85872711120656,1.2969302096982,2028.584,3057.763,2822.293,1030.55,-0.05663745,-0.004647749,0.1126027,-0.401325523853302,-0.395587414503098,0.33947366476059,-0.478708875293167,-0.205975055460915,0.29634359787259,7
1.05999755859375,-0.137727364897728,2.63318634033203,1.31233811378479,-0.258599401509697,2.85454828239877,1.30294243851408,2036.991,3069.641,2845.911,989.3995,-0.05735597,-0.004866661,0.1129508,-0.416810095310211,-0.393104791641235,0.344270795583725,-0.492290296490434,-0.211818761581115,0.30475114456651,7
1.08000183105469,-0.146371737122536,2.62537002563477,1.31934094429016,-0.268583149539609,2.85025255453512,1.30912285413647,2031.729,3057.19,2825.019,1035.302,-0.05788274,-0.00502432,0.1130678,-0.432218879461288,-0.390810132026672,0.350139677524567,-0.50587040849135,-0.217661904390701,0.313157880805523,7
1.09999084472656,-0.155316263437271,2.61759734153748,1.32643485069275,-0.278830554044452,2.84584338265603,1.31546648567654,2046.153,3077.119,2858.022,969.9117,-0.05891765,-0.005201686,0.1133411,-0.447225540876389,-0.388634830713272,0.354695349931717,-0.519431110871131,-0.223496695782555,0.321552601564445,7
1.1199951171875,-0.164560526609421,2.60986328125,1.33364903926849,-0.289357002179081,2.84131414609862,1.32198285851614,2029.247,3052.824,2831.361,1046.769,-0.05956319,-0.005290103,0.1133119,-0.462213009595871,-0.38670602440834,0.360710382461548,-0.532985466132485,-0.229328756186667,0.329943393154705,8
1.13999938964844,-0.174095496535301,2.60216498374939,1.34095144271851,-0.300154365346813,2.83666834237095,1.3286669406667,2055.963,3082.495,2871.31,952.2554,-0.06084045,-0.005418467,0.1135154,-0.476749956607819,-0.384910196065903,0.365117371082306,-0.546515580872639,-0.235150386571708,0.338319178707607,8
1.16000366210938,-0.183922052383423,2.59449672698975,1.34837961196899,-0.311222084148811,2.83190621216671,1.33551838583369,2034.086,3052.607,2834.473,1051.386,-0.06161916,-0.005445099,0.113368,-0.491326779127121,-0.383413165807724,0.371410995721817,-0.560014026276883,-0.240958390526247,0.34667535943296,8
1.17999267578125,-0.194029361009598,2.58685564994812,1.35588812828064,-0.322550701230474,2.8270318247214,1.34253133946411,2063.257,3087.761,2892.514,930.0362,-0.06318723,-0.005528722,0.1135677,-0.505366683006287,-0.382048517465591,0.375427573919296,-0.573463232144024,-0.246745208083563,0.355001058539242,8
1.19999694824219,-0.20442071557045,2.57923483848572,1.36353099346161,-0.334156660511822,2.8220381046756,1.34971598112778,2033.081,3045.667,2840.926,1067.038,-0.06395794,-0.005478122,0.1133033,-0.519567668437958,-0.381041675806046,0.382144331932068,-0.58687652428584,-0.252516572968185,0.36330452533874,8
1.22000122070313,-0.21508327126503,2.57163214683533,1.37124752998352,-0.346030421585499,2.81692915700008,1.35706640485806,2078.13,3096.577,2915.643,895.9661,-0.06577422,-0.005526059,0.1135465,-0.533127009868622,-0.380140513181686,0.385828077793121,-0.600236516861372,-0.258265004538453,0.371574997167698,8
1.239990234375,-0.226023182272911,2.56403875350952,1.3791116476059,-0.358161486344149,2.81170949873715,1.36457611182642,2035.875,3040.151,2839.91,1086.213,-0.06648795,-0.005407282,0.1131818,-0.546997308731079,-0.379664838314056,0.393207043409348,-0.613526094901141,-0.263983138701136,0.379801879044709,8
1.25999450683594,-0.237223953008652,2.55645418167114,1.38703382015228,-0.3705671011502,2.80637170925886,1.37225577835275,2090.184,3105.912,2950.438,852.4534,-0.06859877,-0.005431251,0.1135539,-0.560039222240448,-0.379229485988617,0.396110087633133,-0.626758665639206,-0.269676744214496,0.387993470686331,8
1.27999877929688,-0.248697549104691,2.54886770248413,1.39512741565704,-0.383236695417198,2.80092033679326,1.3800988607405,2034.203,3026.496,2829.386,1129.672,-0.06901103,-0.005224589,0.1130224,-0.573679685592651,-0.379320055246353,0.404680967330933,-0.639917282339435,-0.275338529371412,0.396139281255613,8
1.30000305175781,-0.260421007871628,2.54128122329712,1.40325665473938,-0.396168722856641,2.79535604666509,1.38810440176341,2116.535,3127.361,2990.09,777.3653,-0.0715602,-0.005256547,0.1136206,-0.586171388626099,-0.379323601722717,0.406459897756577,-0.652995275331231,-0.280965624398954,0.404235181908735,8
1.31999206542969,-0.272414147853851,2.5336811542511,1.41158759593964,-0.409351342777246,2.78968393359302,1.39626507146953,2022.334,3004.518,2810.612,1201.302,-0.07152345,-0.004948686,0.1128735,-0.599658906459808,-0.3800008893013,0.41654697060585,-0.665976209205206,-0.286550957599616,0.412270998344359,8
1.33999633789063,-0.284645110368729,2.52607345581055,1.41991949081421,-0.422802873722428,2.78389611561957,1.40459220990988,2145.204,3153.039,3047.083,677.7278,-0.07459674,-0.005003015,0.1137938,-0.611544966697693,-0.380389779806137,0.416593223810196,-0.678873453515705,-0.29210028151913,0.420255006953505,8
1.36000061035156,-0.297145813703537,2.51843976974487,1.42850184440613,-0.436511415158101,2.77799771321212,1.41307845008695,2006.711,2973.914,2771.181,1308.446,-0.07380205,-0.004569985,0.1127071,-0.625037133693695,-0.38167878985405,0.429118454456329,-0.691670720740693,-0.297606588091785,0.42817712498415,9
1.3800048828125,-0.309869974851608,2.51079249382019,1.43703281879425,-0.450474904562636,2.77198961381608,1.4217225152016,2190.362,3197.161,3119.379,525.7191,-0.07772329,-0.004697816,0.1141243,-0.636208295822144,-0.382365465164185,0.426551163196564,-0.704361775018035,-0.303067194200314,0.436033492140578,9
1.39999389648438,-0.322867423295975,2.50310635566711,1.44588112831116,-0.464680216184654,2.76587746507559,1.43051627978847,1971.369,2925.901,2709.56,1477.202,-0.0758399,-0.004097539,0.1125437,-0.649873197078705,-0.38430443406105,0.442417323589325,-0.716930938559026,-0.308475354130225,0.443814403124744,9
1.41999816894531,-0.336070746183395,2.49540305137634,1.45459854602814,-0.47914673136562,2.75965292774086,1.43947174182117,2246.097,3256.56,3225.824,310.8271,-0.08093347,-0.004337224,0.1146742,-0.660165965557098,-0.385163903236389,0.4358731508255,-0.729391385793766,-0.313836736470737,0.451528013536465,9
1.44000244140625,-0.34955695271492,2.48764657974243,1.4637371301651,-0.493861275572861,2.75332167044526,1.4485807456364,1919.36,2856.831,2605.184,1730.605,-0.07735631,-0.003502589,0.1123264,-0.674307703971863,-0.387826949357986,0.456931531429291,-0.741727567798258,-0.319144650954242,0.459164697851088,9
1.45999145507813,-0.363226532936096,2.47987246513367,1.47263038158417,-0.508809800712713,2.74688973769103,1.45783459479497,2319.969,3360.722,3360.283,0,-0.08420809,-0.003894074,0.1155609,-0.683480322360992,-0.388702392578125,0.444665133953094,-0.753924423002454,-0.324392617007921,0.466715132239272,9
1.47999572753906,-0.377195060253143,2.47202897071838,1.48208475112915,-0.524012471663969,2.74034845309416,1.46724577231745,1832.584,2749.098,2453.304,2108.692,-0.07823142,-0.002693521,0.1121263,-0.698428511619568,-0.392179667949677,0.472718089818954,-0.765994882555672,-0.329586198544069,0.474187321698441,9
1.5,-0.39133632183075,2.46415948867798,1.49129009246826,-0.539455198877605,2.73370387899399,1.4768055561018,2083.734,3754.929,3206.788,0,-0.08467467,-0.001870604,0.1174622,-0.707064926624298,-0.393476009368896,0.460266441106796,-0.777924000354858,-0.334718964672088,0.481572013878822,9
1.52000427246094,-0.405768871307373,2.45621991157532,1.50100386142731,-0.555135099954955,2.72695725560613,1.48651216180595,1951.439,2543.275,2403.203,2250.131,-0.07826497,0.0003740829,0.1137034,-0.72162652015686,-0.396977663040161,0.485689491033554,-0.789706299681991,-0.339788558913217,0.48886581843107,9
1.53999328613281,-0.420367777347565,2.44825839996338,1.51043951511383,-0.571036956668503,2.72011513090874,1.49635616862212,2197.44,3640.346,3223.645,0,-0.08467201,0.00194355,0.1175564,-0.729942798614502,-0.398076951503754,0.47178053855896,-0.801327600455846,-0.344788879974649,0.496059957209413,9
1.55999755859375,-0.435248106718063,2.44023323059082,1.52036225795746,-0.587181951496087,2.71316839067337,1.50635068951315,2045.751,2519.905,2474.281,2125.791,-0.07916033,0.004587274,0.112411,-0.744019985198975,-0.401259213685989,0.496137708425522,-0.812800388649436,-0.349725300221754,0.503162159625937,9
1.58000183105469,-0.4502894282341,2.43218493461609,1.53005373477936,-0.60355483331529,2.70612359703193,1.51648628330776,2166.578,3711.534,3201.683,0,-0.08612503,0.006675706,0.1153958,-0.752064645290375,-0.402416735887527,0.484576880931854,-0.824110582941666,-0.354591760855452,0.510163708672098,9
1.59999084472656,-0.46558690071106,2.42407512664795,1.54014229774475,-0.620139554045575,2.69898765502515,1.52675301547962,2118.826,2520.317,2640.702,1886.589,-0.08303736,0.009405977,0.1103415,-0.764874160289764,-0.405480921268463,0.504427492618561,-0.835244706287931,-0.359382463079953,0.517056261415284,9
1.6199951171875,-0.481038719415665,2.4159369468689,1.55002295970917,-0.636958033083316,2.69175113334911,1.53716445517924,2243.427,3527.338,3326.257,0,-0.09056452,0.01127474,0.1121069,-0.772594094276428,-0.406925052404404,0.49403315782547,-0.846214826007804,-0.364102599125749,0.523847288101157,9
1.63999938964844,-0.496731370687485,2.40772747993469,1.5602833032608,-0.653994195024907,2.68442094880091,1.54771065096602,2115.535,2595.647,2803.806,1660.569,-0.08867367,0.01355257,0.1074915,-0.784633457660675,-0.410478889942169,0.513020157814026,-0.857007552155828,-0.368746407673381,0.530528499715628,9
1.66000366210938,-0.512574672698975,2.39947366714478,1.57038617134094,-0.671244443874359,2.67699864863716,1.55838937674714,2228.798,3498.281,3382.821,0,-0.09588658,0.01498434,0.1096424,-0.79216456413269,-0.41269463300705,0.505145609378815,-0.867618167158098,-0.373311858882592,0.53709697585572,9
1.67999267578125,-0.528647363185883,2.39113306999207,1.58084964752197,-0.688691692550512,2.66949158495151,1.56919005480539,2103.239,2635.623,2892.919,1546.196,-0.09399734,0.0167435,0.10632,-0.803635120391846,-0.417027592658997,0.523174107074738,-0.878034183119987,-0.377793579561193,0.543544985919778,9
1.69999694824219,-0.544867932796478,2.38273525238037,1.59116637706757,-0.706358800111611,2.66188992212981,1.58012683598675,2289.58,3383.994,3445.031,0,-0.1002334,0.01747294,0.1088964,-0.811026811599731,-0.419892728328705,0.515838265419006,-0.888267004546665,-0.382196476749158,0.549879589839776,9
1.72000122070313,-0.56131911277771,2.3742356300354,1.6018830537796,-0.724228658537036,2.6542010212754,1.5911891296115,2076.664,2685.389,2866.418,1559.877,-0.09691776,0.01865052,0.106318,-0.822560966014862,-0.424984097480774,0.535834789276123,-0.898304216251578,-0.386515208538549,0.556093102023817,9
1.739990234375,-0.577914595603943,2.3656702041626,1.61245679855347,-0.74228345468553,2.64643254688532,1.60236590849663,2283.007,3438.72,3401.146,0,-0.102178,0.01890902,0.109959,-0.829773426055908,-0.428267419338226,0.528684854507446,-0.908134108040217,-0.390744736359816,0.562178273303667,9
1.75999450683594,-0.594741582870483,2.35699653625488,1.62344324588776,-0.760546715064628,2.63857437616062,1.61367173667103,2058.879,2680.039,2786.479,1669.478,-0.09749779,0.01981752,0.1078984,-0.841350018978119,-0.433678328990936,0.549324691295624,-0.917767514700581,-0.394889722119545,0.568141810929231,9
1.77999877929688,-0.611708343029022,2.34825897216797,1.63426101207733,-0.779000609654483,2.63063418086074,1.62509557650306,2314.567,3444.452,3368.684,0,-0.1022127,0.0197947,0.1119283,-0.848335683345795,-0.43688103556633,0.540888369083405,-0.927192788821983,-0.398945154262308,0.57397650459845,9
1.80000305175781,-0.628910183906555,2.33941459655762,1.6455157995224,-0.797640935141499,2.62261376955408,1.63663482594136,2048.682,2676.854,2699.902,1781.464,-0.0965561,0.02060764,0.1096654,-0.860095024108887,-0.442213863134384,0.562740802764893,-0.936405971974637,-0.402909329586356,0.579679903854719,9
1.81999206542969,-0.646246612071991,2.33051252365112,1.65657985210419,-0.816448984455027,2.61452119137054,1.64827790441807,2281.893,3528.136,3323.469,0,-0.1012294,0.02064249,0.1140775,-0.866821467876434,-0.445107758045197,0.553205609321594,-0.945396434568188,-0.406777674475912,0.585245428475252,9
1.83999633789063,-0.663818001747131,2.32151174545288,1.66807687282562,-0.835449117627072,2.60634596486888,1.66003989195343,2050.03,2640.337,2660.795,1864.94,-0.09524423,0.0216045,0.1115346,-0.878570377826691,-0.45004478096962,0.574849843978882,-0.954174163352093,-0.410554485950274,0.590679260733698,9
1.86000061035156,-0.681520521640778,2.31246185302734,1.67936849594116,-0.854622615239374,2.59809614449182,1.6719092003358,2280.2,3548.077,3313.424,0,-0.09998944,0.02180339,0.1157712,-0.88512134552002,-0.452488481998444,0.564581215381622,-0.962728579444532,-0.414235212212131,0.595974851798267,9
1.8800048828125,-0.699455916881561,2.30332398414612,1.69108653068542,-0.873964974649439,2.58977366760063,1.68388304221498,2067.526,2623.255,2662.814,1871.118,-0.09412943,0.02290066,0.1128386,-0.896773338317871,-0.456909596920013,0.585903525352478,-0.971056158224177,-0.417818336715394,0.601130019760457,9
1.89999389648438,-0.717519164085388,2.29414510726929,1.70259630680084,-0.893456683142228,2.58138692997148,1.69594933829086,2265.941,3563.86,3319.073,0,-0.09899023,0.02325695,0.1168329,-0.903161764144897,-0.45892858505249,0.575486600399017,-0.979147395688901,-0.421299770153459,0.606138881190213,9
1.91999816894531,-0.735810518264771,2.28488850593567,1.71451711654663,-0.913122862707269,2.57292512231409,1.70812364027167,2081.607,2610.713,2696.424,1839.965,-0.09338481,0.02443648,0.1136926,-0.914567351341248,-0.462845265865326,0.596039593219757,-0.987011339258123,-0.424683405378145,0.611007036871143,9
1.94000244140625,-0.754226863384247,2.27559852600098,1.72623598575592,-0.932943991899774,2.5643966441608,1.72039386345315,2273.389,3545.893,3334.216,0,-0.09818542,0.02482377,0.1173488,-0.920815765857697,-0.464500099420547,0.585941016674042,-0.994638524886308,-0.427965170275055,0.615728628108227,9
1.95999145507813,-0.772865056991577,2.26623868942261,1.73835492134094,-0.952900013794853,2.55581012544606,1.73274759164336,2096.116,2620.052,2726.49,1785.995,-0.09282768,0.02594621,0.1141414,-0.93191534280777,-0.46799436211586,0.605948090553284,-1.00202031904361,-0.431141350077486,0.620298310335216,9
1.97999572753906,-0.791623592376709,2.25685214996338,1.75027191638947,-0.973016570682103,2.54715453300902,1.74520069864106,2272.513,3525.453,3355.033,0,-0.09752869,0.02624096,0.1176303,-0.93792861700058,-0.469332128763199,0.595850944519043,-1.00916501115878,-0.434215511495054,0.624721215103391,9
2,-0.810598909854889,2.24740195274353,1.76258933544159,-0.993273599084619,2.53843849960327,1.7577407641983,2095.456,2629.235,2735.508,1765.507,-0.09206867,0.02724763,0.1144174,-0.948761105537415,-0.472504287958145,0.615868389606476,-1.01606400046349,-0.437183953857422,0.628992018127441,9
2.02000427246094,-0.829688727855682,2.23793053627014,1.77470505237579,-1.01366615605493,2.52966415204104,1.77036472839513,2267.061,3530.969,3350.077,0,-0.09659818,0.02742924,0.1179546,-0.954492926597595,-0.473568975925446,0.605787336826324,-1.02271452148052,-0.440045487257004,0.633109007445237,9
2.03999328613281,-0.848988652229309,2.22840213775635,1.78721368312836,-1.03417354141348,2.52084039703127,1.78305977683431,2089.648,2629.49,2731.778,1767.788,-0.09096453,0.0283323,0.1148055,-0.96499240398407,-0.476410001516342,0.625430405139923,-1.02910913225408,-0.442796909628122,0.637067576131623,9
2.05999755859375,-0.8683962225914,2.21885967254639,1.79951024055481,-1.05482201812353,2.5119559343546,1.79584216754118,2271.408,3515.466,3353.727,0,-0.09529376,0.02837429,0.1183036,-0.970382332801819,-0.47713628411293,0.614829838275909,-1.03525504859546,-0.445441325732794,0.640872191117535,9
2.08000183105469,-0.888008892536163,2.20926713943481,1.81220602989197,-1.07559088172821,2.50301967256038,1.80869908347065,2082.468,2633.837,2707.515,1787.958,-0.0893091,0.02917213,0.1150596,-0.980628550052643,-0.479629874229431,0.634788930416107,-1.04114485287423,-0.447975543971863,0.644518260536375,9
2.09999084472656,-0.907721519470215,2.19966697692871,1.82468128204346,-1.09645901288412,2.49404069871208,1.82161745074311,2255.797,3543.93,3330.646,0,-0.09354513,0.02914993,0.1186815,-0.985632061958313,-0.48000693321228,0.623764455318451,-1.04677201701582,-0.450396755497224,0.648001743199023,9
2.1199951171875,-0.927631258964539,2.19002556800842,1.83754527568817,-1.11745308225396,2.48500753716864,1.83461377976925,2072.278,2621.193,2690.036,1817.61,-0.08736766,0.02992052,0.1153811,-0.995493590831757,-0.482071936130524,0.643201470375061,-1.0521429102862,-0.45270770082608,0.651326581984514,9
2.13999938964844,-0.947633266448975,2.18038463592529,1.8501763343811,-1.138551967509,2.47592927627801,1.8476749948214,2263.179,3532.99,3323.549,0,-0.09153338,0.02982798,0.1188493,-1.0001015663147,-0.482029587030411,0.631555140018463,-1.05725102347782,-0.454905579228273,0.654488747383304,9
2.16000366210938,-0.967825412750244,2.17071199417114,1.86319541931152,-1.15975039167652,2.46680818657414,1.86079782920208,2067.727,2623.209,2669.269,1830.725,-0.08526216,0.03054222,0.1153537,-1.00960075855255,-0.48364594578743,0.650952935218811,-1.0620943502576,-0.456989527434725,0.657486997379635,8
2.17999267578125,-0.988100349903107,2.16104793548584,1.87596881389618,-1.18102676265167,2.45765355853653,1.8739689163698,2242.693,3551.465,3312.862,0,-0.08948701,0.03042576,0.1188178,-1.01375257968903,-0.483200222253799,0.63866800069809,-1.06666760390386,-0.458957270716794,0.660318059240953,7
2.19999694824219,-1.00855660438538,2.15136051177979,1.88912296295166,-1.20240821395574,2.44845371736898,1.88720505326679,2056.904,2610.71,2657.432,1853.303,-0.08311512,0.03113609,0.1151828,-1.02281904220581,-0.484372138977051,0.65770560503006,-1.07097597819164,-0.460811043810786,0.662985148161421,7
2.22000122070313,-1.02908730506897,2.14168977737427,1.90202212333679,-1.22387315175433,2.43921795429519,1.90049287228091,2237.272,3552.769,3303.563,0,-0.08731546,0.03100331,0.1185364,-1.0265291929245,-0.483532935380936,0.644960522651672,-1.07501419914593,-0.462548577472581,0.665484999299265,7
2.239990234375,-1.04978978633881,2.13200426101685,1.91529643535614,-1.24539969505118,2.42995568409656,1.91381882803312,2054.999,2606.468,2643.251,1859.776,-0.0809292,0.03168644,0.1147426,-1.03513050079346,-0.484270215034485,0.663718461990356,-1.07877792518082,-0.464168003639063,0.667814925005999,5
2.25999450683594,-1.07055652141571,2.12234330177307,1.92830181121826,-1.26701526177039,2.4206551096063,1.92719989352455,2222.169,3554.385,3301.633,0,-0.0851583,0.03153158,0.118016,-1.03833591938019,-0.483048141002655,0.650266289710999,-1.08227143928024,-0.465671165158559,0.669977576652695,4
2.27999877929688,-1.09148609638214,2.1126754283905,1.94168221950531,-1.28869796983554,2.41132564607061,1.9406225227075,2048.159,2598.216,2624.626,1878.806,-0.07863835,0.03219773,0.1140298,-1.04647839069366,-0.483388870954514,0.669019520282745,-1.08549040888332,-0.467056197851165,0.67197027217779,4
2.30000305175781,-1.11246955394745,2.1030387878418,1.95478498935699,-1.31044231452835,2.40196966201596,1.95408330789913,2205.745,3573.029,3282.51,0,-0.08289568,0.03205113,0.1172831,-1.04917538166046,-0.481827944517136,0.655137896537781,-1.08843358680109,-0.468322565086307,0.673792239511894,0
2.31999206542969,-1.13360440731049,2.09340333938599,1.96824967861176,-1.33222611841886,2.3925966997709,1.96756852021384,2042.024,2584.785,2615.002,1890.389,-0.07639065,0.03271646,0.113176,-1.05674076080322,-0.481768786907196,0.67323762178421,-1.09109790637238,-0.469468947365361,0.675441580245663,0
2.33999633789063,-1.15478253364563,2.08380603790283,1.98142385482788,-1.35407709248145,2.38319483607731,1.98109531406483,2204.229,3557.153,3282.516,0,-0.0806533,0.03253259,0.1162306,-1.05890548229218,-0.479860037565231,0.658707082271576,-1.09348640563071,-0.470496651869278,0.67692017506657,0
2.36000061035156,-1.17610120773315,2.07421731948853,1.9949586391449,-1.37597305876702,2.37377361348711,1.99464996024512,2035.879,2583.702,2600.83,1894.856,-0.07409713,0.0331471,0.1119273,-1.06592965126038,-0.479438573122025,0.676741242408752,-1.09559602313537,-0.471404361345641,0.678226128796969,0
2.3800048828125,-1.19745206832886,2.06467247009277,2.00819635391235,-1.39790843013262,2.36433543599182,2.00822900004707,2187.058,3574.51,3263.396,0,-0.0784269,0.03293779,0.114956,-1.06754684448242,-0.47724375128746,0.661881327629089,-1.09742594550583,-0.472191725819537,0.679358937915576,0
2.39999389648438,-1.21893048286438,2.0551426410675,2.02178001403809,-1.41986083522252,2.35488992936084,2.02181858453579,2025.501,2574.01,2594.178,1901.626,-0.0719469,0.03351808,0.1105945,-1.07391905784607,-0.476487755775452,0.679184973239899,-1.09897439291323,-0.472857979480329,0.680317500623536,0
2.41999816894531,-1.24042987823486,2.04566240310669,2.03505349159241,-1.44185817738692,2.34542508756209,2.03543598721428,2187.177,3551.958,3266.62,0,-0.07629424,0.0332307,0.1134454,-1.07496917247772,-0.474009096622467,0.663670301437378,-1.10024313330221,-0.473403883025206,0.681102911362803,0
2.44000244140625,-1.26204538345337,2.03620290756226,2.04867386817932,-1.46387808506052,2.33595053645515,2.04906735901791,2014.037,2575.816,2578.899,1908.259,-0.06972422,0.0337295,0.1089397,-1.08076989650726,-0.47297015786171,0.681018173694611,-1.10123038958312,-0.473828671822132,0.681714070030222,0
2.45999145507813,-1.28367030620575,2.02679753303528,2.06197762489319,-1.48589810917879,2.32647593524532,2.06269880290633,2167.896,3571.314,3246.083,0,-0.07410832,0.03339407,0.1118385,-1.08125078678131,-0.470268696546555,0.665184140205383,-1.10193535162022,-0.474131997292339,0.68215047511319,0
2.47999572753906,-1.30539798736572,2.017418384552,2.0756139755249,-1.50794623031618,2.31698924467309,2.07634764018804,1998.409,2564.547,2570.669,1922.173,-0.06752072,0.03385025,0.1073284,-1.08638143539429,-0.468957006931305,0.681813538074493,-1.10235882472314,-0.474314205938057,0.682412625136718,0
2.5,-1.32712411880493,2.00809812545776,2.08892345428467,-1.52999999932945,2.30750012397766,2.08999997377396,2177.155,3546.184,3241.924,0,-0.07187552,0.03341143,0.1100444,-1.08630692958832,-0.466017365455627,0.665474832057953,-1.10250000050292,-0.474374949932098,0.682500019669533,0
2.52000427246094,-1.3489408493042,1.99880886077881,2.10256481170654,-1.55205376834272,2.29801100328223,2.10365230735988,1986.396,2571.151,2551.978,1926.844,-0.06524372,0.03376298,0.105424,-1.09083414077759,-0.464457809925079,0.682067215442657,-1.10235882472314,-0.474314205938057,0.682412625136718,0
2.53999328613281,-1.37074410915375,1.98958253860474,2.11586809158325,-1.57408507527774,2.28853154739156,2.11729073584934,2157.165,3557.297,3229.418,0,-0.06966031,0.03324743,0.1081835,-1.09016335010529,-0.461315184831619,0.665160357952118,-1.10193578218388,-0.474132182551855,0.682150741652607,0
2.55999755859375,-1.39262533187866,1.98039197921753,2.12949800491333,-1.59612191359838,2.27904971150017,2.13093258853001,1966.25,2562.057,2533.872,1953.604,-0.06289002,0.03354911,0.1035191,-1.094069480896,-0.459532171487808,0.681496798992157,-1.10123038958312,-0.473828671822132,0.681714070030222,0
2.58000183105469,-1.41448211669922,1.97126829624176,2.14277982711792,-1.61814182127198,2.26957516039323,2.14456396033363,2152.238,3554.921,3215.541,0,-0.06727997,0.03297222,0.1062438,-1.09283101558685,-0.456186980009079,0.664086401462555,-1.10024313330221,-0.473403883025206,0.681102911362804,0
2.59999084472656,-1.43640470504761,1.96218478679657,2.15638613700867,-1.64012239440973,2.26011753383818,2.15817098218581,1955.237,2558.58,2508.914,1972.711,-0.06041647,0.03321867,0.1014821,-1.09612953662872,-0.45417508482933,0.68031519651413,-1.09897546783438,-0.47285844198887,0.680318166050934,0
2.6199951171875,-1.45829033851624,1.95317220687866,2.16962862014771,-1.66209156852628,2.2506648119635,2.17177094750084,2135.759,3558.286,3206.69,0,-0.06484585,0.03260195,0.104206,-1.09428977966309,-0.450622379779816,0.662125647068024,-1.09742594550583,-0.472191725819537,0.679358937915576,0
2.63999938964844,-1.48023056983948,1.94420433044434,2.18319821357727,-1.68402693989188,2.24122663446822,2.18534998730279,1941.528,2548.579,2480.016,2005.409,-0.05779326,0.03282622,0.09928792,-1.09700739383698,-0.448389381170273,0.678480267524719,-1.09559602313537,-0.471404361345641,0.67822612879697,0
2.66000366210938,-1.50212216377258,1.93531167507172,2.1963939666748,-1.70592290617745,2.23180541187802,2.19890463348308,2118.448,3577.942,3182.235,0,-0.06228122,0.03222141,0.1020395,-1.09458720684052,-0.444644391536713,0.659790277481079,-1.09348640563071,-0.470496651869278,0.67692017506657,0
2.67999267578125,-1.52405512332916,1.92646813392639,2.20990610122681,-1.72775723139253,2.2224107117184,2.21242112090437,1930.155,2533.139,2463.164,2027.4,-0.05522064,0.03245611,0.0970129,-1.09664011001587,-0.442171663045883,0.675607860088348,-1.09109983431736,-0.469469776906228,0.675442773735451,0
2.69999694824219,-1.54592776298523,1.91770398616791,2.22303152084351,-1.74955768413056,2.21303058593937,2.22591663964878,2115.756,3563.69,3177.74,0,-0.05975228,0.0318343,0.09959312,-1.09364318847656,-0.438221901655197,0.656270623207092,-1.08843358680109,-0.468322565086308,0.673792239511893,0
2.72000122070313,-1.56782913208008,1.90899324417114,2.23647260665894,-1.77130202882336,2.20367460188472,2.23937742484041,1920.82,2530.302,2446.885,2035.561,-0.0526688,0.03203249,0.09438983,-1.09506022930145,-0.435528367757797,0.67205286026001,-1.08549040888332,-0.467056197851165,0.671970272177789,0
2.739990234375,-1.58965909481049,1.90036487579346,2.24952149391174,-1.79296822271738,2.1943522439355,2.25278983096475,2099.642,3577.726,3157.836,0,-0.0573043,0.03139867,0.09694405,-1.09149181842804,-0.431420594453812,0.652438879013062,-1.08227399942825,-0.465672266718727,0.669979161506271,0
2.75999450683594,-1.61150288581848,1.89179420471191,2.2628710269928,-1.81458384274179,2.18505164650952,2.26617092945464,1904.703,2520.73,2444.008,2041.383,-0.0503167,0.03157162,0.09172264,-1.09218847751617,-0.428534001111984,0.667476713657379,-1.07878069424208,-0.464169195088763,0.667816639186824,0
2.77999877929688,-1.63326418399811,1.88330864906311,2.27582144737244,-1.83612684690458,2.17578229366013,2.27950707526701,2108.213,3550.007,3155.687,0,-0.05497989,0.0308522,0.09407104,-1.08807277679443,-0.424282193183899,0.647518455982208,-1.07501419914593,-0.462548577472581,0.665484999299265,0
2.80000305175781,-1.65502643585205,1.87488341331482,2.28907060623169,-1.85759178470316,2.16654653058634,2.29279489428112,1890.873,2529.601,2433.304,2035.942,-0.04804716,0.03091863,0.08879692,-1.08810591697693,-0.421248376369476,0.662456631660461,-1.07097597819164,-0.460811043810786,0.662985148161422,0
2.81999206542969,-1.67669486999512,1.86654543876648,2.30191230773926,-1.87895695992541,2.1573536925621,2.30602095550813,2091.963,3551.568,3147.909,0,-0.05278013,0.03010763,0.09118153,-1.08342182636261,-0.416898638010025,0.642086565494537,-1.06667099276523,-0.458958728849171,0.660320157107579,0
2.83999633789063,-1.69835114479065,1.85827040672302,2.31504964828491,-1.90024960698239,2.14819206138118,2.31920211834584,1867.17,2525.55,2418.982,2056.23,-0.04572488,0.03009944,0.08594087,-1.08281397819519,-0.413759380578995,0.656869351863861,-1.06209435025759,-0.456989527434725,0.657486997379635,0
2.86000061035156,-1.71990299224854,1.85008406639099,2.32777214050293,-1.9214480311499,2.13907097167731,2.33232495272651,2088.3,3545.285,3135.457,0,-0.05040459,0.02920151,0.08834375,-1.07760000228882,-0.409313946962357,0.636121034622192,-1.05725102347782,-0.454905579228273,0.654488747383304,0
2.87998962402344,-1.74143099784851,1.84196305274963,2.34079098701477,-1.94253086194772,2.12999961857111,2.34537622930486,1852.055,2524.811,2392.429,2077.229,-0.0432018,0.0291157,0.08308804,-1.0763920545578,-0.406055152416229,0.650938808917999,-1.05214690704168,-0.452709420518306,0.651329056166547,0
2.89999389648438,-1.7628436088562,1.83393323421478,2.35338020324707,-1.96352501326936,2.1209664217661,2.35837260906308,2074.89,3545.67,3125.308,0,-0.04788151,0.02815446,0.08554406,-1.07063508033752,-0.401492536067963,0.629466474056244,-1.04677621342161,-0.450398561093403,0.648004340974112,0
2.91999816894531,-1.78422105312347,1.82597136497498,2.36627173423767,-1.98440911693069,2.11198057539494,2.37130086407726,1834.874,2516.529,2358.415,2116.07,-0.04041826,0.02803012,0.08018366,-1.06887149810791,-0.398095071315765,0.64457231760025,-1.04114485287423,-0.447975543971863,0.644518260536375,0
2.94000244140625,-1.80547297000885,1.81810319423676,2.37872362136841,-2.00517798053537,2.10304431360073,2.38415778000673,2058.992,3565.339,3098.353,0,-0.04513419,0.02707024,0.08271477,-1.06259703636169,-0.393400430679321,0.62259840965271,-1.03525504859546,-0.445441325732794,0.640872191117535,0
2.95999145507813,-1.82667756080627,1.81030678749084,2.39147019386292,-2.02581075424974,2.0941666074844,2.39693044981124,1820.587,2501.696,2335.013,2146.461,-0.03760437,0.02695735,0.07726926,-1.06022310256958,-0.389823615550995,0.6373330950737,-1.02911391720548,-0.442798968459032,0.637070538244476,0
2.97999572753906,-1.8477463722229,1.80260729789734,2.40376424789429,-2.04633384260397,2.08533609591429,2.40963521915279,2056.539,3553.335,3090.513,0,-0.04236983,0.0259904,0.07966354,-1.05344378948212,-0.384973436594009,0.614697098731995,-1.02271452148052,-0.440045487257004,0.633109007445237,0
3,-1.86875581741333,1.79498291015625,2.41635394096375,-2.06672639957428,2.07656174835205,2.42225918334961,1809.306,2498.075,2314.904,2160.883,-0.03480165,0.02585514,0.07405135,-1.0504766702652,-0.381216168403625,0.629479885101318,-1.01606400046349,-0.437183953857422,0.628992018127441,0
3.02000427246094,-1.88961982727051,1.78745830059052,2.42848515510559,-2.0869834279768,2.06784571494631,2.43479924890685,2041.094,3567.011,3069.85,0,-0.03968909,0.02489427,0.07642682,-1.04319930076599,-0.376239597797394,0.606561541557312,-1.00916501115878,-0.434215511495054,0.624721215103391,0
3.03999328613281,-1.91041159629822,1.78001141548157,2.44090104103088,-2.10708469520508,2.05919670122237,2.4472428908773,1794.017,2489.754,2306.346,2170.41,-0.03223437,0.02475092,0.07078929,-1.0395827293396,-0.372329562902451,0.620789051055908,-1.00202586176059,-0.431143734953757,0.620301741541063,0
3.05999755859375,-1.93104803562164,1.77266657352448,2.45284843444824,-2.12705600675913,2.05060360379452,2.45960608409476,2041.435,3543.279,3071.271,0,-0.03718732,0.02374475,0.07301435,-1.03182089328766,-0.367247939109802,0.597369313240051,-0.994638524886308,-0.427965170275055,0.615728628108227,0
3.08000183105469,-1.95160007476807,1.76540207862854,2.46508264541626,-2.14687713595163,2.04207512564123,2.47187630727625,1778.323,2492.975,2293.284,2175.239,-0.02970383,0.02353536,0.06730806,-1.02760934829712,-0.363226324319839,0.611714720726013,-0.987011339258122,-0.424683405378145,0.611007036871143,0
3.09999084472656,-1.9719877243042,1.75824046134949,2.47684502601624,-2.16652837486666,2.03361974652815,2.48404136028297,2026.804,3552.896,3053.737,0,-0.03471537,0.02248724,0.06958904,-1.01937735080719,-0.358076006174088,0.588119029998779,-0.979153483542501,-0.421302389586788,0.606142649861596,0
3.1199951171875,-1.9922788143158,1.75116121768951,2.48888564109802,-2.18603502400946,2.02522658035469,2.49611690533293,1757.346,2487.195,2283.187,2189.283,-0.02721538,0.02223681,0.0639511,-1.01455211639404,-0.353960901498795,0.602027535438538,-0.971056158224178,-0.417818336715394,0.601130019760458,0
3.13999938964844,-2.01239633560181,1.74418663978577,2.50044655799866,-2.20537738341953,2.01690410346351,2.50809074721212,2035.119,3527.411,3048.757,0,-0.03220827,0.02109944,0.06612571,-1.00588369369507,-0.348736971616745,0.578051567077637,-0.962728579444533,-0.414235212212131,0.595974851798267,0
3.16000366210938,-2.03240656852722,1.73729610443115,2.51228904724121,-2.22455088103183,2.00865428308644,2.51996005559448,1740.327,2494.424,2261.678,2199.642,-0.02463104,0.02075518,0.06046123,-1.00050234794617,-0.344529360532761,0.592129707336426,-0.954174163352092,-0.410554485950274,0.590679260733698,0
3.17999267578125,-2.05223417282104,1.73051130771637,2.52364301681519,-2.24353658854737,2.00048526354177,2.53171311296128,2020.135,3533.185,3034.9,0,-0.0296756,0.01955068,0.06271637,-0.991391897201538,-0.339237570762634,0.567696690559387,-0.945403214201559,-0.406780591562751,0.585249625391267,0
3.19999694824219,-2.07194352149963,1.72381258010864,2.5352783203125,-2.2623590635174,1.99238647840124,2.54336512160655,1717.187,2488.414,2238.452,2230.399,-0.02194338,0.01916104,0.05706566,-0.985472857952118,-0.334937661886215,0.581765353679657,-0.936405971974636,-0.402909329586355,0.579679903854719,0
3.22000122070313,-2.0914626121521,1.7172212600708,2.54641604423523,-2.28099938900442,1.98436606709459,2.55490437104486,2016.731,3529.151,3019.634,0,-0.02698528,0.01791106,0.05933098,-0.975957810878754,-0.329561620950699,0.556881487369537,-0.927192788821982,-0.398945154262308,0.573976504598449,0
3.239990234375,-2.11085343360901,1.71071839332581,2.55783653259277,-2.2994392795179,1.97643189735754,2.5663195416865,1702.256,2485.412,2210.902,2254.772,-0.01915186,0.01748101,0.0536316,-0.969524025917053,-0.325142204761505,0.571025133132935,-0.917774783907129,-0.394892849856044,0.568146310914365,0
3.25999450683594,-2.13004565238953,1.70432507991791,2.56874632835388,-2.31770268688992,1.96857366338589,2.57762546085652,2004.698,3529.387,3008.528,0,-0.02425501,0.01621057,0.05591143,-0.959608256816864,-0.319670051336288,0.545495271682739,-0.90814153446928,-0.390747931744771,0.562182870617026,0
3.27999877929688,-2.14909911155701,1.69802248477936,2.57994294166565,-2.33577134012187,1.96079922667992,2.58881081793642,1686.551,2477.793,2183.379,2285.097,-0.01629002,0.01576519,0.05011652,-0.952678024768829,-0.315123975276947,0.559830367565155,-0.898304216251578,-0.386515208538549,0.556093102023818,0
3.30000305175781,-2.16794657707214,1.69183146953583,2.59062099456787,-2.35364119854729,1.95311032582551,2.59987311156116,1992.728,3539.844,2987.503,0,-0.02147999,0.01451101,0.05241723,-0.942383944988251,-0.309553951025009,0.533897817134857,-0.888267004546666,-0.382196476749158,0.549879589839776,0
3.31999206542969,-2.1866455078125,1.68573379516602,2.6015796661377,-2.37129490830989,1.94551442770222,2.61080159886703,1671.527,2468.118,2166.069,2305.532,-0.01353259,0.01407803,0.04657263,-0.934934198856354,-0.304876416921616,0.547938168048859,-0.878042061913513,-0.37779696958594,0.54354986326829,0
3.33999633789063,-2.20513105392456,1.67974948883057,2.61200976371765,-2.38875555478454,1.93800159931817,2.62161057080077,1990.892,3525.069,2982.386,0,-0.01879659,0.01282144,0.04875694,-0.924279510974884,-0.299217611551285,0.521500587463379,-0.867618167158097,-0.373311858882592,0.53709697585572,0
3.36000061035156,-2.22345733642578,1.67386102676392,2.62272238731384,-2.406005803634,1.93057929915441,2.6322892965819,1658.149,2467.876,2150.026,2315.057,-0.01085078,0.01236338,0.04282532,-0.916323602199554,-0.294428199529648,0.535628795623779,-0.857007552155826,-0.36874640767338,0.530528499715627,0
3.37998962402344,-2.24156379699707,1.66808676719666,2.63290190696716,-2.42302905329872,1.92325467039821,2.6428274990542,1979.977,3530.415,2966.225,0,-0.01622291,0.01110224,0.04500848,-0.905314922332764,-0.288705557584763,0.508975327014923,-0.846223126656603,-0.364106170663035,0.523852426598178,0
3.39999389648438,-2.25950050354004,1.66241002082825,2.64335680007935,-2.43984769972619,1.91601807669906,2.65323904237604,1638.874,2463.854,2140.935,2325.862,-0.008339423,0.01063173,0.03910977,-0.89684122800827,-0.283833622932434,0.522742509841919,-0.835253140422974,-0.35938609205264,0.51706148254665,0
3.41999816894531,-2.27721071243286,1.65684866905212,2.6532723903656,-2.45644516534361,1.90887665092339,2.66351366424015,1985.254,3508.273,2961.977,0,-0.01376375,0.009323881,0.04118481,-0.885507524013519,-0.2780681848526,0.495780289173126,-0.824110582941664,-0.354591760855451,0.510163708672097,0
3.44000244140625,-2.2947416305542,1.65138602256775,2.66346549987793,-2.47281804716281,1.90183185728196,2.67364925803476,1622.412,2470.678,2125.58,2330.829,-0.005898902,0.008789188,0.03528561,-0.87654834985733,-0.273137152194977,0.509649753570557,-0.812800388649434,-0.349725300221754,0.503162159625937,0
3.45999145507813,-2.31203961372375,1.64603924751282,2.67311215400696,-2.48895081463434,1.8948903781363,2.68363620960993,1974.549,3506.533,2952.832,0,-0.01140579,0.00743396,0.03740934,-0.86489599943161,-0.267349570989609,0.482337325811386,-0.80133641229185,-0.344792671461508,0.496065412155666,0
3.47999572753906,-2.32914924621582,1.64079141616821,2.6830370426178,-2.50486489870395,1.88804299234919,2.69348778574196,1600.372,2468.608,2107.649,2352.634,-0.003458381,0.006857946,0.03155959,-0.855482518672943,-0.262379169464111,0.496250420808792,-0.789706299681989,-0.339788558913217,0.488865818431069,0
3.5,-2.34601998329163,1.63566017150879,2.6924090385437,-2.5205447997813,1.88129636896134,2.70319439144611,1972.299,3499.245,2941.136,0,-0.008980179,0.005463233,0.03370877,-0.843549489974976,-0.256566911935806,0.468597203493118,-0.777924000354857,-0.334718964672089,0.481572013878822,0
3.52000427246094,-2.36269426345825,1.63062918186188,2.70206189155579,-2.53598752699493,1.87465179486116,2.71275417523047,1585.12,2468.097,2083.682,2372.698,-0.0009582054,0.004846038,0.02786737,-0.833714187145233,-0.251540929079056,0.482648611068726,-0.765994882555673,-0.32958619854407,0.474187321698442,0
3.53999328613281,-2.37912464141846,1.6257152557373,2.71115207672119,-2.55117869390181,1.86811546013321,2.72215823120146,1966.024,3495.671,2929.772,0,-0.00654818,0.003426712,0.03004155,-0.821520984172821,-0.245695441961288,0.454508692026138,-0.753933682518821,-0.324396601119134,0.466720864320997,0
3.55999755859375,-2.39535069465637,1.6209032535553,2.72052550315857,-2.56613872308604,1.86167857751006,2.73141920191151,1566.285,2463.979,2061.949,2398.26,0.001567356,0.002791067,0.02417893,-0.811285257339478,-0.240608334541321,0.468669593334198,-0.741727567798258,-0.319144650954242,0.459164697851087,0
3.58000183105469,-2.41132760047913,1.61620855331421,2.72932958602905,-2.58085326729328,1.85534732021446,2.74052820572674,1961.423,3494.94,2914.663,0,-0.00407943,0.001369843,0.02635483,-0.798855662345886,-0.234723702073097,0.440202355384827,-0.729391385793765,-0.313836736470737,0.451528013536464,0
3.59999084472656,-2.4270920753479,1.61161756515503,2.73841691017151,-2.59530884290342,1.84912748987145,2.74947689564398,1553.774,2461.774,2041.279,2414.571,0.004016547,0.0007239875,0.02047429,-0.788227140903473,-0.229568332433701,0.454363346099854,-0.716940488958392,-0.308479463400265,0.4438203152769,0
3.6199951171875,-2.44260358810425,1.60714411735535,2.74692511558533,-2.60952509409627,1.84301063413925,2.75827743234631,1955.966,3486.755,2908.203,0,-0.001745968,-0.000696683,0.02262106,-0.775576412677765,-0.223656639456749,0.425404936075211,-0.704361775018033,-0.303067194200314,0.436033492140578,0
3.63999938964844,-2.45789504051208,1.60277509689331,2.75571990013123,-2.6234885835008,1.83700253474321,2.76692149746096,1538.421,2459.995,2023.333,2431.73,0.006356346,-0.001353418,0.01670508,-0.764571011066437,-0.218456208705902,0.439734756946564,-0.691670720740692,-0.297606588091786,0.428177124984152,0
3.66000366210938,-2.47292947769165,1.59852457046509,2.76393222808838,-2.63719712493647,1.83110413233575,2.77540773763803,1944.106,3492.133,2891.028,4.369958,0.000509609,-0.002746784,0.01888738,-0.751716911792755,-0.212533518671989,0.410616844892502,-0.678873453515702,-0.29210028151913,0.420255006953505,0
3.67999267578125,-2.48773670196533,1.59437835216522,2.77242612838745,-2.65063849381582,1.82532068681534,2.78372858527554,1525.045,2456.027,2011.913,2441.733,0.00852965,-0.003388606,0.01301713,-0.740345776081085,-0.207303866744041,0.424694657325745,-0.665986083416798,-0.286555206197011,0.41227711095171,0
3.69999694824219,-2.50228309631348,1.59035050868988,2.78034353256226,-2.66383127580226,1.81964420129024,2.79189554578451,1920.632,3490.8,2862.596,39.90658,0.002829043,-0.004688229,0.01517744,-0.727326989173889,-0.201386317610741,0.395868271589279,-0.65299527533123,-0.280965624398954,0.404235181908735,0
3.72000122070313,-2.51659536361694,1.58642840385437,2.78852772712708,-2.6767633032417,1.81407991116207,2.79990108680742,1527.767,2456.097,2009.233,2422.114,0.0106404,-0.00528744,0.009389018,-0.715602278709412,-0.196114510297775,0.409211039543152,-0.639917282339434,-0.275338529371411,0.396139281255611,0
3.739990234375,-2.5306441783905,1.58262419700623,2.79615068435669,-2.68942333385363,1.80863265367006,2.80773824883709,1902.049,3476.438,2824.283,95.25509,0.005178859,-0.006470416,0.01136518,-0.702443957328796,-0.190200731158257,0.381152212619781,-0.62676873176137,-0.26968107538565,0.387999702095468,0
3.75999450683594,-2.54445123672485,1.57892656326294,2.80401349067688,-2.70182915057228,1.80329477731443,2.81541804035694,1533.377,2467.883,2022.341,2371.188,0.01254905,-0.007020625,0.005708537,-0.69035816192627,-0.184887811541557,0.393142938613892,-0.613536214864365,-0.263987493038594,0.379808143784027,0
3.77999877929688,-2.55799245834351,1.57534646987915,2.81134104728699,-2.7139695770734,1.79807109095524,2.82293354268985,1880.719,3448.805,2781.372,173.2891,0.007425813,-0.008080031,0.007376512,-0.677064776420593,-0.179000988602638,0.366378247737885,-0.60023651686137,-0.258265004538452,0.371574997167698,0
3.80000305175781,-2.571284532547,1.57187342643738,2.81887364387512,-2.72584333814708,1.79296214327972,2.83028396642013,1545.842,2494.468,2047.028,2286.467,0.01411814,-0.008597217,0.00194815,-0.66461056470871,-0.173676520586014,0.376628339290619,-0.586876524285838,-0.252516572968186,0.363304525338741,0
3.81999206542969,-2.584308385849,1.56851577758789,2.82590317726135,-2.73744054699573,1.78797218830065,2.83746319114912,1852.394,3410.666,2737.79,270.9626,0.009387511,-0.009541041,0.003283944,-0.651180982589722,-0.167865753173828,0.351480603218079,-0.573473482003301,-0.246749618311662,0.355007403690404,0
3.83999633789063,-2.59707593917847,1.56526398658752,2.83309745788574,-2.74877791451009,1.78309403578861,2.84448156171422,1555.256,2529.313,2082.771,2185.377,0.01533528,-0.01003266,-0.001794438,-0.638377785682678,-0.162589102983475,0.359716206789017,-0.560014026276881,-0.240958390526246,0.346675359432959,0
3.86000061035156,-2.6095724105835,1.56212592124939,2.83982849121094,-2.75984563331209,1.77833190558438,2.85133300688122,1825.203,3363.627,2691.097,381.159,0.01112645,-0.01087848,-0.0007861651,-0.624823093414307,-0.156901836395264,0.336555778980255,-0.546515580872635,-0.235150386571708,0.338319178707605,0
3.87998962402344,-2.62180662155151,1.55909156799316,2.84668231010437,-2.7706348636882,1.77368960116974,2.85801205444635,1568.7,2572.163,2119.327,2071.613,0.01630196,-0.01136371,-0.005423261,-0.611714005470276,-0.151711106300354,0.342687338590622,-0.532995796775444,-0.22933320117373,0.329949788314816,0
3.89999389648438,-2.63376808166504,1.55616807937622,2.85311388969421,-2.78116151864576,1.76916027562219,2.86452855531919,1795.129,3310.83,2643.44,501.8185,0.01269776,-0.01212537,-0.004721252,-0.598057210445404,-0.146178796887398,0.321575224399567,-0.519441457145543,-0.223501147495394,0.321559006401168,0
3.91999816894531,-2.64546179771423,1.55334615707397,2.85962700843811,-2.79141684911929,1.7647476934202,2.87087709341145,1582.557,2616.814,2153.447,1958.837,0.01717085,-0.01260581,-0.00889336,-0.58470207452774,-0.141093090176582,0.325652092695236,-0.505870408491346,-0.2176619043907,0.313157880805522,0
3.94000244140625,-2.65688109397888,1.5506317615509,2.86575937271118,-2.8014005971492,1.76045196555656,2.87705750903383,1771.418,3257.97,2592.889,619.8608,0.01417443,-0.01329876,-0.008492821,-0.570968091487885,-0.135720148682594,0.306615054607391,-0.492290296490434,-0.211818761581115,0.30475114456651,0
