t,x_s1,x_s2,x_s3,x_s_d1,x_s_d2,x_s_d3,propellers_rpms1,propellers_rpms2,propellers_rpms3,propellers_rpms4,rollRad,pitchRad,yawRad,v_s1,v_s2,v_s3,v_s_d1,v_s_d2,v_s_d3,insideCount
0,-0.0599999986588955,2.94000005722046,1.17999994754791,-0.0599999986588955,2.94000005722046,1.17999994754791,0,0,0,0,0,0,0,0,0,0,-1.06581410364015E-15,4.44089209850063E-16,4.44089209850063E-16,0
0.0200042724609375,-0.0599999986588955,2.94000005722046,1.1771354675293,-0.0600018701838461,2.93999925195556,1.18000110611101,0,0,0,0,0.0163538,-0.002474609,-2.024222E-05,3.71994488546079E-08,3.50004931704007E-08,-0.143225952982903,-0.000280105751305916,-0.000120521679537258,0.00017339880334547,5
0.0399932861328125,-0.0599999986588955,2.94000005722046,1.17048275470734,-0.060014863945674,2.93999366110285,1.18000914986856,0,0,0,0,0.03270752,-0.004950816,-5.430172E-05,3.62924410524101E-08,3.44428769949445E-08,-0.332637369632721,-0.00111059898697896,-0.000477859717552347,0.000687513678106196,6
0.05999755859375,-0.0600004345178604,2.94013237953186,1.16416537761688,-0.0600498857373401,2.93997859220429,1.18003083002592,3185.182,2835.672,1501.344,2767.742,0.03128216,-0.00494336,-0.01646952,-2.17777997022495E-05,0.00662205973640084,-0.315866738557816,-0.00247936261166862,-0.00106680046642749,0.00153484356504269,6
0.0800018310546875,-0.0599162131547928,2.9403874874115,1.15857708454132,-0.0601175574246769,2.93994947496775,1.18007272202403,3066.065,3067.351,2154.765,2023.927,0.01897811,-0.004311125,-0.04351445,0.00421100296080112,0.0127505138516426,-0.279414087533951,-0.00437268608126799,-0.00188144466206175,0.00270690098422899,6
0.0999908447265625,-0.0596375465393066,2.94068741798401,1.15374851226807,-0.0602281370710988,2.93990189563514,1.18014117609281,2640.412,3831.792,2620.119,1134.785,-0.00585203,-0.002888997,-0.07014553,0.0139334248378873,0.0149990078061819,-0.241430014371872,-0.00677536694902951,-0.00291525111632684,0.0041942748969354,6
0.1199951171875,-0.0590848922729492,2.94089865684509,1.14957022666931,-0.0603918861403606,2.93983143898525,1.18024254456713,2091.776,4101.945,3169.588,756.1396,-0.04011733,-0.0004511395,-0.08993602,0.0276327654719353,0.0105631491169333,-0.208917021751404,-0.00967801353495435,-0.00416417885169243,0.00599115140585487,5
0.139999389648438,-0.058231458067894,2.94085597991943,1.14596676826477,-0.0606185767455666,2.93973390035084,1.18038287685052,1510.593,4074.767,3735.712,701.8418,-0.07649025,0.002388201,-0.09949943,0.0426716506481171,-0.00212877616286278,-0.180171564221382,-0.0130660253322238,-0.00562194567796536,0.00808849210174802,4
0.160003662109375,-0.0570994019508362,2.94039463996887,1.14297819137573,-0.0609177895434042,2.93960515744296,1.18056810382587,1135.255,3847.088,4069.746,879.8453,-0.1062788,0.004335145,-0.09870207,0.05660280585289,-0.0230664666742086,-0.149431586265564,-0.0169265510445065,-0.00728302204135792,0.0104783414199936,4
0.17999267578125,-0.0557376518845558,2.93938779830933,1.14071130752563,-0.0612985250199726,2.93944133760391,1.18080379722281,1100.909,3565.318,4009.986,1148.941,-0.1236325,0.004492053,-0.09000206,0.0680875405669212,-0.050338014960289,-0.113343343138695,-0.0212433804254414,-0.00914043312572283,0.0131506644458931,3
0.199996948242188,-0.0541963838040829,2.93777704238892,1.13924849033356,-0.0617704296168641,2.93923829023936,1.18109592864822,1372.708,3339.679,3595.18,1386.553,-0.1278765,0.003023183,-0.07724871,0.0770634263753891,-0.0805338174104691,-0.0731412768363953,-0.0260104776919234,-0.0111915819022102,0.0161017247421801,3
0.220001220703125,-0.0525141283869743,2.93557596206665,1.13858389854431,-0.0623420644491781,2.93899233174064,1.18144979784016,1791.25,3212.734,3016.763,1527.041,-0.1229741,0.0008609058,-0.06426048,0.0841128975152969,-0.110050976276398,-0.0332269594073296,-0.03121219533433,-0.0134297356845702,0.019321835755004,3
0.239990234375,-0.0507194399833679,2.93284702301025,1.13860702514648,-0.0630214373585105,2.93870001655724,1.18187036203406,2159.383,3168.755,2517.156,1558.261,-0.1149665,-0.0009885654,-0.05362115,0.0897342562675476,-0.136452406644821,0.00115444883704185,-0.0368316683029241,-0.015847637913056,0.022800557215184,3
0.259994506835938,-0.0488371104001999,2.92966485023499,1.13913762569427,-0.0638179029240226,2.93835731967507,1.18236341216003,2351.355,3158.946,2274.173,1496.212,-0.109049,-0.001904693,-0.04623461,0.094116784632206,-0.159105718135834,0.0265328921377659,-0.0428651747123285,-0.0184436871643672,0.0265355850983733,3
0.279998779296875,-0.0468915738165379,2.92608761787415,1.13999605178833,-0.0647390625194898,2.93796097043536,1.18293365383054,2353.156,3152.085,2323.901,1363.643,-0.1078101,-0.001745436,-0.04152294,0.0972767993807793,-0.178861185908318,0.0429206192493439,-0.0492963837173861,-0.0212108567320638,0.030516809833474,3
0.300003051757813,-0.0449085310101509,2.92214393615723,1.14106214046478,-0.0657927507678135,2.93750759781875,1.18358593705038,2229.432,3144.407,2572.547,1194.073,-0.1110874,-0.0007376956,-0.03798626,0.099152185022831,-0.197189196944237,0.0533016324043274,-0.0561132031658829,-0.0241439437008635,0.0347367458022363,3
0.319992065429688,-0.0429166704416275,2.91783595085144,1.14229416847229,-0.0669855955880233,2.93699435001684,1.18432436481717,2074.004,3132.47,2873.195,1032.737,-0.1169346,0.0006857435,-0.0339814,0.0995931178331375,-0.215404033660889,0.0615984909236431,-0.0632980253096114,-0.0272353719486164,0.0391844929697465,3
0.339996337890625,-0.0409486517310143,2.91315150260925,1.14370727539063,-0.068326768706371,2.93641728069206,1.18515461486636,1954.443,3107.299,3109.898,921.8276,-0.1228447,0.002070103,-0.02837492,0.0984010472893715,-0.234220862388611,0.0706527903676033,-0.0708499516420146,-0.0304847548730522,0.0438594951176439,3
0.360000610351563,-0.0390398725867271,2.90807771682739,1.14534342288971,-0.0698225328270578,2.93577369517774,1.1860805641102,1905.23,3065.453,3221.979,880.8346,-0.1267052,0.003092754,-0.02087332,0.0954388231039047,-0.253692418336868,0.0818094238638878,-0.0787518717320621,-0.0338847303337087,0.0487511600740379,3
0.3800048828125,-0.0372253656387329,2.90261077880859,1.14724349975586,-0.0714797725314022,2.93506063123087,1.18710647443246,1924.104,3021.789,3207.047,895.2656,-0.1274237,0.003641958,-0.01188462,0.0907255783677101,-0.27334126830101,0.0950061231851578,-0.0869921272359981,-0.0374302820709642,0.0538522707687797,3
0.399993896484375,-0.0355369001626968,2.8967616558075,1.14943158626556,-0.0733036822025899,2.9342758538535,1.18823556140379,1991.101,2988.877,3098.742,939.6904,-0.1250461,0.003790759,-0.002209358,0.0844232514500618,-0.292450457811356,0.109403342008591,-0.0955525119207663,-0.0411135764513579,0.0591515566763244,3
0.419998168945313,-0.0340015776455402,2.89055514335632,1.15190553665161,-0.0753034649285836,2.93341540321397,1.18947352217404,2071.438,2974.457,2954.202,986.772,-0.1205064,0.003708332,0.007340498,0.0767661854624748,-0.310323119163513,0.123697094619274,-0.104434660908044,-0.0449353170220673,0.0646500300148815,3
0.44000244140625,-0.0326421670615673,2.88402485847473,1.15464174747467,-0.077483988232608,2.93247718495301,1.19082336997196,2137.193,2972.481,2824.597,1023.482,-0.1150715,0.003564192,0.01614803,0.0679706335067749,-0.326510161161423,0.136809200048447,-0.113620829717891,-0.048887868829098,0.0703367061060819,4
0.459991455078125,-0.0314779877662659,2.87720775604248,1.15760159492493,-0.0798493430620752,2.93145943885026,1.19228763728888,2168.629,2978.592,2748.85,1037.893,-0.1098719,0.003474355,0.02394756,0.0582087710499763,-0.340850830078125,0.147994250059128,-0.123092454730403,-0.0529632444654124,0.0762000931848968,4
0.479995727539063,-0.030526340007782,2.87013864517212,1.16074752807617,-0.0824088828700873,2.93035814037613,1.19387211435783,2167.208,2983.294,2733.16,1034.018,-0.1055384,0.003482307,0.03075004,0.0475826300680637,-0.35345846414566,0.157296568155289,-0.132852887402757,-0.0571628859694044,0.0822422659629699,4
0.5,-0.0298032332211733,2.86284708976746,1.1640522480011,-0.085166398670376,2.92917165836334,1.1955791479969,2147.571,2989.506,2762.182,1009.157,-0.1022579,0.003568872,0.0367943,0.0361553281545639,-0.364583432674408,0.16523440182209,-0.142884000065179,-0.0614789935111996,0.0884520025491718,4
0.520004272460938,-0.0293239410966635,2.85535717010498,1.16749930381775,-0.088127196023106,2.92789770997757,1.19741202260058,2117.088,2993.375,2816.874,976.7526,-0.09983978,0.003685492,0.04241236,0.0239645875990391,-0.374493628740311,0.172354429960251,-0.153174893518032,-0.065906877469682,0.0948225558197254,4
0.539993286132813,-0.0291036386042833,2.84768867492676,1.17108595371246,-0.091293865515634,2.92653518056143,1.19937234186584,2088.812,2991.366,2870.807,952.0699,-0.09783015,0.003776605,0.04785724,0.0110149746760726,-0.383423298597336,0.179330304265022,-0.163706645289342,-0.0704383960337938,0.101342211863077,4
0.55999755859375,-0.0291570723056793,2.83985877037048,1.17481577396393,-0.094676112580471,2.92507989413848,1.20146611391775,2069.816,2989.073,2910.051,933.9955,-0.09579284,0.003796332,0.05329777,-0.00267183035612106,-0.391501218080521,0.186490967869759,-0.17448465888317,-0.0750758741803766,0.108014315705644,5
0.580001831054688,-0.0294985435903072,2.83188319206238,1.17869865894318,-0.0982762614093182,2.92353085067394,1.20369477754168,2064.599,2985.033,2920.911,932.443,-0.09338055,0.003717808,0.05873217,-0.0170731339603662,-0.39878323674202,0.194143921136856,-0.185490414529404,-0.0798113433697334,0.11482740272751,5
0.599990844726563,-0.030140720307827,2.82377862930298,1.1827392578125,-0.102095761416081,2.92188742652551,1.20605922999388,2067.246,2986.057,2912.963,935.5331,-0.09051286,0.003537586,0.06411678,-0.0321087241172791,-0.405231148004532,0.202031925320625,-0.19670480600515,-0.0846365827279185,0.121769645266545,5
0.6199951171875,-0.0310949981212616,2.81556248664856,1.18694162368774,-0.106144683970236,2.92014528826426,1.20856570593183,2072.987,2984.889,2887.564,954.9852,-0.08717165,0.003273274,0.06929076,-0.0477141290903091,-0.410806030035019,0.21011671423912,-0.208134604141382,-0.0895545055543457,0.128845234789665,5
0.639999389648438,-0.0323707386851311,2.80725336074829,1.19130492210388,-0.110424235525481,2.91830391678686,1.21121495220784,2084.088,2992.28,2854.542,967.7134,-0.0835881,0.002941055,0.07414596,-0.0637875348329544,-0.415457963943481,0.21816323697567,-0.219761081350814,-0.0945570538913933,0.136042578028218,5
0.660003662109375,-0.0339752659201622,2.79887008666992,1.19582259654999,-0.114938248900541,2.91636166293851,1.21400934151928,2088.215,2999.838,2826.604,982.1984,-0.08000668,0.002565744,0.07860217,-0.0802259519696236,-0.419168889522552,0.225883349776268,-0.231574097577923,-0.0996398647564507,0.143355397804799,5
0.67999267578125,-0.0359143353998661,2.79043078422546,1.20048761367798,-0.119686638739014,2.91431856344567,1.21694882102647,2087.539,3006.742,2806.19,995.5524,-0.07660849,0.002168038,0.08260827,-0.0969535857439041,-0.421970844268799,0.233248069882393,-0.243554411173546,-0.104794659005432,0.150771782621969,6
0.699996948242188,-0.0381920970976353,2.78195238113403,1.2052903175354,-0.124680083855354,2.91217002351282,1.22004000142426,2082.2,3015.042,2799.443,999.1566,-0.07355278,0.001759559,0.0861993,-0.113887682557106,-0.423918545246124,0.24013677239418,-0.255710395848158,-0.11002503961202,0.158296916205407,6
0.720001220703125,-0.0408120192587376,2.77345013618469,1.21022689342499,-0.129918284978346,2.90991617190799,1.22328269744952,2075.875,3020.742,2795.727,1004.676,-0.07086192,0.001346342,0.08939375,-0.130996108055115,-0.42511060833931,0.246830239892006,-0.268023157655716,-0.11532287703907,0.16591910230247,6
0.739990234375,-0.0437760092318058,2.76493763923645,1.21528875827789,-0.135400001298574,2.90755754251682,1.2266761409821,2066.921,3028.704,2805.323,997.1667,-0.06860356,0.0009261197,0.0923078,-0.148199945688248,-0.425626873970032,0.253092437982559,-0.280473432677602,-0.12067988256057,0.173626415629864,6
0.759994506835938,-0.0470861531794071,2.75642609596252,1.22047519683838,-0.14113644597991,2.90508931062815,1.2302272735046,2054.905,3027.551,2812.3,1005.776,-0.06658755,0.0005095914,0.09494016,-0.165507346391678,-0.425577104091644,0.259322762489319,-0.293070637251543,-0.126100107763583,0.181424685349205,6
0.779998779296875,-0.0507435239851475,2.74792551994324,1.2257844209671,-0.147126184485884,2.90251209348295,1.23393520697061,2052.167,3034.266,2818.892,997.3096,-0.06482986,8.326915E-05,0.09737704,-0.182868435978889,-0.425031155347824,0.265462934970856,-0.305795832832518,-0.131575403921268,0.189302187598958,6
0.800003051757813,-0.054748822003603,2.73944425582886,1.23121607303619,-0.153371683173492,2.89982482987671,1.2378014681726,2045.528,3035.096,2822.111,1002.127,-0.06322238,-0.0003467436,0.09962253,-0.200264453887939,-0.424061089754105,0.271584182977676,-0.318639638509124,-0.13710173468952,0.197253115148089,6
0.819992065429688,-0.0591020919382572,2.73098993301392,1.23676955699921,-0.159870162197751,2.89702871589906,1.2418243362541,2042.867,3037.692,2822.404,1004.003,-0.06173207,-0.0007792409,0.1016864,-0.217663958668709,-0.422717988491058,0.277673810720444,-0.33158286215529,-0.142670842232658,0.205265587156312,6
0.839996337890625,-0.0638027936220169,2.72256898880005,1.24244379997253,-0.166633637018892,2.89411858163313,1.24601124935738,2040.331,3039.603,2820.67,1008.357,-0.06033125,-0.001210673,0.1035611,-0.235035821795464,-0.421044081449509,0.283710271120071,-0.344636106234817,-0.148287288494656,0.213346167053785,6
0.860000610351563,-0.0688500553369522,2.71418738365173,1.24824023246765,-0.173659158941841,2.89109569582005,1.2503603820997,2042.346,3043.636,2811.656,1013.48,-0.05904068,-0.001638909,0.1052235,-0.252362549304962,-0.419083029031754,0.289819926023483,-0.357780475378537,-0.153942943326036,0.221483157706883,6
0.8800048828125,-0.0742414742708206,2.70585012435913,1.25415313243866,-0.180948461186242,2.88795931270381,1.25487280742661,2041.606,3049.152,2810.217,1011.613,-0.0579669,-0.002063417,0.1067105,-0.269572466611862,-0.416864842176437,0.295647919178009,-0.371007022483504,-0.159633957038354,0.229671020432672,6
0.899993896484375,-0.0799751281738281,2.69756126403809,1.26018357276917,-0.18849723509595,2.8847112861788,1.25954585807468,2038.303,3048.954,2803.29,1024.613,-0.05703319,-0.002465555,0.1079623,-0.286681950092316,-0.414446651935577,0.301524370908737,-0.384296738353309,-0.165352150505452,0.237897987633041,7
0.919998168945313,-0.0860473066568375,2.68932414054871,1.26632392406464,-0.196318384305134,2.8813460641717,1.26438752200817,2037.931,3055.204,2809.149,1014.697,-0.05638072,-0.002855441,0.1090632,-0.303608328104019,-0.411855340003967,0.307015895843506,-0.397661187980262,-0.171102499820431,0.246171218589148,7
0.94000244140625,-0.092455580830574,2.6811408996582,1.27257978916168,-0.204407453948074,2.87786556348678,1.26939504145298,2036.001,3054.176,2800.671,1029.718,-0.0558662,-0.003214435,0.1099328,-0.320414453744888,-0.40916383266449,0.31279057264328,-0.411081631631503,-0.176876941799768,0.254479112513653,7
0.959991455078125,-0.0991949290037155,2.67301297187805,1.27893900871277,-0.212759000778906,2.87427212620069,1.27456504678061,2037.387,3063.495,2814.655,1006.827,-0.05573783,-0.00356544,0.1107342,-0.336967170238495,-0.406390637159348,0.317963600158691,-0.424539267042903,-0.182667386354485,0.262810029909387,7
0.979995727539063,-0.106262743473053,2.66494059562683,1.28540992736816,-0.22138664033507,2.87055989392801,1.27990596665734,2027.989,3054.526,2810.17,1034.326,-0.05563876,-0.003867442,0.1113171,-0.353390604257584,-0.403619855642319,0.323545128107071,-0.438046240701377,-0.188479059778567,0.271171490030365,7
1,-0.113653659820557,2.65692353248596,1.29198276996613,-0.230284798736574,2.86673126495361,1.28541435058594,2037.073,3066.875,2824.141,1001.478,-0.05589602,-0.004165716,0.1118771,-0.369546294212341,-0.40085557103157,0.328639298677444,-0.451584000205995,-0.194303979492187,0.279552008056641,7
1.02000427246094,-0.121364817023277,2.64896011352539,1.29866635799408,-0.239454009753966,2.86278600961093,1.2910905289958,2028.96,3058.338,2818.573,1028.835,-0.05616287,-0.004416586,0.1122614,-0.385558128356934,-0.398176699876785,0.334180057048798,-0.465144357597929,-0.200138622445408,0.287946515251652,7
1.03999328613281,-0.129390358924866,2.64104866981506,1.30544877052307,-0.248887339851819,2.85872711120656,1.2969302096982,2035.995,3068.34,2836.708,996.5886,-0.05674717,-0.004661597,0.1126615,-0.401277273893356,-0.395574420690536,0.339123129844666,-0.478708875293167,-0.205975055460915,0.29634359787259,7
1.05999755859375,-0.137727707624435,2.63318634033203,1.31234240531921,-0.258599401509697,2.85454828239877,1.30294243851408,2028.217,3057.346,2828.953,1029.262,-0.0572276,-0.004850681,0.1128817,-0.416866809129715,-0.393121629953384,0.344683736562729,-0.492290296490434,-0.211818761581115,0.30475114456651,7
1.08000183105469,-0.146370723843575,2.62537050247192,1.31933534145355,-0.268583149539609,2.85025255453512,1.30912285413647,2042.089,3071.534,2845.193,988.2679,-0.05803614,-0.005042962,0.1131491,-0.432151049375534,-0.390791267156601,0.349649459123611,-0.50587040849135,-0.217661904390701,0.313157880805523,7
1.09999084472656,-0.155316799879074,2.61759734153748,1.32644093036652,-0.278830554044452,2.84584338265603,1.31546648567654,2033.853,3060.253,2834.086,1025.577,-0.05873708,-0.005179848,0.1132441,-0.447305768728256,-0.388659119606018,0.355277985334396,-0.519431110871131,-0.223496695782555,0.321552601564445,7
1.1199951171875,-0.164559155702591,2.60986375808716,1.33364117145538,-0.289357002179081,2.84131414609862,1.32198285851614,2043.962,3072.718,2859.988,980.4941,-0.05978051,-0.005316735,0.1134268,-0.462116360664368,-0.386678129434586,0.360015064477921,-0.532985466132485,-0.229328756186667,0.329943393154705,8
1.13999938964844,-0.174096450209618,2.60216474533081,1.34096014499664,-0.300154365346813,2.83666834237095,1.3286669406667,2038.34,3058.894,2837.154,1031.269,-0.06058265,-0.005387575,0.1133781,-0.476864993572235,-0.38494598865509,0.365948438644409,-0.546515580872639,-0.235150386571708,0.338319178707607,8
1.16000366210938,-0.183920174837112,2.5944972038269,1.34836840629578,-0.311222084148811,2.83190621216671,1.33551838583369,2055.24,3080.64,2875.472,956.8666,-0.06192915,-0.005483449,0.1135323,-0.491187870502472,-0.383371293544769,0.370415419340134,-0.560014026276883,-0.240958390526247,0.34667535943296,8
1.17999267578125,-0.194030851125717,2.58685517311096,1.35590088367462,-0.322550701230474,2.8270318247214,1.34253133946411,2037.828,3054.333,2843.288,1043.322,-0.06281545,-0.005483449,0.1133709,-0.505533158779144,-0.382102221250534,0.376624673604965,-0.573463232144024,-0.246745208083563,0.355001058539242,8
1.19999694824219,-0.204418152570724,2.57923555374146,1.36351501941681,-0.334156660511822,2.8220381046756,1.34971598112778,2063.808,3085.627,2900.171,930.8638,-0.06440589,-0.005533516,0.1135403,-0.519366085529327,-0.380977720022202,0.380705893039703,-0.58687652428584,-0.252516572968185,0.36330452533874,8
1.22000122070313,-0.215085551142693,2.57163119316101,1.37126624584198,-0.346030421585499,2.81692915700008,1.35706640485806,2041.022,3048.647,2844.227,1059.932,-0.06523413,-0.005460545,0.1132615,-0.533369660377502,-0.380221754312515,0.387563675642014,-0.600236516861372,-0.258265004538453,0.371574997167698,8
1.239990234375,-0.226019591093063,2.56403994560242,1.37908852100372,-0.358161486344149,2.81170949873715,1.36457611182642,2080.834,3097.736,2926.144,888.3855,-0.06714042,-0.005488775,0.1135259,-0.54670250415802,-0.379566311836243,0.391113638877869,-0.613526094901141,-0.263983138701136,0.379801879044709,8
1.25999450683594,-0.237227484583855,2.55645298957825,1.38706135749817,-0.3705671011502,2.80637170925886,1.37225577835275,2035.675,3036.577,2846.152,1091.51,-0.06780941,-0.005335377,0.1131381,-0.560395419597626,-0.379353672266006,0.39864307641983,-0.626758665639206,-0.269676744214496,0.387993470686331,8
1.27999877929688,-0.248692408204079,2.54886960983276,1.3950936794281,-0.383236695417198,2.80092033679326,1.3800988607405,2100.487,3110.065,2955.651,840.3406,-0.06996816,-0.005343366,0.113525,-0.573245584964752,-0.379167586565018,0.401616483926773,-0.639917282339435,-0.275338529371412,0.396139281255613,8
1.30000305175781,-0.260426342487335,2.54127931594849,1.40329706668854,-0.396168722856641,2.79535604666509,1.38810440176341,2036.094,3026.262,2837.19,1127.797,-0.07040226,-0.005115932,0.1130096,-0.586695909500122,-0.379513770341873,0.410172164440155,-0.652995275331231,-0.280965624398954,0.404235181908735,8
1.31999206542969,-0.27240663766861,2.53368401527405,1.41153788566589,-0.409351342777246,2.78968393359302,1.39626507146953,2120.548,3126.593,2996.322,775.9297,-0.0729344,-0.005123922,0.11361,-0.599016010761261,-0.379764169454575,0.412041425704956,-0.665976209205206,-0.286550957599616,0.412270998344359,8
1.33999633789063,-0.284653037786484,2.52607035636902,1.41997909545898,-0.422802873722428,2.78389611561957,1.40459220990988,2025.853,3004.905,2821.919,1193.882,-0.07288966,-0.004797418,0.1128918,-0.612320482730865,-0.380681931972504,0.42205822467804,-0.678873453515705,-0.29210028151913,0.420255006953505,8
1.36000061035156,-0.297134637832642,2.5184440612793,1.42842841148376,-0.436511415158101,2.77799771321212,1.41307845008695,2152.872,3153.104,3045.42,680.3212,-0.07589157,-0.004831507,0.1137911,-0.624079525470734,-0.381311506032944,0.422467947006226,-0.691670720740693,-0.297606588091785,0.42817712498415,9
1.3800048828125,-0.309881836175919,2.51078772544861,1.43712091445923,-0.450474904562636,2.77198961381608,1.4217225152016,2012.859,2978.83,2786.684,1288.936,-0.07519968,-0.004396346,0.1127859,-0.637357294559479,-0.382813930511475,0.434624195098877,-0.704361775018035,-0.303067194200314,0.436033492140578,9
1.39999389648438,-0.322850555181503,2.50311303138733,1.44577217102051,-0.464680216184654,2.76587746507559,1.43051627978847,2189.765,3189.973,3116.02,546.0862,-0.07894781,-0.004490622,0.1141418,-0.648438990116119,-0.383734077215195,0.43256551027298,-0.716930938559026,-0.308475354130225,0.443814403124744,9
1.41999816894531,-0.336088001728058,2.49539589881897,1.45472896099091,-0.47914673136562,2.75965292774086,1.43947174182117,1981.081,2933.764,2732.484,1443.344,-0.07719173,-0.003897802,0.1126782,-0.661872148513794,-0.385851711034775,0.447841972112656,-0.729391385793766,-0.313836736470737,0.451528013536465,9
1.44000244140625,-0.349530935287476,2.48765707015991,1.46357452869415,-0.493861275572861,2.75332167044526,1.4485807456364,2246.932,3247.207,3209.968,345.2685,-0.08199873,-0.004101801,0.1146876,-0.672146260738373,-0.386941224336624,0.442281246185303,-0.741727567798258,-0.319144650954242,0.459164697851088,9
1.45999145507813,-0.363250643014908,2.47986245155334,1.47281849384308,-0.508809800712713,2.74688973769103,1.45783459479497,1934.872,2872.587,2637.884,1671.693,-0.07874382,-0.003303918,0.1125452,-0.685984790325165,-0.389731645584106,0.462199360132217,-0.753924423002454,-0.324392617007921,0.466715132239272,9
1.47999572753906,-0.377154111862183,2.47204613685608,1.48183858394623,-0.524012471663969,2.74034845309416,1.46724577231745,2318.35,3329.763,3350.89,52.59037,-0.08520038,-0.003682619,0.1155501,-0.695173978805542,-0.390811860561371,0.451005578041077,-0.765994882555672,-0.329586198544069,0.474187321698441,9
1.5,-0.391350954771042,2.4641580581665,1.49140071868896,-0.539455198877605,2.73370387899399,1.4768055561018,1853.958,2776.207,2484.568,2034.212,-0.07956406,-0.002563559,0.1123262,-0.709841966629028,-0.394400715827942,0.47810560464859,-0.777924000354858,-0.334718964672088,0.481572013878822,9
1.52000427246094,-0.405718624591827,2.45624160766602,1.50071620941162,-0.555135099954955,2.72695725560613,1.48651216180595,2118.724,3699.721,3235.918,0,-0.08599614,-0.001929727,0.1174198,-0.718383312225342,-0.395818501710892,0.465774118900299,-0.789706299681991,-0.339788558913217,0.48886581843107,9
1.53999328613281,-0.420375883579254,2.44825100898743,1.51054906845093,-0.571036956668503,2.72011513090874,1.49635616862212,1935.874,2575.446,2415.553,2229.751,-0.07954223,0.0001616494,0.1137726,-0.732862949371338,-0.399526655673981,0.491640597581863,-0.801327600455846,-0.344788879974649,0.496059957209413,9
1.55999755859375,-0.435197055339813,2.44023513793945,1.52010750770569,-0.587181951496087,2.71316839067337,1.50635068951315,2181.076,3658.854,3228.042,0,-0.08581398,0.001635768,0.1179169,-0.74105840921402,-0.400793612003326,0.477922946214676,-0.812800388649436,-0.349725300221754,0.503162159625937,9
1.58000183105469,-0.4502994120121,2.43215155601501,1.53016209602356,-0.60355483331529,2.70612359703193,1.51648628330776,2040.084,2523.498,2458.8,2149.896,-0.07998697,0.004239295,0.1129757,-0.755117654800415,-0.4041847884655,0.50272798538208,-0.824110582941666,-0.354591760855452,0.510163708672098,9
1.59999084472656,-0.465559959411621,2.42404294013977,1.53997671604156,-0.620139554045575,2.69898765502515,1.52675301547962,2166.225,3715.221,3203.378,0,-0.08677058,0.006304027,0.1161867,-0.763029336929321,-0.405426293611526,0.490733414888382,-0.835244706287931,-0.359382463079953,0.517056261415284,9
1.6199951171875,-0.481077879667282,2.41587114334106,1.55019974708557,-0.636958033083316,2.69175113334911,1.53716445517924,2113.88,2511.218,2618.342,1930.55,-0.08317212,0.009077422,0.1110936,-0.775893807411194,-0.408584147691727,0.511148810386658,-0.846214826007804,-0.364102599125749,0.523847288101157,9
1.63999938964844,-0.496748387813568,2.40767073631287,1.56021428108215,-0.653994195024907,2.68442094880091,1.54771065096602,2242.149,3556.588,3303.585,0,-0.09050966,0.01102668,0.112975,-0.783528685569763,-0.410026252269745,0.500729858875275,-0.857007552155828,-0.368746407673381,0.530528499715628,9
1.66000366210938,-0.51265811920166,2.39940047264099,1.57060301303864,-0.671244443874359,2.67699864863716,1.55838937674714,2125.224,2585.296,2791.621,1678.293,-0.08850589,0.01339542,0.108274,-0.79548579454422,-0.413507699966431,0.519434452056885,-0.867618167158098,-0.373311858882592,0.53709697585572,9
1.67999267578125,-0.528716087341309,2.39108824729919,1.58082807064056,-0.688691692550512,2.66949158495151,1.56919005480539,2241.919,3490.184,3383.071,0,-0.09572839,0.01488954,0.1102306,-0.802901387214661,-0.41561296582222,0.511254608631134,-0.878034183119987,-0.377793579561193,0.543544985919778,9
1.69999694824219,-0.545001447200775,2.38269186019897,1.59141135215759,-0.706358800111611,2.66188992212981,1.58012683598675,2106.476,2636.476,2897.956,1542.376,-0.09388974,0.01670713,0.1067212,-0.814264476299286,-0.41982427239418,0.529161810874939,-0.888267004546665,-0.382196476749158,0.549879589839776,9
1.72000122070313,-0.561432480812073,2.37423944473267,1.60185253620148,-0.724228658537036,2.6542010212754,1.5911891296115,2288.251,3396.151,3439.036,0,-0.1001945,0.01750699,0.1091788,-0.821551620960236,-0.422616273164749,0.522061705589294,-0.898304216251578,-0.386515208538549,0.556093102023817,9
1.739990234375,-0.578089714050293,2.36568760871887,1.61267983913422,-0.74228345468553,2.64643254688532,1.60236590849663,2081.304,2686.677,2887.202,1535.334,-0.09715904,0.01872304,0.1065988,-0.832861721515656,-0.427586644887924,0.541366934776306,-0.908134108040217,-0.390744736359816,0.562178273303667,9
1.75999450683594,-0.594888806343079,2.3570716381073,1.62336266040802,-0.760546715064628,2.63857437616062,1.61367173667103,2293.236,3409.663,3423.877,0,-0.1024401,0.0189691,0.11004,-0.839952051639557,-0.430798530578613,0.534140527248383,-0.917767514700581,-0.394889722119545,0.568141810929231,9
1.77999877929688,-0.61191725730896,2.34834790229797,1.63446378707886,-0.779000609654483,2.63063418086074,1.62509557650306,2060.474,2692.179,2795.359,1650.316,-0.09778009,0.01984749,0.1079398,-0.851421773433685,-0.436187505722046,0.555057406425476,-0.927192788821983,-0.398945154262308,0.57397650459845,9
1.80000305175781,-0.629082381725311,2.33956027030945,1.64539790153503,-0.797640935141499,2.62261376955408,1.63663482594136,2297.881,3461.298,3369.988,0,-0.1024433,0.01983948,0.1121002,-0.858257293701172,-0.439385026693344,0.546706259250641,-0.936405971974637,-0.402909329586356,0.579679903854719,9
1.81999206542969,-0.646479725837708,2.33066630363464,1.65676665306091,-0.816448984455027,2.61452119137054,1.64827790441807,2049.094,2670.955,2701.336,1785.999,-0.09667008,0.02066923,0.1099104,-0.869868993759155,-0.444699883460999,0.568440735340118,-0.945396434568188,-0.406777674475912,0.585245428475252,9
1.83999633789063,-0.664008498191833,2.32171559333801,1.6679402589798,-0.835449117627072,2.60634596486888,1.66003989195343,2286.277,3517.767,3329.838,0,-0.1011836,0.02070361,0.1143209,-0.87643837928772,-0.447537124156952,0.558680415153503,-0.954174163352093,-0.410554485950274,0.590679260733698,9
1.86000061035156,-0.6817706823349,2.31266689300537,1.67955470085144,-0.854622615239374,2.59809614449182,1.6719092003358,2055.604,2641.241,2645.753,1874.621,-0.09497259,0.02166982,0.1116994,-0.88810783624649,-0.452434509992599,0.58072304725647,-0.962728579444532,-0.414235212212131,0.595974851798267,9
1.87998962402344,-0.699659883975983,2.30357098579407,1.6909590959549,-0.873950157556149,2.58978004298193,1.6838738697284,2266.441,3571.627,3302.269,0,-0.09965868,0.02192034,0.1160448,-0.894460260868073,-0.45479941368103,0.570218682289124,-0.971049893464309,-0.417815641164241,0.601126141575667,9
1.89999389648438,-0.717778623104095,2.29438900947571,1.70278525352478,-0.893456683142228,2.58138692997148,1.69594933829086,2068.961,2610.05,2655.622,1888.771,-0.0936687,0.02307837,0.1130481,-0.905940175056458,-0.459104686975479,0.591308414936066,-0.979147395688901,-0.421299770153459,0.606138881190213,9
1.91999816894531,-0.73602169752121,2.28516912460327,1.71439981460571,-0.913122862707269,2.57292512231409,1.70812364027167,2272.442,3561.879,3313.387,0,-0.09848157,0.02347857,0.1169344,-0.912150144577026,-0.460996925830841,0.580726265907288,-0.987011339258123,-0.424683405378145,0.611007036871143,9
1.94000244140625,-0.75448876619339,2.27587366104126,1.72642171382904,-0.932943991899774,2.5643966441608,1.72039386345315,2089.177,2610.605,2693.158,1834.209,-0.09294698,0.02468038,0.1136788,-0.92335456609726,-0.46476337313652,0.601092517375946,-0.994638524886308,-0.427965170275055,0.615728628108227,9
1.95999145507813,-0.773076355457306,2.26654815673828,1.738236784935,-0.952900013794853,2.55581012544606,1.73274759164336,2267.009,3548.985,3335.452,0,-0.09782536,0.02509925,0.117266,-0.929386854171753,-0.466292470693588,0.590751707553864,-1.00202031904361,-0.431141350077486,0.620298310335216,9
1.97999572753906,-0.791881620883942,2.25715517997742,1.75044560432434,-0.973016570682103,2.54715453300902,1.74520069864106,2093.787,2615.19,2735.539,1781.663,-0.09252248,0.02624209,0.1140007,-0.940253376960754,-0.469650238752365,0.610438346862793,-1.00916501115878,-0.434215511495054,0.624721215103391,9
2,-0.810803353786469,2.24773716926575,1.76245534420013,-0.993273599084619,2.53843849960327,1.7577407641983,2275.938,3522.847,3352.258,0,-0.0972139,0.02654327,0.1174007,-0.946096003055573,-0.470898866653442,0.600484907627106,-1.01606400046349,-0.437183953857422,0.628992018127441,9
2.02000427246094,-0.829936265945435,2.23825836181641,1.77485394477844,-1.01366615605493,2.52966415204104,1.77036472839513,2096.148,2631.755,2750.298,1743.522,-0.09190356,0.0275251,0.11423,-0.956642806529999,-0.473942756652832,0.619931876659393,-1.02271452148052,-0.440045487257004,0.633109007445237,9
2.03999328613281,-0.849180161952972,2.228759765625,1.7870500087738,-1.03417354141348,2.52084039703127,1.78305977683431,2277.021,3507.43,3361.071,0,-0.09639844,0.02763589,0.1176401,-0.962191820144653,-0.474918037652969,0.609804272651672,-1.02910913225408,-0.442796909628122,0.637067576131623,9
2.05999755859375,-0.868629455566406,2.21920657157898,1.79963660240173,-1.05482201812353,2.5119559343546,1.79584216754118,2081.888,2638.799,2741.371,1753.145,-0.0907323,0.0284645,0.1145315,-0.972466826438904,-0.477672696113586,0.629331767559052,-1.03525504859546,-0.445441325732794,0.640872191117535,9
2.08000183105469,-0.888183176517487,2.20963954925537,1.8120151758194,-1.07559088172821,2.50301967256038,1.80869908347065,2274.243,3514.664,3348.018,0,-0.09496566,0.02842185,0.1180519,-0.977686583995819,-0.478343158960342,0.6189284324646,-1.04114485287423,-0.447975543971863,0.644518260536375,9
2.09999084472656,-0.907936751842499,2.20002484321594,1.8247857093811,-1.09645901288412,2.49404069871208,1.82161745074311,2075.021,2640.452,2709.276,1781.678,-0.08896023,0.02914247,0.1149357,-0.987677752971649,-0.480748981237411,0.638527154922485,-1.04677201701582,-0.450396755497224,0.648001743199023,9
2.1199951171875,-0.92778617143631,2.19040441513062,1.83732891082764,-1.11745308225396,2.48500753716864,1.83461377976925,2263.435,3522.384,3339.804,0,-0.09308973,0.02900404,0.1185371,-0.992469549179077,-0.481021583080292,0.627159714698792,-1.0521429102862,-0.45270770082608,0.651326581984514,9
2.13999938964844,-0.947830557823181,2.18074369430542,1.85027253627777,-1.138551967509,2.47592927627801,1.8476749948214,2063.948,2631.095,2667.877,1834.845,-0.08664967,0.02969778,0.1152131,-1.00222027301788,-0.483022004365921,0.647179245948792,-1.05725102347782,-0.454905579228273,0.654488747383304,9
2.16000366210938,-0.967962145805359,2.17108631134033,1.86297523975372,-1.15975039167652,2.46680818657414,1.86079782920208,2240.282,3563.493,3309.32,0,-0.09076425,0.02959484,0.1189256,-1.00657594203949,-0.482876658439636,0.635137438774109,-1.0620943502576,-0.456989527434725,0.657486997379635,8
2.17999267578125,-0.988280355930328,2.16139888763428,1.87606751918793,-1.18102676265167,2.45765355853653,1.8739689163698,2060.628,2608.547,2643.9,1872.604,-0.08420969,0.03034735,0.1154033,-1.0159205198288,-0.484372109174728,0.654611468315125,-1.06666760390386,-0.458957270716794,0.660318059240953,8
2.19999694824219,-1.00867688655853,2.15172386169434,1.88890171051025,-1.20240821395574,2.44845371736898,1.88720505326679,2237.161,3557.896,3305.51,0,-0.08835516,0.03027876,0.1188982,-1.01982259750366,-0.483748406171799,0.641711413860321,-1.07097597819164,-0.460811043810786,0.662985148161421,7
2.22000122070313,-1.02925205230713,2.14202928543091,1.90212368965149,-1.22387315175433,2.43921795429519,1.90049287228091,2060.944,2600.481,2628.665,1883.912,-0.0817665,0.03105218,0.1150523,-1.02875852584839,-0.484733760356903,0.661097586154938,-1.07501419914593,-0.462548577472581,0.665484999299265,7
2.239990234375,-1.04989588260651,2.13235521316528,1.9150812625885,-1.24539969505118,2.42995568409656,1.91381882803312,2217.135,3582.771,3286.598,0,-0.08602703,0.03103792,0.1184449,-1.03219676017761,-0.483698129653931,0.647877812385559,-1.07877792518082,-0.464168003639063,0.667814925005999,5
2.25999450683594,-1.07070684432983,2.12267136573792,1.92840588092804,-1.26701526177039,2.4206551096063,1.92719989352455,2057.151,2585.713,2636.148,1878.821,-0.07963438,0.03183179,0.1144684,-1.04053544998169,-0.48419052362442,0.666228234767914,-1.08227143928024,-0.465671165158559,0.669977576652695,5
2.27999877929688,-1.09157693386078,2.11301612854004,1.94145929813385,-1.28869796983554,2.41132564607061,1.9406225227075,2227.854,3552.364,3291.82,0,-0.08393697,0.03176242,0.1175174,-1.04351186752319,-0.482767343521118,0.652673542499542,-1.08549040888332,-0.467056197851165,0.67197027217779,2
2.30000305175781,-1.11260271072388,2.10335898399353,1.95487320423126,-1.31044231452835,2.40196966201596,1.95408330789913,2053.078,2595.315,2638.698,1854.921,-0.07771104,0.03245982,0.1133998,-1.05128824710846,-0.482859700918198,0.670692622661591,-1.08843358680109,-0.468322565086307,0.673792239511894,1
2.31999206542969,-1.13367760181427,2.09373617172241,1.96800911426544,-1.33222611841886,2.3925966997709,1.96756852021384,2210.618,3553.698,3290.621,0,-0.08208129,0.03230268,0.1163972,-1.05374264717102,-0.481140226125717,0.656796455383301,-1.09109790637238,-0.469468947365361,0.675441580245663,0
2.33999633789063,-1.15489649772644,2.0841178894043,1.98149693012238,-1.35407709248145,2.38319483607731,1.98109531406483,2036.616,2592.162,2637.148,1858.034,-0.07581381,0.032915,0.1122792,-1.06093645095825,-0.480919688940048,0.674393236637115,-1.09348640563071,-0.470496651869278,0.67692017506657,0
2.36000061035156,-1.17615401744843,2.07453918457031,1.99469995498657,-1.37597305876702,2.37377361348711,1.99464996024512,2209.096,3542.679,3284.942,0,-0.08009457,0.03264408,0.1152244,-1.06287837028503,-0.478936970233917,0.660153687000275,-1.09559602313537,-0.471404361345641,0.678226128796969,0
2.37998962402344,-1.19754457473755,2.06497049331665,2.00825309753418,-1.39789168475144,2.36434264106153,2.00821863385843,2026.058,2595.035,2617.095,1867.412,-0.07369553,0.03314956,0.111072,-1.06952726840973,-0.478434294462204,0.677658796310425,-1.09742465646102,-0.47219117117957,0.679358139935436,0
2.39999389648438,-1.21896231174469,2.05544662475586,2.0215060710907,-1.41986083522252,2.35488992936084,2.02181858453579,2193.726,3544.516,3278.313,0,-0.07793474,0.03278191,0.1140655,-1.07089364528656,-0.476183593273163,0.662643253803253,-1.09897439291323,-0.472857979480329,0.680317500623536,0
2.41999816894531,-1.24050331115723,2.04593849182129,2.03511381149292,-1.44185817738692,2.34542508756209,2.03543598721428,2010.998,2587.572,2582.56,1906.294,-0.07121825,0.03323172,0.109787,-1.07704710960388,-0.475405484437943,0.680388510227203,-1.10024313330221,-0.473403883025206,0.681102911362803,0
2.44000244140625,-1.26206016540527,2.03648090362549,2.04840874671936,-1.46387808506052,2.33595053645515,2.04906735901791,2175.386,3569.556,3250.674,0,-0.07545268,0.03284772,0.1128693,-1.07784056663513,-0.472887068986893,0.664744019508362,-1.10123038958312,-0.473828671822132,0.681714070030222,0
2.45999145507813,-1.28372824192047,2.02704524993896,2.0620493888855,-1.48589810917879,2.32647593524532,2.06269880290633,1999.632,2570.266,2556.05,1941.429,-0.06860836,0.03330383,0.1084575,-1.0834025144577,-0.471781730651855,0.682036936283112,-1.10193535162022,-0.474131997292339,0.68215047511319,0
2.47999572753906,-1.30540037155151,2.01766610145569,2.07536053657532,-1.50794623031618,2.31698924467309,2.07634764018804,2170.272,3563.153,3241.795,0,-0.07286835,0.03290827,0.1113944,-1.0836124420166,-0.468954294919968,0.665552914142609,-1.10235882472314,-0.474314205938057,0.682412625136718,0
2.5,-1.32717251777649,2.0083155632019,2.08901691436768,-1.52999999932945,2.30750012397766,2.08999997377396,1992.27,2563.144,2532.152,1961.032,-0.065942,0.03335053,0.1067335,-1.08859968185425,-0.467515230178833,0.682823538780212,-1.10250000050292,-0.474374949932098,0.682500019669533,0
2.52000427246094,-1.34893703460693,1.99902725219727,2.10233497619629,-1.55205376834272,2.29801100328223,2.10365230735988,2150.872,3585.124,3218.338,0,-0.07032876,0.03297553,0.1096263,-1.08822596073151,-0.464421808719635,0.665905594825745,-1.10235882472314,-0.474314205938057,0.682412625136718,0
2.53999328613281,-1.37078714370728,1.98977398872375,2.1159827709198,-1.57408507527774,2.28853154739156,2.11729073584934,1982.591,2549.291,2524.989,1970.304,-0.06354249,0.03342188,0.1048524,-1.0925145149231,-0.462668299674988,0.682391881942749,-1.10193578218388,-0.474132182551855,0.682150741652607,0
2.55999755859375,-1.39261817932129,1.98058748245239,2.12927985191345,-1.59612191359838,2.27904971150017,2.13093258853001,2150.011,3562.809,3221.062,0,-0.06801074,0.03300883,0.1075188,-1.09155356884003,-0.459324687719345,0.664855897426605,-1.10123038958312,-0.473828671822132,0.681714070030222,0
2.58000183105469,-1.41452217102051,1.97144103050232,2.14290499687195,-1.61814182127198,2.26957516039323,2.14456396033363,1972.319,2550.03,2516.336,1968.715,-0.06124898,0.03339283,0.1025882,-1.09520077705383,-0.457320064306259,0.681257903575897,-1.10024313330221,-0.473403883025206,0.681102911362804,0
2.59999084472656,-1.43639552593231,1.96236491203308,2.15617537498474,-1.64012239440973,2.26011753383818,2.15817098218581,2132.364,3575.934,3204.233,0,-0.06579446,0.0329414,0.105251,-1.09366035461426,-0.453802734613419,0.663514614105225,-1.09897546783438,-0.47285844198887,0.680318166050934,0
2.6199951171875,-1.45832705497742,1.95333325862885,2.16975831985474,-1.66209156852628,2.2506648119635,2.17177094750084,1956.057,2541.523,2515.499,1971.795,-0.05909714,0.03327549,0.1003439,-1.09658455848694,-0.451588094234467,0.679149448871613,-1.09742594550583,-0.472191725819537,0.679358937915576,0
2.63999938964844,-1.48021674156189,1.94437503814697,2.18297910690308,-1.68402693989188,2.24122663446822,2.18534998730279,2142.905,3545.388,3203.259,0,-0.06361759,0.03270645,0.1028183,-1.09448552131653,-0.447904020547867,0.661038756370544,-1.09559602313537,-0.471404361345641,0.67822612879697,0
2.66000366210938,-1.50215220451355,1.9354647397995,2.19651222229004,-1.70592290617745,2.23180541187802,2.19890463348308,1941.92,2551.441,2500.83,1969.989,-0.05689577,0.032913,0.09786087,-1.09676587581635,-0.445519983768463,0.676650404930115,-1.09348640563071,-0.470496651869278,0.67692017506657,0
2.67999267578125,-1.52403366565704,1.92663049697876,2.2096734046936,-1.72775723139253,2.2224107117184,2.21242112090437,2125.219,3551.344,3192.553,0,-0.06145297,0.03223815,0.1004025,-1.09407496452332,-0.441705584526062,0.658055663108826,-1.09109983431736,-0.469469776906228,0.675442773735451,0
2.69999694824219,-1.54594814777374,1.91784691810608,2.22314381599426,-1.74955768413056,2.21303058593937,2.22591663964878,1918.573,2545.552,2481.106,1997.41,-0.05455059,0.03236922,0.09545641,-1.09572410583496,-0.439177840948105,0.673524975776672,-1.08843358680109,-0.468322565086308,0.673792239511893,0
2.72000122070313,-1.56779766082764,1.90914249420166,2.23623275756836,-1.77130202882336,2.20367460188472,2.23937742484041,2120.682,3548.615,3177.498,0,-0.0590524,0.03160979,0.09801571,-1.09247291088104,-0.435223430395126,0.654442727565765,-1.08549040888332,-0.467056197851165,0.671970272177789,0
2.739990234375,-1.58966791629791,1.90049195289612,2.24963140487671,-1.79296822271738,2.1943522439355,2.25278983096475,1904.53,2542.681,2450.987,2023.381,-0.0519881,0.03167325,0.09300797,-1.09352147579193,-0.4325290620327,0.669931471347809,-1.08227399942825,-0.465672266718727,0.669979161506271,0
2.75999450683594,-1.61146187782288,1.89192366600037,2.26263236999512,-1.81458384274179,2.18505164650952,2.26617092945464,2104.687,3553.493,3165.658,0,-0.05651174,0.03086642,0.09560841,-1.08968675136566,-0.428411990404129,0.650045096874237,-1.07878069424208,-0.464169195088763,0.667816639186824,0
2.77999877929688,-1.63326489925385,1.88341307640076,2.2759473323822,-1.83612684690458,2.17578229366013,2.27950707526701,1888.893,2531.846,2417.016,2063.426,-0.04920936,0.03090868,0.09045378,-1.09016525745392,-0.425534754991531,0.665745615959167,-1.07501419914593,-0.462548577472581,0.665484999299265,0
2.80000305175781,-1.65498018264771,1.87498807907104,2.28885388374329,-1.85759178470316,2.16654653058634,2.29279489428112,2087.573,3574.663,3138.801,0,-0.05379266,0.03011986,0.09309931,-1.08577227592468,-0.421250849962234,0.645327091217041,-1.07097597819164,-0.460811043810786,0.662985148161422,0
2.81999206542969,-1.67669236660004,1.86662495136261,2.30206489562988,-1.87895695992541,2.1573536925621,2.30602095550813,1876.635,2515.617,2396.866,2090.089,-0.04646897,0.03018277,0.08783035,-1.085604429245,-0.418158203363419,0.660550534725189,-1.06667099276523,-0.458958728849171,0.660320157107579,0
2.83999633789063,-1.69830548763275,1.85835123062134,2.31485438346863,-1.90024960698239,2.14819206138118,2.31920211834584,2084.544,3561.736,3132.875,0,-0.05111405,0.02939172,0.09030747,-1.08066201210022,-0.413691937923431,0.63947582244873,-1.06209435025759,-0.456989527434725,0.657486997379635,0
2.86000061035156,-1.71990275382996,1.85014319419861,2.32794785499573,-1.9214480311499,2.13907097167731,2.33232495272651,1866.855,2512.029,2380.291,2099.514,-0.04378397,0.0294304,0.08485817,-1.07986652851105,-0.410397350788116,0.65467768907547,-1.05725102347782,-0.454905579228273,0.654488747383304,0
2.87998962402344,-1.74139046669006,1.8420273065567,2.34061479568481,-1.94253086194772,2.12999961857111,2.34537622930486,2068.682,3574.992,3113.289,0,-0.04855049,0.02864037,0.08730157,-1.07438206672668,-0.40579217672348,0.633350312709808,-1.05214690704168,-0.452709420518306,0.651329056166547,0
2.89999389648438,-1.7628481388092,1.83398079872131,2.35357165336609,-1.96352501326936,2.1209664217661,2.35837260906308,1850.331,2503.061,2378.057,2104.337,-0.04133865,0.02866327,0.08183891,-1.07288420200348,-0.402328699827194,0.647838950157166,-1.04677621342161,-0.450398561093403,0.648004340974112,0
2.91999816894531,-1.78418588638306,1.82602834701538,2.36609578132629,-1.98440911693069,2.11198057539494,2.37130086407726,2077,3546.595,3111.878,0,-0.04614513,0.0277979,0.08407907,-1.06688368320465,-0.397605657577515,0.626201927661896,-1.04114485287423,-0.447975543971863,0.644518260536375,0
2.94000244140625,-1.8054803609848,1.81814801692963,2.37890815734863,-2.00517798053537,2.10304431360073,2.38415778000673,1835.684,2512.314,2368.515,2097.994,-0.03899826,0.02772052,0.07857917,-1.06473612785339,-0.3940210044384,0.640617728233337,-1.03525504859546,-0.445441325732794,0.640872191117535,0
2.95999145507813,-1.82664465904236,1.81036365032196,2.39128065109253,-2.02581075424974,2.0941666074844,2.39693044981124,2061.955,3546.417,3104.473,0,-0.04387398,0.02676729,0.0808573,-1.05820560455322,-0.389225661754608,0.618622124195099,-1.02911391720548,-0.442798968459032,0.637070538244476,0
2.97999572753906,-1.84775328636169,1.80265235900879,2.40393900871277,-2.04633384260397,2.08533609591429,2.40963521915279,1811.441,2509.522,2354.246,2117.321,-0.03661154,0.02661516,0.07540961,-1.05543661117554,-0.385560899972916,0.632923543453217,-1.02271452148052,-0.440045487257004,0.633109007445237,0
3,-1.86872160434723,1.79503846168518,2.41615033149719,-2.06672639957428,2.07656174835205,2.42225918334961,2058.941,3538.641,3092.609,0,-0.04143612,0.02557485,0.07771432,-1.04841506481171,-0.380693316459656,0.610567808151245,-1.01606400046349,-0.437183953857422,0.628992018127441,0
3.02000427246094,-1.88962304592133,1.78749990463257,2.42864966392517,-2.0869834279768,2.06784571494631,2.43479924890685,1795.285,2509.407,2327.083,2139.233,-0.03401709,0.02534473,0.07226581,-1.04507088661194,-0.376930594444275,0.624965012073517,-1.00916501115878,-0.434215511495054,0.624721215103391,0
3.03999328613281,-1.91037404537201,1.78006052970886,2.44068932533264,-2.10708469520508,2.05919670122237,2.4472428908773,2048.572,3539.371,3078.945,0,-0.03885605,0.02423959,0.07462531,-1.03755915164948,-0.371969401836395,0.601982355117798,-1.00202586176059,-0.431143734953757,0.620301741541063,0
3.05999755859375,-1.9310474395752,1.77269887924194,2.45301842689514,-2.12705600675913,2.05060360379452,2.45960608409476,1773.67,2501.572,2299.397,2175.158,-0.03121385,0.02397155,0.06911696,-1.03366315364838,-0.368082761764526,0.61646044254303,-0.994638524886308,-0.427965170275055,0.615728628108227,0
3.08000183105469,-1.95156097412109,1.7654390335083,2.46487903594971,-2.14687713595163,2.04207512564123,2.47187630727625,2040.293,3546.032,3057.701,0,-0.03604748,0.02284403,0.07149188,-1.02569139003754,-0.363003611564636,0.593031764030457,-0.987011339258122,-0.424683405378145,0.611007036871143,0
3.09999084472656,-1.97198581695557,1.75825989246368,2.47702741622925,-2.16652837486666,2.03361974652815,2.48404136028297,1761.985,2494.991,2271.297,2199.855,-0.02834349,0.02255534,0.06590097,-1.02123153209686,-0.35895761847496,0.607421875,-0.979153483542501,-0.421302389586788,0.606142649861596,0
3.1199951171875,-1.99224185943604,1.75118470191956,2.48869276046753,-2.18603502400946,2.02522658035469,2.49611690533293,2029.76,3542.681,3048.568,0,-0.03327193,0.02141669,0.06822866,-1.01279306411743,-0.353748738765717,0.583263993263245,-0.971056158224178,-0.417818336715394,0.601130019760458,0
3.13999938964844,-2.0123975276947,1.74419379234314,2.50064873695374,-2.20537738341953,2.01690410346351,2.50809074721212,1746.69,2487.526,2246.778,2226.502,-0.02547686,0.02111727,0.06249704,-1.00778579711914,-0.349550187587738,0.597799897193909,-0.962728579444533,-0.414235212212131,0.595974851798267,0
3.16000366210938,-2.03237581253052,1.73730909824371,2.51211476325989,-2.22455088103183,2.00865428308644,2.51996005559448,2014.12,3557.193,3027.044,0,-0.03051077,0.02000262,0.06483877,-0.998902380466461,-0.344229459762573,0.573298215866089,-0.954174163352092,-0.410554485950274,0.590679260733698,0
3.17999267578125,-2.05224180221558,1.73051130771637,2.52386236190796,-2.24353658854737,2.00048526354177,2.53171311296128,1732.319,2476.788,2234.317,2241.777,-0.02278174,0.01971608,0.05906807,-0.993305563926697,-0.339888036251068,0.587381362915039,-0.945403214201559,-0.406780591562751,0.585249625391267,0
3.19999694824219,-2.07192134857178,1.72382199764252,2.53510999679565,-2.2623590635174,1.99238647840124,2.54336512160655,2014.254,3536.681,3025.508,0,-0.02788117,0.01858466,0.0612635,-0.983995974063873,-0.334469586610794,0.562382161617279,-0.936405971974636,-0.402909329586355,0.579679903854719,0
3.22000122070313,-2.09147834777832,1.71722149848938,2.5466411113739,-2.28099938900442,1.98436606709459,2.55490437104486,1718.648,2478.336,2220.429,2247.236,-0.02014575,0.01825479,0.0554073,-0.97784036397934,-0.330014079809189,0.576561033725739,-0.927192788821982,-0.398945154262308,0.573976504598449,0
3.239990234375,-2.11084032058716,1.71073126792908,2.55766868591309,-2.2994392795179,1.97643189735754,2.5663195416865,2001.287,3544.074,3008.807,0,-0.02532879,0.01710186,0.05762308,-0.968112528324127,-0.324528574943542,0.551378309726715,-0.917774783907129,-0.394892849856044,0.568146310914365,0
3.25999450683594,-2.13006830215454,1.70433115959167,2.56897163391113,-2.31770268688992,1.96857366338589,2.57762546085652,1698.805,2473.59,2211.254,2258.571,-0.01762374,0.01674462,0.05181596,-0.961381673812866,-0.319984793663025,0.565150380134583,-0.90814153446928,-0.390747931744771,0.562182870617026,0
3.27999877929688,-2.14909338951111,1.69804239273071,2.57976412773132,-2.33577134012187,1.96079922667992,2.58881081793642,2008.007,3519.986,3004.32,0,-0.02282702,0.01552252,0.05392186,-0.951266646385193,-0.314442276954651,0.539628028869629,-0.898304216251578,-0.386515208538549,0.556093102023818,0
3.30000305175781,-2.16797375679016,1.69184589385986,2.59083461761475,-2.35364119854729,1.95311032582551,2.59987311156116,1681.834,2480.729,2193.32,2265.594,-0.01509746,0.01508375,0.04810401,-0.944004952907562,-0.309824019670486,0.55352520942688,-0.888267004546666,-0.382196476749158,0.549879589839776,0
3.31999206542969,-2.18664383888245,1.68576109409332,2.6013867855072,-2.37129490830989,1.94551442770222,2.61080159886703,1995.383,3521.462,2992.915,0,-0.02036679,0.0138011,0.05027351,-0.933504641056061,-0.30423840880394,0.52760648727417,-0.878042061913513,-0.37779696958594,0.54354986326829,0
3.33999633789063,-2.20515847206116,1.67976999282837,2.61221694946289,-2.38875555478454,1.93800159931817,2.62161057080077,1658.856,2476.946,2173.042,2291.445,-0.01251952,0.01331545,0.04449215,-0.925739109516144,-0.299556583166122,0.541513562202454,-0.867618167158097,-0.373311858882592,0.53709697585572,0
3.36000061035156,-2.22345662117004,1.67389178276062,2.6225209236145,-2.406005803634,1.93057929915441,2.6322892965819,1992.83,3515.313,2979.417,0,-0.01779258,0.01198563,0.04668063,-0.914892077445984,-0.293918639421463,0.515204131603241,-0.857007552155826,-0.36874640767338,0.530528499715627,0
3.37998962402344,-2.24158954620361,1.66810870170593,2.63310527801514,-2.42302905329872,1.92325467039821,2.6428274990542,1643.301,2475.438,2147.134,2313.789,-0.009852098,0.01145542,0.04088343,-0.906652271747589,-0.289151161909103,0.52921861410141,-0.846223126656603,-0.364106170663035,0.523852426598178,0
3.39999389648438,-2.25949883460999,1.66243994235992,2.64315176010132,-2.43984769972619,1.91601807669906,2.65323904237604,1983.024,3513.316,2968.883,0,-0.01518108,0.01009995,0.04309781,-0.895470917224884,-0.283449649810791,0.502319514751434,-0.835253140422974,-0.35938609205264,0.51706148254665,0
3.41999816894531,-2.27723479270935,1.65686798095703,2.65348291397095,-2.45644516534361,1.90887665092339,2.66351366424015,1627.285,2469.543,2120.114,2342.8,-0.007115434,0.00954812,0.03723618,-0.886780500411987,-0.278587341308594,0.516556859016418,-0.824110582941664,-0.354591760855451,0.510163708672097,0
3.44000244140625,-2.2947404384613,1.65141177177429,2.66326808929443,-2.47281804716281,1.90183185728196,2.67364925803476,1972.856,3521.119,2949.36,0,-0.01252804,0.008202441,0.03948108,-0.875287413597107,-0.272815734148026,0.489263534545898,-0.812800388649434,-0.349725300221754,0.503162159625937,0
3.45999145507813,-2.31206321716309,1.64605474472046,2.67333436012268,-2.48895081463434,1.8948903781363,2.68363620960993,1611.875,2461.512,2101.412,2364.313,-0.004466654,0.007659341,0.03358584,-0.866138935089111,-0.267852246761322,0.503308475017548,-0.80133641229185,-0.344792671461508,0.496065412155666,0
3.47999572753906,-2.32914972305298,1.64081418514252,2.68284511566162,-2.50486489870395,1.88804299234919,2.69348778574196,1970.962,3508.45,2942.926,0,-0.009960222,0.006315721,0.03574269,-0.854354679584503,-0.262019425630569,0.475539445877075,-0.789706299681989,-0.339788558913217,0.488865818431069,0
3.5,-2.34604525566101,1.63567471504211,2.69263887405396,-2.5205447997813,1.88129636896134,2.70319439144611,1598.377,2461.224,2084.932,2375.324,-0.001910019,0.005754279,0.02978267,-0.844757974147797,-0.256971210241318,0.489683449268341,-0.777924000354857,-0.334718964672089,0.481572013878822,0
3.51998901367188,-2.36269903182983,1.63065266609192,2.70187258720398,-2.53597583877076,1.87465682397749,2.71274693966292,1961.963,3511.091,2928.583,0,-0.007519169,0.004412631,0.03193807,-0.832690298557281,-0.251097947359085,0.461683332920074,-0.766004036374581,-0.329590137176618,0.474192988348404,0
3.53999328613281,-2.3791515827179,1.62573313713074,2.71138405799866,-2.55117869390181,1.86811546013321,2.72215823120146,1579.699,2458.368,2074.907,2386.698,0.0004697635,0.003844976,0.02601205,-0.822645425796509,-0.245994091033936,0.47557258605957,-0.753933682518821,-0.324396601119134,0.466720864320997,0
3.55999755859375,-2.3953583240509,1.6209305524826,2.72032999992371,-2.56613872308604,1.86167857751006,2.73141920191151,1965.845,3492.281,2923.538,0,-0.005208611,0.002473663,0.02808568,-0.810323178768158,-0.240104123950005,0.447298616170883,-0.741727567798258,-0.319144650954242,0.459164697851087,0
3.58000183105469,-2.41135549545288,1.61623156070709,2.72955560684204,-2.58085326729328,1.85534732021446,2.74052820572674,1563.688,2464.288,2060.772,2392.103,0.002742379,0.001858421,0.02217753,-0.799855411052704,-0.234968319535255,0.461279541254044,-0.729391385793765,-0.313836736470737,0.451528013536464,0
3.59999084472656,-2.42710113525391,1.6116498708725,2.73820948600769,-2.59530884290342,1.84912748987145,2.74947689564398,1958.095,3487.432,2916.019,0,-0.003025351,0.0004520544,0.0242877,-0.787291049957275,-0.229081943631172,0.432691007852554,-0.716940488958392,-0.308479463400265,0.4438203152769,0
3.6199951171875,-2.44263005256653,1.60717105865479,2.74714469909668,-2.60952509409627,1.84301063413925,2.75827743234631,1543.236,2463.937,2044.334,2410.659,0.004977974,-0.0001981392,0.01843653,-0.776433527469635,-0.223935142159462,0.446762472391129,-0.704361775018033,-0.303067194200314,0.436033492140578,0
3.63999938964844,-2.45790314674377,1.60281026363373,2.75550317764282,-2.6234885835008,1.83700253474321,2.76692149746096,1954.317,3481.473,2903.952,2.144634,-0.0008101336,-0.001627191,0.0205845,-0.763663291931152,-0.218053594231606,0.417922347784042,-0.691670720740692,-0.297606588091786,0.428177124984152,0
3.66000366210938,-2.47295236587524,1.59855222702026,2.76414489746094,-2.63719712493647,1.83110413233575,2.77540773763803,1529.557,2463.784,2023.34,2427.179,0.007230776,-0.002305765,0.01476792,-0.752448379993439,-0.212883293628693,0.432091861963272,-0.678873453515702,-0.29210028151913,0.420255006953505,0
3.67999267578125,-2.48774242401123,1.59441256523132,2.77221155166626,-2.65063849381582,1.82532068681534,2.78372858527554,1930.33,3489.436,2873.68,29.54949,0.001543121,-0.00367463,0.01697695,-0.73950582742691,-0.206997573375702,0.403331756591797,-0.665986083416798,-0.286555206197011,0.41227711095171,0
3.69999694824219,-2.50230121612549,1.59037709236145,2.78054976463318,-2.66383127580226,1.81964420129024,2.79189554578451,1525.199,2458.567,2012.303,2428.206,0.009493974,-0.004314853,0.01122483,-0.727950215339661,-0.201774433255196,0.416913151741028,-0.65299527533123,-0.280965624398954,0.404235181908735,0
3.72000122070313,-2.51659893989563,1.58645987510681,2.78832387924194,-2.6767633032417,1.81407991116207,2.79990108680742,1912.925,3479.302,2835.28,78.72602,0.00403689,-0.005569735,0.01328031,-0.714870989322662,-0.195869356393814,0.388705462217331,-0.639917282339434,-0.275338529371411,0.396139281255611,0
3.739990234375,-2.53065824508667,1.58264803886414,2.79634737968445,-2.68942333385363,1.80863265367006,2.80773824883709,1533.883,2466.327,2015.429,2388.548,0.01160318,-0.006158294,0.007593269,-0.70296311378479,-0.19057109951973,0.401170283555984,-0.62676873176137,-0.26968107538565,0.387999702095468,0
3.75999450683594,-2.54445314407349,1.57895469665527,2.80382490158081,-2.70182915057228,1.80329477731443,2.81541804035694,1888.813,3457.916,2797.378,147.1848,0.006393,-0.007279485,0.009371182,-0.68974632024765,-0.184665784239769,0.373880565166473,-0.613536214864365,-0.263987493038594,0.379808143784027,0
3.77999877929688,-2.55800247192383,1.57536792755127,2.81152200698853,-2.7139695770734,1.79807109095524,2.82293354268985,1544.041,2485.262,2034.815,2319.729,0.0133686,-0.007819573,0.003830777,-0.677469909191132,-0.179329842329025,0.384860187768936,-0.60023651686137,-0.258265004538452,0.371574997167698,0
3.80000305175781,-2.57128477096558,1.57189869880676,2.81870150566101,-2.72584333814708,1.79296214327972,2.83028396642013,1864.662,3427.62,2756.741,229.1504,0.008446709,-0.008818791,0.005296354,-0.664109408855438,-0.173473820090294,0.358977258205414,-0.586876524285838,-0.252516572968186,0.363304525338741,0
3.81999206542969,-2.5843141078949,1.56853532791138,2.82606315612793,-2.73744054699573,1.78797218830065,2.83746319114912,1551.337,2514.862,2067.606,2229.179,0.01469278,-0.009323727,5.408468E-05,-0.651470124721527,-0.168167471885681,0.368085503578186,-0.573473482003301,-0.246749618311662,0.355007403690404,0
3.83999633789063,-2.5970733165741,1.5652871131897,2.83294272422791,-2.74877791451009,1.78309403578861,2.84448156171422,1835.204,3384.715,2715.27,331.5584,0.01023242,-0.01021322,0.001214038,-0.637976706027985,-0.162423640489578,0.343983739614487,-0.560014026276881,-0.240958390526246,0.346675359432959,0
3.86000061035156,-2.60957384109497,1.56214308738708,2.83996534347534,-2.75984563331209,1.77833190558438,2.85133300688122,1563.594,2552.59,2103.332,2122.79,0.01576004,-0.01070431,-0.003623497,-0.625012874603271,-0.157195702195168,0.351136028766632,-0.546515580872635,-0.235150386571708,0.338319178707605,0
3.87998962402344,-2.62180209159851,1.55911123752594,2.84654641151428,-2.7706348636882,1.77368960116974,2.85801205444635,1808.759,3336.116,2667.42,444.104,0.011865,-0.01150805,-0.002761165,-0.611407995223999,-0.151594594120979,0.329056322574615,-0.532995796775444,-0.22933320117373,0.329949788314816,0
3.89999389648438,-2.63376569747925,1.55618166923523,2.85322856903076,-2.78116151864576,1.76916027562219,2.86452855531919,1574.248,2595.043,2139.067,2013.332,0.01669629,-0.01199168,-0.007137804,-0.598174870014191,-0.146465212106705,0.334102064371109,-0.519441457145543,-0.223501147495394,0.321559006401168,0
3.91999816894531,-2.6454553604126,1.55336129665375,2.85951161384583,-2.79141684911929,1.7647476934202,2.87087709341145,1784.419,3282.429,2615.82,564.3744,0.01344738,-0.01272192,-0.006593987,-0.584484696388245,-0.14101579785347,0.314153432846069,-0.505870408491346,-0.2176619043907,0.313157880805522,0
3.94000244140625,-2.65687608718872,1.5506420135498,2.86585402488708,-2.8014005971492,1.76045196555656,2.87705750903383,1589.501,2641.904,2170.31,1900.006,0.01756512,-0.01320235,-0.01051256,-0.571037292480469,-0.135981336236,0.317120909690857,-0.492290296490434,-0.211818761581115,0.30475114456651,0
