t,x_s1,x_s2,x_s3,x_s_d1,x_s_d2,x_s_d3,propellers_rpms1,propellers_rpms2,propellers_rpms3,propellers_rpms4,rollRad,pitchRad,yawRad,v_s1,v_s2,v_s3,v_s_d1,v_s_d2,v_s_d3,insideCount
0,-0.0599999986588955,2.94000005722046,1.17999994754791,-0.0599999986588955,2.94000005722046,1.17999994754791,0,0,0,0,0,0,0,0,0,0,-1.06581410364015E-15,4.44089209850063E-16,4.44089209850063E-16,0
0.019989013671875,-0.0599999986588955,2.94000005722046,1.1771354675293,-0.0600018659130177,2.93999925379318,1.18000110346716,0,0,0,0,0.0163538,-0.002474609,-2.024222E-05,3.71994488546079E-08,3.50004931704007E-08,-0.143225952982903,-0.000279680311988734,-0.000120338624884473,0.000173135436141649,5
0.040008544921875,-0.0599999986588955,2.94000005722046,1.17048275470734,-0.060014880898484,2.93999365380853,1.18000916036316,0,0,0,0,0.03270752,-0.004950816,-5.430172E-05,3.62924410524101E-08,3.44428769949445E-08,-0.332637369632721,-0.00111143977225461,-0.000478221483967637,0.00068803416424398,6
0.05999755859375,-0.0600004345178604,2.94013261795044,1.16416573524475,-0.0600498857373401,2.93997859220429,1.18003083002592,3185.764,2835.961,1500.703,2767.525,0.03127628,-0.004943892,-0.01646952,-2.17794349737233E-05,0.00662255240604281,-0.31585168838501,-0.00247936261166862,-0.00106680046642749,0.00153484356504269,6
0.079986572265625,-0.0599162317812443,2.9403874874115,1.15857708454132,-0.0601174907153006,2.93994950367094,1.18007268072775,3065.271,3067.156,2155.402,2024.204,0.01896831,-0.004310593,-0.04351392,0.00421017361804843,0.0127491094172001,-0.279430449008942,-0.00437104534358026,-0.00188073869847162,0.00270588528944111,6
0.100006103515625,-0.0596375875174999,2.94068741798401,1.15374827384949,-0.0602282404704493,2.93990185114529,1.18014124010193,2639.974,3831.74,2620.676,1134.785,-0.005857889,-0.002887399,-0.07014127,0.0139322839677334,0.0149951595813036,-0.24144259095192,-0.00677739276378709,-0.00291612276782231,0.00419552897277328,6
0.1199951171875,-0.0590849444270134,2.94089865684509,1.14957022666931,-0.0603918861403606,2.93983143898525,1.18024254456713,2092.885,4101.894,3169.04,755.7148,-0.04012372,-0.0004506069,-0.08993229,0.0276321396231651,0.0105575788766146,-0.208901941776276,-0.00967801353495435,-0.00416417885169243,0.00599115140585487,5
0.139984130859375,-0.0582315698266029,2.94085597991943,1.14596664905548,-0.0606183773949454,2.93973398612584,1.18038275344299,1509.71,4074.836,3736.011,702.2862,-0.07649398,0.002388757,-0.09949357,0.042668741196394,-0.00213387329131365,-0.180177748203278,-0.0130632593357409,-0.00562075554695178,0.00808677981816243,4
0.160003662109375,-0.0570996031165123,2.94039463996887,1.14297795295715,-0.0609177895434042,2.93960515744296,1.18056810382587,1135.048,3846.764,4069.909,880.227,-0.1062729,0.00433562,-0.09869622,0.0565982758998871,-0.0230724290013313,-0.149434179067612,-0.0169265510445065,-0.00728302204135792,0.0104783414199936,4
0.17999267578125,-0.0557379275560379,2.93938779830933,1.14071142673492,-0.0612985250199726,2.93944133760391,1.18080379722281,1102.111,3565.29,4009.369,1148.407,-0.1236245,0.004491741,-0.09000047,0.0680838748812675,-0.0503444001078606,-0.113327294588089,-0.0212433804254414,-0.00914043312572283,0.0131506644458931,3
0.199981689453125,-0.0541967190802097,2.93777704238892,1.13924860954285,-0.0617700327574899,2.93923846099686,1.18109568297336,1372.565,3339.978,3595.077,1386.425,-0.1278738,0.003023423,-0.07724871,0.0770604163408279,-0.0805362984538078,-0.0731387585401535,-0.0260066742439309,-0.011189945384795,0.0160993702266893,3
0.220001220703125,-0.0525145307183266,2.93557596206665,1.13858389854431,-0.0623420644491781,2.93899233174064,1.18144979784016,1790.612,3212.516,3017.137,1527.482,-0.1229693,0.0008620358,-0.06426208,0.0841094851493835,-0.110051207244396,-0.0332362093031406,-0.03121219533433,-0.0134297356845702,0.019321835755004,3
0.239990234375,-0.0507198944687843,2.93284678459167,1.13860714435577,-0.0630214373585105,2.93870001655724,1.18187036203406,2160.35,3168.736,2516.725,1557.79,-0.1149649,-0.0009880328,-0.05362648,0.0897317379713058,-0.136454224586487,0.00116488710045815,-0.0368316683029241,-0.015847637913056,0.022800557215184,3
0.260009765625,-0.0488375909626484,2.92966461181641,1.13913762569427,-0.0638185570309634,2.93835703823113,1.18236381708338,2350.839,3159.435,2274.524,1495.827,-0.1090559,-0.001903628,-0.04623727,0.0941153988242149,-0.159105151891708,0.0265237726271152,-0.0428699302682246,-0.0184457333472145,0.0265385290140116,3
0.279998779296875,-0.0468920804560184,2.92608737945557,1.13999605178833,-0.0647390625194898,2.93796097043536,1.18293365383054,2353.552,3151.683,2323.766,1363.85,-0.1078218,-0.001744371,-0.0415272,0.097275547683239,-0.178863346576691,0.0429240167140961,-0.0492963837173861,-0.0212108567320638,0.030516809833474,3
0.29998779296875,-0.0449090711772442,2.92214345932007,1.14106154441833,-0.0657918945890516,2.93750796620855,1.18358540703494,2228.08,3144.719,2573.574,1194.052,-0.1110991,-0.0007355651,-0.03798413,0.0991505160927773,-0.197190672159195,0.0532772354781628,-0.0561078595514081,-0.0241416444928383,0.0347334378503248,3
0.32000732421875,-0.042917288839817,2.9178352355957,1.14229333400726,-0.0669865614821475,2.93699393441958,1.18432496275165,2073.708,3131.69,2873.552,1033.54,-0.1169282,0.0006870992,-0.03397927,0.0995890945196152,-0.215409308671951,0.0615915507078171,-0.0633036493784043,-0.0272377918282996,0.0391879745362408,3
0.339996337890625,-0.0409493334591389,2.91315054893494,1.14370727539063,-0.068326768706371,2.93641728069206,1.18515461486636,1956.876,3107.816,3108.186,920.6777,-0.1228399,0.002068861,-0.02837598,0.0983978062868118,-0.234230369329453,0.0706954747438431,-0.0708499516420146,-0.0304847548730522,0.0438594951176439,3
0.3599853515625,-0.0390405729413033,2.90807676315308,1.14534294605255,-0.0698213312158394,2.93577421219747,1.18607982025561,1903.53,3066.188,3222.943,880.6222,-0.1267111,0.003092504,-0.0208648,0.0954380258917809,-0.253693342208862,0.0817853137850761,-0.0787457139191101,-0.0338820807988248,0.0487473480944833,3
0.3800048828125,-0.0372261479496956,2.90260982513428,1.1472430229187,-0.0714797725314022,2.93506063123087,1.18710647443246,1923.487,3020.043,3207.174,897.593,-0.1274067,0.00364225,-0.01188409,0.0907212197780609,-0.273344933986664,0.0950035750865936,-0.0869921272359981,-0.0374302820709642,0.0538522707687797,3
0.399993896484375,-0.0355377458035946,2.89676070213318,1.14943170547485,-0.0733036822025899,2.9342758538535,1.18823556140379,1993.05,2989.994,3097.521,937.8767,-0.1250322,0.00378947,-0.002212021,0.0844199359416962,-0.292454749345779,0.109432779252529,-0.0955525119207663,-0.0411135764513579,0.0591515566763244,3
0.41998291015625,-0.0340024158358574,2.89055418968201,1.15190553665161,-0.075301871434707,2.93341608884986,1.18947253572543,2070.98,2974.931,2954.433,986.3823,-0.120508,0.003707536,0.007341723,0.0767665728926659,-0.310321301221848,0.123689845204353,-0.104427768518458,-0.0449323514193797,0.064645763297398,3
0.44000244140625,-0.0326430127024651,2.88402414321899,1.15464127063751,-0.077483988232608,2.93247718495301,1.19082336997196,2135.891,2971.429,2825.429,1024.99,-0.1150645,0.003564765,0.01614628,0.067970409989357,-0.326506644487381,0.136787950992584,-0.113620829717891,-0.048887868829098,0.0703367061060819,4
0.459991455078125,-0.0314788669347763,2.87720704078674,1.15760171413422,-0.0798493430620752,2.93145943885026,1.19228763728888,2170.239,2978.87,2747.58,1037.386,-0.1098639,0.003473917,0.02393875,0.0582068897783756,-0.340851157903671,0.148024216294289,-0.123092454730403,-0.0529632444654124,0.0762000931848968,4
0.480010986328125,-0.030527152121067,2.87013792991638,1.1607471704483,-0.0824109101018722,2.93035726811493,1.19387336931088,2166.707,2984.427,2734.016,1032.364,-0.1055512,0.003481855,0.03075141,0.0475861132144928,-0.353453367948532,0.157273665070534,-0.132860437136906,-0.0571661344090936,0.082246939608052,4
0.5,-0.0298040527850389,2.86284613609314,1.16405236721039,-0.085166398670376,2.92917165836334,1.1955791479969,2147.814,2988.19,2761.189,1011.383,-0.1022675,0.003568289,0.03678591,0.0361551828682423,-0.364584714174271,0.165257722139359,-0.142884000065179,-0.0614789935111996,0.0884520025491718,4
0.519989013671875,-0.0293246489018202,2.85535645484924,1.16749823093414,-0.0881248588203387,2.92789871561062,1.19741057576073,2115.564,2994.477,2819.467,974.4327,-0.09986375,0.003686267,0.04242022,0.0239701569080353,-0.374489635229111,0.17229163646698,-0.153166947611899,-0.0659034585682559,0.0948176369253132,4
0.540008544921875,-0.0291044116020203,2.84768795967102,1.17108500003815,-0.0912963635428427,2.92653410573011,1.19937388826368,2088.126,2988.917,2870.605,955.6669,-0.09781151,0.003778749,0.04785299,0.0110113732516766,-0.383426815271378,0.179338216781616,-0.163714777034477,-0.0704418948965508,0.101347245800684,4
0.55999755859375,-0.0291579365730286,2.83985781669617,1.1748161315918,-0.094676112580471,2.92507989413848,1.20146611391775,2073.626,2991.738,2907.33,930.2803,-0.09578858,0.003794023,0.05329572,-0.00267630908638239,-0.391507387161255,0.186557695269585,-0.17448465888317,-0.0750758741803766,0.108014315705644,5
0.579986572265625,-0.029499277472496,2.83188223838806,1.17869770526886,-0.0982734311149,2.92353206847056,1.2036930254546,2061.916,2985.048,2923.515,932.1723,-0.09339919,0.003716188,0.05874741,-0.0170666724443436,-0.398780405521393,0.194079756736755,-0.185481935470438,-0.0798076950675377,0.114822153786096,5
0.600006103515625,-0.0301415510475636,2.82377743721008,1.18273866176605,-0.102098762959148,2.92188613504538,1.20606108809202,2066.025,2982.926,2912.267,940.8672,-0.09048143,0.003539231,0.0641106,-0.0321138799190521,-0.405234694480896,0.202050626277924,-0.196713446836865,-0.0846403006364086,0.121774994352997,5
0.6199951171875,-0.0310959368944168,2.81556129455566,1.18694221973419,-0.106144683970236,2.92014528826426,1.20856570593183,2077.333,2988.421,2884.976,949.6893,-0.08716739,0.003270571,0.06928785,-0.0477186404168606,-0.410808980464935,0.210178911685944,-0.208134604141382,-0.0895545055543457,0.128845234789665,5
0.639984130859375,-0.0323715098202229,2.8072521686554,1.19130396842957,-0.110420882305709,2.91830535958365,1.21121287640506,2080.959,2991.767,2857.602,967.9771,-0.08360941,0.002939466,0.07415811,-0.0637791603803635,-0.415452778339386,0.218087717890739,-0.219752140575416,-0.0945532069255159,0.136037043262338,5
0.660003662109375,-0.0339761227369308,2.79886889457703,1.19582200050354,-0.114938248900541,2.91636166293851,1.21400934151928,2086.869,2996.799,2826.01,987.5025,-0.07997686,0.002568512,0.07859184,-0.0802304297685623,-0.419169336557388,0.225899890065193,-0.231574097577923,-0.0996398647564507,0.143355397804799,5
0.67999267578125,-0.0359152145683765,2.79042959213257,1.20048749446869,-0.119686638739014,2.91431856344567,1.21694882102647,2091.11,3010.127,2805.088,989.6241,-0.07660263,0.002166525,0.08260698,-0.0969550758600235,-0.421968132257462,0.233274817466736,-0.243554411173546,-0.104794659005432,0.150771782621969,6
0.699981689453125,-0.0381929166615009,2.78195142745972,1.20529007911682,-0.124676182095571,2.91217170233105,1.22003758604909,2080.728,3014.312,2799.745,1000.929,-0.07355811,0.00175789,0.08620103,-0.113884925842285,-0.42391437292099,0.240128085017204,-0.25570106256044,-0.110021023759057,0.158291138455704,6
0.720001220703125,-0.0408127494156361,2.77344942092896,1.21022593975067,-0.129918284978346,2.90991617190799,1.22328269744952,2074.282,3019.586,2797.277,1005.844,-0.07085446,0.001347189,0.08939429,-0.130991607904434,-0.425104737281799,0.246792331337929,-0.268023157655716,-0.11532287703907,0.16591910230247,6
0.739990234375,-0.0437768809497356,2.76493692398071,1.21528935432434,-0.135400001298574,2.90755754251682,1.2266761409821,2069.253,3029.22,2802.155,997.6925,-0.06858439,0.0009260741,0.09229513,-0.148206263780594,-0.425624787807465,0.253168165683746,-0.280473432677602,-0.12067988256057,0.173626415629864,6
0.760009765625,-0.0470867864787579,2.75642561912537,1.22047436237335,-0.141140917956636,2.9050873864615,1.23023004187122,2054.66,3029.461,2815.072,1000.94,-0.06661631,0.0005061253,0.09495164,-0.16549526154995,-0.425568372011185,0.259252458810806,-0.293080296154222,-0.126104263719567,0.181430664670081,6
0.779998779296875,-0.0507443286478519,2.74792504310608,1.22578561306,-0.147126184485884,2.90251209348295,1.23393520697061,2051.513,3031.519,2814.7,1005.344,-0.06482241,8.399872E-05,0.09735812,-0.182877391576767,-0.425033181905746,0.265562891960144,-0.305795832832518,-0.131575403921268,0.189302187598958,6
0.79998779296875,-0.0547491423785686,2.73944401741028,1.2312136888504,-0.153366821193532,2.89982692185086,1.2377984583754,2045.049,3037.993,2829.461,991.8014,-0.06328097,-0.0003494067,0.0996468,-0.20024062693119,-0.424053132534027,0.271405696868896,-0.318629798715703,-0.137097500901303,0.197247023847227,6
0.82000732421875,-0.0591027177870274,2.73098945617676,1.23676943778992,-0.159875221826383,2.89702653888221,1.24182746840525,2039.981,3031.664,2817.884,1018.268,-0.06167348,-0.0007712514,0.1016598,-0.21767945587635,-0.422723382711411,0.27778834104538,-0.331592781842754,-0.14267511039705,0.205271727915392,6
0.839996337890625,-0.0638033002614975,2.72256875038147,1.24244344234467,-0.166633637018892,2.89411858163313,1.24601124935738,2048.014,3047.629,2821.158,991.669,-0.06036694,-0.001217065,0.103577,-0.235029190778732,-0.42104110121727,0.283697903156281,-0.344636106234817,-0.148287288494656,0.213346167053785,6
0.8599853515625,-0.0688505321741104,2.71418714523315,1.24823975563049,-0.173653699721778,2.89109804476993,1.25035700258242,2035.8,3038.411,2811.887,1025.096,-0.05903909,-0.001638377,0.1052248,-0.252361506223679,-0.419085472822189,0.289814651012421,-0.357770416714212,-0.153938615363784,0.221476930914505,6
0.8800048828125,-0.0742418467998505,2.70584988594055,1.2541515827179,-0.180948461186242,2.88795931270381,1.25487280742661,2042.399,3049.703,2812.688,1007.745,-0.05795465,-0.002061819,0.1067171,-0.269566118717194,-0.416863262653351,0.295590341091156,-0.371007022483504,-0.159633957038354,0.229671020432672,6
0.899993896484375,-0.079975813627243,2.69756102561951,1.26018476486206,-0.18849723509595,2.8847112861788,1.25954585807468,2040.882,3049.291,2797.712,1027.613,-0.05699165,-0.002464489,0.1079466,-0.286697536706924,-0.414448350667953,0.301659673452377,-0.384296738353309,-0.165352150505452,0.237897987633041,7
0.91998291015625,-0.0860476046800613,2.68932414054871,1.26632273197174,-0.196312316554895,2.88134867495511,1.26438376578173,2038.273,3058.178,2813.82,1006.028,-0.05641694,-0.002861833,0.1090859,-0.303590595722198,-0.411847531795502,0.306899309158325,-0.397650971463704,-0.171098103938772,0.246164894078718,7
0.94000244140625,-0.092456117272377,2.6811408996582,1.27258002758026,-0.204407453948074,2.87786556348678,1.26939504145298,2031.391,3048.553,2797.488,1043.654,-0.055814,-0.003208576,0.1099122,-0.320424765348434,-0.409162938594818,0.312866926193237,-0.411081631631503,-0.176876941799768,0.254479112513653,7
0.959991455078125,-0.0991952568292618,2.67301321029663,1.27893853187561,-0.212759000778906,2.87427212620069,1.27456504678061,2043.304,3069.067,2816.074,993.5357,-0.05575594,-0.003569701,0.1107416,-0.336958080530167,-0.406381398439407,0.317925482988358,-0.424539267042903,-0.182667386354485,0.262810029909387,7
0.980010986328125,-0.106263160705566,2.66494083404541,1.28541040420532,-0.221393324468958,2.87055701793193,1.27991010445463,2024.352,3051.403,2807.917,1043.534,-0.05562918,-0.003866377,0.1113046,-0.353393882513046,-0.403615742921829,0.32359579205513,-0.438056556301695,-0.188483498293199,0.271177875878363,7
1,-0.113653913140297,2.65692377090454,1.29198265075684,-0.230284798736574,2.86673126495361,1.28541435058594,2039.639,3069.487,2825.171,995.0876,-0.0559397,-0.004169445,0.1118801,-0.369537591934204,-0.400850862264633,0.328610152006149,-0.451584000205995,-0.194303979492187,0.279552008056641,7
1.01998901367188,-0.1213648468256,2.64896035194397,1.2986649274826,-0.239446912293295,2.86278906344998,1.29108613532954,2024.688,3055.354,2821.448,1033.316,-0.05618737,-0.004414456,0.1122615,-0.385547757148743,-0.398175537586212,0.33411106467247,-0.46513400752272,-0.200134169097193,0.287940108062054,7
1.04000854492188,-0.129390329122543,2.64104890823364,1.30544686317444,-0.248894644448595,2.85872396824263,1.29693473159157,2036.329,3067.692,2838.062,995.7714,-0.05673279,-0.004656271,0.1126584,-0.401273190975189,-0.395573645830154,0.339095056056976,-0.47871923339115,-0.205979512261105,0.296350010028666,7
1.05999755859375,-0.137727990746498,2.63318634033203,1.31234395503998,-0.258599401509697,2.85454828239877,1.30294243851408,2033.613,3060.229,2821.971,1028.245,-0.05721482,-0.004851214,0.1128685,-0.416884124279022,-0.393126487731934,0.34485337138176,-0.492290296490434,-0.211818761581115,0.30475114456651,7
1.07998657226563,-0.146370396018028,2.62537050247192,1.3193324804306,-0.268575430648764,2.85025587575821,1.30911807577533,2038.571,3072.331,2854.496,980.8066,-0.05810431,-0.005049886,0.1131884,-0.432119369506836,-0.390787065029144,0.349423855543137,-0.50586005237609,-0.217657448443621,0.313151469876847,7
1.10000610351563,-0.155317053198814,2.6175971031189,1.32644188404083,-0.278838480013141,2.84583997233313,1.31547139222872,2029.441,3053.096,2826.422,1045.891,-0.05864228,-0.005167598,0.1132104,-0.447333663702011,-0.388669580221176,0.355467706918716,-0.519441457145546,-0.223501147495394,0.321559006401169,7
1.1199951171875,-0.164559081196785,2.60986351966858,1.33364069461823,-0.289357002179081,2.84131414609862,1.32198285851614,2055.131,3083.047,2862.857,955.3046,-0.05983431,-0.005327387,0.1134544,-0.462102264165878,-0.386673748493195,0.359943389892578,-0.532985466132485,-0.229328756186667,0.329943393154705,8
1.13998413085938,-0.174096584320068,2.60216450691223,1.34096086025238,-0.300146026259498,2.83667193044725,1.3286617783744,2028.352,3051.313,2834.729,1051.649,-0.06055709,-0.005383314,0.113367,-0.476874083280563,-0.38495197892189,0.366006642580032,-0.546505271550557,-0.235145950758426,0.338312796746137,8
1.16000366210938,-0.183919921517372,2.5944972038269,1.3483659029007,-0.311222084148811,2.83190621216671,1.33551838583369,2058.042,3083.328,2882.281,944.1487,-0.06194193,-0.005483449,0.1135517,-0.491167962551117,-0.383364766836166,0.370252460241318,-0.560014026276883,-0.240958390526247,0.34667535943296,8
1.17999267578125,-0.194031298160553,2.58685493469238,1.35590386390686,-0.322550701230474,2.8270318247214,1.34253133946411,2038.776,3052.159,2832.007,1056.712,-0.06273448,-0.005475992,0.1133318,-0.505568981170654,-0.382109075784683,0.376897871494293,-0.573463232144024,-0.246745208083563,0.355001058539242,8
1.19998168945313,-0.204417794942856,2.57923579216003,1.36351215839386,-0.334147705564643,2.8220419577392,1.34971043758889,2067.02,3092.494,2912.128,907.4176,-0.0645007,-0.005546299,0.1135898,-0.519323348999023,-0.380960911512375,0.380412429571152,-0.586866312357874,-0.25251217906087,0.363298203668868,8
1.22000122070313,-0.215085968375206,2.57163119316101,1.37126898765564,-0.346030421585499,2.81692915700008,1.35706640485806,2031.315,3037.569,2832.84,1093.505,-0.06511695,-0.005445099,0.113208,-0.533409237861633,-0.380230635404587,0.387838959693909,-0.600236516861372,-0.258265004538453,0.371574997167698,8
1.239990234375,-0.226019188761711,2.564040184021,1.37908577919006,-0.358161486344149,2.81170949873715,1.36457611182642,2093.081,3110.085,2937.194,851.318,-0.06723417,-0.005501025,0.113574,-0.546660840511322,-0.379545480012894,0.3908411860466,-0.613526094901141,-0.263983138701136,0.379801879044709,8
1.260009765625,-0.237227991223335,2.55645298957825,1.38706541061401,-0.37057666480527,2.80636759428526,1.37226169871082,2025.113,3025.663,2831.908,1128.647,-0.06771034,-0.005321528,0.1130814,-0.560441076755524,-0.379364937543869,0.398983776569366,-0.626768731761373,-0.26968107538565,0.387999702095469,8
1.27999877929688,-0.248691827058792,2.54887008666992,1.39509034156799,-0.383236695417198,2.80092033679326,1.3800988607405,2110.966,3122.192,2970.562,801.1615,-0.07012156,-0.005358813,0.1135877,-0.573190748691559,-0.379147112369537,0.401249140501022,-0.639917282339435,-0.275338529371412,0.396139281255613,8
1.29998779296875,-0.260426700115204,2.54127931594849,1.40330040454865,-0.396158759015336,2.79536033382764,1.388098233671,2021.904,3011.789,2823.625,1171.89,-0.07029787,-0.005094627,0.1129474,-0.586745798587799,-0.379534721374512,0.410501331090927,-0.652985332144132,-0.280961346123326,0.404229026602261,8
1.32000732421875,-0.272405683994293,2.53368449211121,1.41153073310852,-0.409361504843077,2.78967956113998,1.39627136227237,2131.649,3139.287,3018.135,728.4462,-0.07306436,-0.005132444,0.1136922,-0.598947286605835,-0.37973889708519,0.411516100168228,-0.6659860834168,-0.286555206197011,0.41227711095171,8
1.33999633789063,-0.284654408693314,2.52606987953186,1.4199880361557,-0.422802873722428,2.78389611561957,1.40459220990988,2019.113,2992.212,2788.491,1249.671,-0.0726766,-0.004768656,0.1127818,-0.612435817718506,-0.380725145339966,0.422867566347122,-0.678873453515705,-0.29210028151913,0.420255006953505,8
1.3599853515625,-0.297133296728134,2.51844453811646,1.42841732501984,-0.436500861174643,2.77800225429635,1.41307191666844,2164.517,3174.139,3086.586,602.2758,-0.07619464,-0.004860269,0.1139653,-0.62394517660141,-0.381264984607697,0.421467542648315,-0.69166099897751,-0.297602405088682,0.428171106749628,9
1.3800048828125,-0.309884011745453,2.51078677177429,1.4371325969696,-0.450474904562636,2.77198961381608,1.4217225152016,1986.764,2946.996,2739.652,1399.026,-0.07478849,-0.004335094,0.1126092,-0.637537002563477,-0.382885426282883,0.435764878988266,-0.704361775018035,-0.303067194200314,0.436033492140578,9
1.39999389648438,-0.322849482297897,2.50311350822449,1.44575881958008,-0.464680216184654,2.76587746507559,1.43051627978847,2225.039,3231.19,3167.605,412.1701,-0.07932811,-0.004526309,0.1143818,-0.648274183273315,-0.383666485548019,0.431308597326279,-0.716930938559026,-0.308475354130225,0.443814403124744,9
1.41998291015625,-0.336092174053192,2.4953944683075,1.45474815368652,-0.479135601808478,2.75965771647838,1.43946485209513,1941.035,2890.352,2664.903,1601.069,-0.07665537,-0.003812049,0.1124486,-0.662132978439331,-0.385955035686493,0.449469476938248,-0.729381927869995,-0.313832666990362,0.451522158631107,9
1.44000244140625,-0.349530100822449,2.48765778541565,1.46355366706848,-0.493861275572861,2.75332167044526,1.4485807456364,2286.401,3299.389,3292.161,162.9187,-0.08255479,-0.004136954,0.1150569,-0.671897172927856,-0.386834681034088,0.440276026725769,-0.741727567798258,-0.319144650954242,0.459164697851088,9
1.45999145507813,-0.363258451223373,2.47985982894897,1.47284972667694,-0.508809800712713,2.74688973769103,1.45783459479497,1882.418,2811.666,2529.687,1903.944,-0.07787935,-0.003150519,0.1121904,-0.686419606208801,-0.38990244269371,0.464801400899887,-0.753924423002454,-0.324392617007921,0.466715132239272,9
1.47998046875,-0.377164363861084,2.47203993797302,1.48189425468445,-0.524000783579472,2.74035348215039,1.46723853683636,2198.339,3551.569,3293.038,0,-0.08457135,-0.002965163,0.116486,-0.6952965259552,-0.390989899635315,0.452229499816895,-0.76598572865452,-0.329582259876133,0.474181654997567,9
1.5,-0.391366302967072,2.46414971351624,1.49148046970367,-0.539455198877605,2.73370387899399,1.4768055561018,1886.678,2646.76,2423.751,2189.543,-0.07826764,-0.001252218,0.1128738,-0.710097670555115,-0.39451652765274,0.479309558868408,-0.777924000354858,-0.334718964672088,0.481572013878822,9
1.51998901367188,-0.40573787689209,2.4562349319458,1.50080573558807,-0.555123050061237,2.72696244033876,1.48650470234772,2133.32,3715.449,3204.415,0,-0.08467254,-3.324251E-05,0.1175798,-0.718579173088074,-0.395743906497955,0.466265648603439,-0.789697369743256,-0.339784716610053,0.488860290373601,9
1.54000854492188,-0.420395225286484,2.44825315475464,1.51062262058258,-0.571049184024557,2.72010986981902,1.49636373793799,1998.423,2524.783,2440.466,2192.328,-0.07871505,0.002436029,0.113181,-0.732868373394012,-0.399085402488708,0.490843206644058,-0.801336412291853,-0.344792671461508,0.496065412155667,9
1.55999755859375,-0.435216695070267,2.44024896621704,1.52018523216248,-0.587181951496087,2.71316839067337,1.50635068951315,2198.227,3658.961,3214.134,0,-0.0853884,0.0042448,0.1164855,-0.741072654724121,-0.400207757949829,0.478129059076309,-0.812800388649436,-0.349725300221754,0.503162159625937,9
1.57998657226563,-0.450306713581085,2.4321825504303,1.53018760681152,-0.603542258451077,2.7061290076447,1.51647849886779,2079.416,2526.41,2564.383,1996.341,-0.08113586,0.006909438,0.1113719,-0.754500687122345,-0.40331843495369,0.500121235847473,-0.82410201904291,-0.354588076049064,0.510158407210813,9
1.60000610351563,-0.465554684400558,2.42409014701843,1.53997337818146,-0.620152298932711,2.69898217125626,1.52676090517188,2206.405,3617.474,3265.291,0,-0.08837167,0.008860313,0.1137164,-0.762398958206177,-0.404622733592987,0.489291369915009,-0.835253140422976,-0.35938609205264,0.51706148254665,9
1.6199951171875,-0.481051087379456,2.415931224823,1.5501492023468,-0.636958033083316,2.69175113334911,1.53716445517924,2117.911,2565.307,2720.4,1767.609,-0.08593754,0.01133521,0.1089173,-0.774820804595947,-0.407946407794952,0.508789300918579,-0.846214826007804,-0.364102599125749,0.523847288101157,9
1.63998413085938,-0.496699541807175,2.40773558616638,1.56013870239258,-0.653981118189727,2.68442657539777,1.54770255578211,2231.198,3511.72,3360.325,0,-0.09334433,0.0129658,0.1109301,-0.78242290019989,-0.409779846668243,0.499473929405212,-0.856999388527105,-0.368742895092007,0.53052344604056,9
1.66000366210938,-0.51258385181427,2.39946055412292,1.57050251960754,-0.671244443874359,2.67699864863716,1.55838937674714,2102.715,2612.892,2845.571,1616.348,-0.09132352,0.01498846,0.1069641,-0.794218301773071,-0.413754761219025,0.518194019794464,-0.867618167158098,-0.373311858882592,0.53709697585572,9
1.67999267578125,-0.528617978096008,2.39113426208496,1.58071863651276,-0.688691692550512,2.66949158495151,1.56919005480539,2260.212,3452.44,3401.913,0,-0.09800486,0.01608415,0.109383,-0.801705181598663,-0.416319608688354,0.510804176330566,-0.878034183119987,-0.377793579561193,0.543544985919778,9
1.69998168945313,-0.544881224632263,2.38271427154541,1.59130597114563,-0.706345246291743,2.66189575395985,1.5801184455266,2088.422,2657.401,2886.119,1550.348,-0.0954413,0.01756777,0.1064936,-0.813162267208099,-0.421002388000488,0.529368877410889,-0.88825927318574,-0.382193150160541,0.549874803759068,9
1.72000122070313,-0.561291217803955,2.37423324584961,1.60174834728241,-0.724228658537036,2.6542010212754,1.5911891296115,2304.05,3386.785,3430.869,0,-0.1011469,0.0180203,0.1094495,-0.820495665073395,-0.424051433801651,0.522117257118225,-0.898304216251578,-0.386515208538549,0.556093102023817,9
1.739990234375,-0.577933013439178,2.36564707756042,1.61260390281677,-0.74228345468553,2.64643254688532,1.60236590849663,2069.606,2696.264,2820.586,1606.389,-0.09717236,0.01902047,0.1070828,-0.832092106342316,-0.429308712482452,0.542778313159943,-0.908134108040217,-0.390744736359816,0.562178273303667,9
1.760009765625,-0.594716191291809,2.35699605941772,1.62330007553101,-0.760560719141003,2.63856835059778,1.61368040586141,2280.854,3457.811,3385.999,0,-0.1022164,0.01914256,0.1110431,-0.839156329631805,-0.432549595832825,0.534809827804565,-0.91777478390713,-0.394892849856044,0.568146310914365,9
1.77999877929688,-0.611733853816986,2.34823679924011,1.63442885875702,-0.779000609654483,2.63063418086074,1.62509557650306,2053.969,2673.14,2727.998,1746.445,-0.09695451,0.02002876,0.1088625,-0.850884616374969,-0.437961995601654,0.556438624858856,-0.927192788821983,-0.398945154262308,0.57397650459845,9
1.79998779296875,-0.628887593746185,2.33941674232483,1.64537024497986,-0.797626646773287,2.62261991743975,1.63662598076079,2281.852,3501.339,3346.435,0,-0.101663,0.02010624,0.1132224,-0.857691705226898,-0.440998256206512,0.547067761421204,-0.936399026186941,-0.402906341007953,0.579675604081262,9
1.82000732421875,-0.646278023719788,2.33049392700195,1.65675246715546,-0.816463410111527,2.61451498441355,1.64828683458664,2052.004,2642.83,2668.415,1849.237,-0.09564317,0.02107837,0.110721,-0.869518101215363,-0.44614040851593,0.569114029407501,-0.94540321420156,-0.406780591562751,0.585249625391268,9
1.83999633789063,-0.663801193237305,2.32151794433594,1.66793835163116,-0.835449117627072,2.60634596486888,1.66003989195343,2277.401,3557.383,3302.85,0,-0.1003282,0.02130608,0.1150619,-0.876162528991699,-0.448795646429062,0.559292256832123,-0.954174163352093,-0.410554485950274,0.590679260733698,9
1.8599853515625,-0.681557297706604,2.31244993209839,1.67954349517822,-0.854607925216182,2.59810246519841,1.67190010651166,2068.098,2620.318,2667.755,1863.365,-0.09451985,0.02241678,0.1122609,-0.887799143791199,-0.453397214412689,0.580259919166565,-0.962722140342816,-0.41423244164655,0.595970865687568,9
1.8800048828125,-0.699442625045776,2.30333852767944,1.69094109535217,-0.873964974649439,2.58977366760063,1.68388304221498,2285.838,3535.546,3324.777,0,-0.09935296,0.02272941,0.1161449,-0.894273161888123,-0.455575168132782,0.569882154464722,-0.971056158224177,-0.417818336715394,0.601130019760457,9
1.89999389648438,-0.717558324337006,2.29414415359497,1.70276057720184,-0.893456683142228,2.58138692997148,1.69594933829086,2084.476,2625.855,2682.49,1834.59,-0.09380026,0.02386428,0.112989,-0.905786454677582,-0.459714949131012,0.590974867343903,-0.979147395688901,-0.421299770153459,0.606138881190213,9
1.91998291015625,-0.735799431800842,2.28491306304932,1.71437382698059,-0.91310780215452,2.5729316024492,1.70811431707208,2250.419,3568.651,3331.524,0,-0.0987564,0.02427848,0.1168611,-0.912053525447845,-0.461559236049652,0.580663084983826,-0.98700543065471,-0.424680863071164,0.611003379164165,9
1.94000244140625,-0.754264771938324,2.2756073474884,1.72639155387878,-0.932943991899774,2.5643966441608,1.72039386345315,2089.501,2607.62,2718.426,1812.512,-0.09332675,0.02545955,0.1136951,-0.923268020153046,-0.465290039777756,0.600884735584259,-0.994638524886308,-0.427965170275055,0.615728628108227,9
1.95999145507813,-0.772852838039398,2.26627063751221,1.73821187019348,-0.952900013794853,2.55581012544606,1.73274759164336,2276.841,3534.836,3341.607,0,-0.09809221,0.02582469,0.1172526,-0.929404556751251,-0.466835469007492,0.591018438339233,-1.00202031904361,-0.431141350077486,0.620298310335216,9
1.97998046875,-0.791658222675323,2.25686717033386,1.75042152404785,-0.973001172086935,2.54716115859433,1.74519116617712,2095.878,2622.125,2750.612,1757.186,-0.0928085,0.02688689,0.1141175,-0.94027179479599,-0.47017902135849,0.610482513904572,-1.0091596546337,-0.434213206731958,0.624717899159203,9
2,-0.810581803321838,2.24743890762329,1.7624340057373,-0.993273599084619,2.53843849960327,1.7577407641983,2286.833,3501.435,3363.274,0,-0.09734812,0.02706673,0.1174856,-0.946177542209625,-0.471417129039764,0.600624322891235,-1.01606400046349,-0.437183953857422,0.628992018127441,9
2.01998901367188,-0.829718351364136,2.23794937133789,1.77484595775604,-1.01365055070775,2.52967086658596,1.77035506794184,2095.944,2644.952,2738.49,1742.947,-0.0918716,0.02794021,0.1143541,-0.956826686859131,-0.474478662014008,0.620597004890442,-1.02270954399163,-0.440043345582587,0.633105926142498,9
2.04000854492188,-0.848965704441071,2.22844076156616,1.78705096244812,-1.03418924440916,2.52083364047092,1.78306949773667,2261.383,3526.01,3356.399,0,-0.09630416,0.0279901,0.1179758,-0.962365090847015,-0.475432515144348,0.610251843929291,-1.02911391720548,-0.442798968459032,0.637070538244476,9
2.05999755859375,-0.868421137332916,2.21887683868408,1.79965817928314,-1.05482201812353,2.5119559343546,1.79584216754118,2082.337,2633.543,2710.75,1788.742,-0.09039354,0.02880082,0.1148522,-0.97277170419693,-0.478194206953049,0.630358457565308,-1.03525504859546,-0.445441325732794,0.640872191117535,9
2.07998657226563,-0.887979805469513,2.20930099487305,1.81204438209534,-1.07557499515204,2.50302650811029,1.80868924892322,2253.634,3538.531,3342.461,0,-0.0946349,0.02880235,0.1185802,-0.977935492992401,-0.478792190551758,0.619309604167938,-1.04114045847258,-0.4479736531836,0.644515540192423,9
2.10000610351563,-0.907741010189056,2.19967842102051,1.8248302936554,-1.09647498538954,2.49403382618922,1.82162733848484,2074.817,2618.681,2686.815,1826.917,-0.08831841,0.0296069,0.1153106,-0.988058090209961,-0.481129884719849,0.639297008514404,-1.04677621342161,-0.450398561093403,0.648004340974112,9
2.1199951171875,-0.927598416805267,2.1900520324707,1.83739042282104,-1.11745308225396,2.48500753716864,1.83461377976925,2259.382,3552.728,3313.055,0,-0.0924511,0.02958687,0.1189313,-0.992878317832947,-0.48131588101387,0.628004193305969,-1.0521429102862,-0.45270770082608,0.651326581984514,9
2.13998413085938,-0.947649359703064,2.18038940429688,1.85033249855042,-1.13853583516761,2.47593621757383,1.84766500813359,2073.316,2614.587,2678.965,1829.023,-0.08621984,0.03036426,0.1155261,-1.00254130363464,-0.483128517866135,0.647104918956757,-1.05724722779031,-0.454903946049977,0.654486397671922,9
2.16000366210938,-0.96778804063797,2.17073249816895,1.86303329467773,-1.15975039167652,2.46680818657414,1.86079782920208,2263.021,3528.488,3322.872,0,-0.09039567,0.03026226,0.1188644,-1.00693333148956,-0.482844561338425,0.635037899017334,-1.0620943502576,-0.456989527434725,0.657486997379635,8
2.17999267578125,-0.988113164901733,2.16104817390442,1.87612462043762,-1.18102676265167,2.45765355853653,1.8739689163698,2069.587,2624.051,2656.164,1836.371,-0.08412659,0.03096294,0.1152021,-1.01625692844391,-0.48421972990036,0.654563784599304,-1.06666760390386,-0.458957270716794,0.660318059240953,8
2.19998168945313,-1.00851595401764,2.15137696266174,1.8889616727829,-1.20239187218348,2.44846074877705,1.8871949369313,2219.792,3570.888,3309.38,0,-0.08843718,0.03088107,0.11871,-1.02014660835266,-0.483564227819443,0.641850471496582,-1.07097279461286,-0.460809674005774,0.6629831773745,7
2.22000122070313,-1.0290961265564,2.14168643951416,1.9021782875061,-1.22387315175433,2.43921795429519,1.90049287228091,2056.053,2597.573,2648.399,1869.943,-0.0820163,0.03162625,0.1149644,-1.02900171279907,-0.484519213438034,0.660829365253448,-1.07501419914593,-0.462548577472581,0.665484999299265,7
2.239990234375,-1.04974579811096,2.13201689720154,1.91513586044312,-1.24539969505118,2.42995568409656,1.91381882803312,2230.935,3560.877,3294.664,0,-0.08624966,0.03153669,0.1182777,-1.0324774980545,-0.483494579792023,0.647878587245941,-1.07877792518082,-0.464168003639063,0.667814925005999,5
2.260009765625,-1.07056128978729,2.12233686447144,1.92845702171326,-1.26703177594152,2.42064800401982,1.92721011658316,2053.747,2595.486,2650.338,1856.986,-0.07991933,0.03224105,0.1144095,-1.04077899456024,-0.483997225761414,0.666060447692871,-1.08227399942825,-0.465672266718726,0.669979161506271,5
2.27999877929688,-1.09143710136414,2.11268472671509,1.94151198863983,-1.28869796983554,2.41132564607061,1.9406225227075,2237.017,3539.593,3295.143,0,-0.08415482,0.03205383,0.1174571,-1.04379212856293,-0.482604593038559,0.652747392654419,-1.08549040888332,-0.467056197851165,0.67197027217779,2
2.29998779296875,-1.11246824264526,2.10303020477295,1.95492482185364,-1.31042570636616,2.40197680804417,1.95407302665558,2043.089,2604.79,2646.03,1846.823,-0.07787509,0.03264992,0.1134806,-1.05155372619629,-0.48272106051445,0.670641899108887,-1.08843144721369,-0.468321644481621,0.673790915005368,1
2.32000732421875,-1.13354897499084,2.0934100151062,1.96806049346924,-1.33224276726637,2.39258953623693,1.96757882664355,2218.734,3540.091,3295.475,0,-0.08210579,0.03236413,0.1165101,-1.05403411388397,-0.481009870767593,0.656784534454346,-1.09109983431736,-0.469469776906228,0.675442773735451,0
2.33999633789063,-1.15477538108826,2.08379316329956,1.98156082630157,-1.35407709248145,2.38319483607731,1.98109531406483,2035.028,2605.51,2614.269,1869.298,-0.07566254,0.03287913,0.1124372,-1.06132519245148,-0.480826109647751,0.675014078617096,-1.09348640563071,-0.470496651869278,0.67692017506657,0
2.3599853515625,-1.17603957653046,2.07421684265137,1.99476563930511,-1.37595634130987,2.37378080654189,1.99463961134278,2188.285,3563.52,3282.328,0,-0.0799433,0.03257133,0.1156376,-1.06320989131927,-0.478828400373459,0.660239279270172,-1.09559452046326,-0.471403714787811,0.678225198571351,0
2.3800048828125,-1.19743943214417,2.06465005874634,2.00833201408386,-1.39790843013262,2.36433543599182,2.00822900004707,2016.333,2580.83,2589.183,1919.734,-0.07315118,0.03311272,0.1114276,-1.06999361515045,-0.478325545787811,0.678322851657867,-1.09742594550583,-0.472191725819537,0.679358937915576,0
2.39999389648438,-1.21886694431305,2.05512952804565,2.02159690856934,-1.41986083522252,2.35488992936084,2.02181858453579,2188.799,3575.357,3251.103,0,-0.07735311,0.03282137,0.1145435,-1.07137024402618,-0.476028203964233,0.663248479366302,-1.09897439291323,-0.472857979480329,0.680317500623536,0
2.41998291015625,-1.24041676521301,2.04562711715698,2.03520488739014,-1.4418413890156,2.34543231112926,2.03542559441269,2013.144,2570.954,2579.117,1922.749,-0.0706462,0.03335551,0.1101997,-1.07749664783478,-0.475129514932632,0.680403828620911,-1.10024227275454,-0.473403512755585,0.681102378642803,0
2.44000244140625,-1.26198291778564,2.03617715835571,2.04849648475647,-1.46387808506052,2.33595053645515,2.04906735901791,2193.722,3546.729,3255.766,0,-0.07489502,0.0329954,0.1130063,-1.07830393314362,-0.472491234540939,0.664576768875122,-1.10123038958312,-0.473828671822132,0.681714070030222,0
2.45999145507813,-1.28366041183472,2.02675199508667,2.06213784217834,-1.48589810917879,2.32647593524532,2.06269880290633,2008.172,2579.91,2553.755,1926.406,-0.06820782,0.03344686,0.1084071,-1.0838760137558,-0.47127178311348,0.682067334651947,-1.10193535162022,-0.474131997292339,0.68215047511319,0
2.47998046875,-1.30534136295319,2.01738405227661,2.07544946670532,-1.50792940965705,2.3169964821328,2.07633722739875,2152.02,3583.424,3239.06,0,-0.0726521,0.03309391,0.1113507,-1.08404862880707,-0.468390107154846,0.665582656860352,-1.10235860927677,-0.474314113237503,0.682412491765153,0
2.5,-1.32712066173553,2.0080463886261,2.08909893035889,-1.52999999932945,2.30750012397766,2.08999997377396,1989.049,2555.42,2544.509,1958.146,-0.06588927,0.03357103,0.1066894,-1.08896291255951,-0.466897159814835,0.682478964328766,-1.10250000050292,-0.474374949932098,0.682500019669533,0
2.51998901367188,-1.34889245033264,1.99877059459686,2.10241413116455,-1.5520369476803,2.29801824074336,2.10364189456856,2161.76,3570.239,3222.518,0,-0.0703229,0.03319346,0.1094508,-1.08859753608704,-0.463789403438568,0.665760576725006,-1.10235904000526,-0.474314298567936,0.682412758406603,0
2.54000854492188,-1.37074840068817,1.98953032493591,2.11605095863342,-1.57410188948011,2.28852431271001,2.11730114464159,1980.248,2554.322,2545.923,1945.393,-0.06370068,0.03361116,0.1047202,-1.09280014038086,-0.462015360593796,0.681841909885406,-1.10193535162022,-0.474131997292339,0.682150475113189,0
2.55999755859375,-1.39258587360382,1.98035633563995,2.1293466091156,-1.59612191359838,2.27904971150017,2.13093258853001,2167.374,3544.679,3222.481,0,-0.06816787,0.03311744,0.1072506,-1.09187424182892,-0.458697021007538,0.664778888225555,-1.10123038958312,-0.473828671822132,0.681714070030222,0
2.57998657226563,-1.41449427604675,1.97122204303741,2.14295935630798,-1.61812503288753,2.26958238396605,2.14455356752391,1963.658,2564.625,2539.717,1937.493,-0.06159359,0.03340842,0.1024735,-1.09541201591492,-0.456711083650589,0.680640876293182,-1.1002439936861,-0.473404253224357,0.681103443981416,0
2.60000610351563,-1.43637204170227,1.96215748786926,2.15622091293335,-1.64013916343638,2.26011031859448,2.15818136301212,2149.08,3543.008,3220.726,0,-0.06605918,0.03279958,0.1050387,-1.09388673305511,-0.453230410814285,0.663072228431702,-1.09897439291323,-0.472857979480329,0.680317500623536,0
2.6199951171875,-1.45830905437469,1.95313560962677,2.16980767250061,-1.66209156852628,2.2506648119635,2.17177094750084,1950.839,2565.404,2505.139,1963.824,-0.05929581,0.03299327,0.1002264,-1.09685063362122,-0.451099038124084,0.679338574409485,-1.09742594550583,-0.472191725819537,0.679358937915576,0
2.63998413085938,-1.4802029132843,1.94418621063232,2.18302536010742,-1.6840102224118,2.24123382753286,2.18533963838626,2120.576,3563.173,3205.468,0,-0.06380454,0.03234548,0.1030001,-1.09469676017761,-0.447471588850021,0.660883009433746,-1.09559752564474,-0.471405007833448,0.678227058921845,0
2.66000366210938,-1.50214457511902,1.93528294563293,2.19656777381897,-1.70592290617745,2.23180541187802,2.19890463348308,1927.951,2541.89,2475.627,2018.925,-0.05665982,0.03255171,0.09809575,-1.0970846414566,-0.445164680480957,0.677122890949249,-1.09348640563071,-0.470496651869278,0.67692017506657,0
2.67999267578125,-1.52403235435486,1.92645597457886,2.20973539352417,-1.72775723139253,2.2224107117184,2.21242112090437,2120.909,3574.699,3171.885,0,-0.06109185,0.031913,0.1008308,-1.09439527988434,-0.441355913877487,0.658375918865204,-1.09109983431736,-0.469469776906228,0.675442773735451,0
2.69998168945313,-1.5459543466568,1.91768014431,2.22321176528931,-1.74954107593572,2.21303773198162,2.22590635838503,1920.832,2531.85,2460.51,2028.917,-0.05399453,0.03211267,0.09582293,-1.09609317779541,-0.438787758350372,0.673820316791534,-1.08843572622736,-0.468323485621663,0.673793563918671,0
2.72000122070313,-1.56781077384949,1.90898513793945,2.23629856109619,-1.77130202882336,2.20367460188472,2.23937742484041,2125.677,3547.185,3173.333,0,-0.05848035,0.03141254,0.09828584,-1.0928281545639,-0.434754878282547,0.654341220855713,-1.08549040888332,-0.467056197851165,0.671970272177789,0
2.739990234375,-1.58968937397003,1.90034556388855,2.24970197677612,-1.79296822271738,2.1943522439355,2.25278983096475,1913.407,2539.639,2433.323,2036.295,-0.05139581,0.03153456,0.09304978,-1.09392154216766,-0.431972175836563,0.67016738653183,-1.08227399942825,-0.465672266718727,0.669979161506271,0
2.760009765625,-1.61149024963379,1.89178967475891,2.26270389556885,-1.81460030360772,2.18504456385877,2.26618111951479,2086.276,3581.324,3155.341,0,-0.0560883,0.03084482,0.09565624,-1.09003794193268,-0.427791148424149,0.650092363357544,-1.07877792518082,-0.464168003639063,0.667814925005998,0
2.77999877929688,-1.63329935073853,1.88329267501831,2.27601504325867,-1.83612684690458,2.17578229366013,2.27950707526701,1896.169,2518.657,2416.508,2069.239,-0.04897287,0.0309878,0.09037144,-1.09046900272369,-0.424847483634949,0.665557622909546,-1.07501419914593,-0.462548577472581,0.665484999299265,0
2.79998779296875,-1.65501999855042,1.87488222122192,2.28891324996948,-1.85757544288233,2.1665535620153,2.29278477791556,2080.997,3571.576,3148.355,0,-0.05369572,0.03030503,0.09290346,-1.08602440357208,-0.420530259609222,0.64491331577301,-1.07097916161324,-0.460812413548163,0.662987118851036,0
2.82000732421875,-1.67673587799072,1.86653399467468,2.30211448669434,-1.87897323600723,2.1573466894188,2.30603103117811,1882.041,2508.222,2410.639,2078.536,-0.04648974,0.03043537,0.08751976,-1.08580136299133,-0.417417615652084,0.660058856010437,-1.06666760390385,-0.458957270716794,0.660318059240952,0
2.83999633789063,-1.69835305213928,1.85827422142029,2.31490468978882,-1.90024960698239,2.14819206138118,2.31920211834584,2085.637,3569.156,3125.073,0,-0.05119288,0.02971218,0.08991511,-1.08085203170776,-0.412977665662766,0.639509797096252,-1.06209435025759,-0.456989527434725,0.657486997379635,0
2.8599853515625,-1.71995091438293,1.85008037090302,2.32798004150391,-1.92143189875059,2.13907791299805,2.33231496600284,1869.979,2511.49,2411.592,2063.055,-0.04419303,0.02976754,0.08456483,-1.07989227771759,-0.409696608781815,0.653762757778168,-1.05725481901126,-0.454907212340279,0.654491096999312,0
2.8800048828125,-1.74143874645233,1.84197759628296,2.34063363075256,-1.94254691640495,2.12999271078668,2.34538616777867,2094.683,3527.351,3136.206,0,-0.04893026,0.02889457,0.08673141,-1.07439947128296,-0.405137896537781,0.632676541805267,-1.0521429102862,-0.45270770082608,0.651326581984514,0
2.89999389648438,-1.76289582252502,1.8339421749115,2.3535840511322,-1.96352501326936,2.1209664217661,2.35837260906308,1853.297,2528.56,2386.909,2067.462,-0.04186489,0.02879538,0.08131024,-1.07284450531006,-0.40176522731781,0.64751809835434,-1.04677621342161,-0.450398561093403,0.648004340974112,0
2.91998291015625,-1.78423118591309,1.82599925994873,2.36610221862793,-1.98439323028747,2.1119874109737,2.37129102948832,2056.63,3558.814,3118.783,0,-0.04670386,0.02785589,0.08376072,-1.06678223609924,-0.397148698568344,0.62590754032135,-1.0411492471255,-0.447977434695422,0.644520980787238,0
2.94000244140625,-1.80552387237549,1.81812536716461,2.37891364097595,-2.00517798053537,2.10304431360073,2.38415778000673,1825.184,2509.179,2364.218,2115.185,-0.03936738,0.02773609,0.07841688,-1.06462717056274,-0.393699139356613,0.640569388866425,-1.03525504859546,-0.445441325732794,0.640872191117535,0
2.95999145507813,-1.82668566703796,1.81034564971924,2.39128589630127,-2.02581075424974,2.0941666074844,2.39693044981124,2066.192,3548.292,3097.426,0,-0.04411846,0.02674275,0.08084001,-1.05809080600739,-0.388986438512802,0.618616104125977,-1.02911391720548,-0.442798968459032,0.637070538244476,0
2.97998046875,-1.84779238700867,1.80263757705688,2.40394496917725,-2.04631823718085,2.08534281049189,2.40962555865248,1809.36,2506.509,2344.837,2131.373,-0.03668185,0.02657351,0.07545626,-1.05533683300018,-0.385389178991318,0.632959544658661,-1.0227194988233,-0.440047628868552,0.633112088657521,0
3,-1.86875867843628,1.79502689838409,2.41615319252014,-2.06672639957428,2.07656174835205,2.42225918334961,2063.423,3535.054,3091.292,0,-0.04140896,0.02551142,0.07778358,-1.0483124256134,-0.38054233789444,0.610406458377838,-1.01606400046349,-0.437183953857422,0.628992018127441,0
3.01998901367188,-1.88965892791748,1.78749108314514,2.4286572933197,-2.0869680292999,2.06785234056679,2.43478971639231,1799.664,2509.787,2309.356,2153.196,-0.0338541,0.02527143,0.07226131,-1.04501354694366,-0.376792371273041,0.625205397605896,-1.00917036754089,-0.434217816196637,0.624724530959079,0
3.04000854492188,-1.91040825843811,1.78005468845367,2.44069647789001,-2.10709998486405,2.05919012250926,2.44725235590455,2034.251,3559.914,3071.84,0,-0.03872769,0.02420826,0.07472596,-1.03747534751892,-0.371824592351913,0.601954698562622,-1.00202031904361,-0.431141350077486,0.620298310335216,0
3.05999755859375,-1.93108057975769,1.77269601821899,2.45302987098694,-2.12705600675913,2.05060360379452,2.45960608409476,1781.017,2491.17,2282.597,2195.665,-0.03104766,0.02398966,0.06912033,-1.03361105918884,-0.367929816246033,0.616670370101929,-0.994638524886308,-0.427965170275055,0.615728628108227,0
3.07998657226563,-1.95159268379211,1.76543927192688,2.46488666534424,-2.14686207530873,2.04208160581513,2.47186698402085,2024.98,3560.771,3057.693,0,-0.03597132,0.02295855,0.071552,-1.02560603618622,-0.362836748361588,0.592839241027832,-0.987017247723776,-0.424685947625853,0.611010694492843,0
3.10000610351563,-1.97201561927795,1.75826394557953,2.47703218460083,-2.16654331551667,2.03361331798384,2.48405060925705,1766.529,2478.659,2270.414,2213.547,-0.02821939,0.02275893,0.0658365,-1.02115917205811,-0.358775466680527,0.607276439666748,-0.979147395688901,-0.421299770153459,0.606138881190213,0
3.1199951171875,-1.99227046966553,1.75119256973267,2.48870062828064,-2.18603502400946,2.02522658035469,2.49611690533293,2029.703,3556.601,3035.799,0,-0.03318192,0.02172258,0.06811141,-1.01272690296173,-0.353559166193008,0.583421230316162,-0.971056158224178,-0.417818336715394,0.601130019760458,0
3.13998413085938,-2.01242303848267,1.74420607089996,2.50064325332642,-2.20536269329809,2.01691042421237,2.50808165332716,1753.081,2481.171,2268.8,2203.302,-0.02564677,0.0214869,0.06238684,-1.00763630867004,-0.349339306354523,0.597130835056305,-0.962735018414262,-0.414237982720922,0.59597883782726,0
3.16000366210938,-2.03239846229553,1.7373251914978,2.51209950447083,-2.22455088103183,2.00865428308644,2.51996005559448,2034.485,3522.243,3043.75,0,-0.03069133,0.02035741,0.06445029,-0.998755395412445,-0.344028830528259,0.572813987731934,-0.954174163352092,-0.410554485950274,0.590679260733698,0
3.17999267578125,-2.05226039886475,1.73053085803986,2.52383899688721,-2.24353658854737,2.00048526354177,2.53171311296128,1737.422,2494.902,2249.5,2204.419,-0.0231711,0.02000718,0.05867146,-0.993100166320801,-0.339723289012909,0.586970031261444,-0.945403214201559,-0.406780591562751,0.585249625391267,0
3.19998168945313,-2.07193541526794,1.72384357452393,2.53508353233337,-2.26234477504321,1.99239262633251,2.54335627636037,2004.177,3542.147,3030.651,0,-0.02833657,0.0188283,0.06094072,-0.983759582042694,-0.334372818470001,0.562224745750427,-0.936412917636688,-0.402912318110697,0.579684203550396,0
3.22000122070313,-2.09148669242859,1.71724331378937,2.54660892486572,-2.28099938900442,1.98436606709459,2.55490437104486,1710.407,2481.105,2231.245,2241.315,-0.02062885,0.01845492,0.05524844,-0.977561235427856,-0.330012649297714,0.576264619827271,-0.927192788821982,-0.398945154262308,0.573976504598449,0
3.239990234375,-2.11084365844727,1.71075117588043,2.55763411521912,-2.2994392795179,1.97643189735754,2.5663195416865,2011.807,3530.038,3012.87,0,-0.02573572,0.0172269,0.05750234,-0.967840969562531,-0.324602156877518,0.551255464553833,-0.917774783907129,-0.394892849856044,0.568146310914365,0
3.260009765625,-2.13006591796875,1.70434832572937,2.56893610954285,-2.31771654397337,1.96856770107001,2.57763403905129,1693.005,2480.559,2212.638,2256.269,-0.01794065,0.01680576,0.05181223,-0.961117446422577,-0.320138543844223,0.565096616744995,-0.908134108040216,-0.390744736359816,0.562178273303667,0
3.27999877929688,-2.14908647537231,1.69805538654327,2.57972931861877,-2.33577134012187,1.96079922667992,2.58881081793642,2014.226,3516.301,3002.16,0,-0.02305552,0.0155097,0.05398464,-0.951024055480957,-0.31464421749115,0.539664506912231,-0.898304216251578,-0.386515208538549,0.556093102023818,0
3.29998779296875,-2.16796207427979,1.69185400009155,2.59080147743225,-2.35362764460945,1.95311615770631,2.59986472102797,1674.47,2484.371,2189.515,2273.436,-0.01519174,0.01502498,0.04824784,-0.943793892860413,-0.310066848993301,0.553604185581207,-0.888274735793772,-0.382199803288803,0.549884375850026,0
3.32000732421875,-2.18662881851196,1.68576431274414,2.60135412216187,-2.37130830610839,1.94550866300381,2.61080989274252,2000.506,3517.919,2991.611,0,-0.0203636,0.01368829,0.0504535,-0.933322489261627,-0.304489225149155,0.527631223201752,-0.878034183119985,-0.377793579561194,0.543544985919778,0
3.33999633789063,-2.20514106750488,1.67976832389832,2.61219239234924,-2.38875555478454,1.93800159931817,2.62161057080077,1661.748,2480.744,2156.572,2302.319,-0.01240607,0.01316508,0.04465387,-0.925614535808563,-0.299802213907242,0.541909992694855,-0.867618167158097,-0.373311858882592,0.53709697585572,0
3.3599853515625,-2.2234365940094,1.67388546466827,2.62249732017517,-2.40599272667425,1.93058492580486,2.63228120132087,1981.098,3528.661,2977.114,0,-0.01770523,0.01183927,0.046954,-0.914778292179108,-0.294145345687866,0.515249669551849,-0.857015715678588,-0.368749920209162,0.530533553325099,0
3.3800048828125,-2.24156856536865,1.66809868812561,2.6330873966217,-2.42304196557559,1.92324911460621,2.64283549236868,1641.009,2465.229,2135.386,2339.108,-0.009603359,0.01134022,0.04109078,-0.906601250171661,-0.289349913597107,0.529502809047699,-0.846214826007803,-0.364102599125748,0.523847288101157,0
3.39999389648438,-2.25947761535645,1.66242623329163,2.6431405544281,-2.43984769972619,1.91601807669906,2.65323904237604,1981.272,3529.23,2955.017,0,-0.01493927,0.01004132,0.04333022,-0.895448982715607,-0.283606618642807,0.50265246629715,-0.835253140422974,-0.35938609205264,0.51706148254665,0
3.41998291015625,-2.27721309661865,1.65685248374939,2.65346956253052,-2.45643259034873,1.90888206159239,2.66350587971929,1628.513,2461.833,2124.802,2344.216,-0.006945524,0.009550249,0.03743855,-0.886774122714996,-0.278687357902527,0.516445934772491,-0.824119146742881,-0.354595445619869,0.510169010073001,0
3.44000244140625,-2.29471898078918,1.65139520168304,2.66325211524963,-2.47281804716281,1.90183185728196,2.67364925803476,1984.295,3504.074,2956.271,0,-0.01236239,0.008224645,0.03950412,-0.875306010246277,-0.272875845432281,0.489132553339005,-0.812800388649434,-0.349725300221754,0.503162159625937,0
3.45999145507813,-2.31204223632813,1.64603769779205,2.67331743240356,-2.48895081463434,1.8948903781363,2.68363620960993,1617.332,2469.539,2105.677,2347.722,-0.004416054,0.007675983,0.03353137,-0.866156399250031,-0.267873525619507,0.5032679438591,-0.80133641229185,-0.344792671461508,0.496065412155666,0
3.47998046875,-2.32912945747375,1.64079689979553,2.68282914161682,-2.50485284867397,1.88804817714046,2.69348032619939,1961.82,3516.924,2944.051,0,-0.009988984,0.006344495,0.03570272,-0.854363441467285,-0.262031972408295,0.475582838058472,-0.789715229532172,-0.33979240117828,0.488871346433721,0
3.5,-2.34602451324463,1.63565695285797,2.69262075424194,-2.5205447997813,1.88129636896134,2.70319439144611,1594.73,2460.046,2092.353,2372.517,-0.001997903,0.00579463,0.02978524,-0.844754695892334,-0.256988704204559,0.489576369524002,-0.777924000354857,-0.334718964672089,0.481572013878822,0
3.51998901367188,-2.36267805099487,1.63063454627991,2.70185494422913,-2.53597583877076,1.87465682397749,2.71274693966292,1967.863,3503.335,2931.025,0,-0.007599064,0.00444245,0.03191184,-0.832693099975586,-0.251125484704971,0.461706608533859,-0.766004036374581,-0.329590137176618,0.474192988348404,0
3.54000854492188,-2.37913084030151,1.62571382522583,2.71136546134949,-2.55119019794619,1.86811051026429,2.72216535275294,1577.609,2462.484,2080.227,2379.319,0.000366004,0.003860619,0.02602885,-0.822644591331482,-0.246035918593407,0.475528448820114,-0.753924423002452,-0.324392617007921,0.466715132239272,0
3.55999755859375,-2.39533758163452,1.62091088294983,2.72031235694885,-2.56613872308604,1.86167857751006,2.73141920191151,1970.183,3486.761,2925.087,0,-0.005287973,0.002459469,0.02809409,-0.810330092906952,-0.240158706903458,0.44735062122345,-0.741727567798258,-0.319144650954242,0.459164697851087,0
3.57998657226563,-2.4113347530365,1.61620998382568,2.72953867912292,-2.58084213759183,1.85535210901407,2.74052131591136,1559.006,2468.181,2063.045,2390.553,0.002695018,0.001822262,0.02223056,-0.79986709356308,-0.235036134719849,0.461312174797058,-0.72940084364523,-0.31384080592,0.451533868397061,0
3.60000610351563,-2.42708110809326,1.61162662506104,2.73819351196289,-2.59531978247425,1.84912278287974,2.74948366775945,1960.822,3483.385,2917.363,0,-0.003015231,0.000384067,0.02434994,-0.787312626838684,-0.229153394699097,0.432744741439819,-0.716930938559024,-0.308475354130224,0.443814403124743,0
3.6199951171875,-2.44261074066162,1.60714673995972,2.74713444709778,-2.60952509409627,1.84301063413925,2.75827743234631,1545.881,2467.35,2036.049,2413.125,0.00503586,-0.0002950782,0.01849851,-0.776471793651581,-0.224000707268715,0.447042107582092,-0.704361775018033,-0.303067194200314,0.436033492140578,0
3.63998413085938,-2.45788478851318,1.60278451442719,2.7554931640625,-2.623478029369,1.83700707589127,2.76691496395061,1949,3486.19,2905.753,0,-0.0007765777,-0.001736381,0.02071022,-0.763705849647522,-0.218110308051109,0.417941987514496,-0.691680442442073,-0.297610771068296,0.428183143180413,0
3.66000366210938,-2.47293496131897,1.59852623939514,2.76414012908936,-2.63719712493647,1.83110413233575,2.77540773763803,1526.558,2458.295,2015.293,2444.123,0.007391884,-0.002410693,0.0148539,-0.752517819404602,-0.212926432490349,0.432346880435944,-0.678873453515702,-0.29210028151913,0.420255006953505,0
3.67999267578125,-2.48772692680359,1.59438562393188,2.77220797538757,-2.65063849381582,1.82532068681534,2.78372858527554,1935.65,3495.685,2873.077,17.8668,0.001643574,-0.003783287,0.01708963,-0.739581406116486,-0.207014605402946,0.40339320898056,-0.665986083416798,-0.286555206197011,0.41227711095171,0
3.69998168945313,-2.50228786468506,1.59035038948059,2.78054976463318,-2.66382131180924,1.81964848851807,2.79188937759817,1521.969,2454.193,2007.01,2441.312,0.009641187,-0.004411793,0.01128818,-0.728043735027313,-0.201766669750214,0.417085766792297,-0.653005218467595,-0.280969902652754,0.404241337183804,0
3.72000122070313,-2.51658701896667,1.58643364906311,2.78832292556763,-2.6767633032417,1.81407991116207,2.79990108680742,1912.939,3482.681,2838.776,71.30927,0.004131256,-0.005656554,0.01335089,-0.714966952800751,-0.195839166641235,0.388659685850143,-0.639917282339434,-0.275338529371411,0.396139281255611,0
3.739990234375,-2.53064870834351,1.58262324333191,2.79634976387024,-2.68942333385363,1.80863265367006,2.80773824883709,1535.289,2462.72,2009.938,2396.796,0.01172802,-0.00623446,0.007600718,-0.703069031238556,-0.190518721938133,0.401345014572144,-0.62676873176137,-0.26968107538565,0.387999702095468,0
3.760009765625,-2.54444575309753,1.57893133163452,2.80382537841797,-2.70183851231475,1.80329074921818,2.81542383572149,1888.518,3463.611,2802.786,135.6643,0.006414049,-0.007348194,0.009407762,-0.689846754074097,-0.184597760438919,0.37378403544426,-0.613526094901139,-0.263983138701136,0.379801879044709,0
3.77999877929688,-2.55799722671509,1.57534623146057,2.81152558326721,-2.7139695770734,1.79807109095524,2.82293354268985,1542.289,2479.725,2030.35,2332.125,0.0134342,-0.0078755,0.003810922,-0.677575945854187,-0.179255455732346,0.385007739067078,-0.60023651686137,-0.258265004538452,0.371574997167698,0
3.79998779296875,-2.57128119468689,1.57187819480896,2.81870198249817,-2.72583438304408,1.79296599641037,2.83027842278479,1863.606,3433.526,2764.462,215.8341,0.008423828,-0.008866196,0.00532694,-0.664208114147186,-0.173394903540611,0.358823776245117,-0.586886736182787,-0.252520966862155,0.36331084698941,0
3.82000732421875,-2.584312915802,1.56851637363434,2.82606649398804,-2.73744929742843,1.78796842323393,2.8374686080838,1548.822,2507.708,2063.592,2243.618,0.01477174,-0.009359946,3.43456E-05,-0.651574015617371,-0.168090611696243,0.368222922086716,-0.573463232144022,-0.246745208083563,0.355001058539243,0
3.83999633789063,-2.59707403182983,1.56526970863342,2.83294558525085,-2.74877791451009,1.78309403578861,2.84448156171422,1840.73,3391.705,2717.745,315.9342,0.01022959,-0.01025157,0.001233922,-0.638073801994324,-0.162338182330132,0.343954145908356,-0.560014026276881,-0.240958390526246,0.346675359432959,0
3.8599853515625,-2.60957622528076,1.56212782859802,2.83996987342834,-2.75983729406747,1.77833549372837,2.85132784449154,1558.708,2547.285,2101.183,2135.289,0.01581759,-0.0107336,-0.003632552,-0.625111699104309,-0.157110646367073,0.351217299699783,-0.546525890176286,-0.235154822377061,0.338325560657667,0
3.8800048828125,-2.62180662155151,1.55909752845764,2.84655046463013,-2.77064299647982,1.77368610185671,2.85801708903178,1810.315,3338.809,2669.661,437.1658,0.01190563,-0.01153362,-0.002755839,-0.611502468585968,-0.151503518223763,0.329024374485016,-0.532985466132484,-0.229328756186666,0.329943393154704,0
3.89999389648438,-2.6337718963623,1.55617022514343,2.85323524475098,-2.78116151864576,1.76916027562219,2.86452855531919,1577.028,2592.429,2134.167,2018.27,0.01676295,-0.01201672,-0.007172958,-0.598265945911407,-0.146366432309151,0.334239900112152,-0.519441457145543,-0.223501147495394,0.321559006401168,0
3.91998291015625,-2.64546298980713,1.55335199832916,2.85951662063599,-2.79140913007042,1.76475101471128,2.87087231495249,1782.577,3286.432,2619.623,557.6324,0.01345389,-0.01274216,-0.006603574,-0.584568619728088,-0.140911683440208,0.314069807529449,-0.505880764601328,-0.217666360335509,0.313164291730931,0
3.94000244140625,-2.65688562393188,1.55063438415527,2.8658607006073,-2.8014005971492,1.76045196555656,2.87705750903383,1588.063,2636.985,2167.362,1909.603,0.01762718,-0.0132162,-0.01056529,-0.571115851402283,-0.135876893997192,0.31720107793808,-0.492290296490434,-0.211818761581115,0.30475114456651,0
