t,x_s1,x_s2,x_s3,x_s_d1,x_s_d2,x_s_d3,propellers_rpms1,propellers_rpms2,propellers_rpms3,propellers_rpms4,rollRad,pitchRad,yawRad,v_s1,v_s2,v_s3,v_s_d1,v_s_d2,v_s_d3,insideCount
0,-0.0599999986588955,2.94000005722046,1.17999994754791,-0.0599999986588955,2.94000005722046,1.17999994754791,0,0,0,0,0,0,0,0,0,0,-1.06581410364015E-15,4.44089209850063E-16,4.44089209850063E-16,0
0.02001953125,-0.0599999986588955,2.94000005722046,1.1771354675293,-0.0600018744611685,2.93999925011514,1.18000110875888,0,0,0,0,0.0163538,-0.002474609,-2.024222E-05,3.71994488546079E-08,3.50004931704007E-08,-0.143225952982903,-0.000280531511337879,-0.000120704872184653,0.000173662369087018,5
0.040008544921875,-0.0599999986588955,2.94000005722046,1.17048275470734,-0.060014880898484,2.93999365380853,1.18000916036316,0,0,0,0,0.03270752,-0.004950816,-5.430172E-05,3.62924410524101E-08,3.44428769949445E-08,-0.332637369632721,-0.00111143977225461,-0.000478221483967637,0.00068803416424398,6
0.05999755859375,-0.0600004345178604,2.94013237953186,1.16416537761688,-0.0600498857373401,2.93997859220429,1.18003083002592,3185.047,2835.61,1501.497,2767.799,0.03128355,-0.004942827,-0.01646899,-2.17774486372946E-05,0.00662195403128862,-0.315869957208633,-0.00247936261166862,-0.00106680046642749,0.00153484356504269,6
0.08001708984375,-0.0599162131547928,2.9403874874115,1.15857708454132,-0.0601176241590912,2.9399494462538,1.18007276333581,3065.904,3067.256,2154.947,2024.016,0.01898389,-0.004311125,-0.04351445,0.00421105837449431,0.012750624679029,-0.279417544603348,-0.00437432711648753,-0.0018821507536715,0.00270791686320324,6
0.100006103515625,-0.0596375241875648,2.94068741798401,1.15374875068665,-0.0602282404704493,2.93990185114529,1.18014124010193,2641.104,3831.896,2619.575,1134.562,-0.005845638,-0.002890062,-0.07014766,0.0139344744384289,0.0150005463510752,-0.241416051983833,-0.00677739276378709,-0.00291612276782231,0.00419552897277328,6
0.120025634765625,-0.0590848438441753,2.94089865684509,1.14957046508789,-0.0603921815631679,2.93983131187307,1.18024272744792,2091.666,4102.055,3169.471,756.1996,-0.04011466,-0.0004516721,-0.08993868,0.027634009718895,0.0105665139853954,-0.208914488554001,-0.00968281574750508,-0.00416624510959472,0.00599412420418488,5
0.1400146484375,-0.0582313686609268,2.94085621833801,1.14596712589264,-0.0606187761383957,2.93973381455767,1.18038300028418,1510.861,4074.834,3735.594,701.6448,-0.07649504,0.002387591,-0.09950369,0.0426738075911999,-0.00212511699646711,-0.180168598890305,-0.0130687916036232,-0.00562313592726786,0.00809020455552005,4
0.160003662109375,-0.0570992864668369,2.94039487838745,1.14297831058502,-0.0609177895434042,2.93960515744296,1.18056810382587,1134.294,3847.206,4070.274,880.1567,-0.1062857,0.004335606,-0.09870314,0.0566041730344296,-0.0230627506971359,-0.149443760514259,-0.0169265510445065,-0.00728302204135792,0.0104783414199936,4
0.180023193359375,-0.055737528949976,2.93938803672791,1.14071130752563,-0.061299173422313,2.9394410586145,1.18080419861474,1100.565,3565.099,4010.333,1149.211,-0.1236325,0.004492518,-0.09000047,0.0680879354476929,-0.0503368452191353,-0.113350093364716,-0.0212503155312517,-0.00914341710800856,0.0131549576067545,3
0.20001220703125,-0.0541962273418903,2.9377772808075,1.13924884796143,-0.0617708265342762,2.93923811945689,1.181096174359,1374.294,3339.683,3594.41,1385.82,-0.1278802,0.00302207,-0.07724978,0.0770650655031204,-0.0805361270904541,-0.0731205269694328,-0.0260142813927851,-0.0111932185284278,0.0161040794142088,3
0.220001220703125,-0.0525139458477497,2.93557620048523,1.13858413696289,-0.0623420644491781,2.93899233174064,1.18144979784016,1789.949,3213.137,3017.277,1527.343,-0.1229805,0.000860845,-0.06425622,0.0841141194105148,-0.110049709677696,-0.0332379452884197,-0.03121219533433,-0.0134297356845702,0.019321835755004,3
0.240020751953125,-0.0507192760705948,2.93284702301025,1.13860714435577,-0.0630225615075555,2.93869953286731,1.18187105793587,2159.123,3168.027,2517.384,1559.075,-0.1149612,-0.0009885654,-0.05361849,0.0897335559129715,-0.136453315615654,0.00115128979086876,-0.0368405636651345,-0.0158514653389075,0.022806063868137,3
0.260009765625,-0.0488369353115559,2.92966485023499,1.1391384601593,-0.0638185570309634,2.93835703823113,1.18236381708338,2353.177,3159.382,2273.014,1495.196,-0.109049,-0.001906291,-0.04623567,0.0941170454025269,-0.159109324216843,0.0265635028481483,-0.0428699302682246,-0.0184457333472145,0.0265385290140116,3
0.279998779296875,-0.0468913875520229,2.92608761787415,1.13999652862549,-0.0647390625194898,2.93796097043536,1.18293365383054,2351.681,3152.552,2324.678,1363.744,-0.1078181,-0.001744903,-0.04151762,0.0972774624824524,-0.178859561681747,0.0429033190011978,-0.0492963837173861,-0.0212108567320638,0.030516809833474,3
0.300018310546875,-0.0449083782732487,2.92214393615723,1.14106237888336,-0.0657936070281142,2.93750722939386,1.1835864671163,2228.999,3143.274,2572.981,1195.288,-0.1110815,-0.0007366303,-0.03798467,0.0991503745317459,-0.197189882397652,0.0532942861318588,-0.0561185469977389,-0.0241462430024218,0.0347400538887172,3
0.32000732421875,-0.042916551232338,2.91783571243286,1.14229488372803,-0.0669865614821475,2.93699393441958,1.18432496275165,2075.503,3133.048,2872.303,1031.626,-0.1169304,0.0006852079,-0.033983,0.0995916202664375,-0.215407103300095,0.061623428016901,-0.0633036493784043,-0.0272377918282996,0.0391879745362408,3
0.34002685546875,-0.0409485325217247,2.91315126419067,1.14370787143707,-0.068328931055223,2.93641635029375,1.18515595346331,1954.054,3107.831,3110.07,921.4189,-0.1228506,0.002070327,-0.02837225,0.0984010398387909,-0.234220191836357,0.0706508606672287,-0.0708617428582823,-0.0304898283040037,0.0438667944422071,3
0.360015869140625,-0.0390397682785988,2.90807747840881,1.14534437656403,-0.0698237345322385,2.93577317811757,1.18608130802295,1905.654,3064.824,3221.554,881.5448,-0.1267159,0.003092612,-0.02087599,0.095438078045845,-0.253694504499435,0.081822894513607,-0.0787580297418618,-0.0338873799532906,0.0487549721754506,3
0.3800048828125,-0.0372252762317657,2.90261077880859,1.14724397659302,-0.0714797725314022,2.93506063123087,1.18710647443246,1922.629,3022.299,3208.401,894.8235,-0.1274381,0.003643709,-0.01187983,0.0907248705625534,-0.273340225219727,0.0949771329760551,-0.0869921272359981,-0.0374302820709642,0.0538522707687797,3
0.4000244140625,-0.0355369076132774,2.8967616558075,1.14943194389343,-0.0733065984369745,2.93427459907931,1.1882373666918,1990.727,2987.691,3099.062,941.0622,-0.1250391,0.003792359,-0.002208293,0.0844182521104813,-0.2924545109272,0.109401188790798,-0.0955658248284375,-0.0411193046236092,0.0591597980003546,3
0.420013427734375,-0.0340016856789589,2.89055490493774,1.15190696716309,-0.0753050585276311,2.93341471753282,1.18947450868777,2074.221,2975.527,2952.178,985.0458,-0.1205059,0.003707528,0.007338022,0.0767608657479286,-0.310332417488098,0.12375108897686,-0.104441553474511,-0.0449382827008623,0.0646542968418633,3
0.44000244140625,-0.0326422825455666,2.88402462005615,1.15464234352112,-0.077483988232608,2.93247718495301,1.19082336997196,2135.172,2973.192,2826.321,1022.825,-0.1150885,0.003564882,0.01615954,0.0679705291986465,-0.3265101313591,0.136770784854889,-0.113620829717891,-0.048887868829098,0.0703367061060819,4
0.46002197265625,-0.0314782485365868,2.8772075176239,1.15760231018066,-0.0798530997696509,2.93145782244394,1.19228996286983,2167.789,2976.111,2748.897,1041.357,-0.109857,0.003476342,0.02394609,0.0582019649446011,-0.340856701135635,0.14799889922142,-0.123107133063502,-0.0529695601420796,0.0762091797723108,4
0.480010986328125,-0.0305267330259085,2.87013816833496,1.1607494354248,-0.0824109101018722,2.93035726811493,1.19387336931088,2170.417,2985.442,2730.955,1030.943,-0.1055373,0.003481545,0.03074668,0.0475754626095295,-0.35346731543541,0.157354742288589,-0.132860437136906,-0.0571661344090936,0.082246939608052,4
0.5,-0.0298036206513643,2.8628466129303,1.16405308246613,-0.085166398670376,2.92917165836334,1.1955791479969,2145.237,2989.877,2764.434,1008.599,-0.1022798,0.003569495,0.03680584,0.0361557006835938,-0.364583283662796,0.165183186531067,-0.142884000065179,-0.0614789935111996,0.0884520025491718,4
0.52001953125,-0.0293244887143373,2.85535669326782,1.16750025749207,-0.0881295333471192,2.92789670429234,1.19741346951549,2116.025,2990.584,2816.88,980.8459,-0.0998238,0.003688501,0.04240789,0.0239565223455429,-0.374499917030334,0.172360777854919,-0.153182839569029,-0.0659102964334391,0.0948274748038155,4
0.540008544921875,-0.02910434640944,2.8476881980896,1.17108762264252,-0.0912963635428427,2.92653410573011,1.19937388826368,2091.533,2993.795,2869.517,948.2225,-0.09782536,0.003777013,0.04785613,0.0110072838142514,-0.383429706096649,0.179366871714592,-0.163714777034477,-0.0704418948965508,0.101347245800684,4
0.55999755859375,-0.0291578508913517,2.83985805511475,1.17481732368469,-0.094676112580471,2.92507989413848,1.20146611391775,2068.974,2989.034,2910.48,934.3041,-0.09580243,0.003796388,0.05330237,-0.00267522502690554,-0.391504257917404,0.18648424744606,-0.17448465888317,-0.0750758741803766,0.108014315705644,5
0.58001708984375,-0.0294994004070759,2.83188223838806,1.17869973182678,-0.0982790918331175,2.92352963282165,1.20369652970884,2063.039,2983.719,2921.971,934.2675,-0.09337575,0.003719833,0.05873381,-0.017077524214983,-0.3987857401371,0.194122850894928,-0.185498893714783,-0.0798149917263209,0.114832651747179,5
0.600006103515625,-0.0301417745649815,2.82377743721008,1.18274140357971,-0.102098762959148,2.92188613504538,1.20606108809202,2069.348,2986.604,2910.895,935.1105,-0.09050274,0.00353822,0.06410993,-0.0321187749505043,-0.405238032341003,0.20208652317524,-0.196713446836865,-0.0846403006364086,0.121774994352997,5
0.620025634765625,-0.0310960598289967,2.81556129455566,1.18694305419922,-0.106151036002673,2.92014255516215,1.2085696381425,2072.589,2986.298,2889.075,952.2179,-0.08719242,0.003272773,0.06929956,-0.0477144308388233,-0.410806626081467,0.210082903504372,-0.208152193747382,-0.0895620738704106,0.128856123593688,5
0.6400146484375,-0.0323720388114452,2.80725193023682,1.19130754470825,-0.110427588881679,2.91830247393137,1.21121702809507,2084.052,2990.366,2852.241,972.2466,-0.0835929,0.002941951,0.07413624,-0.0637984126806259,-0.41546756029129,0.218223422765732,-0.21977002223474,-0.0945609009039674,0.136048112861281,5
0.660003662109375,-0.0339764542877674,2.79886841773987,1.19582319259644,-0.114938248900541,2.91636166293851,1.21400934151928,2087.04,3001.689,2831.072,976.7543,-0.08004557,0.002566335,0.07861896,-0.0802209600806236,-0.41917011141777,0.225780576467514,-0.231574097577923,-0.0996398647564507,0.143355397804799,5
0.680023193359375,-0.0359158255159855,2.79042887687683,1.20048916339874,-0.119694071710854,2.91431536524554,1.21695342239012,2086.05,3002.738,2804.58,1003.154,-0.07657653,0.002173523,0.08259737,-0.0969690009951591,-0.421982437372208,0.23329696059227,-0.243572831403349,-0.104802584715715,0.150783185621694,6
0.70001220703125,-0.0381938181817532,2.78195023536682,1.20529305934906,-0.124683985757554,2.91216834463331,1.22004241688759,2087.487,3020.025,2797.37,990.8432,-0.07356343,0.001757699,0.08620466,-0.113898947834969,-0.423928081989288,0.24019330739975,-0.255719729227087,-0.11002905550423,0.158302694011575,6
0.720001220703125,-0.0408137477934361,2.77344799041748,1.21022844314575,-0.129918284978346,2.90991617190799,1.22328269744952,2071.853,3018.782,2798.444,1007.702,-0.07088269,0.001346193,0.08940919,-0.130997374653816,-0.425117194652557,0.246770203113556,-0.268023157655716,-0.11532287703907,0.16591910230247,6
0.740020751953125,-0.0437780283391476,2.76493525505066,1.21529078483582,-0.135408560960145,2.90755385953358,1.22668143982036,2066.009,3026.381,2804.786,1001.231,-0.0685732,0.0009306522,0.09230389,-0.148213759064674,-0.425637006759644,0.253114253282547,-0.280492548100696,-0.120688107393104,0.173638248987353,6
0.760009765625,-0.0470885224640369,2.75642347335815,1.22047901153564,-0.141140917956636,2.9050873864615,1.23023004187122,2059.859,3031.161,2808.766,1000.785,-0.06658382,0.0005084896,0.09493753,-0.165525019168854,-0.425587326288223,0.259414196014404,-0.293080296154222,-0.126104263719567,0.181430664670081,6
0.779998779296875,-0.0507458262145519,2.74792289733887,1.22578608989716,-0.147126184485884,2.90251209348295,1.23393520697061,2048.584,3033.811,2823.509,996.3021,-0.06486342,8.175951E-05,0.09739687,-0.182864829897881,-0.425034582614899,0.26535627245903,-0.305795832832518,-0.131575403921268,0.189302187598958,6
0.800018310546875,-0.0547515042126179,2.73944139480591,1.23121893405914,-0.153376545303595,2.89982273783796,1.23780447806275,2043.6,3031.075,2820.076,1010.628,-0.06317923,-0.0003398194,0.09960771,-0.200283989310265,-0.424071162939072,0.27164289355278,-0.318649478366155,-0.137105968505107,0.197259206488328,6
0.82000732421875,-0.059104960411787,2.73098707199097,1.23677253723145,-0.159875221826383,2.89702653888221,1.24182746840525,2047.871,3042.682,2822.503,993.6617,-0.06173846,-0.0007808388,0.1016936,-0.217672303318977,-0.422721207141876,0.277677744626999,-0.331592781842754,-0.14267511039705,0.205271727915392,6
0.839996337890625,-0.0638059228658676,2.7225661277771,1.24244737625122,-0.166633637018892,2.89411858163313,1.24601124935738,2037.65,3037.354,2819.521,1014.471,-0.06032699,-0.00121014,0.1035589,-0.23504863679409,-0.42104971408844,0.28374320268631,-0.344636106234817,-0.148287288494656,0.213346167053785,6
0.860015869140625,-0.0688531696796417,2.71418452262878,1.24824213981628,-0.173664618315387,2.89109334680413,1.25036376171199,2041.436,3043.783,2815.152,1010.526,-0.05904547,-0.001637844,0.1052334,-0.252362638711929,-0.419083446264267,0.289740979671478,-0.357790534090669,-0.153947271308859,0.221489384528856,6
0.8800048828125,-0.0742451697587967,2.7058470249176,1.25415802001953,-0.180948461186242,2.88795931270381,1.25487280742661,2043.331,3048.286,2804.371,1017.07,-0.05792961,-0.002059689,0.1066896,-0.269599258899689,-0.416871666908264,0.295794755220413,-0.371007022483504,-0.159633957038354,0.229671020432672,6
0.9000244140625,-0.0799784660339355,2.69755816459656,1.26018464565277,-0.188508963212068,2.88470623989808,1.25955311833725,2037.964,3052.125,2811.434,1012.817,-0.05707847,-0.002469816,0.1079929,-0.286665052175522,-0.41443994641304,0.301330357789993,-0.384317079523421,-0.165360902742685,0.237910579786325,7
0.920013427734375,-0.0860516130924225,2.6893208026886,1.26633155345917,-0.196324452211266,2.88134345332121,1.26439127833112,2037.936,3050.412,2795.68,1034.117,-0.05631361,-0.002848517,0.1090148,-0.303657531738281,-0.411868304014206,0.307345509529114,-0.397671404529394,-0.171106895716105,0.246177543119742,7
0.94000244140625,-0.0924589484930038,2.68113780021667,1.27257883548737,-0.204407453948074,2.87786556348678,1.26939504145298,2037.776,3062.55,2818.358,1000.17,-0.05600681,-0.003226686,0.1100005,-0.320366054773331,-0.40915259718895,0.312363833189011,-0.411081631631503,-0.176876941799768,0.254479112513653,7
0.96002197265625,-0.0991995632648468,2.67300963401794,1.27894604206085,-0.21277195700315,2.87426655149935,1.27457306730061,2028.311,3048.709,2798.714,1048.779,-0.05559242,-0.003544667,0.110659,-0.337031871080399,-0.406410694122314,0.318360358476639,-0.424559845004915,-0.182676240476657,0.262822768648136,7
0.980010986328125,-0.106266558170319,2.6649374961853,1.28541028499603,-0.221393324468958,2.87055701793193,1.27991010445463,2043.618,3072.961,2824.078,984.4321,-0.05578524,-0.003885019,0.1113872,-0.35335037112236,-0.403609335422516,0.323210865259171,-0.438056556301695,-0.188483498293199,0.271177875878363,7
1,-0.11365869641304,2.65691995620728,1.29199028015137,-0.230284798736574,2.86673126495361,1.28541435058594,2021.627,3049.871,2809.488,1050.364,-0.0557863,-0.004149205,0.1118163,-0.369606167078018,-0.400878220796585,0.329002231359482,-0.451584000205995,-0.194303979492187,0.279552008056641,7
1.02001953125,-0.12136872112751,2.64895677566528,1.29866397380829,-0.239461107372567,2.86278295570393,1.29109492275982,2039.098,3072.003,2839.385,982.2597,-0.05629123,-0.00442937,0.112343,-0.385502278804779,-0.398164838552475,0.333682745695114,-0.465154707681581,-0.200143075797255,0.287952922446475,7
1.04000854492188,-0.129396304488182,2.64104461669922,1.305459856987,-0.248894644448595,2.85872396824263,1.29693473159157,2028.133,3053.507,2809.247,1049.428,-0.0565437,-0.004638162,0.1125603,-0.401378065347672,-0.395603477954865,0.339797228574753,-0.47871923339115,-0.205979512261105,0.296350010028666,7
1.05999755859375,-0.137731790542603,2.63318276405334,1.31233870983124,-0.258599401509697,2.85454828239877,1.30294243851408,2041.491,3078.438,2859.497,960.9061,-0.0574609,-0.004879976,0.1130124,-0.416774541139603,-0.393096804618835,0.34394434094429,-0.492290296490434,-0.211818761581115,0.30475114456651,7
1.08001708984375,-0.146377310156822,2.6253662109375,1.31934833526611,-0.268590868588476,2.85024923324404,1.30912763259543,2021.436,3044.31,2811.254,1073.897,-0.05774745,-0.005006743,0.1130084,-0.432277739048004,-0.390827745199203,0.350480139255524,-0.505880764601332,-0.21766636033551,0.313164291730931,7
1.10000610351563,-0.155321091413498,2.61759376525879,1.32643568515778,-0.278838480013141,2.84583997233313,1.31547139222872,2059.109,3091.486,2871.588,927.3235,-0.05902737,-0.0052166,0.1134017,-0.447188496589661,-0.388621300458908,0.354368478059769,-0.519441457145546,-0.223501147495394,0.321559006401169,7
1.12002563476563,-0.164566725492477,2.60985922813416,1.33365821838379,-0.28937326791995,2.84130714740473,1.32199292778458,2017.63,3039.545,2814.221,1090.568,-0.05944069,-0.005274124,0.1132436,-0.462280094623566,-0.38672462105751,0.361129313707352,-0.533006127404302,-0.22933764615472,0.329956183466192,8
1.1400146484375,-0.174100622534752,2.6021614074707,1.34095168113708,-0.300162704591434,2.83666475422696,1.32867210305637,2067.798,3097.27,2889.786,905.1342,-0.06101728,-0.00543711,0.113592,-0.476696282625198,-0.384895116090775,0.364670544862747,-0.54652589017629,-0.235154822377061,0.338325560657667,8
1.16000366210938,-0.183928653597832,2.5944926738739,1.348388671875,-0.311222084148811,2.83190621216671,1.33551838583369,2018.487,3035.145,2816.661,1104.588,-0.06148547,-0.005420598,0.1132874,-0.491401255130768,-0.383441060781479,0.371851444244385,-0.560014026276883,-0.240958390526247,0.34667535943296,8
1.18002319335938,-0.194034516811371,2.58685207366943,1.35588455200195,-0.322568202252263,2.82702429452064,1.34254217343029,2076.551,3104.124,2919.082,871.4096,-0.06335873,-0.005543103,0.1136677,-0.505293071269989,-0.382028013467789,0.374793827533722,-0.573483731835696,-0.246754028528194,0.355013748824923,8
1.20001220703125,-0.204428642988205,2.57923030853271,1.36354601383209,-0.334165615614823,2.82203425154496,1.34972152476313,2023.316,3028.527,2802.881,1135.5,-0.0637124,-0.005446164,0.1131708,-0.519706726074219,-0.38108879327774,0.383075058460236,-0.586886736182789,-0.252520966862155,0.363310846989412,8
1.22000122070313,-0.215088337659836,2.57162833213806,1.37124001979828,-0.346030421585499,2.81692915700008,1.35706640485806,2093.076,3122.043,2962.442,803.9559,-0.06612363,-0.005562811,0.11374,-0.532984673976898,-0.3801009953022,0.384698331356049,-0.600236516861372,-0.258265004538453,0.371574997167698,8
1.24002075195313,-0.226032361388206,2.56403350830078,1.37913012504578,-0.358180209983518,2.8117014424782,1.36458770265112,2007.474,3003.192,2786.802,1210.525,-0.06604213,-0.005345497,0.1129745,-0.547200500965118,-0.379737854003906,0.394506096839905,-0.613546334788502,-0.263991847359231,0.379814408499145,8
1.260009765625,-0.237229585647583,2.5564501285553,1.38702487945557,-0.37057666480527,2.80636759428526,1.37226169871082,2130.318,3153.019,3007.153,701.9736,-0.06905683,-0.005482916,0.1138088,-0.559862315654755,-0.379170686006546,0.394736081361771,-0.626768731761373,-0.26968107538565,0.387999702095469,8
1.27999877929688,-0.248708426952362,2.54886174201965,1.3951518535614,-0.383236695417198,2.80092033679326,1.3800988607405,1988.344,2975.605,2760.872,1302.195,-0.06847467,-0.00514576,0.1127648,-0.573941588401794,-0.379418253898621,0.406347513198853,-0.639917282339435,-0.275338529371412,0.396139281255613,8
1.30001831054688,-0.260426640510559,2.54127717018127,1.40323948860168,-0.396178686849666,2.79535175943725,1.38811056994974,2160.669,3183.028,3076.025,582.9015,-0.07215462,-0.005311409,0.1139782,-0.585910975933075,-0.379230529069901,0.40437924861908,-0.653005218467598,-0.280969902652754,0.404241337183804,8
1.32000732421875,-0.272428095340729,2.5336742401123,1.41162359714508,-0.409361504843077,2.78967956113998,1.39627136227237,1971.387,2939.78,2700.985,1437.63,-0.07067443,-0.004823518,0.1124766,-0.600074529647827,-0.380150079727173,0.419207036495209,-0.6659860834168,-0.286555206197011,0.41227711095171,8
1.33999633789063,-0.284651100635529,2.5260694026947,1.41989314556122,-0.422802873722428,2.78389611561957,1.40459220990988,2209.182,3238.591,3175.317,386.2528,-0.07554322,-0.005086105,0.1143549,-0.611150979995728,-0.380238950252533,0.413475662469864,-0.678873453515705,-0.29210028151913,0.420255006953505,8
1.36001586914063,-0.29716420173645,2.51843118667603,1.42855155467987,-0.4365219692899,2.77799317206405,1.4130849835973,1917.542,2871.117,2614.008,1673.92,-0.07252746,-0.004362258,0.1121449,-0.625654339790344,-0.381910085678101,0.432921797037125,-0.691680442442074,-0.297610771068296,0.428183143180414,8
1.3800048828125,-0.309877544641495,2.51078820228577,1.43699419498444,-0.450474904562636,2.77198961381608,1.4217225152016,2292.505,3326.603,3300.811,93.15674,-0.07904582,-0.004787298,0.114958,-0.635669469833374,-0.382147967815399,0.422130584716797,-0.704361775018035,-0.303067194200314,0.436033492140578,9
1.4000244140625,-0.322893708944321,2.50309491157532,1.44595277309418,-0.464702095472036,2.76586805102946,1.43052982410961,1839.24,2780.123,2480.914,2007.095,-0.07397036,-0.003758786,0.1117846,-0.650808453559875,-0.384664267301559,0.44793164730072,-0.716950039288891,-0.308483572640673,0.443826227386424,9
1.42001342773438,-0.336095362901688,2.49538922309875,1.45465743541718,-0.479157861067077,2.75964813894125,1.43947863163655,2149.72,3625.917,3241.86,0,-0.08078592,-0.00340565,0.1163865,-0.660084009170532,-0.385287344455719,0.435235738754272,-0.729400843645231,-0.313840805920001,0.451533868397062,9
1.44000244140625,-0.349599242210388,2.48762559890747,1.46388697624207,-0.493861275572861,2.75332167044526,1.4485807456364,1891.489,2606.915,2402.102,2220.816,-0.07465959,-0.001548894,0.1126815,-0.675191640853882,-0.388186365365982,0.461476683616638,-0.741727567798258,-0.319144650954242,0.459164697851088,9
1.46002197265625,-0.363280296325684,2.47984766960144,1.47284090518951,-0.50883280894277,2.74687983789241,1.45784883798541,2149.986,3670.108,3210.741,0,-0.08127116,-0.0002972088,0.1169717,-0.684055030345917,-0.388896137475967,0.44769674539566,-0.753942941956197,-0.324400585196357,0.466726596353819,9
1.48001098632813,-0.377255499362946,2.47201323509216,1.48229956626892,-0.524024159888143,2.74034342397783,1.467253007885,2001.93,2528.904,2418.556,2187.506,-0.07554855,0.002164167,0.112189,-0.698759436607361,-0.3917196393013,0.472934186458588,-0.766004036374583,-0.329590137176618,0.474192988348404,9
1.5,-0.391400724649429,2.46416330337524,1.49149966239929,-0.539455198877605,2.73370387899399,1.4768055561018,2147.675,3703.286,3197.586,0,-0.08259954,0.004066147,0.1155814,-0.707262873649597,-0.392491370439529,0.460003405809402,-0.777924000354858,-0.334718964672088,0.481572013878822,9
1.52001953125,-0.405819803476334,2.45625853538513,1.50113570690155,-0.555147149984933,2.72695207081487,1.48651962134853,2078.079,2503.729,2553.568,2009.25,-0.07866232,0.006793353,0.1103773,-0.72095251083374,-0.395235538482666,0.481803417205811,-0.789715229532175,-0.33979240117828,0.488871346433721,9
1.54000854492188,-0.420403391122818,2.44833254814148,1.51055335998535,-0.571049184024557,2.72010986981902,1.49636373793799,2204.592,3607.382,3256.896,0,-0.08624381,0.008776077,0.1125834,-0.729178547859192,-0.396302402019501,0.47088035941124,-0.801336412291853,-0.344792671461508,0.496065412155667,9
1.55999755859375,-0.435239315032959,2.440345287323,1.52034902572632,-0.587181951496087,2.71316839067337,1.50635068951315,2105.381,2556.104,2737.416,1752.468,-0.08419051,0.01124975,0.1077462,-0.74179881811142,-0.399366825819016,0.489783734083176,-0.812800388649436,-0.349725300221754,0.503162159625937,9
1.58001708984375,-0.450235098600388,2.43232345581055,1.52996742725372,-0.603567408310176,2.70611818636293,1.51649406782863,2239.134,3487.585,3360.094,0,-0.0917688,0.01281746,0.1095553,-0.749788165092468,-0.401086807250977,0.480920493602753,-0.824119146742882,-0.35459544561987,0.510169010073001,9
1.60000610351563,-0.465471416711807,2.42422413825989,1.53995895385742,-0.620152298932711,2.69898217125626,1.52676090517188,2099.995,2629.103,2849.864,1581.225,-0.09018902,0.01472837,0.1056772,-0.7618168592453,-0.404964417219162,0.499578893184662,-0.835253140422976,-0.35938609205264,0.51706148254665,9
1.62002563476563,-0.480863481760025,2.4160737991333,1.54979872703552,-0.636983857763694,2.69174002171061,1.53718044188659,2247.514,3433.731,3417.028,0,-0.09711483,0.01569844,0.1081506,-0.769604027271271,-0.407511800527573,0.491989582777023,-0.846231427202183,-0.364109742155907,0.523857565031302,9
1.6400146484375,-0.496493101119995,2.40782785415649,1.5600301027298,-0.654007271984653,2.68441532215046,1.54771874622704,2074.248,2663.089,2862.64,1569.496,-0.0945305,0.01708453,0.1053136,-0.781480014324188,-0.412299603223801,0.511567294597626,-0.857015715678588,-0.368749920209162,0.530533553325099,9
1.66000366210938,-0.512275338172913,2.3995189666748,1.57011365890503,-0.671244443874359,2.67699864863716,1.55838937674714,2270.518,3420.224,3415.813,0,-0.1003942,0.01752465,0.108658,-0.789112627506256,-0.415440380573273,0.504175543785095,-0.867618167158098,-0.373311858882592,0.53709697585572,9
1.68002319335938,-0.528297126293182,2.3911030292511,1.58061444759369,-0.688718488267733,2.66948005550297,1.56920664263081,2055.414,2673.053,2801.727,1650.508,-0.09625676,0.01855522,0.106391,-0.801093578338623,-0.420800298452377,0.525041699409485,-0.87804994059578,-0.377800359562815,0.543554740547927,9
1.70001220703125,-0.544468581676483,2.38262057304382,1.59096026420593,-0.706372354049449,2.66188409024902,1.58013522651994,2295.933,3454.23,3364.271,0,-0.1013525,0.01867589,0.1103551,-0.808572709560394,-0.424125999212265,0.517291843891144,-0.888274735793774,-0.382199803288802,0.549884375850026,9
1.72000122070313,-0.560880899429321,2.3740291595459,1.60173201560974,-0.724228658537036,2.6542010212754,1.5911891296115,2047.872,2670.045,2728.338,1745.776,-0.09626688,0.01955882,0.1081975,-0.820617198944092,-0.429570764303207,0.538588285446167,-0.898304216251578,-0.386515208538549,0.556093102023817,9
1.74002075195313,-0.577438294887543,2.36537528038025,1.61232316493988,-0.742311168965756,2.64642062220478,1.6023830649563,2302.09,3478.798,3342.439,0,-0.1011453,0.01956953,0.1123632,-0.82787024974823,-0.432693600654602,0.529556572437286,-0.908148960779607,-0.390751127078638,0.562187467856884,9
1.760009765625,-0.594239592552185,2.35661602020264,1.62336027622223,-0.760560719141003,2.63856835059778,1.61368040586141,2050.032,2661.662,2664.539,1830.571,-0.095518,0.02046273,0.1098785,-0.840063333511353,-0.437961727380753,0.551854729652405,-0.91777478390713,-0.394892849856044,0.568146310914365,9
1.77999877929688,-0.611181080341339,2.34780049324036,1.63419818878174,-0.779000609654483,2.63063418086074,1.62509557650306,2259.809,3556.743,3315.698,0,-0.1005279,0.02064048,0.1143208,-0.84707635641098,-0.440776765346527,0.541894614696503,-0.927192788821983,-0.398945154262308,0.57397650459845,9
1.80001831054688,-0.628365397453308,2.33888745307922,1.64547216892242,-0.797655223615693,2.62260762162281,1.63664367118754,2055.642,2619.45,2657.867,1884.608,-0.09475527,0.02173754,0.1115647,-0.859213590621948,-0.445656567811966,0.563697874546051,-0.936412917636689,-0.402912318110697,0.579684203550397,9
1.82000732421875,-0.645688235759735,2.3299252986908,1.65654671192169,-0.816463410111527,2.61451498441355,1.64828683458664,2271.613,3562.557,3309.485,0,-0.09976681,0.02209495,0.1157028,-0.866141259670258,-0.448111414909363,0.553728222846985,-0.94540321420156,-0.406780591562751,0.585249625391268,9
1.83999633789063,-0.663249254226685,2.32087516784668,1.66803658008575,-0.835449117627072,2.60634596486888,1.66003989195343,2077.131,2610.889,2693.961,1843.536,-0.09434195,0.0232851,0.1127135,-0.878054141998291,-0.452504843473434,0.574493646621704,-0.954174163352093,-0.410554485950274,0.590679260733698,9
1.86001586914063,-0.68094676733017,2.31178307533264,1.67932975292206,-0.854637305360818,2.59808982374295,1.67191829422076,2280.77,3533.463,3338.759,0,-0.09931514,0.02367239,0.1164234,-0.884872496128082,-0.454601168632507,0.564658880233765,-0.962735018414262,-0.414237982720922,0.595978837827261,9
1.8800048828125,-0.698878824710846,2.30261039733887,1.6910388469696,-0.873964974649439,2.58977366760063,1.68388304221498,2096.389,2626.746,2717.716,1790.47,-0.09410492,0.02480585,0.1132815,-0.896603524684906,-0.458633929491043,0.585454821586609,-0.971056158224177,-0.417818336715394,0.601130019760457,9
1.9000244140625,-0.716943025588989,2.29340076446533,1.7025533914566,-0.893486564535158,2.58137407284289,1.69596783629653,2261.554,3543.563,3350.991,0,-0.09905574,0.0251677,0.1169857,-0.903211355209351,-0.460472166538239,0.575726330280304,-0.979159571260204,-0.421305008961645,0.606146418448853,9
1.92001342773438,-0.735236883163452,2.28411674499512,1.71447765827179,-0.913137923350175,2.5729186421402,1.70813296352707,2097.946,2622.844,2733.562,1777.213,-0.09378854,0.02625255,0.1138819,-0.914692878723145,-0.464217782020569,0.596215188503265,-0.987017247723777,-0.424685947625853,0.611010694492843,9
1.94000244140625,-0.753658354282379,2.2748007774353,1.72620618343353,-0.932943991899774,2.5643966441608,1.72039386345315,2265.958,3530.443,3359.489,0,-0.09851352,0.0265359,0.1175351,-0.921074628829956,-0.465798407793045,0.586426496505737,-0.994638524886308,-0.427965170275055,0.615728628108227,9
1.96002197265625,-0.772304356098175,2.26541614532471,1.73833966255188,-0.952930593197372,2.55579696798345,1.73276652175022,2095.821,2623.754,2740.807,1768.932,-0.09299386,0.02753518,0.1144391,-0.932298123836517,-0.469230145215988,0.60667622089386,-1.00203140433628,-0.431146119769234,0.620305172659443,9
1.98001098632813,-0.791073381900787,2.25600552558899,1.75028204917908,-0.973031969359004,2.54714790738853,1.74521023115561,2280.872,3527.468,3344.8,0,-0.09747756,0.0276927,0.1180089,-0.938456833362579,-0.470532774925232,0.59711766242981,-1.00917036754089,-0.434217816196637,0.624724530959079,9
2,-0.810059487819672,2.24653387069702,1.76261496543884,-0.993273599084619,2.53843849960327,1.7577407641983,2092.779,2633.494,2742.803,1754.104,-0.09194937,0.02856252,0.1149729,-0.949306964874268,-0.473587512969971,0.616644144058228,-1.01606400046349,-0.437183953857422,0.628992018127441,9
2.02001953125,-0.829162180423737,2.2370433807373,1.77474462985992,-1.01368176147806,2.52965743746343,1.77037438889544,2291.027,3497.344,3359.11,0,-0.09630629,0.02852919,0.1183965,-0.955131411552429,-0.474525660276413,0.606483399868011,-1.0227194988233,-0.440047628868552,0.633112088657522,9
2.04000854492188,-0.848477840423584,2.22749805450439,1.78727984428406,-1.03418924440916,2.52083364047092,1.78306949773667,2084.879,2650.043,2712.277,1771.579,-0.09049315,0.0292519,0.115239,-0.96578848361969,-0.47726634144783,0.626758515834808,-1.02911391720548,-0.442798968459032,0.637070538244476,9
2.05999755859375,-0.867901563644409,2.21794056892395,1.79959785938263,-1.05482201812353,2.5119559343546,1.79584216754118,2250.197,3546.056,3341.433,0,-0.09483996,0.02917882,0.118989,-0.971185088157654,-0.477876931428909,0.615899205207825,-1.03525504859546,-0.445441325732794,0.640872191117535,9
2.08001708984375,-0.887532413005829,2.20833587646484,1.81231653690338,-1.07560676837143,2.50301283698163,1.80870891805959,2069.677,2623.729,2688.967,1827.727,-0.08863053,0.02992975,0.1157867,-0.981540024280548,-0.480239510536194,0.635932385921478,-1.0411492471255,-0.447977434695423,0.644520980787238,9
2.10000610351563,-0.907264173030853,2.19872665405273,1.8248096704483,-1.09647498538954,2.49403382618922,1.82162733848484,2260.684,3547.819,3320.138,0,-0.092833,0.02985163,0.1194436,-0.986589312553406,-0.480457544326782,0.624657571315765,-1.04677621342161,-0.450398561093403,0.648004340974112,9
2.12002563476563,-0.927195131778717,2.18907999992371,1.83769130706787,-1.11748519122939,2.48499372157354,1.8346336567546,2068.931,2617.197,2678.368,1835.815,-0.08656818,0.03059618,0.1160709,-0.996544778347015,-0.482330679893494,0.644079208374023,-1.05215090364426,-0.452711140144745,0.65133153025393,9
2.1400146484375,-0.947219014167786,2.17943787574768,1.850337266922,-1.13856809990831,2.47592233495728,1.84768498154507,2264.307,3538.512,3315.912,0,-0.09077278,0.03047283,0.119487,-1.00119948387146,-0.482111841440201,0.632298946380615,-1.05725481901126,-0.454907212340279,0.654491096999312,9
2.16000366210938,-0.96743369102478,2.16976761817932,1.86336600780487,-1.15975039167652,2.46680818657414,1.86079782920208,2063.474,2620.535,2670.956,1834.735,-0.08454205,0.03116812,0.1159221,-1.01073241233826,-0.483514010906219,0.651439905166626,-1.0620943502576,-0.456989527434725,0.657486997379635,8
2.18002319335938,-0.987732172012329,2.16010975837708,1.87614774703979,-1.18105931486702,2.45763955222766,1.87398906774178,2245.002,3545.014,3316.189,0,-0.08877381,0.03101195,0.1192706,-1.01492547988892,-0.482893228530884,0.639088332653046,-1.0666743814704,-0.458960186914335,0.660322254877504,7
2.20001220703125,-1.00821352005005,2.15043163299561,1.88931655883789,-1.20242455577657,2.44844668594002,1.88721516963236,2062.296,2617.817,2645.934,1851.509,-0.08246212,0.03167639,0.1155373,-1.02406418323517,-0.483901977539063,0.658439457416534,-1.07097916161324,-0.460812413548163,0.662987118851036,7
2.22000122070313,-1.02876806259155,2.14077305793762,1.90222179889679,-1.22387315175433,2.43921795429519,1.90049287228091,2215.612,3567.63,3307.46,0,-0.08677378,0.03154376,0.1189745,-1.02772891521454,-0.482923179864883,0.645264863967896,-1.07501419914593,-0.462548577472581,0.665484999299265,7
2.24002075195313,-1.04949605464935,2.1311023235321,1.9155079126358,-1.24543261682529,2.42994151877688,1.91383920817958,2049.929,2593.609,2632.996,1886.617,-0.08022826,0.03225592,0.1150747,-1.03640520572662,-0.483535796403885,0.664307534694672,-1.07878346314438,-0.464170386470068,0.667818353269249,6
2.260009765625,-1.0702885389328,2.12145805358887,1.92852771282196,-1.26703177594152,2.42064800401982,1.92721011658316,2218.682,3574.345,3282.815,0,-0.08446641,0.03214933,0.1183595,-1.03962588310242,-0.482212573289871,0.650988936424255,-1.08227399942825,-0.465672266718726,0.669979161506271,4
2.27999877929688,-1.09124207496643,2.11181020736694,1.94190752506256,-1.28869796983554,2.41132564607061,1.9406225227075,2050.605,2587.269,2634.352,1873.684,-0.07808548,0.03284466,0.114343,-1.04767680168152,-0.482379704713821,0.668992102146149,-1.08549040888332,-0.467056197851165,0.67197027217779,4
2.30001831054688,-1.11224973201752,2.10219669342041,1.9550085067749,-1.31045892272318,2.4019625159737,1.95409358916289,2226.043,3540.189,3293.732,0,-0.08234388,0.03264952,0.1172961,-1.05037915706635,-0.480684608221054,0.655048191547394,-1.08843572622736,-0.468323485621664,0.673793563918671,0
2.32000732421875,-1.13340818881989,2.09258651733398,1.96847629547119,-1.33224276726637,2.39258953623693,1.96757882664355,2046.811,2600.304,2614.597,1868.884,-0.07598051,0.03323958,0.1130617,-1.05792880058289,-0.480510503053665,0.673388183116913,-1.09109983431736,-0.469469776906228,0.675442773735451,0
2.33999633789063,-1.15460896492004,2.08301544189453,1.98165309429169,-1.35407709248145,2.38319483607731,1.98109531406483,2185.6,3575.286,3279.72,0,-0.08038379,0.03302545,0.1161739,-1.06003201007843,-0.478549271821976,0.65884256362915,-1.09348640563071,-0.470496651869278,0.67692017506657,0
2.36001586914063,-1.17594850063324,2.07345390319824,1.99518573284149,-1.3759897762471,2.37376642042246,1.99466030916165,2028.098,2577.817,2605.282,1900.345,-0.07388674,0.03362219,0.1119069,-1.06697952747345,-0.478077411651611,0.676630020141602,-1.09559752564474,-0.471405007833448,0.678227058921845,0
2.3800048828125,-1.19731998443604,2.06393671035767,2.00842237472534,-1.39790843013262,2.36433543599182,2.00822900004707,2196.459,3562.987,3263.044,0,-0.07823142,0.03336379,0.1148656,-1.06857335567474,-0.475857108831406,0.661828935146332,-1.09742594550583,-0.472191725819537,0.679358937915576,0
2.4000244140625,-1.21881723403931,2.05443549156189,2.02199935913086,-1.41989437329222,2.3548754988664,2.02183934619858,2019.859,2577.114,2603.257,1891.997,-0.07180841,0.03389319,0.110531,-1.07486534118652,-0.475063323974609,0.678853750228882,-1.09897654259203,-0.472858904427064,0.68031883137712,0
2.42001342773438,-1.24033546447754,2.04498386383057,2.03527212142944,-1.44187496577138,2.34541786398928,2.035446380024,2201.788,3540.818,3261.511,0,-0.07616162,0.03351469,0.113279,-1.07591736316681,-0.47258272767067,0.663635611534119,-1.1002439936861,-0.473404253224357,0.681103443981416,0
2.44000244140625,-1.26196753978729,2.03555345535278,2.04888129234314,-1.46387808506052,2.33595053645515,2.04906735901791,2004.474,2586.109,2593.516,1889.506,-0.06974339,0.03392427,0.1088735,-1.08159697055817,-0.471522212028503,0.680462598800659,-1.10123038958312,-0.473828671822132,0.681714070030222,0
2.46002197265625,-1.28360855579376,2.02617716789246,2.06217455863953,-1.48593173759011,2.32646146587939,2.06271962049488,2182.154,3543.192,3258.552,0,-0.07409234,0.03344341,0.111658,-1.08205878734589,-0.468820154666901,0.664658069610596,-1.10193621258339,-0.474132367740737,0.682151008090402,0
2.48001098632813,-1.30535280704498,2.01682615280151,2.07581210136414,-1.5079630509786,2.31698200721197,2.07635805297935,1993.72,2584.962,2557.062,1919.172,-0.06747331,0.03377378,0.107178,-1.08720755577087,-0.467555552721024,0.681878089904785,-1.10235904000526,-0.474314298567936,0.682412758406602,0
2.5,-1.32709360122681,2.00753307342529,2.08911466598511,-1.52999999932945,2.30750012397766,2.08999997377396,2151.891,3566.981,3242.875,0,-0.07187659,0.0332766,0.1101573,-1.08703863620758,-0.464648485183716,0.665128648281097,-1.10250000050292,-0.474374949932098,0.682500019669533,0
2.52001953125,-1.34892606735229,1.99827003479004,2.10275959968567,-1.55207058900185,2.29800376582252,2.10366272014916,1973.463,2559.145,2529.044,1973.785,-0.06489538,0.03364035,0.1055462,-1.09163224697113,-0.463146775960922,0.682249546051025,-1.10235860927677,-0.474314113237503,0.682412491765153,0
2.54000854492188,-1.3707447052002,1.98906981945038,2.11606383323669,-1.57410188948011,2.28852431271001,2.11730114464159,2152.17,3579.498,3209.789,0,-0.06923366,0.03317071,0.1084525,-1.09092891216278,-0.460009217262268,0.665209949016571,-1.10193535162022,-0.474131997292339,0.682150475113189,0
2.55999755859375,-1.39264118671417,1.97990620136261,2.12969207763672,-1.59612191359838,2.27904971150017,2.13093258853001,1969.332,2548.438,2518.282,1978.117,-0.06234939,0.03353658,0.1037142,-1.0948269367218,-0.458188742399216,0.68141633272171,-1.10123038958312,-0.473828671822132,0.681714070030222,0
2.58001708984375,-1.41451191902161,1.97081053256989,2.14296531677246,-1.6181586096433,2.26956793682606,2.14457435313522,2157.745,3549.747,3213.937,0,-0.06674947,0.03300786,0.1063092,-1.09354043006897,-0.454781800508499,0.663661181926727,-1.10024227275454,-0.473403512755585,0.681102378642802,0
2.60000610351563,-1.43644869327545,1.96175622940063,2.15656924247742,-1.64013916343638,2.26011031859448,2.15818136301212,1963.645,2557.531,2494.717,1979.682,-0.05991314,0.03329303,0.1013317,-1.0968382358551,-0.452709913253784,0.680195808410645,-1.09897439291323,-0.472857979480329,0.680317500623536,0
2.62002563476563,-1.45834696292877,1.95277380943298,2.16980648040771,-1.66212505926897,2.25065040183254,2.17179167986595,2117.295,3583.923,3197.864,0,-0.0645188,0.03277107,0.1040627,-1.09491610527039,-0.449126958847046,0.661856472492218,-1.09742336725307,-0.472190616469403,0.679357341854299,0
2.6400146484375,-1.48029804229736,1.94383633136749,2.18336629867554,-1.68404365734903,2.24121944141343,2.18536033620513,1947.49,2536.653,2480.018,2009.948,-0.05765478,0.03307313,0.0990364,-1.09754729270935,-0.446867823600769,0.677990078926086,-1.09559452046326,-0.471403714787811,0.678225198571351,0
2.66000366210938,-1.50219893455505,1.93497395515442,2.19654774665833,-1.70592290617745,2.23180541187802,2.19890463348308,2111.905,3573.803,3192.055,0,-0.06227536,0.03255171,0.1016913,-1.09504401683807,-0.443123549222946,0.659071624279022,-1.09348640563071,-0.470496651869278,0.67692017506657,0
2.68002319335938,-1.5241391658783,1.92616057395935,2.21004486083984,-1.72779052905813,2.22239638466312,2.21244173374556,1934.412,2525.937,2474.971,2018.19,-0.05530533,0.03283584,0.09656157,-1.09701752662659,-0.440669268369675,0.674858093261719,-1.09109597826566,-0.469468117754907,0.675440386655758,0
2.70001220703125,-1.54601919651031,1.91742491722107,2.22316551208496,-1.74957429229274,2.21302343991116,2.22592692089233,2116.996,3572.199,3168.074,0,-0.05988917,0.0322674,0.09907671,-1.09399366378784,-0.436780333518982,0.656036794185638,-1.08843144721369,-0.468321644481621,0.673790915005369,0
2.72000122070313,-1.5679235458374,1.90874230861664,2.2365825176239,-1.77130202882336,2.20367460188472,2.23937742484041,1923.64,2528.884,2476.882,2001.135,-0.0531274,0.03246862,0.09397622,-1.09521055221558,-0.434127390384674,0.670856237411499,-1.08549040888332,-0.467056197851165,0.671970272177789,0
2.74002075195313,-1.58975565433502,1.90014052391052,2.24961185455322,-1.79300125102058,2.19433803277934,2.25281027705779,2126.863,3529.088,3180.211,0,-0.05773786,0.03173853,0.0962478,-1.09161615371704,-0.430088996887207,0.651465535163879,-1.08226887897249,-0.465670063529659,0.669975991700231,0
2.760009765625,-1.61160051822662,1.89159393310547,2.26294946670532,-1.81460030360772,2.18504456385877,2.26618111951479,1907.545,2546.757,2451.529,2005.3,-0.05090153,0.03177815,0.09106186,-1.09223890304565,-0.427322894334793,0.66687935590744,-1.07877792518082,-0.464168003639063,0.667814925005998,0
2.77999877929688,-1.6333612203598,1.88313007354736,2.27588796615601,-1.83612684690458,2.17578229366013,2.27950707526701,2086.303,3563.889,3162.299,0,-0.05561319,0.03098074,0.09363042,-1.08803856372833,-0.4232057929039,0.646927118301392,-1.07501419914593,-0.462548577472581,0.665484999299265,0
2.80001831054688,-1.65512204170227,1.87472319602966,2.28913021087646,-1.85760812647542,2.16653949917827,2.29280501061661,1879.754,2525.615,2428.904,2054.718,-0.04849137,0.03100353,0.08851196,-1.08804643154144,-0.42034125328064,0.662114143371582,-1.07097279461286,-0.460809674005774,0.6629831773745,0
2.82000732421875,-1.67678904533386,1.86640095710754,2.30196642875671,-1.87897323600723,2.1573466894188,2.30603103117811,2096.349,3553.964,3140.328,0,-0.0531061,0.03015238,0.09104363,-1.08334028720856,-0.416105926036835,0.641806244850159,-1.06666760390385,-0.458957270716794,0.660318059240952,0
2.83999633789063,-1.69844353199005,1.85813975334167,2.31509852409363,-1.90024960698239,2.14819206138118,2.31920211834584,1865.135,2522.411,2410.775,2069.283,-0.04589159,0.03012497,0.08587363,-1.08272480964661,-0.413068234920502,0.656600475311279,-1.06209435025759,-0.456989527434725,0.657486997379635,0
2.86001586914063,-1.71999323368073,1.84996628761292,2.32781195640564,-1.9214641634913,2.13906403038149,2.33233493941432,2093.78,3540.004,3135.175,0,-0.05047649,0.02919973,0.08829248,-1.0774918794632,-0.408673226833344,0.635673522949219,-1.05724722779031,-0.454903946049977,0.654486397671922,0
2.8800048828125,-1.74151968955994,1.84185683727264,2.34083032608032,-1.94254691640495,2.12999271078668,2.34538616777867,1856.226,2526.423,2375.005,2090.221,-0.04314214,0.02909791,0.08296945,-1.07631814479828,-0.40546527504921,0.650924324989319,-1.0521429102862,-0.45270770082608,0.651326581984514,0
2.9000244140625,-1.76293015480042,1.83383822441101,2.35341572761536,-1.96355695821617,2.12095267674793,2.3583923845069,2061.979,3567.771,3115.673,0,-0.04787458,0.02817197,0.08553737,-1.07052266597748,-0.400931000709534,0.629265666007996,-1.04676782045836,-0.450394949835786,0.647999145330045,0
2.92001342773438,-1.78430533409119,1.82588696479797,2.36630392074585,-1.98442500350686,2.11197373984504,2.37131069862469,1837.862,2506.154,2347.857,2134.651,-0.04039856,0.02809555,0.08011954,-1.06876134872437,-0.397561609745026,0.644411504268646,-1.04114045847258,-0.4479736531836,0.644515540192422,0
2.94000244140625,-1.80555438995361,1.81802916526794,2.37874674797058,-2.00517798053537,2.10304431360073,2.38415778000673,2051.912,3570.137,3101.019,0,-0.04517041,0.02720502,0.0826537,-1.06245303153992,-0.392881512641907,0.62214720249176,-1.03525504859546,-0.445441325732794,0.640872191117535,0
2.96002197265625,-1.82675611972809,1.81024289131165,2.39148592948914,-2.02584216016808,2.09415309439512,2.39694989157076,1824.526,2491.987,2336.36,2152.43,-0.03761289,0.02715047,0.07710949,-1.06007838249207,-0.389321535825729,0.636957406997681,-1.02910434715508,-0.442794850733705,0.637064613927399,0
2.98001098632813,-1.84782207012177,1.80255281925201,2.40377950668335,-2.04634944795115,2.08532938136936,2.40964487960608,2057.462,3566.179,3078.29,0,-0.04241457,0.02625334,0.07946658,-1.0533035993576,-0.384497135877609,0.614678084850311,-1.02270954399162,-0.440043345582586,0.633105926142498,0
3,-1.8688268661499,1.79493796825409,2.41635274887085,-2.06672639957428,2.07656174835205,2.42225918334961,1812.596,2494.316,2336.831,2138.648,-0.0350962,0.0261559,0.07390197,-1.05023789405823,-0.380751579999924,0.628662765026093,-1.01606400046349,-0.437183953857422,0.628992018127441,0
3.02001953125,-1.8896861076355,1.78742182254791,2.42847084999084,-2.08699882657197,2.06783908936099,2.4348087813708,2062.697,3529.864,3087.84,0,-0.03997884,0.02515294,0.07602371,-1.04296541213989,-0.375808447599411,0.605907499790192,-1.0091596546337,-0.434213206731958,0.624717899159203,0
3.04000854492188,-1.91047215461731,1.77998280525208,2.44087767601013,-2.10709998486405,2.05919012250926,2.44725235590455,1797.211,2509.141,2317.83,2138.043,-0.03267699,0.02492972,0.07039265,-1.03930747509003,-0.371961951255798,0.620340704917908,-1.00202031904361,-0.431141350077486,0.620298310335216,0
3.05999755859375,-1.93110275268555,1.77264308929443,2.45282030105591,-2.12705600675913,2.05060360379452,2.45960608409476,2029.419,3552.729,3074.56,0,-0.03767947,0.02387183,0.07273643,-1.03151953220367,-0.366965591907501,0.597137331962585,-0.994638524886308,-0.427965170275055,0.615728628108227,0
3.08001708984375,-1.95164823532104,1.7653820514679,2.46504831314087,-2.14689219650438,2.04206864550612,2.47188563047583,1769.501,2493.602,2300.389,2176.278,-0.03016882,0.02362438,0.06719283,-1.02728033065796,-0.363051772117615,0.611398994922638,-0.987005430654711,-0.424680863071165,0.611003379164165,0
3.10000610351563,-1.97202968597412,1.75822257995605,2.47680711746216,-2.16654331551667,2.03361331798384,2.48405060925705,2038.313,3540.177,3055.873,0,-0.03508981,0.02250916,0.06951289,-1.01906442642212,-0.357979774475098,0.587943911552429,-0.979147395688901,-0.421299770153459,0.606138881190213,0
3.12002563476563,-1.99231481552124,1.75114369392395,2.48884582519531,-2.18606465810045,2.02521382963322,2.49613525024692,1752.617,2493.157,2282.341,2189.71,-0.02748648,0.02220571,0.06396716,-1.01425719261169,-0.353944003582001,0.601941466331482,-0.971043628570469,-0.417812945555442,0.601122263307942,0
3.1400146484375,-2.01242709159851,1.74416840076447,2.50040674209595,-2.20539207344272,2.01689778275692,2.50809984103626,2041.168,3525.493,3045.462,0,-0.03240428,0.02100775,0.06619358,-1.00561308860779,-0.34876760840416,0.578041136264801,-0.962722140342815,-0.41423244164655,0.595970865687568,0
3.16000366210938,-2.03243207931519,1.73727655410767,2.5122492313385,-2.22455088103183,2.00865428308644,2.51996005559448,1733.526,2497.586,2258.745,2206.972,-0.0247168,0.02063001,0.06059235,-1.00026118755341,-0.344600081443787,0.592126190662384,-0.954174163352092,-0.410554485950274,0.590679260733698,0
3.18002319335938,-2.05225586891174,1.73048996925354,2.52360224723816,-2.24356543975693,2.00047284967231,2.53173097323436,2025.339,3529.122,3034.572,0,-0.02967986,0.01938226,0.06286293,-0.99117785692215,-0.339319467544556,0.567650258541107,-0.945389654806993,-0.406774757334075,0.585241231480108,0
3.20001220703125,-2.0719621181488,1.72378957271576,2.53524422645569,-2.26237335188561,1.99238033051557,2.54337396678712,1720.607,2493.246,2223.107,2239.034,-0.02186615,0.01896198,0.05718781,-0.98531585931778,-0.335024416446686,0.582098424434662,-0.93639902618694,-0.402906341007952,0.579675604081262,0
3.22000122070313,-2.09147787094116,1.71719682216644,2.54638147354126,-2.28099938900442,1.98436606709459,2.55490437104486,2003.28,3543.099,3018.835,0,-0.02694853,0.01772513,0.05957012,-0.975801587104797,-0.329640716314316,0.556865453720093,-0.927192788821982,-0.398945154262308,0.573976504598449,0
3.24002075195313,-2.11086654663086,1.71069240570068,2.55780696868896,-2.29946728755973,1.97641984627959,2.5663368799986,1699.519,2474.776,2200.067,2280.423,-0.01894946,0.01733519,0.05380815,-0.969431340694427,-0.325209975242615,0.571270406246185,-0.917760245372928,-0.394886594330938,0.568137310869129,0
3.260009765625,-2.1300573348999,1.70429849624634,2.56872367858887,-2.31771654397337,1.96856770107001,2.57763403905129,2003.04,3546.168,2994.046,0,-0.02405314,0.0161296,0.05612027,-0.959544241428375,-0.319710701704025,0.545833230018616,-0.908134108040216,-0.390744736359816,0.562178273303667,0
3.27999877929688,-2.14910984039307,1.69799613952637,2.57991719245911,-2.33577134012187,1.96079922667992,2.58881081793642,1688.259,2469.573,2189.652,2285.078,-0.01616592,0.01574958,0.05030539,-0.952618300914764,-0.315118551254272,0.559676826000214,-0.898304216251578,-0.386515208538549,0.556093102023818,0
3.30001831054688,-2.16795659065247,1.69180572032928,2.59059190750122,-2.35365475236716,1.95310449399547,2.59988150202132,2006.476,3519.306,2995.905,0,-0.0213479,0.01451218,0.05240753,-0.942350149154663,-0.309515416622162,0.533734202384949,-0.88825927318574,-0.382193150160541,0.549874803759067,0
3.32000732421875,-2.18665456771851,1.68570947647095,2.60155010223389,-2.37130830610839,1.94550866300381,2.61080989274252,1677.657,2477.77,2170.104,2287.145,-0.01351394,0.01406797,0.04648127,-0.934899270534515,-0.3048075735569,0.547911882400513,-0.878034183119985,-0.377793579561194,0.543544985919778,0
3.33999633789063,-2.20513916015625,1.67972636222839,2.61198163032532,-2.38875555478454,1.93800159931817,2.62161057080077,1980.447,3535.632,2982.766,0,-0.01886104,0.01282297,0.04869322,-0.924233913421631,-0.299148470163345,0.521571218967438,-0.867618167158097,-0.373311858882592,0.53709697585572,0
3.36001586914063,-2.22346448898315,1.67383909225464,2.6226921081543,-2.40601888046917,1.93057367255756,2.63229739176581,1654.156,2466.154,2157.681,2312.878,-0.01097648,0.01237734,0.04281306,-0.916261255741119,-0.294372856616974,0.535525560379028,-0.856999388527103,-0.368742895092007,0.53052344604056,0
3.3800048828125,-2.24156975746155,1.66806578636169,2.63287210464478,-2.42304196557559,1.92324911460621,2.64283549236868,1987.408,3520.845,2969.047,0,-0.01633796,0.01110357,0.04495946,-0.905261039733887,-0.288667351007462,0.509001016616821,-0.846214826007803,-0.364102599125748,0.523847288101157,0
3.4000244140625,-2.25950527191162,1.66238939762115,2.64332604408264,-2.43987318937177,1.91600710921667,2.65325482168089,1636.64,2468.637,2146.771,2317.56,-0.00848057,0.01061641,0.03910512,-0.89678156375885,-0.283817678689957,0.522700309753418,-0.835236272052476,-0.359378834064062,0.51705104022176,0
3.42001342773438,-2.27721452713013,1.65682792663574,2.65324306488037,-2.45645774020782,1.90887124031063,2.66352144868012,1989.867,3502.938,2963.194,0,-0.01388199,0.009276697,0.04117307,-0.885457336902618,-0.278072506189346,0.495856523513794,-0.824102019042908,-0.354588076049064,0.510158407210813,0
3.44000244140625,-2.29474472999573,1.65136468410492,2.66343641281128,-2.47281804716281,1.90183185728196,2.67364925803476,1616.95,2475.051,2129.145,2328.297,-0.005992112,0.008719032,0.03533153,-0.876500427722931,-0.273163825273514,0.509668827056885,-0.812800388649434,-0.349725300221754,0.503162159625937,0
3.46002197265625,-2.31204199790955,1.64601683616638,2.67308402061462,-2.48897526921199,1.89487985601472,2.68365134815842,1978.645,3500.102,2955.365,0,-0.01143348,0.007326036,0.03745811,-0.864860236644745,-0.267387419939041,0.482383966445923,-0.801318788528228,-0.344785088448372,0.496054502206447,0
3.48001098632813,-2.32915115356445,1.64076840877533,2.68301558494568,-2.50487694859767,1.88803780761656,2.69349524520019,1603.097,2473.692,2098.371,2354.55,-0.003432815,0.00671495,0.03161296,-0.85546875,-0.262421578168869,0.496577978134155,-0.789697369743255,-0.339784716610052,0.488860290373601,0
3.5,-2.34602212905884,1.63563632965088,2.69238901138306,-2.5205447997813,1.88129636896134,2.70319439144611,1963.203,3507.104,2941.435,0,-0.00896633,0.005313481,0.03385533,-0.843537509441376,-0.256607413291931,0.46867573261261,-0.777924000354857,-0.334718964672089,0.481572013878822,0
3.52001953125,-2.36269664764404,1.6306049823761,2.70204782485962,-2.53599921507943,1.87464676580493,2.71276141071155,1582.322,2461.029,2074.709,2391.911,-0.0007957525,0.00470978,0.02798189,-0.833737969398499,-0.25157356262207,0.482946664094925,-0.765985728654519,-0.329582259876133,0.474181654997567,0
3.54000854492188,-2.37912750244141,1.62569093704224,2.71114420890808,-2.55119019794619,1.86811051026429,2.72216535275294,1963.974,3507.616,2919.48,0,-0.006360694,0.00332549,0.03019673,-0.821559250354767,-0.245702296495438,0.454821437597275,-0.753924423002452,-0.324392617007921,0.466715132239272,0
3.55999755859375,-2.39535474777222,1.62087917327881,2.72051978111267,-2.56613872308604,1.86167857751006,2.73141920191151,1569.481,2457.981,2059.784,2402.594,0.001738656,0.002729526,0.024303,-0.811339020729065,-0.240575715899467,0.468773543834686,-0.741727567798258,-0.319144650954242,0.459164697851087,0
3.58001708984375,-2.41133308410645,1.6161857843399,2.72932314872742,-2.58086439685043,1.85534253147694,2.74053509545279,1966.089,3486.77,2918.231,0,-0.003921771,0.001332171,0.02637999,-0.798919558525085,-0.234661564230919,0.440173119306564,-0.729381927869994,-0.313832666990361,0.451522158631107,0
3.60000610351563,-2.42709875106812,1.61159658432007,2.73841214179993,-2.59531978247425,1.84912278287974,2.74948366775945,1558.375,2463.768,2040.567,2409.246,0.004122654,0.00069628,0.02041502,-0.788289666175842,-0.229474380612373,0.454446107149124,-0.716930938559024,-0.308475354130224,0.443814403124743,0
3.62002563476563,-2.44261145591736,1.60712552070618,2.74692225456238,-2.60954658921762,1.84300138538903,2.75829073885038,1947.119,3497.203,2906.45,0,-0.001706021,-0.0006918893,0.02257849,-0.775625348091125,-0.223549962043762,0.42550665140152,-0.704342498157626,-0.303058899905815,0.436021558845703,0
3.6400146484375,-2.45790362358093,1.60275876522064,2.7557168006897,-2.62349913748426,1.83699799365897,2.76692803087948,1540.326,2456.677,2026.063,2429.991,0.006314337,-0.001323058,0.01666133,-0.764606356620789,-0.218346253037453,0.439721673727036,-0.691660998977508,-0.297602405088683,0.428171106749629,0
3.66000366210938,-2.47293853759766,1.59851002693176,2.7639274597168,-2.63719712493647,1.83110413233575,2.77540773763803,1941.234,3488.042,2896.64,5.698907,0.0004518771,-0.002692456,0.01882899,-0.751744270324707,-0.212433531880379,0.410537242889404,-0.678873453515702,-0.29210028151913,0.420255006953505,0
3.68002319335938,-2.48774576187134,1.59436571598053,2.77242040634155,-2.65065881779682,1.8253119419741,2.78374116678794,1525.835,2454.595,2016.162,2438.327,0.008484773,-0.003323092,0.01295083,-0.740363717079163,-0.207217842340469,0.424652874469757,-0.665966334939126,-0.286546708978778,0.41226488570328,0
3.70001220703125,-2.50229215621948,1.59033989906311,2.78033947944641,-2.66384123964357,1.81963991412768,2.79190171387692,1925.907,3491.712,2861.54,34.91311,0.002769164,-0.004625911,0.01510682,-0.727336049079895,-0.201309517025948,0.395952999591827,-0.65298533214413,-0.280961346123326,0.404229026602262,0
3.72000122070313,-2.51660418510437,1.58641839027405,2.78852224349976,-2.6767633032417,1.81407991116207,2.79990108680742,1524.123,2457.136,2014.299,2419.067,0.01055514,-0.00522672,0.009355171,-0.715597927570343,-0.196054577827454,0.409139782190323,-0.639917282339434,-0.275338529371411,0.396139281255611,0
3.74002075195313,-2.53065299987793,1.58261549472809,2.796147108078,-2.68944246101018,1.80862442378895,2.80775008945815,1901.316,3472.2,2822.698,102.0307,0.005171063,-0.006410761,0.01131405,-0.702437222003937,-0.190154522657394,0.381240904331207,-0.626748599474004,-0.269672413024826,0.387987239250554,0
3.760009765625,-2.5444598197937,1.57891833782196,2.80401110649109,-2.70183851231475,1.80329074921818,2.81542383572149,1539.308,2471.5,2021.465,2362.076,0.01250523,-0.006974286,0.005676325,-0.690341889858246,-0.184846550226212,0.393203467130661,-0.613526094901139,-0.263983138701136,0.379801879044709,0
3.77999877929688,-2.55800080299377,1.5753390789032,2.81133913993835,-2.7139695770734,1.79807109095524,2.82293354268985,1876.324,3447.244,2781.749,178.5072,0.007399829,-0.008035822,0.007350799,-0.677044987678528,-0.178969070315361,0.366400539875031,-0.60023651686137,-0.258265004538452,0.371574997167698,0
3.80001831054688,-2.57129263877869,1.57186627388,2.81887245178223,-2.72585229309426,1.79295829021612,2.83028950995902,1545.888,2493.884,2046.719,2287.125,0.01411947,-0.008555671,0.001922302,-0.664587378501892,-0.173651114106178,0.376661688089371,-0.586866312357872,-0.25251217906087,0.363298203668867,0
3.82000732421875,-2.58431577682495,1.56850910186768,2.82590341567993,-2.73744929742843,1.78796842323393,2.8374686080838,1855.24,3411.504,2735.63,269.2611,0.00938456,-0.009506419,0.003256357,-0.651154100894928,-0.16784094274044,0.35155189037323,-0.573463232144022,-0.246745208083563,0.355001058539243,0
3.83999633789063,-2.59708285331726,1.56525790691376,2.83309769630432,-2.74877791451009,1.78309403578861,2.84448156171422,1554.184,2529.999,2083.318,2184.827,0.01531053,-0.0100007,-0.001811482,-0.638346374034882,-0.16256719827652,0.359714776277542,-0.560014026276881,-0.240958390526246,0.346675359432959,0
3.86001586914063,-2.60957860946655,1.56212019920349,2.8398289680481,-2.7598539723994,1.77832831750807,2.85133816917351,1823.542,3362.128,2691.228,384.1115,0.01111727,-0.01084599,-0.0008074704,-0.624790132045746,-0.15688493847847,0.336562216281891,-0.546505271550556,-0.235145950758426,0.338312796746137,0
3.8800048828125,-2.62181210517883,1.55908608436584,2.84668326377869,-2.77064299647982,1.77368610185671,2.85801708903178,1570.985,2572.984,2118.667,2069.098,0.01627889,-0.01133548,-0.005442969,-0.611678004264832,-0.151696965098381,0.34271028637886,-0.532985466132484,-0.229328756186666,0.329943393154704,0
3.9000244140625,-2.63377261161804,1.55616283416748,2.85311436653137,-2.78117737042527,1.76915345504432,2.86453836832583,1793.817,3311.202,2644.349,501.6775,0.01266006,-0.01209874,-0.004729242,-0.59801971912384,-0.146169900894165,0.321557611227036,-0.51942076458699,-0.223492244065531,0.321546196721701,0
3.92001342773438,-2.64546585083008,1.55334091186523,2.85962796211243,-2.79142456801014,1.76474437219711,2.87088187177258,1582.841,2616.081,2152.637,1960.178,0.01713536,-0.01258131,-0.008902415,-0.584664940834045,-0.1410913169384,0.32567635178566,-0.505860052376089,-0.217657448443621,0.313151469876846,0
3.94000244140625,-2.65688443183899,1.55062639713287,2.8657591342926,-2.8014005971492,1.76045196555656,2.87705750903383,1769.552,3258.785,2595.355,618.2802,0.01413215,-0.01327426,-0.00848057,-0.57093209028244,-0.135725826025009,0.30655962228775,-0.492290296490434,-0.211818761581115,0.30475114456651,0
