t,x_s1,x_s2,x_s3,x_s_d1,x_s_d2,x_s_d3,propellers_rpms1,propellers_rpms2,propellers_rpms3,propellers_rpms4,rollRad,pitchRad,yawRad,v_s1,v_s2,v_s3,v_s_d1,v_s_d2,v_s_d3,insideCount
0,-0.0599999986588955,2.94000005722046,1.17999994754791,-0.0599999986588955,2.94000005722046,1.17999994754791,0,0,0,0,0,0,0,0,0,0,-1.06581410364015E-15,4.44089209850063E-16,4.44089209850063E-16,0
0.019989013671875,-0.0599999986588955,2.94000005722046,1.1771354675293,-0.0600018659130177,2.93999925379318,1.18000110346716,0,0,0,0,0.0163538,-0.002474609,-2.024222E-05,3.71994488546079E-08,3.50004931704007E-08,-0.143225952982903,-0.000279680311988734,-0.000120338624884473,0.000173135436141649,5
0.040008544921875,-0.0599999986588955,2.94000005722046,1.17048275470734,-0.060014880898484,2.93999365380853,1.18000916036316,0,0,0,0,0.03270752,-0.004950816,-5.430172E-05,3.62924410524101E-08,3.44428769949445E-08,-0.332637369632721,-0.00111143977225461,-0.000478221483967637,0.00068803416424398,6
0.05999755859375,-0.0600004345178604,2.94013261795044,1.16416573524475,-0.0600498857373401,2.93997859220429,1.18003083002592,3185.764,2835.961,1500.703,2767.525,0.03127628,-0.004943892,-0.01646952,-2.17794349737233E-05,0.00662255240604281,-0.31585168838501,-0.00247936261166862,-0.00106680046642749,0.00153484356504269,6
0.079986572265625,-0.0599162317812443,2.9403874874115,1.15857708454132,-0.0601174907153006,2.93994950367094,1.18007268072775,3065.271,3067.156,2155.402,2024.204,0.01896831,-0.004310593,-0.04351392,0.00421017361804843,0.0127491094172001,-0.279430449008942,-0.00437104534358026,-0.00188073869847162,0.00270588528944111,6
0.100006103515625,-0.0596375875174999,2.94068741798401,1.15374827384949,-0.0602282404704493,2.93990185114529,1.18014124010193,2639.974,3831.74,2620.676,1134.785,-0.005857889,-0.002887399,-0.07014127,0.0139322839677334,0.0149951595813036,-0.24144259095192,-0.00677739276378709,-0.00291612276782231,0.00419552897277328,6
0.1199951171875,-0.0590849444270134,2.94089865684509,1.14957022666931,-0.0603918861403606,2.93983143898525,1.18024254456713,2092.885,4101.894,3169.04,755.7148,-0.04012372,-0.0004506069,-0.08993229,0.0276321396231651,0.0105575788766146,-0.208901941776276,-0.00967801353495435,-0.00416417885169243,0.00599115140585487,5
0.139984130859375,-0.0582315698266029,2.94085597991943,1.14596664905548,-0.0606183773949454,2.93973398612584,1.18038275344299,1509.71,4074.836,3736.011,702.2862,-0.07649398,0.002388757,-0.09949357,0.042668741196394,-0.00213387329131365,-0.180177748203278,-0.0130632593357409,-0.00562075554695178,0.00808677981816243,4
0.160003662109375,-0.0570996031165123,2.94039463996887,1.14297795295715,-0.0609177895434042,2.93960515744296,1.18056810382587,1135.048,3846.764,4069.909,880.227,-0.1062729,0.00433562,-0.09869622,0.0565982758998871,-0.0230724290013313,-0.149434179067612,-0.0169265510445065,-0.00728302204135792,0.0104783414199936,4
0.17999267578125,-0.0557379275560379,2.93938779830933,1.14071142673492,-0.0612985250199726,2.93944133760391,1.18080379722281,1102.111,3565.29,4009.369,1148.407,-0.1236245,0.004491741,-0.09000047,0.0680838748812675,-0.0503444001078606,-0.113327294588089,-0.0212433804254414,-0.00914043312572283,0.0131506644458931,3
0.199981689453125,-0.0541967190802097,2.93777704238892,1.13924860954285,-0.0617700327574899,2.93923846099686,1.18109568297336,1372.565,3339.978,3595.077,1386.425,-0.1278738,0.003023423,-0.07724871,0.0770604163408279,-0.0805362984538078,-0.0731387585401535,-0.0260066742439309,-0.011189945384795,0.0160993702266893,3
0.220001220703125,-0.0525145307183266,2.93557596206665,1.13858389854431,-0.0623420644491781,2.93899233174064,1.18144979784016,1790.612,3212.516,3017.137,1527.482,-0.1229693,0.0008620358,-0.06426208,0.0841094851493835,-0.110051207244396,-0.0332362093031406,-0.03121219533433,-0.0134297356845702,0.019321835755004,3
0.239990234375,-0.0507198944687843,2.93284678459167,1.13860714435577,-0.0630214373585105,2.93870001655724,1.18187036203406,2160.35,3168.736,2516.725,1557.79,-0.1149649,-0.0009880328,-0.05362648,0.0897317379713058,-0.136454224586487,0.00116488710045815,-0.0368316683029241,-0.015847637913056,0.022800557215184,3
0.260009765625,-0.0488375909626484,2.92966461181641,1.13913762569427,-0.0638185570309634,2.93835703823113,1.18236381708338,2350.839,3159.435,2274.524,1495.827,-0.1090559,-0.001903628,-0.04623727,0.0941153988242149,-0.159105151891708,0.0265237726271152,-0.0428699302682246,-0.0184457333472145,0.0265385290140116,3
0.279998779296875,-0.0468920804560184,2.92608737945557,1.13999605178833,-0.0647390625194898,2.93796097043536,1.18293365383054,2353.552,3151.683,2323.766,1363.85,-0.1078218,-0.001744371,-0.0415272,0.097275547683239,-0.178863346576691,0.0429240167140961,-0.0492963837173861,-0.0212108567320638,0.030516809833474,3
0.29998779296875,-0.0449090711772442,2.92214345932007,1.14106154441833,-0.0657918945890516,2.93750796620855,1.18358540703494,2228.08,3144.719,2573.574,1194.052,-0.1110991,-0.0007355651,-0.03798413,0.0991505160927773,-0.197190672159195,0.0532772354781628,-0.0561078595514081,-0.0241416444928383,0.0347334378503248,3
0.32000732421875,-0.042917288839817,2.9178352355957,1.14229333400726,-0.0669865614821475,2.93699393441958,1.18432496275165,2073.708,3131.69,2873.552,1033.54,-0.1169282,0.0006870992,-0.03397927,0.0995890945196152,-0.215409308671951,0.0615915507078171,-0.0633036493784043,-0.0272377918282996,0.0391879745362408,3
0.339996337890625,-0.0409493334591389,2.91315054893494,1.14370727539063,-0.068326768706371,2.93641728069206,1.18515461486636,1956.876,3107.816,3108.186,920.6777,-0.1228399,0.002068861,-0.02837598,0.0983978062868118,-0.234230369329453,0.0706954747438431,-0.0708499516420146,-0.0304847548730522,0.0438594951176439,3
0.3599853515625,-0.0390405729413033,2.90807676315308,1.14534294605255,-0.0698213312158394,2.93577421219747,1.18607982025561,1903.53,3066.188,3222.943,880.6222,-0.1267111,0.003092504,-0.0208648,0.0954380258917809,-0.253693342208862,0.0817853137850761,-0.0787457139191101,-0.0338820807988248,0.0487473480944833,3
0.3800048828125,-0.0372261479496956,2.90260982513428,1.1472430229187,-0.0714797725314022,2.93506063123087,1.18710647443246,1923.487,3020.043,3207.174,897.593,-0.1274067,0.00364225,-0.01188409,0.0907212197780609,-0.273344933986664,0.0950035750865936,-0.0869921272359981,-0.0374302820709642,0.0538522707687797,3
0.399993896484375,-0.0355377458035946,2.89676070213318,1.14943170547485,-0.0733036822025899,2.9342758538535,1.18823556140379,1993.05,2989.994,3097.521,937.8767,-0.1250322,0.00378947,-0.002212021,0.0844199359416962,-0.292454749345779,0.109432779252529,-0.0955525119207663,-0.0411135764513579,0.0591515566763244,3
0.41998291015625,-0.0340024158358574,2.89055418968201,1.15190553665161,-0.075301871434707,2.93341608884986,1.18947253572543,2070.98,2974.931,2954.433,986.3823,-0.120508,0.003707536,0.007341723,0.0767665728926659,-0.310321301221848,0.123689845204353,-0.104427768518458,-0.0449323514193797,0.064645763297398,3
0.44000244140625,-0.0326430127024651,2.88402414321899,1.15464127063751,-0.077483988232608,2.93247718495301,1.19082336997196,2135.891,2971.429,2825.429,1024.99,-0.1150645,0.003564765,0.01614628,0.067970409989357,-0.326506644487381,0.136787950992584,-0.113620829717891,-0.048887868829098,0.0703367061060819,4
0.459991455078125,-0.0314788669347763,2.87720704078674,1.15760171413422,-0.0798493430620752,2.93145943885026,1.19228763728888,2170.239,2978.87,2747.58,1037.386,-0.1098639,0.003473917,0.02393875,0.0582068897783756,-0.340851157903671,0.148024216294289,-0.123092454730403,-0.0529632444654124,0.0762000931848968,4
0.480010986328125,-0.030527152121067,2.87013792991638,1.1607471704483,-0.0824109101018722,2.93035726811493,1.19387336931088,2166.707,2984.427,2734.016,1032.364,-0.1055512,0.003481855,0.03075141,0.0475861132144928,-0.353453367948532,0.157273665070534,-0.132860437136906,-0.0571661344090936,0.082246939608052,4
0.5,-0.0298040527850389,2.86284613609314,1.16405236721039,-0.085166398670376,2.92917165836334,1.1955791479969,2147.814,2988.19,2761.189,1011.383,-0.1022675,0.003568289,0.03678591,0.0361551828682423,-0.364584714174271,0.165257722139359,-0.142884000065179,-0.0614789935111996,0.0884520025491718,4
0.519989013671875,-0.0293246489018202,2.85535645484924,1.16749823093414,-0.0881248588203387,2.92789871561062,1.19741057576073,2115.564,2994.477,2819.467,974.4327,-0.09986375,0.003686267,0.04242022,0.0239701569080353,-0.374489635229111,0.17229163646698,-0.153166947611899,-0.0659034585682559,0.0948176369253132,4
0.540008544921875,-0.0291044116020203,2.84768795967102,1.17108500003815,-0.0912963635428427,2.92653410573011,1.19937388826368,2088.126,2988.917,2870.605,955.6669,-0.09781151,0.003778749,0.04785299,0.0110113732516766,-0.383426815271378,0.179338216781616,-0.163714777034477,-0.0704418948965508,0.101347245800684,4
0.55999755859375,-0.0291579365730286,2.83985781669617,1.1748161315918,-0.094676112580471,2.92507989413848,1.20146611391775,2073.626,2991.738,2907.33,930.2803,-0.09578858,0.003794023,0.05329572,-0.00267630908638239,-0.391507387161255,0.186557695269585,-0.17448465888317,-0.0750758741803766,0.108014315705644,5
0.579986572265625,-0.029499277472496,2.83188223838806,1.17869770526886,-0.0982734311149,2.92353206847056,1.2036930254546,2061.916,2985.048,2923.515,932.1723,-0.09339919,0.003716188,0.05874741,-0.0170666724443436,-0.398780405521393,0.194079756736755,-0.185481935470438,-0.0798076950675377,0.114822153786096,5
0.600006103515625,-0.0301415510475636,2.82377743721008,1.18273866176605,-0.102098762959148,2.92188613504538,1.20606108809202,2066.025,2982.926,2912.267,940.8672,-0.09048143,0.003539231,0.0641106,-0.0321138799190521,-0.405234694480896,0.202050626277924,-0.196713446836865,-0.0846403006364086,0.121774994352997,5
0.6199951171875,-0.0310959368944168,2.81556129455566,1.18694221973419,-0.106144683970236,2.92014528826426,1.20856570593183,2077.333,2988.421,2884.976,949.6893,-0.08716739,0.003270571,0.06928785,-0.0477186404168606,-0.410808980464935,0.210178911685944,-0.208134604141382,-0.0895545055543457,0.128845234789665,5
0.639984130859375,-0.0323715098202229,2.8072521686554,1.19130396842957,-0.110420882305709,2.91830535958365,1.21121287640506,2080.959,2991.767,2857.602,967.9771,-0.08360941,0.002939466,0.07415811,-0.0637791603803635,-0.415452778339386,0.218087717890739,-0.219752140575416,-0.0945532069255159,0.136037043262338,5
0.660003662109375,-0.0339761227369308,2.79886889457703,1.19582200050354,-0.114938248900541,2.91636166293851,1.21400934151928,2086.869,2996.799,2826.01,987.5025,-0.07997686,0.002568512,0.07859184,-0.0802304297685623,-0.419169336557388,0.225899890065193,-0.231574097577923,-0.0996398647564507,0.143355397804799,5
0.67999267578125,-0.0359152145683765,2.79042959213257,1.20048749446869,-0.119686638739014,2.91431856344567,1.21694882102647,2091.11,3010.127,2805.088,989.6241,-0.07660263,0.002166525,0.08260698,-0.0969550758600235,-0.421968132257462,0.233274817466736,-0.243554411173546,-0.104794659005432,0.150771782621969,6
0.699981689453125,-0.0381929166615009,2.78195142745972,1.20529007911682,-0.124676182095571,2.91217170233105,1.22003758604909,2080.728,3014.312,2799.745,1000.929,-0.07355811,0.00175789,0.08620103,-0.113884925842285,-0.42391437292099,0.240128085017204,-0.25570106256044,-0.110021023759057,0.158291138455704,6
0.720001220703125,-0.0408127494156361,2.77344942092896,1.21022593975067,-0.129918284978346,2.90991617190799,1.22328269744952,2074.282,3019.586,2797.277,1005.844,-0.07085446,0.001347189,0.08939429,-0.130991607904434,-0.425104737281799,0.246792331337929,-0.268023157655716,-0.11532287703907,0.16591910230247,6
0.739990234375,-0.0437768809497356,2.76493692398071,1.21528935432434,-0.135400001298574,2.90755754251682,1.2266761409821,2069.253,3029.22,2802.155,997.6925,-0.06858439,0.0009260741,0.09229513,-0.148206263780594,-0.425624787807465,0.253168165683746,-0.280473432677602,-0.12067988256057,0.173626415629864,6
0.760009765625,-0.0470867864787579,2.75642561912537,1.22047436237335,-0.141140917956636,2.9050873864615,1.23023004187122,2054.66,3029.461,2815.072,1000.94,-0.06661631,0.0005061253,0.09495164,-0.16549526154995,-0.425568372011185,0.259252458810806,-0.293080296154222,-0.126104263719567,0.181430664670081,6
0.779998779296875,-0.0507443286478519,2.74792504310608,1.22578561306,-0.147126184485884,2.90251209348295,1.23393520697061,2051.513,3031.519,2814.7,1005.344,-0.06482241,8.399872E-05,0.09735812,-0.182877391576767,-0.425033181905746,0.265562891960144,-0.305795832832518,-0.131575403921268,0.189302187598958,6
0.79998779296875,-0.0547491423785686,2.73944401741028,1.2312136888504,-0.153366821193532,2.89982692185086,1.2377984583754,2045.049,3037.993,2829.461,991.8014,-0.06328097,-0.0003494067,0.0996468,-0.20024062693119,-0.424053132534027,0.271405696868896,-0.318629798715703,-0.137097500901303,0.197247023847227,6
0.82000732421875,-0.0591027177870274,2.73098945617676,1.23676943778992,-0.159875221826383,2.89702653888221,1.24182746840525,2039.981,3031.664,2817.884,1018.268,-0.06167348,-0.0007712514,0.1016598,-0.21767945587635,-0.422723382711411,0.27778834104538,-0.331592781842754,-0.14267511039705,0.205271727915392,6
0.839996337890625,-0.0638033002614975,2.72256875038147,1.24244344234467,-0.166633637018892,2.89411858163313,1.24601124935738,2048.014,3047.629,2821.158,991.669,-0.06036694,-0.001217065,0.103577,-0.235029190778732,-0.42104110121727,0.283697903156281,-0.344636106234817,-0.148287288494656,0.213346167053785,6
0.8599853515625,-0.0688505321741104,2.71418714523315,1.24823975563049,-0.173653699721778,2.89109804476993,1.25035700258242,2035.8,3038.411,2811.887,1025.096,-0.05903909,-0.001638377,0.1052248,-0.252361506223679,-0.419085472822189,0.289814651012421,-0.357770416714212,-0.153938615363784,0.221476930914505,6
0.8800048828125,-0.0742418467998505,2.70584988594055,1.2541515827179,-0.180948461186242,2.88795931270381,1.25487280742661,2042.399,3049.703,2812.688,1007.745,-0.05795465,-0.002061819,0.1067171,-0.269566118717194,-0.416863262653351,0.295590341091156,-0.371007022483504,-0.159633957038354,0.229671020432672,6
0.899993896484375,-0.079975813627243,2.69756102561951,1.26018476486206,-0.18849723509595,2.8847112861788,1.25954585807468,2040.882,3049.291,2797.712,1027.613,-0.05699165,-0.002464489,0.1079466,-0.286697536706924,-0.414448350667953,0.301659673452377,-0.384296738353309,-0.165352150505452,0.237897987633041,7
0.91998291015625,-0.0860476046800613,2.68932414054871,1.26632273197174,-0.196312316554895,2.88134867495511,1.26438376578173,2038.273,3058.178,2813.82,1006.028,-0.05641694,-0.002861833,0.1090859,-0.303590595722198,-0.411847531795502,0.306899309158325,-0.397650971463704,-0.171098103938772,0.246164894078718,7
0.94000244140625,-0.092456117272377,2.6811408996582,1.27258002758026,-0.204407453948074,2.87786556348678,1.26939504145298,2031.391,3048.553,2797.488,1043.654,-0.055814,-0.003208576,0.1099122,-0.320424765348434,-0.409162938594818,0.312866926193237,-0.411081631631503,-0.176876941799768,0.254479112513653,7
0.959991455078125,-0.0991952568292618,2.67301321029663,1.27893853187561,-0.212759000778906,2.87427212620069,1.27456504678061,2043.304,3069.067,2816.074,993.5357,-0.05575594,-0.003569701,0.1107416,-0.336958080530167,-0.406381398439407,0.317925482988358,-0.424539267042903,-0.182667386354485,0.262810029909387,7
0.980010986328125,-0.106263160705566,2.66494083404541,1.28541040420532,-0.221393324468958,2.87055701793193,1.27991010445463,2024.352,3051.403,2807.917,1043.534,-0.05562918,-0.003866377,0.1113046,-0.353393882513046,-0.403615742921829,0.32359579205513,-0.438056556301695,-0.188483498293199,0.271177875878363,7
1,-0.113653913140297,2.65692377090454,1.29198265075684,-0.230284798736574,2.86673126495361,1.28541435058594,2039.639,3069.487,2825.171,995.0876,-0.0559397,-0.004169445,0.1118801,-0.369537591934204,-0.400850862264633,0.328610152006149,-0.451584000205995,-0.194303979492187,0.279552008056641,7
1.01998901367188,-0.1213648468256,2.64896035194397,1.2986649274826,-0.239446912293295,2.86278906344998,1.29108613532954,2024.688,3055.354,2821.448,1033.316,-0.05618737,-0.004414456,0.1122615,-0.385547757148743,-0.398175537586212,0.33411106467247,-0.46513400752272,-0.200134169097193,0.287940108062054,7
1.04000854492188,-0.129390329122543,2.64104890823364,1.30544686317444,-0.248894644448595,2.85872396824263,1.29693473159157,2036.329,3067.692,2838.062,995.7714,-0.05673279,-0.004656271,0.1126584,-0.401273190975189,-0.395573645830154,0.339095056056976,-0.47871923339115,-0.205979512261105,0.296350010028666,7
1.05999755859375,-0.137727990746498,2.63318634033203,1.31234395503998,-0.258599401509697,2.85454828239877,1.30294243851408,2033.613,3060.229,2821.971,1028.245,-0.05721482,-0.004851214,0.1128685,-0.416884124279022,-0.393126487731934,0.34485337138176,-0.492290296490434,-0.211818761581115,0.30475114456651,7
1.07998657226563,-0.146370396018028,2.62537050247192,1.3193324804306,-0.268575430648764,2.85025587575821,1.30911807577533,2038.571,3072.331,2854.496,980.8066,-0.05810431,-0.005049886,0.1131884,-0.432119369506836,-0.390787065029144,0.349423855543137,-0.50586005237609,-0.217657448443621,0.313151469876847,7
1.10000610351563,-0.155317053198814,2.6175971031189,1.32644188404083,-0.278838480013141,2.84583997233313,1.31547139222872,2029.441,3053.096,2826.422,1045.891,-0.05864228,-0.005167598,0.1132104,-0.447333663702011,-0.388669580221176,0.355467706918716,-0.519441457145546,-0.223501147495394,0.321559006401169,7
1.1199951171875,-0.164559081196785,2.60986351966858,1.33364069461823,-0.289357002179081,2.84131414609862,1.32198285851614,2055.131,3083.047,2862.857,955.3046,-0.05983431,-0.005327387,0.1134544,-0.462102264165878,-0.386673748493195,0.359943389892578,-0.532985466132485,-0.229328756186667,0.329943393154705,8
1.13998413085938,-0.174096584320068,2.60216450691223,1.34096086025238,-0.300146026259498,2.83667193044725,1.3286617783744,2028.352,3051.313,2834.729,1051.649,-0.06055709,-0.005383314,0.113367,-0.476874083280563,-0.38495197892189,0.366006642580032,-0.546505271550557,-0.235145950758426,0.338312796746137,8
1.16000366210938,-0.183919921517372,2.5944972038269,1.3483659029007,-0.311222084148811,2.83190621216671,1.33551838583369,2058.042,3083.328,2882.281,944.1487,-0.06194193,-0.005483449,0.1135517,-0.491167962551117,-0.383364766836166,0.370252460241318,-0.560014026276883,-0.240958390526247,0.34667535943296,8
1.17999267578125,-0.194031298160553,2.58685493469238,1.35590386390686,-0.322550701230474,2.8270318247214,1.34253133946411,2038.776,3052.159,2832.007,1056.712,-0.06273448,-0.005475992,0.1133318,-0.505568981170654,-0.382109075784683,0.376897871494293,-0.573463232144024,-0.246745208083563,0.355001058539242,8
1.19998168945313,-0.204417794942856,2.57923579216003,1.36351215839386,-0.334147705564643,2.8220419577392,1.34971043758889,2067.02,3092.494,2912.128,907.4176,-0.0645007,-0.005546299,0.1135898,-0.519323348999023,-0.380960911512375,0.380412429571152,-0.586866312357874,-0.25251217906087,0.363298203668868,8
1.22000122070313,-0.215085968375206,2.57163119316101,1.37126898765564,-0.346030421585499,2.81692915700008,1.35706640485806,2031.315,3037.569,2832.84,1093.505,-0.06511695,-0.005445099,0.113208,-0.533409237861633,-0.380230635404587,0.387838959693909,-0.600236516861372,-0.258265004538453,0.371574997167698,8
1.239990234375,-0.226019188761711,2.564040184021,1.37908577919006,-0.358161486344149,2.81170949873715,1.36457611182642,2093.081,3110.085,2937.194,851.318,-0.06723417,-0.005501025,0.113574,-0.546660840511322,-0.379545480012894,0.3908411860466,-0.613526094901141,-0.263983138701136,0.379801879044709,8
1.260009765625,-0.237227991223335,2.55645298957825,1.38706541061401,-0.37057666480527,2.80636759428526,1.37226169871082,2025.113,3025.663,2831.908,1128.647,-0.06771034,-0.005321528,0.1130814,-0.560441076755524,-0.379364937543869,0.398983776569366,-0.626768731761373,-0.26968107538565,0.387999702095469,8
1.27999877929688,-0.248691827058792,2.54887008666992,1.39509034156799,-0.383236695417198,2.80092033679326,1.3800988607405,2110.966,3122.192,2970.562,801.1615,-0.07012156,-0.005358813,0.1135877,-0.573190748691559,-0.379147112369537,0.401249140501022,-0.639917282339435,-0.275338529371412,0.396139281255613,8
1.29998779296875,-0.260426700115204,2.54127931594849,1.40330040454865,-0.396158759015336,2.79536033382764,1.388098233671,2021.904,3011.789,2823.625,1171.89,-0.07029787,-0.005094627,0.1129474,-0.586745798587799,-0.379534721374512,0.410501331090927,-0.652985332144132,-0.280961346123326,0.404229026602261,8
1.32000732421875,-0.272405683994293,2.53368449211121,1.41153073310852,-0.409361504843077,2.78967956113998,1.39627136227237,2131.649,3139.287,3018.135,728.4462,-0.07306436,-0.005132444,0.1136922,-0.598947286605835,-0.37973889708519,0.411516100168228,-0.6659860834168,-0.286555206197011,0.41227711095171,8
1.33999633789063,-0.284654408693314,2.52606987953186,1.4199880361557,-0.422802873722428,2.78389611561957,1.40459220990988,2019.113,2992.212,2788.491,1249.671,-0.0726766,-0.004768656,0.1127818,-0.612435817718506,-0.380725145339966,0.422867566347122,-0.678873453515705,-0.29210028151913,0.420255006953505,8
1.3599853515625,-0.297133296728134,2.51844453811646,1.42841732501984,-0.436500861174643,2.77800225429635,1.41307191666844,2164.517,3174.139,3086.586,602.2758,-0.07619464,-0.004860269,0.1139653,-0.62394517660141,-0.381264984607697,0.421467542648315,-0.69166099897751,-0.297602405088682,0.428171106749628,9
1.3800048828125,-0.309884011745453,2.51078677177429,1.4371325969696,-0.450474904562636,2.77198961381608,1.4217225152016,1986.764,2946.996,2739.652,1399.026,-0.07478849,-0.004335094,0.1126092,-0.637537002563477,-0.382885426282883,0.435764878988266,-0.704361775018035,-0.303067194200314,0.436033492140578,9
1.39999389648438,-0.322849482297897,2.50311350822449,1.44575881958008,-0.464680216184654,2.76587746507559,1.43051627978847,2225.039,3231.19,3167.605,412.1701,-0.07932811,-0.004526309,0.1143818,-0.648274183273315,-0.383666485548019,0.431308597326279,-0.716930938559026,-0.308475354130225,0.443814403124744,9
1.41998291015625,-0.336092174053192,2.4953944683075,1.45474815368652,-0.479135601808478,2.75965771647838,1.43946485209513,1941.035,2890.352,2664.903,1601.069,-0.07665537,-0.003812049,0.1124486,-0.662132978439331,-0.385955035686493,0.449469476938248,-0.729381927869995,-0.313832666990362,0.451522158631107,9
1.44000244140625,-0.349530100822449,2.48765778541565,1.46355366706848,-0.493861275572861,2.75332167044526,1.4485807456364,2286.401,3299.389,3292.161,162.9187,-0.08255479,-0.004136954,0.1150569,-0.671897172927856,-0.386834681034088,0.440276026725769,-0.741727567798258,-0.319144650954242,0.459164697851088,9
1.45999145507813,-0.363258451223373,2.47985982894897,1.47284972667694,-0.508809800712713,2.74688973769103,1.45783459479497,1882.418,2811.666,2529.687,1903.944,-0.07787935,-0.003150519,0.1121904,-0.686419606208801,-0.38990244269371,0.464801400899887,-0.753924423002454,-0.324392617007921,0.466715132239272,9
1.48001098632813,-0.377164363861084,2.47203993797302,1.48189425468445,-0.524024159888143,2.74034342397783,1.467253007885,2198.339,3551.569,3293.038,0,-0.08457135,-0.002965163,0.116486,-0.6952965259552,-0.390989899635315,0.452229499816895,-0.766004036374583,-0.329590137176618,0.474192988348404,9
1.5,-0.391366720199585,2.46414923667908,1.4914835691452,-0.539455198877605,2.73370387899399,1.4768055561018,1890.449,2648.795,2417.079,2190.709,-0.07829268,-0.001254881,0.1128589,-0.710116326808929,-0.394530057907104,0.479468554258347,-0.777924000354858,-0.334718964672088,0.481572013878822,9
1.51998901367188,-0.405737698078156,2.45623421669006,1.50080454349518,-0.555123050061237,2.72696244033876,1.48650470234772,2119.254,3719.853,3213.351,0,-0.08472154,-8.232617E-06,0.1176425,-0.718550086021423,-0.395748674869537,0.466048628091812,-0.789697369743256,-0.339784716610053,0.488860290373601,9
1.54000854492188,-0.420396149158478,2.44825196266174,1.51062750816345,-0.571049184024557,2.72010986981902,1.49636373793799,2000.552,2516.705,2427.813,2212.19,-0.0785787,0.002500414,0.1131607,-0.732922494411469,-0.399117976427078,0.491148859262466,-0.801336412291853,-0.344792671461508,0.496065412155667,9
1.55999755859375,-0.435218304395676,2.44024705886841,1.52019584178925,-0.587181951496087,2.71316839067337,1.50635068951315,2182.855,3686.302,3201.365,0,-0.08522755,0.004403825,0.1165978,-0.741109132766724,-0.400244176387787,0.478415429592133,-0.812800388649436,-0.349725300221754,0.503162159625937,9
1.57998657226563,-0.45030876994133,2.43218064308167,1.53019940853119,-0.603542258451077,2.7061290076447,1.51647849886779,2088.486,2510.916,2560.451,2005.861,-0.08096489,0.007146706,0.1114397,-0.754518985748291,-0.40332368016243,0.500181436538696,-0.82410201904291,-0.354588076049064,0.510158407210813,9
1.60000610351563,-0.465556979179382,2.42408871650696,1.53998446464539,-0.620152298932711,2.69898217125626,1.52676090517188,2214.768,3608.602,3265.893,0,-0.0882204,0.009152178,0.1136518,-0.762410044670105,-0.404590845108032,0.489250212907791,-0.835253140422976,-0.35938609205264,0.51706148254665,9
1.6199951171875,-0.481052935123444,2.415931224823,1.5501571893692,-0.636958033083316,2.69175113334911,1.53716445517924,2124.654,2564.342,2726.217,1756.142,-0.085896,0.01165297,0.1087449,-0.774800896644592,-0.407869011163712,0.508637547492981,-0.846214826007804,-0.364102599125749,0.523847288101157,9
1.63998413085938,-0.496700823307037,2.40773725509644,1.56014680862427,-0.653981118189727,2.68442657539777,1.54770255578211,2228.031,3515.831,3359.676,0,-0.09337202,0.01331717,0.1106867,-0.78239518404007,-0.409696996212006,0.499483823776245,-0.856999388527105,-0.368742895092007,0.53052344604056,9
1.66000366210938,-0.512583017349243,2.39946413040161,1.57050430774689,-0.671244443874359,2.67699864863716,1.55838937674714,2106.792,2613.199,2858.732,1597.855,-0.09154989,0.01534208,0.1067333,-0.794110298156738,-0.413654327392578,0.51787257194519,-0.867618167158098,-0.373311858882592,0.53709697585572,9
1.67999267578125,-0.52861487865448,2.39113926887512,1.5807158946991,-0.688691692550512,2.66949158495151,1.56919005480539,2265.051,3438.45,3411.401,0,-0.09828023,0.01641607,0.1090704,-0.80159318447113,-0.416241466999054,0.510581433773041,-0.878034183119987,-0.377793579561193,0.543544985919778,9
1.69998168945313,-0.544875085353851,2.38271999359131,1.59129762649536,-0.706345246291743,2.66189575395985,1.5801184455266,2087.418,2662.917,2898.255,1533.472,-0.09580775,0.01786062,0.1062266,-0.813011467456818,-0.420960426330566,0.529086649417877,-0.88825927318574,-0.382193150160541,0.549874803759068,9
1.72000122070313,-0.561282098293304,2.37423872947693,1.60173797607422,-0.724228658537036,2.6542010212754,1.5911891296115,2302.98,3383.499,3435.345,0,-0.1014851,0.01827272,0.1092184,-0.820351421833038,-0.424069136381149,0.522016823291779,-0.898304216251578,-0.386515208538549,0.556093102023817,9
1.739990234375,-0.577920734882355,2.36565089225769,1.6125910282135,-0.74228345468553,2.64643254688532,1.60236590849663,2068.236,2699.448,2825.544,1599.129,-0.0974962,0.01922804,0.1069516,-0.831929385662079,-0.429387420415878,0.542655766010284,-0.908134108040217,-0.390744736359816,0.562178273303667,9
1.760009765625,-0.594700694084167,2.35699701309204,1.62328565120697,-0.760560719141003,2.63856835059778,1.61368040586141,2284.785,3450.8,3388.97,0,-0.1024715,0.01929413,0.1109577,-0.839000821113586,-0.43267747759819,0.53472912311554,-0.91777478390713,-0.394892849856044,0.568146310914365,9
1.77999877929688,-0.611715793609619,2.34823441505432,1.63441574573517,-0.779000609654483,2.63063418086074,1.62509557650306,2051.366,2676.392,2724.479,1749.448,-0.09710311,0.02013579,0.1088363,-0.850751876831055,-0.438147187232971,0.55650669336319,-0.927192788821983,-0.398945154262308,0.57397650459845,9
1.79998779296875,-0.628867030143738,2.33941006660461,1.64535820484161,-0.797626646773287,2.62261991743975,1.63662598076079,2281.539,3504.84,3343.006,0,-0.1017493,0.02017617,0.1132751,-0.857561707496643,-0.441212326288223,0.547124624252319,-0.936399026186941,-0.402906341007953,0.579675604081262,9
1.82000732421875,-0.646255373954773,2.33048248291016,1.65674352645874,-0.816463410111527,2.61451498441355,1.64828683458664,2050.285,2642.493,2660.711,1859.172,-0.09562773,0.02112859,0.1108044,-0.869416296482086,-0.446381151676178,0.569267749786377,-0.94540321420156,-0.406780591562751,0.585249625391268,9
1.83999633789063,-0.663776516914368,2.32150173187256,1.66793036460876,-0.835449117627072,2.60634596486888,1.66003989195343,2277.977,3560.145,3299.439,0,-0.1002888,0.02134051,0.115187,-0.87606018781662,-0.449033230543137,0.559341907501221,-0.954174163352093,-0.410554485950274,0.590679260733698,9
1.8599853515625,-0.681531190872192,2.31242918968201,1.67953836917877,-0.854607925216182,2.59810246519841,1.67190010651166,2066.983,2618.813,2660.888,1873.444,-0.09441438,0.02245036,0.1123695,-0.887730538845062,-0.453631281852722,0.580398380756378,-0.962722140342816,-0.41423244164655,0.595970865687568,9
1.8800048828125,-0.699415326118469,2.30331349372864,1.69093728065491,-0.873964974649439,2.58977366760063,1.68388304221498,2283.813,3541.355,3321.233,0,-0.09925389,0.0227716,0.1162762,-0.894207358360291,-0.455790489912033,0.569947183132172,-0.971056158224177,-0.417818336715394,0.601130019760457,9
1.89999389648438,-0.717530131340027,2.2941153049469,1.70275795459747,-0.893456683142228,2.58138692997148,1.69594933829086,2084.996,2623.101,2679.668,1840.2,-0.09369373,0.02392012,0.1130949,-0.905740141868591,-0.459905415773392,0.591033577919006,-0.979147395688901,-0.421299770153459,0.606138881190213,9
1.91998291015625,-0.735770463943481,2.28488087654114,1.71437156200409,-0.91310780215452,2.5729316024492,1.70811431707208,2249.97,3570.204,3330.947,0,-0.09866959,0.02434954,0.1169514,-0.912015736103058,-0.461724013090134,0.580681145191193,-0.98700543065471,-0.424680863071164,0.611003379164165,9
1.94000244140625,-0.75423526763916,2.27557229995728,1.7263890504837,-0.932943991899774,2.5643966441608,1.72039386345315,2090.718,2606.186,2719.518,1812.214,-0.0932655,0.02554226,0.1137577,-0.923241555690765,-0.465425550937653,0.600877046585083,-0.994638524886308,-0.427965170275055,0.615728628108227,9
1.95999145507813,-0.7728231549263,2.26623320579529,1.73820972442627,-0.952900013794853,2.55581012544606,1.73274759164336,2276.187,3535.418,3342.271,0,-0.09804747,0.02591954,0.1172935,-0.929390966892242,-0.466951698064804,0.59103387594223,-1.00202031904361,-0.431141350077486,0.620298310335216,9
1.98001098632813,-0.791628241539001,2.25682783126831,1.7504186630249,-0.973031969359004,2.54714790738853,1.74521023115561,2097.252,2621.723,2753.82,1753.334,-0.09280158,0.02698609,0.1141489,-0.940259635448456,-0.470272123813629,0.610447108745575,-1.00917036754089,-0.434217816196637,0.624724530959079,9
2,-0.810552299022675,2.24739766120911,1.76243436336517,-0.993273599084619,2.53843849960327,1.7577407641983,2293.155,3500.471,3358.696,0,-0.09738328,0.02715803,0.1174712,-0.946196913719177,-0.471512645483017,0.600784301757813,-1.01606400046349,-0.437183953857422,0.628992018127441,9
2.01998901367188,-0.829687654972076,2.23790693283081,1.77483725547791,-1.01365055070775,2.52967086658596,1.77035506794184,2088.771,2644.959,2759.793,1728.047,-0.0920266,0.02801777,0.1144117,-0.956769287586212,-0.474532127380371,0.620146632194519,-1.02270954399163,-0.440043345582587,0.633105926142498,9
2.04000854492188,-0.848935127258301,2.22839736938477,1.78704023361206,-1.03418924440916,2.52083364047092,1.78306949773667,2283.359,3497.701,3364.555,0,-0.096383,0.02798447,0.1178525,-0.962381362915039,-0.47548434138298,0.610147655010223,-1.02911391720548,-0.442798968459032,0.637070538244476,9
2.05999755859375,-0.868390440940857,2.21883249282837,1.79964435100555,-1.05482201812353,2.5119559343546,1.79584216754118,2080.615,2653.107,2721.354,1760.399,-0.09058103,0.02869711,0.1148127,-0.972766757011414,-0.478242516517639,0.630204379558563,-1.03525504859546,-0.445441325732794,0.640872191117535,9
2.07998657226563,-0.887949526309967,2.20925521850586,1.81202960014343,-1.07557499515204,2.50302650811029,1.80868924892322,2256.192,3530.155,3348.458,0,-0.09481759,0.0285872,0.1185702,-0.977951347827911,-0.478859961032867,0.619265258312225,-1.04114045847258,-0.4479736531836,0.644515540192423,9
2.10000610351563,-0.907711744308472,2.19963026046753,1.8248188495636,-1.09647498538954,2.49403382618922,1.82162733848484,2063.772,2628.727,2683.548,1831.267,-0.08841854,0.02931479,0.115412,-0.988109946250916,-0.481244027614594,0.639462769031525,-1.04677621342161,-0.450398561093403,0.648004340974112,9
2.1199951171875,-0.927570402622223,2.19000124931335,1.83738040924072,-1.11745308225396,2.48500753716864,1.83461377976925,2257.004,3554.647,3312.972,0,-0.09249052,0.02922608,0.1191661,-0.992936849594116,-0.481448084115982,0.628077745437622,-1.0521429102862,-0.45270770082608,0.651326581984514,9
2.13998413085938,-0.947624266147614,2.18033504486084,1.85033082962036,-1.13853583516761,2.47593621757383,1.84766500813359,2065.197,2615.315,2664.081,1851.847,-0.08603448,0.02998119,0.1158116,-1.0026867389679,-0.48329359292984,0.647519588470459,-1.05724722779031,-0.454903946049977,0.654486397671922,9
2.16000366210938,-0.967765867710114,2.17067551612854,1.8630359172821,-1.15975039167652,2.46680818657414,1.86079782920208,2259.446,3538.807,3315.526,0,-0.09013575,0.02987465,0.1192704,-1.00708281993866,-0.482990592718124,0.635255336761475,-1.0620943502576,-0.456989527434725,0.657486997379635,8
2.17999267578125,-0.988095700740814,2.16098880767822,1.87613677978516,-1.18102676265167,2.45765355853653,1.8739689163698,2067.405,2618.823,2637.472,1863.177,-0.08366533,0.03060723,0.1155635,-1.01649475097656,-0.484339654445648,0.655045807361603,-1.06666760390386,-0.458957270716794,0.660318059240953,8
2.19998168945313,-1.00850331783295,2.15131616592407,1.8889787197113,-1.20239187218348,2.44846074877705,1.8871949369313,2216.586,3583.002,3300.064,0,-0.0879674,0.03057349,0.1191029,-1.02038109302521,-0.483620256185532,0.64209908246994,-1.07097279461286,-0.460809674005774,0.6629831773745,7
2.22000122070313,-1.02908897399902,2.14162659645081,1.90220177173615,-1.22387315175433,2.43921795429519,1.90049287228091,2057.939,2590.559,2635.956,1888.052,-0.08148581,0.03138215,0.1152424,-1.02928423881531,-0.484495401382446,0.661155343055725,-1.07501419914593,-0.462548577472581,0.665484999299265,7
2.239990234375,-1.04974400997162,2.13195872306824,1.91516280174255,-1.24539969505118,2.42995568409656,1.91381882803312,2227.801,3569.948,3288.633,0,-0.08578788,0.03136644,0.118501,-1.03275156021118,-0.48338994383812,0.648051738739014,-1.07877792518082,-0.464168003639063,0.667814925005999,5
2.260009765625,-1.07056498527527,2.1222825050354,1.9284850358963,-1.26703177594152,2.42064800401982,1.92721011658316,2057.594,2589.908,2649.773,1859.344,-0.07955182,0.0321354,0.1145165,-1.04104483127594,-0.483798652887344,0.666109919548035,-1.08227399942825,-0.465672266718726,0.669979161506271,5
2.27999877929688,-1.09144592285156,2.11263585090637,1.94154047966003,-1.28869796983554,2.41132564607061,1.9406225227075,2235.348,3540.775,3295.785,0,-0.08388531,0.03201227,0.1174612,-1.04404950141907,-0.482343137264252,0.652775168418884,-1.08549040888332,-0.467056197851165,0.67197027217779,2
2.29998779296875,-1.11248111724854,2.10298800468445,1.95494997501373,-1.31042570636616,2.40197680804417,1.95407302665558,2046.73,2602.991,2654.985,1835.645,-0.07776963,0.03264774,0.113416,-1.05176663398743,-0.482394486665726,0.670475840568542,-1.08843144721369,-0.468321644481621,0.673790915005368,1
2.32000732421875,-1.13356590270996,2.09337472915649,1.96808433532715,-1.33224276726637,2.39258953623693,1.96757882664355,2218.51,3535.585,3300.305,0,-0.08206957,0.03239355,0.1163547,-1.05424153804779,-0.480660617351532,0.656721174716949,-1.09109983431736,-0.469469776906228,0.675442773735451,0
2.33999633789063,-1.15479552745819,2.08376550674438,1.9815798997879,-1.35407709248145,2.38319483607731,1.98109531406483,2037.061,2607.175,2626.175,1852.891,-0.07576746,0.03291386,0.1122804,-1.06147623062134,-0.480459451675415,0.674776971340179,-1.09348640563071,-0.470496651869278,0.67692017506657,0
2.3599853515625,-1.17606246471405,2.07419610023499,1.99478268623352,-1.37595634130987,2.37378080654189,1.99463961134278,2190.169,3555.45,3288.308,0,-0.08006421,0.03259867,0.1154291,-1.06335592269897,-0.478475600481033,0.660139322280884,-1.09559452046326,-0.471403714787811,0.678225198571351,0
2.3800048828125,-1.19746446609497,2.06463623046875,2.00834584236145,-1.39790843013262,2.36433543599182,2.00822900004707,2016.123,2584.896,2597.133,1906.994,-0.07333121,0.03311756,0.1112601,-1.07009732723236,-0.477996528148651,0.678161919116974,-1.09742594550583,-0.472191725819537,0.679358937915576,0
2.39999389648438,-1.2188937664032,2.05512166023254,2.02160954475403,-1.41986083522252,2.35488992936084,2.02181858453579,2190.559,3569.625,3254.446,0,-0.07750917,0.0327953,0.1143797,-1.07146489620209,-0.475732743740082,0.663182616233826,-1.09897439291323,-0.472857979480329,0.680317500623536,0
2.41998291015625,-1.24044501781464,2.04562425613403,2.03521704673767,-1.4418413890156,2.34543231112926,2.03542559441269,2011.115,2574.583,2580.073,1919.301,-0.07077883,0.03330021,0.1100876,-1.07757103443146,-0.474876254796982,0.68037486076355,-1.10024227275454,-0.473403512755585,0.681102378642803,0
2.44000244140625,-1.26201224327087,2.03617882728577,2.04850816726685,-1.46387808506052,2.33595053645515,2.04906735901791,2194.667,3544.896,3255.753,0,-0.07499249,0.03290896,0.1129325,-1.07836401462555,-0.472270458936691,0.664550542831421,-1.10123038958312,-0.473828671822132,0.681714070030222,0
2.45999145507813,-1.28369104862213,2.02675700187683,2.0621509552002,-1.48589810917879,2.32647593524532,2.06269880290633,2005.592,2581.423,2548.991,1931.611,-0.06823498,0.03334188,0.1083637,-1.08393621444702,-0.471088409423828,0.682136058807373,-1.10193535162022,-0.474131997292339,0.68215047511319,0
2.48001098632813,-1.30537271499634,2.01739239692688,2.07546257972717,-1.5079630509786,2.31698200721197,2.07635805297935,2151.374,3585.84,3236.411,0,-0.07265583,0.03297569,0.1113535,-1.0840916633606,-0.468225628137589,0.665582120418549,-1.10235904000526,-0.474314298567936,0.682412758406602,0
2.5,-1.32715344429016,2.00805711746216,2.08911752700806,-1.52999999932945,2.30750012397766,2.08999997377396,1991.783,2556.408,2530.197,1968.729,-0.06585252,0.03345073,0.1066714,-1.08903455734253,-0.466764181852341,0.682744562625885,-1.10250000050292,-0.474374949932098,0.682500019669533,0
2.51998901367188,-1.34892559051514,1.998783826828,2.10242795944214,-1.5520369476803,2.29801824074336,2.10364189456856,2143.871,3580.38,3228.825,0,-0.07031438,0.03311537,0.1095537,-1.08860325813293,-0.463656097650528,0.665517330169678,-1.10235904000526,-0.474314298567936,0.682412758406603,0
2.54000854492188,-1.3707834482193,1.98954582214355,2.11607217788696,-1.57410188948011,2.28852431271001,2.11730114464159,1982.208,2542.183,2526.702,1976.076,-0.06345034,0.03359778,0.1047039,-1.09289598464966,-0.461905390024185,0.682213664054871,-1.10193535162022,-0.474131997292339,0.682150475113189,0
2.55999755859375,-1.39262223243713,1.9803740978241,2.12937355041504,-1.59612191359838,2.27904971150017,2.13093258853001,2148.626,3579.337,3205.44,0,-0.06790901,0.03323782,0.1073859,-1.0919406414032,-0.4585842192173,0.665070831775665,-1.10123038958312,-0.473828671822132,0.681714070030222,0
2.57998657226563,-1.41453123092651,1.97124302387238,2.14298605918884,-1.61812503288753,2.26958238396605,2.14455356752391,1975.052,2544.165,2534.735,1950.559,-0.06134112,0.03364457,0.1025266,-1.09545159339905,-0.456556677818298,0.680629670619965,-1.1002439936861,-0.473404253224357,0.681103443981416,0
2.60000610351563,-1.43640947341919,1.96218240261078,2.15624499320984,-1.64013916343638,2.26011031859448,2.15818136301212,2158.871,3532.97,3221.163,0,-0.06585199,0.03312329,0.1049077,-1.09391033649445,-0.453032255172729,0.662943482398987,-1.09897439291323,-0.472857979480329,0.680317500623536,0
2.6199951171875,-1.45834565162659,1.95316529273987,2.16982507705688,-1.66209156852628,2.2506648119635,2.17177094750084,1960.57,2563.586,2515.114,1945.987,-0.05927131,0.0333606,0.09995127,-1.09681463241577,-0.450849115848541,0.679001569747925,-1.09742594550583,-0.472191725819537,0.679358937915576,0
2.63998413085938,-1.48023855686188,1.94422101974487,2.18304085731506,-1.6840102224118,2.24123382753286,2.18533963838626,2117.384,3566.312,3206.017,0,-0.06388497,0.03276149,0.1026132,-1.09464120864868,-0.447220683097839,0.660785257816315,-1.09559752564474,-0.471405007833448,0.678227058921845,0
2.66000366210938,-1.5021767616272,1.93532252311707,2.19657182693481,-1.70592290617745,2.23180541187802,2.19890463348308,1933.316,2543.219,2496.262,1990.309,-0.05703319,0.03296842,0.09773443,-1.09690964221954,-0.444917023181915,0.676545858383179,-1.09348640563071,-0.470496651869278,0.67692017506657,0
2.67999267578125,-1.52406084537506,1.92649948596954,2.2097315788269,-1.72775723139253,2.2224107117184,2.21242112090437,2128.475,3554.361,3185.263,0,-0.06152914,0.03229523,0.1003541,-1.0942040681839,-0.441153943538666,0.657993137836456,-1.09109983431736,-0.469469776906228,0.675442773735451,0
2.69998168945313,-1.54597747325897,1.91772627830505,2.2231981754303,-1.74954107593572,2.21303773198162,2.22590635838503,1918.947,2541.273,2478.838,2002.676,-0.05457296,0.03243253,0.09543362,-1.09582996368408,-0.438660860061646,0.673328042030334,-1.08843572622736,-0.468323485621663,0.673793563918671,0
2.72000122070313,-1.56782865524292,1.90903186798096,2.23628067970276,-1.77130202882336,2.20367460188472,2.23937742484041,2125.789,3540.128,3180.572,0,-0.05902044,0.03166366,0.0979492,-1.09256112575531,-0.434718191623688,0.654120624065399,-1.08549040888332,-0.467056197851165,0.671970272177789,0
2.739990234375,-1.5897011756897,1.90039086341858,2.24967980384827,-1.79296822271738,2.1943522439355,2.25278983096475,1909.607,2545.93,2440.086,2026.531,-0.05190554,0.03171444,0.09287175,-1.09362733364105,-0.4320427775383,0.669950664043427,-1.08227399942825,-0.465672266718727,0.669979161506271,0
2.760009765625,-1.61149621009827,1.89183211326599,2.26267862319946,-1.81460030360772,2.18504456385877,2.26618111951479,2091.654,3571.817,3159.413,0,-0.05649204,0.03093889,0.0955623,-1.0897501707077,-0.427941173315048,0.649938464164734,-1.07877792518082,-0.464168003639063,0.667814925005998,0
2.77999877929688,-1.63330054283142,1.88333034515381,2.27599191665649,-1.83612684690458,2.17578229366013,2.27950707526701,1891.335,2523.47,2409.544,2076.613,-0.04919764,0.03101838,0.09037089,-1.09021842479706,-0.425083875656128,0.665665328502655,-1.07501419914593,-0.462548577472581,0.665484999299265,0
2.79998779296875,-1.65501618385315,1.8749144077301,2.28889131546021,-1.85757544288233,2.1665535620153,2.29278477791556,2080.271,3577.271,3143.07,0,-0.05382142,0.03028475,0.0930299,-1.08578372001648,-0.420809537172318,0.644971132278442,-1.07097916161324,-0.460812413548163,0.662987118851036,0
2.82000732421875,-1.67672848701477,1.86655974388123,2.30209755897522,-1.87897323600723,2.1573466894188,2.30603103117811,1879.47,2506.672,2396.924,2096.863,-0.04643541,0.03039471,0.0876779,-1.08561587333679,-0.417729616165161,0.660315811634064,-1.06666760390385,-0.458957270716794,0.660318059240952,0
2.83999633789063,-1.69834208488464,1.85829401016235,2.31488943099976,-1.90024960698239,2.14819206138118,2.31920211834584,2085.596,3575.443,3118.693,0,-0.05109807,0.02966284,0.09013698,-1.08067739009857,-0.41328439116478,0.639588296413422,-1.06209435025759,-0.456989527434725,0.657486997379635,0
2.8599853515625,-1.71993732452393,1.85009431838989,2.32796883583069,-1.92143189875059,2.13907791299805,2.33231496600284,1869.641,2507.519,2400.136,2079.731,-0.04399382,0.02973162,0.08474023,-1.07977068424225,-0.409985095262527,0.653973579406738,-1.05725481901126,-0.454907212340279,0.654491096999312,0
2.8800048828125,-1.7414231300354,1.84198641777039,2.3406240940094,-1.94254691640495,2.12999271078668,2.34538616777867,2091.689,3536.641,3130.244,0,-0.0487497,0.02888903,0.08692253,-1.0742894411087,-0.405394494533539,0.632763683795929,-1.0521429102862,-0.45270770082608,0.651326581984514,0
2.89999389648438,-1.76287841796875,1.83394694328308,2.35357522964478,-1.96352501326936,2.1209664217661,2.35837260906308,1855.383,2523.545,2383.648,2074.413,-0.04169605,0.02882416,0.08144226,-1.07275927066803,-0.401978611946106,0.647557318210602,-1.04677621342161,-0.450398561093403,0.648004340974112,0
2.91998291015625,-1.78421258926392,1.82600057125092,2.3660933971405,-1.98439323028747,2.1119874109737,2.37129102948832,2055.995,3560.908,3118.148,0,-0.04658028,0.02792131,0.08384704,-1.06670963764191,-0.397327125072479,0.625903964042664,-1.0411492471255,-0.447977434695422,0.644520980787238,0
2.94000244140625,-1.80550372600555,1.81812345981598,2.37890267372131,-2.00517798053537,2.10304431360073,2.38415778000673,1827.765,2507.252,2368.664,2110.801,-0.03932157,0.02782694,0.07845792,-1.06455767154694,-0.393840104341507,0.640465438365936,-1.03525504859546,-0.445441325732794,0.640872191117535,0
2.95999145507813,-1.82666456699371,1.81034135818481,2.39127421379089,-2.02581075424974,2.0941666074844,2.39693044981124,2065.675,3547.36,3099.865,0,-0.04410834,0.0268559,0.08083344,-1.05803370475769,-0.38910961151123,0.618582785129547,-1.02911391720548,-0.442798968459032,0.637070538244476,0
2.98001098632813,-1.84776973724365,1.80263149738312,2.4039306640625,-2.04634944795115,2.08532938136936,2.40964487960608,1811.168,2507.174,2352.447,2121.699,-0.03675429,0.02669342,0.0754488,-1.05527091026306,-0.385497689247131,0.632817804813385,-1.02270954399162,-0.440043345582586,0.633105926142498,0
3,-1.86873531341553,1.79501843452454,2.41614055633545,-2.06672639957428,2.07656174835205,2.42225918334961,2069.538,3531.375,3089.894,0,-0.04151868,0.02562132,0.07772518,-1.04826807975769,-0.380656033754349,0.610497832298279,-1.01606400046349,-0.437183953857422,0.628992018127441,0
3.01998901367188,-1.88963353633881,1.7874801158905,2.42863655090332,-2.0869680292999,2.06785234056679,2.43478971639231,1791.658,2512.639,2328.829,2138.347,-0.03406343,0.02536924,0.07228815,-1.04492616653442,-0.376909494400024,0.624803721904755,-1.00917036754089,-0.434217816196637,0.624724530959079,0
3.04000854492188,-1.91038203239441,1.78004097938538,2.44067406654358,-2.10709998486405,2.05919012250926,2.44725235590455,2052.616,3535.944,3079.117,0,-0.03885552,0.02423205,0.07462087,-1.03742706775665,-0.371954381465912,0.601878046989441,-1.00202031904361,-0.431141350077486,0.620298310335216,0
3.05999755859375,-1.9310530424118,1.77267968654633,2.45300602912903,-2.12705600675913,2.05060360379452,2.45960608409476,1778.558,2508.358,2290.011,2173.739,-0.03123622,0.02392959,0.06910319,-1.03355097770691,-0.368076950311661,0.616597712039948,-0.994638524886308,-0.427965170275055,0.615728628108227,0
3.07998657226563,-1.9515643119812,1.76541948318481,2.46486282348633,-2.14686207530873,2.04208160581513,2.47186698402085,2027.688,3554.02,3061.893,0,-0.03614016,0.02280121,0.07157478,-1.02555739879608,-0.363005727529526,0.592844605445862,-0.987017247723776,-0.424685947625853,0.611010694492843,0
3.10000610351563,-1.97198724746704,1.75823974609375,2.4770131111145,-2.16654331551667,2.03361331798384,2.48405060925705,1756.989,2486.84,2264.831,2220.705,-0.02828916,0.02253573,0.0659515,-1.02114152908325,-0.35897758603096,0.607509672641754,-0.979147395688901,-0.421299770153459,0.606138881190213,0
3.1199951171875,-1.99224162101746,1.75116455554962,2.4886839389801,-2.18603502400946,2.02522658035469,2.49611690533293,2027.456,3559.708,3034.37,0,-0.03320003,0.02144423,0.06834643,-1.01272368431091,-0.353770852088928,0.583539485931396,-0.971056158224178,-0.417818336715394,0.601130019760458,0
3.13998413085938,-2.01239562034607,1.74417364597321,2.50063467025757,-2.20536269329809,2.01691042421237,2.50808165332716,1747.365,2479.949,2254.81,2224.704,-0.02547047,0.02119079,0.06264859,-1.00770008563995,-0.349553227424622,0.597542583942413,-0.962735018414262,-0.414237982720922,0.59597883782726,0
3.16000366210938,-2.03237223625183,1.73728919029236,2.5120952129364,-2.22455088103183,2.00865428308644,2.51996005559448,2031.561,3531.156,3037.143,0,-0.03046124,0.02006309,0.06479923,-0.998842000961304,-0.344214618206024,0.573031425476074,-0.954174163352092,-0.410554485950274,0.590679260733698,0
3.17999267578125,-2.05223751068115,1.73049187660217,2.52384257316589,-2.24353658854737,2.00048526354177,2.53171311296128,1737.583,2488.698,2235.261,2225.188,-0.022794,0.01973988,0.05896136,-0.993252515792847,-0.339859396219254,0.5873664021492,-0.945403214201559,-0.406780591562751,0.585249625391267,0
3.19998168945313,-2.07191586494446,1.72380304336548,2.53509140014648,-2.26234477504321,1.99239262633251,2.54335627636037,2001.892,3551.166,3023.563,0,-0.02795893,0.01860518,0.06122879,-0.983931243419647,-0.334447950124741,0.56243908405304,-0.936412917636688,-0.402912318110697,0.579684203550396,0
3.22000122070313,-2.09147119522095,1.71720290184021,2.54662084579468,-2.28099938900442,1.98436606709459,2.55490437104486,1713.874,2474.956,2224.291,2251.22,-0.02023843,0.01828241,0.05543049,-0.977765500545502,-0.330008327960968,0.576476216316223,-0.927192788821982,-0.398945154262308,0.573976504598449,0
3.239990234375,-2.11083221435547,1.71071207523346,2.55764842033386,-2.2994392795179,1.97643189735754,2.5663195416865,2009.827,3535.39,3009.502,0,-0.02540549,0.01711311,0.05761517,-0.968051135540009,-0.324534446001053,0.551380038261414,-0.917774783907129,-0.394892849856044,0.568146310914365,0
3.260009765625,-2.1300585269928,1.70431196689606,2.56894993782043,-2.31771654397337,1.96856770107001,2.57763403905129,1696.562,2477.434,2215.469,2252.937,-0.01771854,0.01673966,0.05183868,-0.961319625377655,-0.32000321149826,0.565074980258942,-0.908134108040216,-0.390744736359816,0.562178273303667,0
3.27999877929688,-2.14908313751221,1.69802260398865,2.57974314689636,-2.33577134012187,1.96079922667992,2.58881081793642,2013.068,3515.556,3004.324,0,-0.02290958,0.01548739,0.05392634,-0.951218664646149,-0.314472675323486,0.539665162563324,-0.898304216251578,-0.386515208538549,0.556093102023818,0
3.29998779296875,-2.16796207427979,1.69182538986206,2.59081220626831,-2.35362764460945,1.95311615770631,2.59986472102797,1676.176,2484.975,2198.211,2262.161,-0.01517895,0.01502808,0.04815984,-0.943956971168518,-0.309867739677429,0.553449809551239,-0.888274735793772,-0.382199803288803,0.549884375850026,0
3.32000732421875,-2.18663144111633,1.68573927879333,2.60136365890503,-2.37130830610839,1.94550866300381,2.61080989274252,2000.205,3513.622,2996.441,0,-0.02039289,0.01370618,0.05031519,-0.933471381664276,-0.304289132356644,0.527575016021729,-0.878034183119985,-0.377793579561194,0.543544985919778,0
3.33999633789063,-2.20514607429504,1.67974734306335,2.61219906806946,-2.38875555478454,1.93800159931817,2.62161057080077,1661.645,2483.513,2164.562,2291.258,-0.01251366,0.01318232,0.04454007,-0.925730526447296,-0.299612641334534,0.541774272918701,-0.867618167158097,-0.373311858882592,0.53709697585572,0
3.3599853515625,-2.22344374656677,1.67386770248413,2.62250304222107,-2.40599272667425,1.93058492580486,2.63228120132087,1982.045,3523.489,2981.271,0,-0.01780696,0.01184461,0.0468333,-0.914880633354187,-0.293975710868835,0.515204012393951,-0.857015715678588,-0.368749920209162,0.530533553325099,0
3.3800048828125,-2.24157762527466,1.66808342933655,2.63309264183044,-2.42304196557559,1.92324911460621,2.64283549236868,1639.714,2468.096,2138.077,2334.425,-0.00970083,0.01132871,0.04101042,-0.90668398141861,-0.289206504821777,0.529482960700989,-0.846214826007803,-0.364102599125748,0.523847288101157,0
3.39999389648438,-2.25948786735535,1.66241371631622,2.64314603805542,-2.43984769972619,1.91601807669906,2.65323904237604,1982.09,3527.107,2955.874,0,-0.01500425,0.01000872,0.04327529,-0.895521640777588,-0.283483117818832,0.502665340900421,-0.835253140422974,-0.35938609205264,0.51706148254665,0
3.41998291015625,-2.27722501754761,1.65684235095978,2.65347671508789,-2.45643259034873,1.90888206159239,2.66350587971929,1627.42,2462.971,2122.004,2346.54,-0.00695884,0.009501273,0.0374084,-0.886840999126434,-0.278582543134689,0.516533136367798,-0.824119146742881,-0.354595445619869,0.510169010073001,0
3.44000244140625,-2.29473257064819,1.65138649940491,2.66326022148132,-2.47281804716281,1.90183185728196,2.67364925803476,1984.701,3504.754,2954.504,0,-0.01235174,0.008162038,0.03950038,-0.875366151332855,-0.272778213024139,0.489178746938705,-0.812800388649434,-0.349725300221754,0.503162159625937,0
3.45999145507813,-2.31205630302429,1.64603102207184,2.67332768440247,-2.48895081463434,1.8948903781363,2.68363620960993,1616.633,2468.857,2101.115,2353.298,-0.004357464,0.007608129,0.03352426,-0.866216421127319,-0.267778426408768,0.503369152545929,-0.80133641229185,-0.344792671461508,0.496065412155666,0
3.48001098632813,-2.3291449546814,1.64079236984253,2.68284034729004,-2.50487694859767,1.88803780761656,2.69349524520019,1961.575,3519.468,2941.166,0,-0.009929863,0.006277986,0.03570672,-0.854418039321899,-0.261932373046875,0.475630074739456,-0.789697369743255,-0.339784716610052,0.488860290373601,0
3.5,-2.34604120254517,1.63565468788147,2.69263410568237,-2.5205447997813,1.88129636896134,2.70319439144611,1597.944,2459.255,2086.206,2376.066,-0.00195476,0.005730437,0.02976053,-0.84480881690979,-0.256882399320602,0.489693880081177,-0.777924000354857,-0.334718964672089,0.481572013878822,0
3.51998901367188,-2.36269593238831,1.63063418865204,2.70186519622803,-2.53597583877076,1.87465682397749,2.71274693966292,1959.314,3506.355,2935.808,0,-0.007589476,0.004400665,0.03191889,-0.832733750343323,-0.251018166542053,0.461552977561951,-0.766004036374581,-0.329590137176618,0.474192988348404,0
3.54000854492188,-2.37914943695068,1.62571573257446,2.71137762069702,-2.55119019794619,1.86811051026429,2.72216535275294,1580.071,2456.69,2074.917,2388.575,0.0004468404,0.003838231,0.02597536,-0.822692811489105,-0.245927974581718,0.475624412298203,-0.753924423002452,-0.324392617007921,0.466715132239272,0
3.55999755859375,-2.39535713195801,1.62091481685638,2.72032690048218,-2.56613872308604,1.86167857751006,2.73141920191151,1961.422,3501.755,2918.438,0,-0.005211274,0.002488241,0.02810431,-0.810367584228516,-0.240044131875038,0.447466105222702,-0.741727567798258,-0.319144650954242,0.459164697851087,0
3.57998657226563,-2.41135501861572,1.61621689796448,2.72955179214478,-2.58084213759183,1.85535210901407,2.74052131591136,1563.819,2459.91,2063.625,2392.774,0.002747439,0.00189532,0.02222433,-0.79989767074585,-0.234910547733307,0.461243778467178,-0.72940084364523,-0.31384080592,0.451533868397061,0
3.60000610351563,-2.42710161209106,1.6116361618042,2.73820471763611,-2.59531978247425,1.84912278287974,2.74948366775945,1966.145,3475.996,2919.556,0,-0.002971555,0.000485351,0.02426041,-0.787338852882385,-0.2290218770504,0.432643502950668,-0.716930938559024,-0.308475354130224,0.443814403124743,0
3.6199951171875,-2.44263124465942,1.60715889930725,2.74714255332947,-2.60952509409627,1.84301063413925,2.75827743234631,1549.004,2468.568,2040.689,2404.245,0.005015639,-0.0001821602,0.01836319,-0.776476323604584,-0.223866015672684,0.446889370679855,-0.704361775018033,-0.303067194200314,0.436033492140578,0
3.63998413085938,-2.45790529251099,1.6027991771698,2.75550055503845,-2.623478029369,1.83700707589127,2.76691496395061,1946.934,3488.527,2905.719,0,-0.0008261126,-0.001611213,0.02055243,-0.763690531253815,-0.217983961105347,0.417905926704407,-0.691680442442073,-0.297610771068296,0.428183143180413,0
3.66000366210938,-2.47295475006104,1.5985426902771,2.76414370536804,-2.63719712493647,1.83110413233575,2.77540773763803,1527.202,2459.585,2021.346,2435.661,0.00725543,-0.002282862,0.01472263,-0.752471089363098,-0.212819188833237,0.432161033153534,-0.678873453515702,-0.29210028151913,0.420255006953505,0
3.67999267578125,-2.4877450466156,1.59440410137177,2.77221059799194,-2.65063849381582,1.82532068681534,2.78372858527554,1934.204,3491.881,2873.658,22.82179,0.001522719,-0.003653857,0.01694661,-0.739519655704498,-0.20693302154541,0.403344243764877,-0.665986083416798,-0.286555206197011,0.41227711095171,0
3.69998168945313,-2.50230431556702,1.5903697013855,2.78054904937744,-2.66382131180924,1.81964848851807,2.79188937759817,1522.786,2456.788,2012.385,2432.149,0.009472549,-0.004290885,0.01119203,-0.727958738803864,-0.201716467738152,0.416919261217117,-0.653005218467595,-0.280969902652754,0.404241337183804,0
3.72000122070313,-2.5166015625,1.58645355701447,2.78832197189331,-2.6767633032417,1.81407991116207,2.79990108680742,1911.763,3479.175,2837.767,77.33023,0.004014497,-0.005542038,0.01325795,-0.714874088764191,-0.195817530155182,0.388651579618454,-0.639917282339434,-0.275338529371411,0.396139281255611,0
3.739990234375,-2.53066110610962,1.58264291286469,2.79634666442871,-2.68942333385363,1.80863265367006,2.80773824883709,1536.497,2465.371,2012.975,2389.536,0.01159545,-0.006133792,0.007557419,-0.702963948249817,-0.19052466750145,0.401235848665237,-0.62676873176137,-0.26968107538565,0.387999702095468,0
3.760009765625,-2.54445576667786,1.57895040512085,2.80382299423218,-2.70183851231475,1.80329074921818,2.81542383572149,1887.995,3460.348,2799.94,142.5833,0.006347318,-0.007256049,0.009363421,-0.689741194248199,-0.184624195098877,0.373819530010223,-0.613526094901139,-0.263983138701136,0.379801879044709,0
3.77999877929688,-2.55800533294678,1.57536458969116,2.81152176856995,-2.7139695770734,1.79807109095524,2.82293354268985,1543.934,2482.391,2031.688,2326.127,0.01335568,-0.007796138,0.003802856,-0.677466332912445,-0.179297000169754,0.384938269853592,-0.60023651686137,-0.258265004538452,0.371574997167698,0
3.79998779296875,-2.57128739356995,1.57189559936523,2.81869912147522,-2.72583438304408,1.79296599641037,2.83027842278479,1863.234,3430.656,2761.123,222.6867,0.008398734,-0.008794823,0.005306009,-0.664101839065552,-0.173446968197823,0.358869910240173,-0.586886736182787,-0.252520966862155,0.36331084698941,0
3.82000732421875,-2.58431649208069,1.56853270530701,2.82606220245361,-2.73744929742843,1.78796842323393,2.8374686080838,1550.225,2510.39,2064.764,2238.085,0.01472226,-0.009297095,3.65885E-05,-0.65146678686142,-0.168148279190063,0.368157893419266,-0.573463232144022,-0.246745208083563,0.355001058539243,0
3.83999633789063,-2.59707617759705,1.56528437137604,2.83294200897217,-2.74877791451009,1.78309403578861,2.84448156171422,1840.351,3389.335,2715.104,321.6425,0.01021073,-0.01019352,0.001218868,-0.637970268726349,-0.162401378154755,0.343985706567764,-0.560014026276881,-0.240958390526246,0.346675359432959,0
3.8599853515625,-2.60957622528076,1.56214094161987,2.8399646282196,-2.75983729406747,1.77833549372837,2.85132784449154,1559.195,2549.903,2103.24,2129.955,0.01576335,-0.01068034,-0.003625095,-0.625008344650269,-0.157177820801735,0.351136058568954,-0.546525890176286,-0.235154822377061,0.338325560657667,0
3.8800048828125,-2.62180423736572,1.5591094493866,2.84654545783997,-2.77064299647982,1.77368610185671,2.85801708903178,1809.612,3336.407,2668.083,442.266,0.01187642,-0.01148408,-0.002762763,-0.611403167247772,-0.151576846837997,0.329038172960281,-0.532985466132484,-0.229328756186666,0.329943393154704,0
3.89999389648438,-2.6337673664093,1.55618047714233,2.85322880744934,-2.78116151864576,1.76916027562219,2.86452855531919,1577.551,2594.935,2136.369,2012.983,0.01670167,-0.01197197,-0.007154848,-0.598169028759003,-0.146444946527481,0.334165126085281,-0.519441457145543,-0.223501147495394,0.321559006401168,0
3.91998291015625,-2.64545726776123,1.55336081981659,2.85951042175293,-2.79140913007042,1.76475101471128,2.87087231495249,1781.668,3284.188,2618.637,562.1951,0.01341948,-0.01270062,-0.006591856,-0.584477484226227,-0.140997290611267,0.314079970121384,-0.505880764601328,-0.217666360335509,0.313164291730931,0
3.94000244140625,-2.65687775611877,1.55064129829407,2.86585330963135,-2.8014005971492,1.76045196555656,2.87705750903383,1588.357,2638.882,2169.148,1905.647,0.01757884,-0.01317892,-0.01053014,-0.571030557155609,-0.135967448353767,0.317147821187973,-0.492290296490434,-0.211818761581115,0.30475114456651,0
