t,x_s1,x_s2,x_s3,x_s_d1,x_s_d2,x_s_d3,propellers_rpms1,propellers_rpms2,propellers_rpms3,propellers_rpms4,rollRad,pitchRad,yawRad,v_s1,v_s2,v_s3,v_s_d1,v_s_d2,v_s_d3,insideCount
0,-0.0599999986588955,2.94000005722046,1.17999994754791,-0.0599999986588955,2.94000005722046,1.17999994754791,0,0,0,0,0,0,0,0,0,0,-1.06581410364015E-15,4.44089209850063E-16,4.44089209850063E-16,0
0.0200042724609375,-0.0599999986588955,2.94000005722046,1.1771354675293,-0.0600018701838461,2.93999925195556,1.18000110611101,0,0,0,0,0.0163538,-0.002474609,-2.024222E-05,3.71994488546079E-08,3.50004931704007E-08,-0.143225952982903,-0.000280105751305916,-0.000120521679537258,0.00017339880334547,5
0.0399932861328125,-0.0599999986588955,2.94000005722046,1.17048275470734,-0.060014863945674,2.93999366110285,1.18000914986856,0,0,0,0,0.03270752,-0.004950816,-5.430172E-05,3.62924410524101E-08,3.44428769949445E-08,-0.332637369632721,-0.00111059898697896,-0.000477859717552347,0.000687513678106196,6
0.05999755859375,-0.0600004345178604,2.94013237953186,1.16416537761688,-0.0600498857373401,2.93997859220429,1.18003083002592,3185.182,2835.672,1501.344,2767.742,0.03128216,-0.00494336,-0.01646952,-2.17777997022495E-05,0.00662205973640084,-0.315866738557816,-0.00247936261166862,-0.00106680046642749,0.00153484356504269,6
0.0800018310546875,-0.0599162131547928,2.9403874874115,1.15857708454132,-0.0601175574246769,2.93994947496775,1.18007272202403,3066.065,3067.351,2154.765,2023.927,0.01897811,-0.004311125,-0.04351445,0.00421100296080112,0.0127505138516426,-0.279414087533951,-0.00437268608126799,-0.00188144466206175,0.00270690098422899,6
0.100006103515625,-0.0596375465393066,2.94068741798401,1.15374851226807,-0.0602282404704493,2.93990185114529,1.18014124010193,2640.412,3831.792,2620.119,1134.785,-0.00585203,-0.002888997,-0.07014553,0.0139334248378873,0.0149990078061819,-0.241430014371872,-0.00677739276378709,-0.00291612276782231,0.00419552897277328,6
0.1199951171875,-0.0590848848223686,2.94089865684509,1.14957022666931,-0.0603918861403606,2.93983143898525,1.18024254456713,2092.144,4102,3169.368,755.9529,-0.04012052,-0.0004511395,-0.08993655,0.0276331454515457,0.0105631183832884,-0.208911597728729,-0.00967801353495435,-0.00416417885169243,0.00599115140585487,5
0.139999389648438,-0.0582314655184746,2.94085597991943,1.14596664905548,-0.0606185767455666,2.93973390035084,1.18038287685052,1509.82,4074.808,3736.101,702.1599,-0.07649291,0.002388631,-0.09949782,0.0426709204912186,-0.00212864298373461,-0.180180862545967,-0.0130660253322238,-0.00562194567796536,0.00808849210174802,4
0.160003662109375,-0.0570994280278683,2.94039463996887,1.14297807216644,-0.0609177895434042,2.93960515744296,1.18056810382587,1135.5,3846.896,4069.747,879.8394,-0.1062777,0.004335342,-0.09870101,0.0566018968820572,-0.0230679474771023,-0.149430781602859,-0.0169265510445065,-0.00728302204135792,0.0104783414199936,4
0.17999267578125,-0.0557376928627491,2.93938779830933,1.14071130752563,-0.0612985250199726,2.93944133760391,1.18080379722281,1101.06,3565.41,4009.875,1148.807,-0.1236298,0.004491817,-0.09000047,0.0680867731571198,-0.0503394827246666,-0.11334003508091,-0.0212433804254414,-0.00914043312572283,0.0131506644458931,3
0.199996948242188,-0.054196435958147,2.93777704238892,1.13924849033356,-0.0617704296168641,2.93923829023936,1.18109592864822,1372.789,3339.654,3595.068,1386.597,-0.1278738,0.003022869,-0.07724819,0.0770627856254578,-0.0805345773696899,-0.0731382369995117,-0.0260104776919234,-0.0111915819022102,0.0161017247421801,3
0.220001220703125,-0.0525141879916191,2.93557596206665,1.1385840177536,-0.0623420644491781,2.93899233174064,1.18144979784016,1791.279,3212.742,3016.703,1527.051,-0.122972,0.0008608057,-0.06426101,0.0841125249862671,-0.110050901770592,-0.0332254394888878,-0.03121219533433,-0.0134297356845702,0.019321835755004,3
0.240005493164063,-0.0507195070385933,2.93284702301025,1.13860714435577,-0.0630219993990999,2.93869977472688,1.18187070996396,2159.386,3168.774,2517.156,1558.232,-0.1149655,-0.0009880328,-0.05362222,0.0897341221570969,-0.136451736092567,0.00115440040826797,-0.0368361158647881,-0.0158495515746756,0.0228033104678445,3
0.259994506835938,-0.0488371625542641,2.92966485023499,1.13913798332214,-0.0638179029240226,2.93835731967507,1.18236341216003,2351.914,3159.025,2273.849,1495.926,-0.1090548,-0.001904693,-0.04623727,0.0941172763705254,-0.159105867147446,0.02654086984694,-0.0428651747123285,-0.0184436871643672,0.0265355850983733,3
0.279998779296875,-0.0468916222453117,2.92608761787415,1.13999593257904,-0.0647390625194898,2.93796097043536,1.18293365383054,2351.911,3152.214,2324.76,1363.847,-0.1078175,-0.001744371,-0.04152134,0.0972770377993584,-0.178859412670135,0.0429000034928322,-0.0492963837173861,-0.0212108567320638,0.030516809833474,3
0.300003051757813,-0.0449086017906666,2.92214369773865,1.14106202125549,-0.0657927507678135,2.93750759781875,1.18358593705038,2229.798,3143.8,2572.474,1194.488,-0.1110858,-0.000737163,-0.03798733,0.0991510525345802,-0.197191253304482,0.0533048734068871,-0.0561132031658829,-0.0241439437008635,0.0347367458022363,3
0.319992065429688,-0.0429167523980141,2.91783547401428,1.142294049263,-0.0669855955880233,2.93699435001684,1.18432436481717,2074.202,3133.069,2873.096,1032.022,-0.1169335,0.0006859004,-0.03397927,0.0995924770832062,-0.215405881404877,0.0616018623113632,-0.0632980253096114,-0.0272353719486164,0.0391844929697465,3
0.339996337890625,-0.040948748588562,2.91315102577209,1.14370715618134,-0.068326768706371,2.93641728069206,1.18515461486636,1954.493,3107.055,3109.736,922.1723,-0.1228415,0.002070007,-0.02837279,0.09840027987957,-0.234222531318665,0.0706573128700256,-0.0708499516420146,-0.0304847548730522,0.0438594951176439,3
0.360000610351563,-0.0390399843454361,2.90807723999023,1.14534342288971,-0.0698225328270578,2.93577369517774,1.1860805641102,1905.274,3065.472,3221.855,880.8794,-0.126702,0.00309234,-0.02087226,0.0954382419586182,-0.253693282604218,0.0818127021193504,-0.0787518717320621,-0.0338847303337087,0.0487511600740379,3
0.3800048828125,-0.0372254773974419,2.90261030197144,1.14724361896515,-0.0714797725314022,2.93506063123087,1.18710647443246,1924.144,3021.797,3206.961,895.2914,-0.1274205,0.003641866,-0.01188462,0.0907252281904221,-0.273341298103333,0.0950083062052727,-0.0869921272359981,-0.0374302820709642,0.0538522707687797,3
0.399993896484375,-0.0355370119214058,2.89676141738892,1.14943170547485,-0.0733036822025899,2.9342758538535,1.18823556140379,1991.102,2988.908,3098.734,939.658,-0.1250445,0.003790666,-0.002209891,0.08442322909832,-0.292449682950974,0.10940358042717,-0.0955525119207663,-0.0411135764513579,0.0591515566763244,3
0.419998168945313,-0.0340016856789589,2.89055490493774,1.1519056558609,-0.0753034649285836,2.93341540321397,1.18947352217404,2071.422,2974.436,2954.21,986.7979,-0.1205064,0.003708411,0.007339199,0.076766349375248,-0.310321986675262,0.12369691580534,-0.104434660908044,-0.0449353170220673,0.0646500300148815,3
0.44000244140625,-0.032642275094986,2.88402462005615,1.15464174747467,-0.077483988232608,2.93247718495301,1.19082336997196,2137.145,2972.524,2824.69,1023.39,-0.1150725,0.003564308,0.01614687,0.0679710134863853,-0.326508790254593,0.136806964874268,-0.113620829717891,-0.048887868829098,0.0703367061060819,4
0.459991455078125,-0.0314780920743942,2.8772075176239,1.15760159492493,-0.0798493430620752,2.93145943885026,1.19228763728888,2168.575,2978.548,2748.927,1037.921,-0.1098735,0.003474696,0.02394644,0.0582091733813286,-0.340849757194519,0.147992610931396,-0.123092454730403,-0.0529632444654124,0.0762000931848968,4
0.479995727539063,-0.0305264312773943,2.87013840675354,1.16074752807617,-0.0824088828700873,2.93035814037613,1.19387211435783,2167.198,2983.315,2733.221,1033.949,-0.10554,0.003482606,0.03074952,0.0475829765200615,-0.353457719087601,0.157295361161232,-0.132852887402757,-0.0571628859694044,0.0822422659629699,4
0.5,-0.0298033207654953,2.86284685134888,1.1640522480011,-0.085166398670376,2.92917165836334,1.1955791479969,2147.559,2989.484,2762.202,1009.172,-0.102259,0.003569032,0.03679426,0.0361555702984333,-0.364583075046539,0.165234193205833,-0.142884000065179,-0.0614789935111996,0.0884520025491718,4
0.520004272460938,-0.0293240249156952,2.8553569316864,1.16749930381775,-0.088127196023106,2.92789770997757,1.19741202260058,2117.099,2993.373,2816.863,976.754,-0.09984031,0.003685585,0.04241271,0.023964760825038,-0.374493628740311,0.172354966402054,-0.153174893518032,-0.065906877469682,0.0948225558197254,4
0.539993286132813,-0.029103722423315,2.84768843650818,1.17108595371246,-0.091293865515634,2.92653518056143,1.19937234186584,2088.828,2991.364,2870.778,952.0847,-0.09782963,0.003776646,0.0478578,0.0110150203108788,-0.383423417806625,0.179331228137016,-0.163706645289342,-0.0704383960337938,0.101342211863077,4
0.55999755859375,-0.0291571617126465,2.8398585319519,1.17481577396393,-0.094676112580471,2.92507989413848,1.20146611391775,2069.831,2989.068,2910.011,934.0236,-0.09579177,0.003796212,0.05329828,-0.00267188064754009,-0.391501247882843,0.186492055654526,-0.17448465888317,-0.0750758741803766,0.108014315705644,5
0.580001831054688,-0.0294986218214035,2.8318829536438,1.17869865894318,-0.0982762614093182,2.92353085067394,1.20369477754168,2064.615,2985.038,2920.869,932.4611,-0.09337948,0.003717708,0.05873246,-0.0170731507241726,-0.39878311753273,0.194144994020462,-0.185490414529404,-0.0798113433697334,0.11482740272751,5
0.599990844726563,-0.0301407910883427,2.8237783908844,1.1827392578125,-0.102095761416081,2.92188742652551,1.20605922999388,2067.259,2986.071,2912.935,935.5316,-0.09051232,0.003537311,0.06411689,-0.0321086570620537,-0.40523087978363,0.202032595872879,-0.19670480600515,-0.0846365827279185,0.121769645266545,5
0.6199951171875,-0.0310950726270676,2.81556224822998,1.18694162368774,-0.106144683970236,2.92014528826426,1.20856570593183,2072.98,2984.893,2887.562,954.9877,-0.08717165,0.003273055,0.0692907,-0.0477139428257942,-0.410805583000183,0.21011671423912,-0.208134604141382,-0.0895545055543457,0.128845234789665,5
0.639999389648438,-0.0323708206415176,2.80725312232971,1.19130492210388,-0.110424235525481,2.91830391678686,1.21121495220784,2084.08,2992.276,2854.552,967.7166,-0.0835881,0.002941068,0.07414575,-0.0637873038649559,-0.415457427501678,0.21816298365593,-0.219761081350814,-0.0945570538913933,0.136042578028218,5
0.660003662109375,-0.0339753292500973,2.79886984825134,1.19582259654999,-0.114938248900541,2.91636166293851,1.21400934151928,2088.206,2999.84,2826.628,982.1821,-0.08000668,0.002565745,0.07860195,-0.0802257284522057,-0.419168293476105,0.225882843136787,-0.231574097577923,-0.0996398647564507,0.143355397804799,5
0.67999267578125,-0.0359143950045109,2.79043054580688,1.20048749446869,-0.119686638739014,2.91431856344567,1.21694882102647,2087.531,3006.738,2806.206,995.5493,-0.07660849,0.002167974,0.08260807,-0.096953421831131,-0.421970248222351,0.23324778676033,-0.243554411173546,-0.104794659005432,0.150771782621969,6
0.699996948242188,-0.0381921343505383,2.78195214271545,1.20529019832611,-0.124680083855354,2.91217002351282,1.22004000142426,2082.195,3015.038,2799.455,999.1559,-0.07355278,0.001759558,0.08619914,-0.113887511193752,-0.423918008804321,0.240136608481407,-0.255710395848158,-0.11002503961202,0.158296916205407,6
0.720001220703125,-0.0408120565116405,2.77344989776611,1.2102267742157,-0.129918284978346,2.90991617190799,1.22328269744952,2075.885,3020.747,2795.727,1004.664,-0.07086246,0.001346339,0.08939367,-0.130996003746986,-0.425110101699829,0.246830359101295,-0.268023157655716,-0.11532287703907,0.16591910230247,6
0.740005493164063,-0.04377606138587,2.76493740081787,1.2152886390686,-0.13540428105644,2.90755570105657,1.22667879035609,2066.917,3028.701,2805.327,997.1691,-0.0686041,0.0009261176,0.09230776,-0.148199811577797,-0.425626486539841,0.253092557191849,-0.280482990349159,-0.120683994959631,0.173632332283853,6
0.759994506835938,-0.0470862798392773,2.75642585754395,1.22047591209412,-0.14113644597991,2.90508931062815,1.2302272735046,2056.043,3028.06,2810.551,1005.958,-0.06659554,0.0005085742,0.09493607,-0.16551111638546,-0.425579637289047,0.259364873170853,-0.293070637251543,-0.126100107763583,0.181424685349205,6
0.779998779296875,-0.0507434345781803,2.74792528152466,1.22578322887421,-0.147126184485884,2.90251209348295,1.23393520697061,2050.022,3034.122,2822.912,995.3401,-0.06485703,8.276906E-05,0.09738974,-0.182857826352119,-0.425029665231705,0.265366703271866,-0.305795832832518,-0.131575403921268,0.189302187598958,6
0.800003051757813,-0.0547489710152149,2.73944401741028,1.23121654987335,-0.153371683173492,2.89982482987671,1.2378014681726,2045.543,3032.774,2818.821,1008.221,-0.06319255,-0.0003424825,0.09960687,-0.200276702642441,-0.424067586660385,0.271667897701263,-0.318639638509124,-0.13710173468952,0.197253115148089,6
0.819992065429688,-0.0591020621359348,2.73098969459534,1.2367684841156,-0.159870162197751,2.89702871589906,1.2418243362541,2045.104,3041.533,2825.645,994.2501,-0.06175657,-0.0007819041,0.1017039,-0.217654645442963,-0.422716200351715,0.277597278356552,-0.33158286215529,-0.142670842232658,0.205265587156312,6
0.839996337890625,-0.0638030618429184,2.72256875038147,1.24244475364685,-0.166633637018892,2.89411858163313,1.24601124935738,2038.125,3035.854,2816.571,1018.828,-0.0602961,-0.001207477,0.1035466,-0.235050231218338,-0.421050399541855,0.283812075853348,-0.344636106234817,-0.148287288494656,0.213346167053785,6
0.860000610351563,-0.0688500702381134,2.71418714523315,1.24823927879333,-0.173659158941841,2.89109569582005,1.2503603820997,2044.608,3047.49,2815.624,1002.878,-0.05906785,-0.001642638,0.1052432,-0.252350836992264,-0.41907998919487,0.289724051952362,-0.357780475378537,-0.153942943326036,0.221483157706883,6
0.8800048828125,-0.0742418766021729,2.70584964752197,1.25415456295013,-0.180948461186242,2.88795931270381,1.25487280742661,2039.134,3045.02,2805.464,1023.485,-0.05792535,-0.002059156,0.1066908,-0.269589215517044,-0.41687023639679,0.295764535665512,-0.371007022483504,-0.159633957038354,0.229671020432672,6
0.899993896484375,-0.0799751728773117,2.69756078720093,1.26018249988556,-0.18849723509595,2.8847112861788,1.25954585807468,2041.042,3053.479,2808.498,1011.533,-0.05707101,-0.002470348,0.1079841,-0.286665916442871,-0.414441019296646,0.301397770643234,-0.384296738353309,-0.165352150505452,0.237897987633041,7
0.919998168945313,-0.0860477387905121,2.68932366371155,1.26632571220398,-0.196318384305134,2.8813460641717,1.26438752200817,2034.803,3050.267,2803.273,1029.3,-0.05633331,-0.002849582,0.1090372,-0.303628504276276,-0.411860138177872,0.307159543037415,-0.397661187980262,-0.171102499820431,0.246171218589148,7
0.94000244140625,-0.0924556106328964,2.68114066123962,1.27257823944092,-0.204407453948074,2.87786556348678,1.26939504145298,2039.49,3059.678,2807.475,1013.164,-0.05591839,-0.003220294,0.1099598,-0.320392638444901,-0.409156113862991,0.312625110149384,-0.411081631631503,-0.176876941799768,0.254479112513653,7
0.959991455078125,-0.0991954654455185,2.67301273345947,1.27894127368927,-0.212759000778906,2.87427212620069,1.27456504678061,2033.309,3057.305,2807.002,1025.605,-0.05567977,-0.003557983,0.1107007,-0.336992919445038,-0.406396687030792,0.318150460720062,-0.424539267042903,-0.182667386354485,0.262810029909387,7
0.979995727539063,-0.106262668967247,2.66494059562683,1.28540778160095,-0.22138664033507,2.87055989392801,1.27990596665734,2032.629,3061.48,2819.173,1012.741,-0.05570907,-0.003875432,0.1113532,-0.35336098074913,-0.403610318899155,0.323326230049133,-0.438046240701377,-0.188479059778567,0.271171490030365,7
1,-0.113654285669327,2.65692329406738,1.29198563098907,-0.230284798736574,2.86673126495361,1.28541435058594,2031.675,3058.935,2813.781,1026.313,-0.05581826,-0.004155597,0.1118337,-0.369580894708633,-0.400864392518997,0.328891813755035,-0.451584000205995,-0.194303979492187,0.279552008056641,7
1.02000427246094,-0.121364653110504,2.64896011352539,1.29866325855255,-0.239454009753966,2.86278600961093,1.2910905289958,2035.23,3067.415,2830.77,999.9627,-0.05625661,-0.004427772,0.1123111,-0.385517597198486,-0.398164570331573,0.333883345127106,-0.465144357597929,-0.200138622445408,0.287946515251652,7
1.03999328613281,-0.129391118884087,2.64104843139648,1.30545270442963,-0.248887339851819,2.85872711120656,1.2969302096982,2028.634,3057.829,2822.379,1030.338,-0.05663798,-0.004648281,0.1126031,-0.401325255632401,-0.395587474107742,0.339471966028214,-0.478708875293167,-0.205975055460915,0.29634359787259,7
1.05999755859375,-0.137727335095406,2.63318634033203,1.31233811378479,-0.258599401509697,2.85454828239877,1.30294243851408,2036.937,3069.57,2845.818,989.6263,-0.05735543,-0.004866661,0.1129505,-0.416810423135757,-0.393105000257492,0.34427335858345,-0.492290296490434,-0.211818761581115,0.30475114456651,7
1.08000183105469,-0.146371722221375,2.62537002563477,1.31934082508087,-0.268583149539609,2.85025255453512,1.30912285413647,2031.785,3057.264,2825.131,1035.046,-0.05788381,-0.00502432,0.1130683,-0.432218492031097,-0.390810132026672,0.350137233734131,-0.50587040849135,-0.217661904390701,0.313157880805523,7
1.09999084472656,-0.155316218733788,2.61759734153748,1.32643485069275,-0.278830554044452,2.84584338265603,1.31546648567654,2046.088,3077.022,2857.888,970.2223,-0.05891658,-0.005201686,0.1133405,-0.447226047515869,-0.388635069131851,0.354698866605759,-0.519431110871131,-0.223496695782555,0.321552601564445,7
1.1199951171875,-0.164560481905937,2.60986328125,1.33364903926849,-0.289357002179081,2.84131414609862,1.32198285851614,2029.336,3052.943,2831.518,1046.387,-0.05956426,-0.005290636,0.1133125,-0.462212473154068,-0.386705935001373,0.360706835985184,-0.532985466132485,-0.229328756186667,0.329943393154705,8
1.13999938964844,-0.174095496535301,2.60216498374939,1.34095144271851,-0.300154365346813,2.83666834237095,1.3286669406667,2055.861,3082.367,2871.123,952.6913,-0.06083885,-0.005418467,0.1135148,-0.476750582456589,-0.384910434484482,0.365122079849243,-0.546515580872639,-0.235150386571708,0.338319178707607,8
1.16000366210938,-0.183922007679939,2.59449672698975,1.34837961196899,-0.311222084148811,2.83190621216671,1.33551838583369,2034.19,3052.748,2834.697,1050.894,-0.06162075,-0.005445099,0.1133689,-0.491326004266739,-0.383413016796112,0.371405720710754,-0.560014026276883,-0.240958390526247,0.34667535943296,8
1.17999267578125,-0.194029361009598,2.58685564994812,1.35588824748993,-0.322550701230474,2.8270318247214,1.34253133946411,2063.137,3087.591,2892.246,930.6212,-0.0631851,-0.00552819,0.1135668,-0.505367577075958,-0.382048964500427,0.375434279441833,-0.573463232144024,-0.246745208083563,0.355001058539242,8
1.19999694824219,-0.204420655965805,2.57923483848572,1.36353099346161,-0.334156660511822,2.8220381046756,1.34971598112778,2033.232,3045.875,2841.259,1066.31,-0.0639606,-0.005478655,0.1133048,-0.519566595554352,-0.381041437387466,0.382136404514313,-0.58687652428584,-0.252516572968185,0.36330452533874,8
1.22000122070313,-0.21508327126503,2.57163190841675,1.3712477684021,-0.346030421585499,2.81692915700008,1.35706640485806,2077.935,3096.314,2915.241,896.8663,-0.06577102,-0.005526059,0.1135451,-0.533128440380096,-0.380141049623489,0.385837942361832,-0.600236516861372,-0.258265004538453,0.371574997167698,8
1.24000549316406,-0.226023152470589,2.56403851509094,1.3791116476059,-0.358170848086624,2.8117054706409,1.36458190719098,2036.11,3040.471,2840.44,1085.077,-0.06649168,-0.005407815,0.1131842,-0.546995580196381,-0.379664212465286,0.393194288015366,-0.613536214864368,-0.263987493038594,0.379808143784027,8
1.25999450683594,-0.237224131822586,2.55645370483398,1.38703560829163,-0.3705671011502,2.80637170925886,1.37225577835275,2091.58,3106.423,2946.826,854.3516,-0.06860516,-0.005432316,0.1135453,-0.560049533843994,-0.379234939813614,0.39619654417038,-0.626758665639206,-0.269676744214496,0.387993470686331,8
1.27999877929688,-0.248697221279144,2.54886746406555,1.39512538909912,-0.383236695417198,2.80092033679326,1.3800988607405,2031.533,3026.438,2837.321,1123.979,-0.06906429,-0.005228318,0.1130471,-0.573655843734741,-0.379316329956055,0.404491007328033,-0.639917282339435,-0.275338529371412,0.396139281255613,8
1.30000305175781,-0.260421305894852,2.54128074645996,1.40325856208801,-0.396168722856641,2.79535604666509,1.38810440176341,2115.439,3123.379,2982.139,791.3701,-0.07149522,-0.00524696,0.1135871,-0.586201548576355,-0.379337251186371,0.406657516956329,-0.652995275331231,-0.280965624398954,0.404235181908735,8
1.31999206542969,-0.272413790225983,2.53368091583252,1.41158497333527,-0.409351342777246,2.78968393359302,1.39626507146953,2027.938,3011.282,2820.079,1178.44,-0.0715927,-0.004957741,0.1129136,-0.59962785243988,-0.379991292953491,0.416321247816086,-0.665976209205206,-0.286550957599616,0.412270998344359,8
1.33999633789063,-0.284645587205887,2.52607274055481,1.41992282867432,-0.422802873722428,2.78389611561957,1.40459220990988,2138.887,3145.153,3034.84,705.3663,-0.07450033,-0.00499396,0.1137474,-0.611587941646576,-0.380407243967056,0.416893094778061,-0.678873453515705,-0.29210028151913,0.420255006953505,8
1.36000061035156,-0.297145307064056,2.51843953132629,1.42849826812744,-0.436511415158101,2.77799771321212,1.41307845008695,2014.522,2983.247,2785.484,1275.448,-0.07390645,-0.004586496,0.1127634,-0.624986946582794,-0.381659865379333,0.428773552179337,-0.691670720740693,-0.297606588091785,0.42817712498415,9
1.3800048828125,-0.309870690107346,2.51079177856445,1.43703782558441,-0.450474904562636,2.77198961381608,1.4217225152016,2181.196,3185.479,3101.782,565.9662,-0.07758693,-0.004685565,0.1140492,-0.636267244815826,-0.382387667894363,0.426979929208755,-0.704361775018035,-0.303067194200314,0.436033492140578,9
1.39999389648438,-0.322866499423981,2.50310635566711,1.44587564468384,-0.464680216184654,2.76587746507559,1.43051627978847,1983.196,2939.656,2731.324,1427.6,-0.07600715,-0.004124171,0.1126202,-0.649792075157166,-0.384270370006561,0.441891849040985,-0.716930938559026,-0.308475354130225,0.443814403124744,9
1.41999816894531,-0.33607143163681,2.49540257453918,1.45460557937622,-0.47914673136562,2.75965292774086,1.43947174182117,2232.472,3239.138,3200.194,370.2072,-0.08074438,-0.004322843,0.114556,-0.660246729850769,-0.385193943977356,0.436497718095779,-0.729391385793766,-0.313836736470737,0.451528013536465,9
1.44000244140625,-0.349555015563965,2.48764705657959,1.46372842788696,-0.493861275572861,2.75332167044526,1.4485807456364,1937.293,2876.953,2637.963,1656.445,-0.07761943,-0.003547863,0.1124334,-0.674177527427673,-0.387771308422089,0.456141442060471,-0.741727567798258,-0.319144650954242,0.459164697851088,9
1.45999145507813,-0.36322620511055,2.47987246513367,1.47263491153717,-0.508809800712713,2.74688973769103,1.45783459479497,2311.066,3326.107,3333.759,73.78683,-0.08403445,-0.003926564,0.1153568,-0.683560848236084,-0.388725131750107,0.445323944091797,-0.753924423002454,-0.324392617007921,0.466715132239272,9
1.47999572753906,-0.377191066741943,2.47203040122986,1.48206877708435,-0.524012471663969,2.74034845309416,1.46724577231745,1852.407,2780.413,2496.706,2010.339,-0.07863729,-0.002836799,0.1122118,-0.69824481010437,-0.392100512981415,0.471690714359283,-0.765994882555672,-0.329586198544069,0.474187321698441,9
1.5,-0.391330182552338,2.46416282653809,1.49125707149506,-0.539455198877605,2.73370387899399,1.4768055561018,2141.808,3660.484,3245.95,0,-0.08513381,-0.002324407,0.1170675,-0.706954956054688,-0.393379032611847,0.459412187337875,-0.777924000354858,-0.334718964672088,0.481572013878822,9
1.52000427246094,-0.405761241912842,2.456223487854,1.50096654891968,-0.555135099954955,2.72695725560613,1.48651216180595,1923.225,2596.318,2417.436,2213.4,-0.07880028,-0.0003456783,0.1134427,-0.721552312374115,-0.396967679262161,0.485475599765778,-0.789706299681991,-0.339788558913217,0.48886581843107,9
1.53999328613281,-0.420358926057816,2.44825983047485,1.5104044675827,-0.571036956668503,2.72011513090874,1.49635616862212,2172.623,3665.404,3222.977,0,-0.08516949,0.001029174,0.1176839,-0.729884386062622,-0.398178547620773,0.471898972988129,-0.801327600455846,-0.344788879974649,0.496059957209413,9
1.55999755859375,-0.435239851474762,2.44022965431213,1.52033662796021,-0.587181951496087,2.71316839067337,1.50635068951315,2021.974,2526.628,2456.756,2159.724,-0.07934569,0.003573907,0.1128923,-0.744048118591309,-0.401512861251831,0.496610343456268,-0.812800388649436,-0.349725300221754,0.503162159625937,9
1.58000183105469,-0.450282007455826,2.4321756362915,1.53002691268921,-0.60355483331529,2.70612359703193,1.51648628330776,2174.33,3698.927,3205.346,0,-0.08610798,0.005542748,0.1161284,-0.752106964588165,-0.402701526880264,0.484516113996506,-0.824110582941666,-0.354591760855452,0.510163708672098,9
1.59999084472656,-0.465585619211197,2.42405891418457,1.54013633728027,-0.620139554045575,2.69898765502515,1.52675301547962,2103.86,2519.733,2598.167,1947.601,-0.08237264,0.008261669,0.1110597,-0.765182733535767,-0.40583473443985,0.505469441413879,-0.835244706287931,-0.359382463079953,0.517056261415284,9
1.6199951171875,-0.481043994426727,2.41591453552246,1.5500305891037,-0.636958033083316,2.69175113334911,1.53716445517924,2226.392,3572.131,3297.209,0,-0.08972882,0.01019458,0.1131212,-0.772919356822968,-0.407222628593445,0.494712263345718,-0.846214826007804,-0.364102599125749,0.523847288101157,9
1.63999938964844,-0.496746182441711,2.40770101547241,1.56031000614166,-0.653994195024907,2.68442094880091,1.54771065096602,2118.276,2576.707,2762.647,1718.806,-0.08749123,0.01259703,0.1083675,-0.785109341144562,-0.410673052072525,0.51397317647934,-0.857007552155828,-0.368746407673381,0.530528499715628,9
1.66000366210938,-0.512598812580109,2.39944696426392,1.57042002677917,-0.671244443874359,2.67699864863716,1.55838937674714,2231.163,3511.728,3366.508,0,-0.09476326,0.01416131,0.1104315,-0.79262787103653,-0.412703633308411,0.505502998828888,-0.867618167158098,-0.373311858882592,0.53709697585572,9
1.67999267578125,-0.528682112693787,2.39111018180847,1.58089244365692,-0.688691692550512,2.66949158495151,1.56919005480539,2108.924,2623.767,2874.113,1572.763,-0.09288573,0.01606897,0.1067836,-0.804168283939362,-0.416839063167572,0.523621916770935,-0.878034183119987,-0.377793579561193,0.543544985919778,9
1.69999694824219,-0.544912815093994,2.38271951675415,1.59121489524841,-0.706358800111611,2.66188992212981,1.58012683598675,2277.749,3407.275,3433.908,0,-0.0993407,0.01698343,0.109208,-0.811535835266113,-0.419534385204315,0.51612001657486,-0.888267004546665,-0.382196476749158,0.549879589839776,9
1.72000122070313,-0.561372816562653,2.37423086166382,1.60192763805389,-0.724228658537036,2.6542010212754,1.5911891296115,2085.696,2674.562,2876.237,1551.535,-0.09636915,0.01830913,0.1064212,-0.822999060153961,-0.424429923295975,0.535638630390167,-0.898304216251578,-0.386515208538549,0.556093102023817,9
1.74000549316406,-0.577976822853088,2.36567878723145,1.61249780654907,-0.742297311768984,2.64642658456943,1.60237448669139,2283.477,3428.726,3411.515,0,-0.1018494,0.0186946,0.109799,-0.830198347568512,-0.427607864141464,0.528507649898529,-0.908141534469281,-0.390747931744771,0.562182870617028,9
1.75999450683594,-0.594810605049133,2.35702013969421,1.6234757900238,-0.760546715064628,2.63857437616062,1.61367173667103,2066.579,2681.685,2808.159,1638.14,-0.09753082,0.01967224,0.1076188,-0.841691255569458,-0.432929903268814,0.548897683620453,-0.917767514700581,-0.394889722119545,0.568141810929231,9
1.77999877929688,-0.611783683300018,2.34829759597778,1.63428783416748,-0.779000609654483,2.63063418086074,1.62509557650306,2304.408,3438.438,3384.843,0,-0.1023522,0.01972233,0.1115497,-0.848652184009552,-0.436130553483963,0.540600776672363,-0.927192788821983,-0.398945154262308,0.57397650459845,9
1.80000305175781,-0.628990590572357,2.33946776390076,1.64553618431091,-0.797640935141499,2.62261376955408,1.63663482594136,2053.402,2676.893,2716.948,1758.501,-0.09682721,0.0205635,0.1092932,-0.860344409942627,-0.441486209630966,0.562418699264526,-0.936405971974637,-0.402909329586356,0.579679903854719,9
1.81999206542969,-0.646331608295441,2.33057880401611,1.6565990447998,-0.816448984455027,2.61452119137054,1.64827790441807,2280.436,3523.425,3328.618,0,-0.101467,0.02062267,0.1136961,-0.867053925991058,-0.44444328546524,0.553140699863434,-0.945396434568188,-0.406777674475912,0.585245428475252,9
1.83999633789063,-0.663906157016754,2.32158994674683,1.66809225082397,-0.835449117627072,2.60634596486888,1.66003989195343,2053.481,2641.334,2669.414,1849.658,-0.0955148,0.02158158,0.1112179,-0.878723621368408,-0.449439108371735,0.574661254882813,-0.954174163352093,-0.410554485950274,0.590679260733698,9
1.86000061035156,-0.681611001491547,2.31255102157593,1.67938196659088,-0.854622615239374,2.59809614449182,1.6719092003358,2287.051,3536.567,3316.541,0,-0.1002025,0.02175608,0.1154275,-0.885245203971863,-0.451945513486862,0.564488470554352,-0.962728579444532,-0.414235212212131,0.595974851798267,9
1.8800048828125,-0.699547827243805,2.30342221260071,1.69109880924225,-0.873964974649439,2.58977366760063,1.68388304221498,2067.146,2628.245,2662.959,1864.586,-0.09432064,0.02282382,0.1125324,-0.896842658519745,-0.456437408924103,0.585843980312347,-0.971056158224177,-0.417818336715394,0.601130019760457,9
1.89999389648438,-0.71761155128479,2.29425191879272,1.70260775089264,-0.893456683142228,2.58138692997148,1.69594933829086,2266.18,3564.208,3316.7,0,-0.09916174,0.02315357,0.1165656,-0.9031862616539,-0.458517342805862,0.575448155403137,-0.979147395688901,-0.421299770153459,0.606138881190213,9
1.91999816894531,-0.735902428627014,2.28500199317932,1.71452760696411,-0.913122862707269,2.57292512231409,1.70812364027167,2079.188,2612.272,2692.928,1842.71,-0.09353448,0.02431501,0.1134698,-0.914543092250824,-0.462500929832458,0.595993995666504,-0.987011339258123,-0.424683405378145,0.611007036871143,9
1.94000244140625,-0.754317343235016,2.27571797370911,1.72624385356903,-0.932943991899774,2.5643966441608,1.72039386345315,2274.026,3544.951,3333.13,0,-0.09833882,0.02468559,0.1171631,-0.920746266841888,-0.464203715324402,0.585811913013458,-0.994638524886308,-0.427965170275055,0.615728628108227,9
1.95999145507813,-0.772953689098358,2.26636290550232,1.73836123943329,-0.952900013794853,2.55581012544606,1.73274759164336,2093.328,2620.04,2722.708,1791.857,-0.09294539,0.02580295,0.1139748,-0.931821823120117,-0.467757195234299,0.605868101119995,-1.00202031904361,-0.431141350077486,0.620298310335216,9
1.97999572753906,-0.791709899902344,2.25698018074036,1.75027561187744,-0.973016570682103,2.54715453300902,1.74520069864106,2270.518,3528.916,3352.829,0,-0.09764799,0.02610232,0.1175107,-0.937803208827972,-0.469136893749237,0.595721364021301,-1.00916501115878,-0.434215511495054,0.624721215103391,9
2,-0.810682117938995,2.24753308296204,1.7625904083252,-0.993273599084619,2.53843849960327,1.7577407641983,2094.708,2627.223,2733.162,1770.321,-0.09216508,0.02711914,0.1143122,-0.948617517948151,-0.472353667020798,0.61573851108551,-1.01606400046349,-0.437183953857422,0.628992018127441,9
2.02000427246094,-0.829768717288971,2.23806381225586,1.77470290660858,-1.01366615605493,2.52966415204104,1.77036472839513,2267.426,3531.268,3349.284,0,-0.09669352,0.02731255,0.1178637,-0.95433109998703,-0.473449230194092,0.605622351169586,-1.02271452148052,-0.440045487257004,0.633109007445237,9
2.03999328613281,-0.849065184593201,2.22853755950928,1.78720819950104,-1.03417354141348,2.52084039703127,1.78305977683431,2090.028,2628.345,2731.242,1769.25,-0.09105294,0.02822751,0.1147136,-0.964819014072418,-0.476322680711746,0.625266849994659,-1.02910913225408,-0.442796909628122,0.637067576131623,9
2.05999755859375,-0.86846911907196,2.21899604797363,1.79950177669525,-1.05482201812353,2.5119559343546,1.79584216754118,2271.488,3516.215,3353.144,0,-0.09538324,0.02828343,0.1182142,-0.970200002193451,-0.47707536816597,0.614676713943481,-1.03525504859546,-0.445441325732794,0.640872191117535,9
2.08000183105469,-0.888077735900879,2.2094042301178,1.81219387054443,-1.07559088172821,2.50301967256038,1.80869908347065,2083.388,2633.297,2708.741,1786.603,-0.08941404,0.02909128,0.1149733,-0.980431437492371,-0.479594677686691,0.63460373878479,-1.04114485287423,-0.447975543971863,0.644518260536375,9
2.09999084472656,-0.90778636932373,2.19980430603027,1.8246659040451,-1.09645901288412,2.49404069871208,1.82161745074311,2256.846,3542.568,3331.403,0,-0.09365432,0.02907698,0.1185864,-0.985431313514709,-0.47999581694603,0.623603820800781,-1.04677201701582,-0.450396755497224,0.648001743199023,9
2.1199951171875,-0.92769193649292,2.19016265869141,1.83752632141113,-1.11745308225396,2.48500753716864,1.83461377976925,2072.796,2621.7,2692.192,1814.802,-0.08749603,0.02985154,0.1152931,-0.995281100273132,-0.48208686709404,0.643020868301392,-1.0521429102862,-0.45270770082608,0.651326581984514,9
2.13999938964844,-0.947689592838287,2.18052124977112,1.85015463829041,-1.138551967509,2.47592927627801,1.8476749948214,2263.772,3531.906,3324.551,0,-0.09166121,0.02976171,0.1187603,-0.999889314174652,-0.482070535421371,0.631415963172913,-1.05725102347782,-0.454905579228273,0.654488747383304,9
2.16000366210938,-0.967877328395844,2.17084693908691,1.8631706237793,-1.15975039167652,2.46680818657414,1.86079782920208,2067.967,2623.981,2671.277,1828.095,-0.08540065,0.03047567,0.1152813,-1.00938057899475,-0.483715295791626,0.650802314281464,-1.0620943502576,-0.456989527434725,0.657486997379635,8
2.17999267578125,-0.988148152828217,2.16118097305298,1.87594163417816,-1.18102676265167,2.45765355853653,1.8739689163698,2243.504,3550.032,3314.003,0,-0.0896175,0.03035753,0.1187512,-1.01353514194489,-0.483295142650604,0.638551354408264,-1.06666760390386,-0.458957270716794,0.660318059240953,7
2.19999694824219,-1.00860011577606,2.15149116516113,1.88909363746643,-1.20240821395574,2.44845371736898,1.88720505326679,2056.757,2611.525,2658.561,1851.979,-0.0832387,0.03106556,0.1151344,-1.02260160446167,-0.484495460987091,0.657601535320282,-1.07097597819164,-0.460811043810786,0.662985148161421,7
2.22000122070313,-1.02912640571594,2.14181756973267,1.90199136734009,-1.22387315175433,2.43921795429519,1.90049287228091,2237.925,3552.232,3303.956,0,-0.08742412,0.03093031,0.1185005,-1.02631688117981,-0.483678907155991,0.644886016845703,-1.07501419914593,-0.462548577472581,0.665484999299265,7
2.239990234375,-1.04982483386993,2.13212871551514,1.91526460647583,-1.24539969505118,2.42995568409656,1.91381882803312,2054.936,2607.081,2643.312,1859.659,-0.08102348,0.03161192,0.1147234,-1.03492343425751,-0.484439939260483,0.663663029670715,-1.07877792518082,-0.464168003639063,0.667814925005999,5
2.25999450683594,-1.07058751583099,2.1224639415741,1.92826902866364,-1.26701526177039,2.4206551096063,1.92719989352455,2222.835,3554.074,3301.765,0,-0.08523926,0.03145518,0.118009,-1.03813481330872,-0.483234107494354,0.650220453739166,-1.08227143928024,-0.465671165158559,0.669977576652695,4
2.27999877929688,-1.09151327610016,2.11279201507568,1.94164907932281,-1.28869796983554,2.41132564607061,1.9406225227075,2047.988,2598.554,2624.049,1879.768,-0.07870014,0.03212208,0.1140321,-1.04628753662109,-0.483591943979263,0.669001936912537,-1.08549040888332,-0.467056197851165,0.67197027217779,4
2.30000305175781,-1.11249315738678,2.10315108299255,1.95475161075592,-1.31044231452835,2.40196966201596,1.95408330789913,2205.92,3573.69,3282.164,0,-0.08294734,0.03197743,0.1172975,-1.04899156093597,-0.482041150331497,0.655125558376312,-1.08843358680109,-0.468322565086307,0.673792239511894,0
2.31999206542969,-1.13362455368042,2.09351134300232,1.96821641921997,-1.33222611841886,2.3925966997709,1.96756852021384,2042.086,2584.691,2614.441,1891.518,-0.07642846,0.03264646,0.1131954,-1.05656778812408,-0.481991469860077,0.673241317272186,-1.09109790637238,-0.469468947365361,0.675441580245663,0
2.33999633789063,-1.15479946136475,2.08390951156616,1.98139071464539,-1.35407709248145,2.38319483607731,1.98109531406483,2204.573,3557.486,3282.338,0,-0.08068526,0.0324668,0.116255,-1.05874073505402,-0.480087012052536,0.658712387084961,-1.09348640563071,-0.470496651869278,0.67692017506657,0
2.36000061035156,-1.17611479759216,2.07431602478027,1.99492585659027,-1.37597305876702,2.37377361348711,1.99464996024512,2036.094,2583.618,2600.709,1895.372,-0.07412216,0.03308619,0.1119525,-1.06577563285828,-0.479668945074081,0.676755905151367,-1.09559602313537,-0.471404361345641,0.678226128796969,0
2.3800048828125,-1.19746291637421,2.06476640701294,2.0081639289856,-1.39790843013262,2.36433543599182,2.00822900004707,2187.197,3574.921,3263.339,0,-0.07844874,0.03288226,0.1149832,-1.06740200519562,-0.477474927902222,0.661904573440552,-1.09742594550583,-0.472191725819537,0.679358937915576,0
2.39999389648438,-1.21893858909607,2.05523204803467,2.02174806594849,-1.41986083522252,2.35488992936084,2.02181858453579,2025.803,2573.926,2594.625,1901.42,-0.0719682,0.03346758,0.1106228,-1.07378315925598,-0.476718574762344,0.679205596446991,-1.09897439291323,-0.472857979480329,0.680317500623536,0
2.41999816894531,-1.24043548107147,2.04574751853943,2.03502202033997,-1.44185817738692,2.34542508756209,2.03543598721428,2187.594,3551.695,3266.93,0,-0.07631235,0.03318418,0.1134715,-1.07484328746796,-0.474238634109497,0.663703382015228,-1.10024313330221,-0.473403883025206,0.681102911362803,0
2.44000244140625,-1.26204836368561,2.03628349304199,2.04864311218262,-1.46387808506052,2.33595053645515,2.04906735901791,2014.336,2576.033,2579.522,1907.522,-0.06974392,0.03368623,0.1089672,-1.08065271377563,-0.473197847604752,0.681051731109619,-1.10123038958312,-0.473828671822132,0.681714070030222,0
2.45999145507813,-1.28367125988007,2.02687358856201,2.0619478225708,-1.48589810917879,2.32647593524532,2.06269880290633,2168.091,3571.228,3246.365,0,-0.07412429,0.03335364,0.1118659,-1.08114337921143,-0.470494508743286,0.665233016014099,-1.10193535162022,-0.474131997292339,0.68215047511319,0
2.47999572753906,-1.30539703369141,2.01748991012573,2.07558488845825,-1.50794623031618,2.31698924467309,2.07634764018804,1998.547,2564.746,2571.341,1921.478,-0.0675367,0.03381209,0.1073598,-1.08628225326538,-0.469180166721344,0.681858718395233,-1.10235882472314,-0.474314205938057,0.682412625136718,0
2.5,-1.32712137699127,2.00816512107849,2.08889555931091,-1.52999999932945,2.30750012397766,2.08999997377396,2177.567,3545.652,3242.367,0,-0.07188617,0.03337381,0.1100751,-1.08621728420258,-0.466237455606461,0.665530920028687,-1.10250000050292,-0.474374949932098,0.682500019669533,0
2.52000427246094,-1.3489363193512,1.99887180328369,2.10253810882568,-1.55205376834272,2.29801100328223,2.10365230735988,1986.481,2571.537,2552.282,1926.34,-0.06525011,0.03372607,0.1054582,-1.09075391292572,-0.464674413204193,0.682130694389343,-1.10235882472314,-0.474314205938057,0.682412625136718,0
2.53999328613281,-1.37073826789856,1.98964107036591,2.11584281921387,-1.57408507527774,2.28853154739156,2.11729073584934,2157.34,3557.295,3229.477,0,-0.06966137,0.03321064,0.1082203,-1.09009194374084,-0.461527734994888,0.66523277759552,-1.10193578218388,-0.474132182551855,0.682150741652607,0
2.55999755859375,-1.39261829853058,1.98044633865356,2.12947416305542,-1.59612191359838,2.27904971150017,2.13093258853001,1966.186,2562.239,2533.916,1953.632,-0.06288575,0.03351346,0.1035595,-1.09400713443756,-0.459739536046982,0.68157160282135,-1.10123038958312,-0.473828671822132,0.681714070030222,0
2.58000183105469,-1.41447377204895,1.97131872177124,2.14275741577148,-1.61814182127198,2.26957516039323,2.14456396033363,2152.525,3554.712,3215.631,0,-0.06726985,0.03293663,0.1062852,-1.09277677536011,-0.456388354301453,0.664161801338196,-1.10024313330221,-0.473403883025206,0.681102911362804,0
2.59999084472656,-1.43639552593231,1.96223127841949,2.15636539459229,-1.64012239440973,2.26011753383818,2.15817098218581,1955.232,2558.785,2508.583,1973.005,-0.06039943,0.03318388,0.1015238,-1.09608519077301,-0.454369515180588,0.680401623249054,-1.09897546783438,-0.47285844198887,0.680318166050934,0
2.6199951171875,-1.45828056335449,1.9532151222229,2.16960954666138,-1.66209156852628,2.2506648119635,2.17177094750084,2135.593,3558.677,3206.562,0,-0.06482613,0.03256876,0.1042509,-1.09425210952759,-0.450809359550476,0.662207305431366,-1.09742594550583,-0.472191725819537,0.679358937915576,0
2.63999938964844,-1.48021996021271,1.94424366950989,2.183180809021,-1.68402693989188,2.24122663446822,2.18534998730279,1941.501,2548.431,2479.586,2006.12,-0.05776663,0.03279567,0.09933131,-1.09697902202606,-0.448567718267441,0.6785688996315,-1.09559602313537,-0.471404361345641,0.67822612879697,0
2.66000366210938,-1.50211119651794,1.93534755706787,2.19637823104858,-1.70592290617745,2.23180541187802,2.19890463348308,2118.354,3578.345,3181.983,0,-0.06225299,0.0321939,0.1020839,-1.09456503391266,-0.444813966751099,0.659873843193054,-1.09348640563071,-0.470496651869278,0.67692017506657,0
2.67999267578125,-1.52404379844666,1.92650079727173,2.20989203453064,-1.72775723139253,2.2224107117184,2.21242112090437,1930.248,2532.906,2462.971,2027.787,-0.05518975,0.03243195,0.09705426,-1.09662532806396,-0.442330807447433,0.675688982009888,-1.09109983431736,-0.469469776906228,0.675442773735451,0
2.69999694824219,-1.54591631889343,1.91773343086243,2.22301888465881,-1.74955768413056,2.21303058593937,2.22591663964878,2115.795,3563.765,3177.661,0,-0.05972086,0.03181319,0.09963156,-1.09363389015198,-0.438371479511261,0.656347870826721,-1.08843358680109,-0.468322565086308,0.673792239511893,0
2.72000122070313,-1.56781756877899,1.90902006626129,2.23646140098572,-1.77130202882336,2.20367460188472,2.23937742484041,1920.964,2530.224,2446.938,2035.458,-0.05263845,0.03201415,0.09442465,-1.09505653381348,-0.435666978359222,0.672125458717346,-1.08549040888332,-0.467056197851165,0.671970272177789,0
2.739990234375,-1.58964741230011,1.90038907527924,2.24951171875,-1.79296822271738,2.1943522439355,2.25278983096475,2099.657,3577.726,3157.822,0,-0.05727501,0.0313825,0.09697512,-1.09149277210236,-0.431550055742264,0.652511298656464,-1.08227399942825,-0.465672266718727,0.669979161506271,0
2.75999450683594,-1.61149144172668,1.89181578159332,2.26286244392395,-1.81458384274179,2.18505164650952,2.26617092945464,1904.809,2520.773,2444.198,2041.008,-0.05029113,0.03155734,0.09175152,-1.09219324588776,-0.428653329610825,0.667541861534119,-1.07878069424208,-0.464169195088763,0.667816639186824,0
2.77999877929688,-1.6332528591156,1.88332808017731,2.27581405639648,-1.83612684690458,2.17578229366013,2.27950707526701,2108.156,3549.808,3155.906,0,-0.05495486,0.03083911,0.0940969,-1.08808100223541,-0.424393266439438,0.647580504417419,-1.07501419914593,-0.462548577472581,0.665484999299265,0
2.80000305175781,-1.65501511096954,1.87490129470825,2.28906440734863,-1.85759178470316,2.16654653058634,2.29279489428112,1890.887,2529.661,2433.347,2035.773,-0.04802265,0.03090655,0.08882082,-1.08811795711517,-0.421350866556168,0.662520110607147,-1.07097597819164,-0.460811043810786,0.662985148161422,0
2.81999206542969,-1.67668414115906,1.86656093597412,2.3019073009491,-1.87895695992541,2.1573536925621,2.30602095550813,2091.827,3551.73,3147.801,0,-0.05275616,0.0300964,0.09120503,-1.08343660831451,-0.416994124650955,0.642150163650513,-1.06667099276523,-0.458958728849171,0.660320157107579,0
2.83999633789063,-1.69834053516388,1.8582843542099,2.31504583358765,-1.90024960698239,2.14819206138118,2.31920211834584,1867.059,2525.47,2419.171,2056.125,-0.04570144,0.03008945,0.08596452,-1.08283078670502,-0.413846909999847,0.656922280788422,-1.06209435025759,-0.456989527434725,0.657486997379635,0
2.86000061035156,-1.7198930978775,1.85009634494781,2.32776927947998,-1.9214480311499,2.13907097167731,2.33232495272651,2088.622,3544.866,3135.472,0,-0.05038062,0.02919132,0.08836371,-1.0776195526123,-0.409394800662994,0.63617479801178,-1.05725102347782,-0.454905579228273,0.654488747383304,0
2.8800048828125,-1.74142134189606,1.84197378158569,2.34078907966614,-1.94254691640495,2.12999271078668,2.34538616777867,1851.939,2524.994,2392.522,2076.962,-0.04317836,0.02910534,0.08310723,-1.07641327381134,-0.406128525733948,0.650987148284912,-1.0521429102862,-0.45270770082608,0.651326581984514,0
2.89999389648438,-1.7628345489502,1.83394265174866,2.35338068008423,-1.96352501326936,2.1209664217661,2.35837260906308,2077.406,3546.146,3122.34,0,-0.04787458,0.02814013,0.08555202,-1.07066404819489,-0.401562601327896,0.629584550857544,-1.04677621342161,-0.450398561093403,0.648004340974112,0
2.91999816894531,-1.78421235084534,1.82597947120667,2.36626958847046,-1.98440911693069,2.11198057539494,2.37130086407726,1830.616,2516.635,2365.726,2112.373,-0.04044809,0.02801559,0.08022258,-1.06887888908386,-0.398155927658081,0.644439935684204,-1.04114485287423,-0.447975543971863,0.644518260536375,0
2.94000244140625,-1.80546450614929,1.81811034679413,2.37872123718262,-2.00517798053537,2.10304431360073,2.38415778000673,2068.156,3554.083,3100.993,0,-0.04513259,0.02702583,0.08268,-1.06262218952179,-0.393456488847733,0.622587621212006,-1.03525504859546,-0.445441325732794,0.640872191117535,0
2.95999145507813,-1.82666945457458,1.81031274795532,2.39146757125854,-2.02581075424974,2.0941666074844,2.39693044981124,1819.722,2509.645,2338.08,2136.262,-0.03764432,0.02687839,0.0772614,-1.0602400302887,-0.389876127243042,0.637312233448029,-1.02911391720548,-0.442798968459032,0.637070538244476,0
2.97999572753906,-1.84773862361908,1.80261242389679,2.40376162528992,-2.04633384260397,2.08533609591429,2.40963521915279,2056.99,3550.868,3092.451,0,-0.04241723,0.02587273,0.07966784,-1.05346262454987,-0.385029315948486,0.614700615406036,-1.02271452148052,-0.440045487257004,0.633109007445237,0
3,-1.86874866485596,1.79498672485352,2.41635298728943,-2.06672639957428,2.07656174835205,2.42225918334961,1804.793,2501.606,2312.985,2163.737,-0.0348203,0.02571223,0.07409345,-1.05050551891327,-0.38128262758255,0.629570245742798,-1.01606400046349,-0.437183953857422,0.628992018127441,0
3.02000427246094,-1.88961350917816,1.78746032714844,2.42848491668701,-2.0869834279768,2.06784571494631,2.43479924890685,2039.755,3568.104,3069.75,0,-0.03969229,0.02473055,0.07651932,-1.0432311296463,-0.376309126615524,0.606599688529968,-1.00916501115878,-0.434215511495054,0.624721215103391,0
3.03999328613281,-1.91040635108948,1.78001236915588,2.44090390205383,-2.10708469520508,2.05919670122237,2.4472428908773,1791.194,2489.223,2300.878,2179.345,-0.03215554,0.0245826,0.07089517,-1.03964149951935,-0.372400999069214,0.620950818061829,-1.00202586176059,-0.431143734953757,0.620301741541063,0
3.05999755859375,-1.9310439825058,1.77266645431519,2.45285296440125,-2.12705600675913,2.05060360379452,2.45960608409476,2040.298,3546.839,3068.516,0,-0.03708239,0.02357909,0.07315753,-1.03188717365265,-0.367308139801025,0.597457051277161,-0.994638524886308,-0.427965170275055,0.615728628108227,0
3.08000183105469,-1.95159804821014,1.76540112495422,2.46509051322937,-2.14687713595163,2.04207512564123,2.47187630727625,1778.333,2490.489,2287.124,2183.982,-0.02953392,0.02338317,0.06742778,-1.0277019739151,-0.363266319036484,0.611879885196686,-0.987011339258122,-0.424683405378145,0.611007036871143,0
3.09999084472656,-1.97198748588562,1.75823926925659,2.4768545627594,-2.16652837486666,2.03361974652815,2.48404136028297,2026.075,3556.457,3050.652,0,-0.0345428,0.02235466,0.06970686,-1.0194753408432,-0.35809001326561,0.588203847408295,-0.979153483542501,-0.421302389586788,0.606142649861596,0
3.1199951171875,-1.99228072166443,1.75116038322449,2.48889684677124,-2.18603502400946,2.02522658035469,2.49611690533293,1758.733,2484.721,2279.694,2193.894,-0.02703481,0.02212681,0.06402181,-1.0146621465683,-0.353941053152084,0.602120220661163,-0.971056158224178,-0.417818336715394,0.601130019760458,0
3.13999938964844,-2.01240062713623,1.74418675899506,2.50045895576477,-2.20537738341953,2.01690410346351,2.50809074721212,2034.091,3530.083,3046.987,0,-0.0320554,0.02101642,0.06616788,-1.00599277019501,-0.348689377307892,0.578099966049194,-0.962728579444533,-0.414235212212131,0.595974851798267,0
3.16000366210938,-2.03241300582886,1.73729777336121,2.51230120658875,-2.22455088103183,2.00865428308644,2.51996005559448,1741.761,2492.881,2262.509,2198.792,-0.02452398,0.02069498,0.06046386,-1.00060486793518,-0.344451993703842,0.592114865779877,-0.954174163352092,-0.410554485950274,0.590679260733698,0
3.17999267578125,-2.05224251747131,1.73051488399506,2.52365493774414,-2.24353658854737,2.00048526354177,2.53171311296128,2019.624,3532.949,3035.654,0,-0.02960423,0.0195118,0.0626806,-0.991488516330719,-0.33914390206337,0.567684531211853,-0.945403214201559,-0.406780591562751,0.585249625391267,0
3.19999694824219,-2.07195377349854,1.72381830215454,2.5352885723114,-2.2623590635174,1.99238647840124,2.54336512160655,1718.016,2488.523,2242.146,2225.568,-0.02193326,0.01913522,0.05701395,-0.985552132129669,-0.334831297397614,0.581682205200195,-0.936405971974636,-0.402909329586355,0.579679903854719,0
3.22000122070313,-2.0914740562439,1.71722900867462,2.54642534255981,-2.28099938900442,1.98436606709459,2.55490437104486,2016.517,3527.259,3021.767,0,-0.026997,0.01789407,0.0592547,-0.976028501987457,-0.329454928636551,0.556837141513824,-0.927192788821982,-0.398945154262308,0.573976504598449,0
3.239990234375,-2.11086559295654,1.71072816848755,2.5578441619873,-2.2994392795179,1.97643189735754,2.5663195416865,1702.346,2486.55,2214.545,2249.662,-0.01920299,0.01746561,0.05356393,-0.9695765376091,-0.325040727853775,0.570942401885986,-0.917774783907129,-0.394892849856044,0.568146310914365,0
3.25999450683594,-2.1300585269928,1.70433700084686,2.56875324249268,-2.31770268688992,1.96857366338589,2.57762546085652,2004.99,3527.204,3010.344,0,-0.0243072,0.0161922,0.05583978,-0.959652602672577,-0.319578796625137,0.545454978942871,-0.90814153446928,-0.390747931744771,0.562182870617026,0
3.27999877929688,-2.14911270141602,1.69803607463837,2.57994914054871,-2.33577134012187,1.96079922667992,2.58881081793642,1686.038,2479,2184.89,2282.644,-0.01634648,0.01574108,0.0500633,-0.952710092067719,-0.315046846866608,0.559792757034302,-0.898304216251578,-0.386515208538549,0.556093102023818,0
3.30000305175781,-2.16796112060547,1.69184589385986,2.59062671661377,-2.35364119854729,1.95311032582551,2.59987311156116,1993.192,3538.52,2988.144,0,-0.02152367,0.01447885,0.05237339,-0.942409515380859,-0.309488564729691,0.533876299858093,-0.888267004546666,-0.382196476749158,0.549879589839776,0
3.31999206542969,-2.1866602897644,1.68574953079224,2.60158562660217,-2.37129490830989,1.94551442770222,2.61080159886703,1670.843,2468.748,2165.352,2306.094,-0.01355549,0.01403954,0.04654215,-0.934954285621643,-0.304823398590088,0.547943770885468,-0.878042061913513,-0.37779696958594,0.54354986326829,0
3.33999633789063,-2.20514607429504,1.67976593971252,2.61201572418213,-2.38875555478454,1.93800159931817,2.62161057080077,1991.327,3525.164,2981.575,0,-0.01880671,0.01277677,0.04873811,-0.924295008182526,-0.299171298742294,0.521501898765564,-0.867618167158097,-0.373311858882592,0.53709697585572,0
3.36000061035156,-2.22347259521484,1.67387843132019,2.6227285861969,-2.406005803634,1.93057929915441,2.6322892965819,1657.802,2467.894,2148.245,2316.975,-0.01084279,0.01231594,0.04280985,-0.916336476802826,-0.294387370347977,0.535648167133331,-0.857007552155826,-0.36874640767338,0.530528499715627,0
3.3800048828125,-2.24157929420471,1.66810500621796,2.63290786743164,-2.42304196557559,1.92324911460621,2.64283549236868,1980.205,3530.837,2965.324,0,-0.01621386,0.01105371,0.04499738,-0.90532386302948,-0.288666248321533,0.508968412876129,-0.846214826007803,-0.364102599125748,0.523847288101157,0
3.39999389648438,-2.25951623916626,1.66242909431458,2.64336371421814,-2.43984769972619,1.91601807669906,2.65323904237604,1640.402,2463.937,2137.601,2327.573,-0.008335162,0.0105826,0.03908644,-0.896849930286407,-0.283795893192291,0.522791624069214,-0.835253140422974,-0.35938609205264,0.51706148254665,0
3.41999816894531,-2.27722644805908,1.65686869621277,2.65327739715576,-2.45644516534361,1.90887665092339,2.66351366424015,1980.153,3510.461,2964.503,0,-0.01377493,0.009286488,0.04118721,-0.885506987571716,-0.278032898902893,0.495684742927551,-0.824110582941664,-0.354591760855451,0.510163708672097,0
3.44000244140625,-2.29475736618042,1.65140628814697,2.66347146034241,-2.47281804716281,1.90183185728196,2.67364925803476,1623.672,2467.308,2122.061,2336.825,-0.00586215,0.008763267,0.03525776,-0.876554787158966,-0.273105055093765,0.509703636169434,-0.812800388649434,-0.349725300221754,0.503162159625937,0
3.45999145507813,-2.31205558776855,1.64606010913849,2.67311930656433,-2.48895081463434,1.8948903781363,2.68363620960993,1969.628,3515.059,2948.997,0,-0.01136797,0.007437998,0.03742125,-0.864897131919861,-0.26731550693512,0.482392281293869,-0.80133641229185,-0.344792671461508,0.496065412155666,0
3.47999572753906,-2.32916498184204,1.64081358909607,2.68304347991943,-2.50486489870395,1.88804299234919,2.69348778574196,1603.178,2463.633,2107.451,2354.704,-0.00342589,0.00688832,0.03155972,-0.855481028556824,-0.262339353561401,0.49621370434761,-0.789706299681989,-0.339788558913217,0.488865818431069,0
3.5,-2.34603595733643,1.63568305969238,2.69241428375244,-2.5205447997813,1.88129636896134,2.70319439144611,1975.265,3495.66,2941.851,0,-0.00895195,0.005511608,0.03366281,-0.843546271324158,-0.256522595882416,0.468542397022247,-0.777924000354857,-0.334718964672089,0.481572013878822,0
3.52000427246094,-2.36270999908447,1.63065302371979,2.70206522941589,-2.53598752699493,1.87465179486116,2.71275417523047,1587.058,2468.461,2086.297,2367.852,-0.0009667274,0.004903297,0.0277931,-0.83369916677475,-0.251493036746979,0.48255318403244,-0.765994882555673,-0.32958619854407,0.474187321698442,0
3.53999328613281,-2.37913990020752,1.62574005126953,2.71115493774414,-2.55117869390181,1.86811546013321,2.72215823120146,1965.232,3496.665,2929.76,0,-0.006575345,0.003493019,0.02994843,-0.82149600982666,-0.245651066303253,0.454480439424515,-0.753933682518821,-0.324396601119134,0.466720864320997,0
3.55999755859375,-2.39536499977112,1.62092852592468,2.72052597999573,-2.56613872308604,1.86167857751006,2.73141920191151,1566.87,2464.91,2065.77,2392.692,0.001483725,0.002859321,0.02409877,-0.811241030693054,-0.240573614835739,0.468548864126205,-0.741727567798258,-0.319144650954242,0.459164697851087,0
3.58000183105469,-2.41134071350098,1.61623454093933,2.72932815551758,-2.58085326729328,1.85534732021446,2.74052820572674,1962.776,3491.005,2917.407,0,-0.004176369,0.001431356,0.02626024,-0.798802316188812,-0.234703943133354,0.440112948417664,-0.729391385793765,-0.313836736470737,0.451528013536464,0
3.59999084472656,-2.42710423469543,1.61164283752441,2.73841381072998,-2.59530884290342,1.84912748987145,2.74947689564398,1552.738,2463.816,2044.03,2410.857,0.003902475,0.0007750727,0.0204016,-0.788160622119904,-0.229570776224136,0.454276978969574,-0.716940488958392,-0.308479463400265,0.4438203152769,0
3.6199951171875,-2.44261431694031,1.60716927051544,2.74692106246948,-2.60952509409627,1.84301063413925,2.75827743234631,1955.29,3486.414,2909.309,0,-0.001850364,-0.0006567355,0.02257234,-0.775503695011139,-0.22367836534977,0.425360560417175,-0.704361775018033,-0.303067194200314,0.436033492140578,0
3.63999938964844,-2.45790410041809,1.60279965400696,2.75571537017822,-2.6234885835008,1.83700253474321,2.76692149746096,1537.686,2460.487,2023.479,2431.824,0.00627211,-0.001324124,0.01668649,-0.764495491981506,-0.218499630689621,0.439713567495346,-0.691670720740692,-0.297606588091786,0.428177124984152,0
3.66000366210938,-2.47293710708618,1.59854769706726,2.76392769813538,-2.63719712493647,1.83110413233575,2.77540773763803,1943.951,3491.902,2890.079,5.71607,0.0004563243,-0.002725479,0.01889154,-0.751643061637878,-0.212589740753174,0.410621672868729,-0.678873453515702,-0.29210028151913,0.420255006953505,0
3.67999267578125,-2.48774290084839,1.59440016746521,2.77242183685303,-2.65063849381582,1.82532068681534,2.78372858527554,1525.322,2455.864,2010.641,2442.881,0.008505907,-0.003373693,0.01303565,-0.740276873111725,-0.207369342446327,0.4247065782547,-0.665986083416798,-0.286555206197011,0.41227711095171,0
3.69999694824219,-2.50228762626648,1.59037125110626,2.78033971786499,-2.66383127580226,1.81964420129024,2.79189554578451,1921.226,3490.617,2860.965,41.15761,0.002829719,-0.004676511,0.01519959,-0.727263510227203,-0.201453745365143,0.395888924598694,-0.65299527533123,-0.280965624398954,0.404235181908735,0
3.72000122070313,-2.51659870147705,1.58644771575928,2.78852415084839,-2.6767633032417,1.81407991116207,2.79990108680742,1528.561,2456.174,2007.909,2422.588,0.01065079,-0.005278918,0.009408451,-0.715544462203979,-0.19617971777916,0.409224599599838,-0.639917282339434,-0.275338529371411,0.396139281255611,0
3.739990234375,-2.53064656257629,1.58264207839966,2.79614734649658,-2.68942333385363,1.80863265367006,2.80773824883709,1902.312,3476.591,2823.365,95.81078,0.005189552,-0.006462427,0.01137838,-0.702390313148499,-0.190262570977211,0.381157338619232,-0.62676873176137,-0.26968107538565,0.387999702095468,0
3.75999450683594,-2.54445266723633,1.57894325256348,2.80400991439819,-2.70182915057228,1.80329477731443,2.81541804035694,1533.472,2468.066,2022.237,2371.089,0.01255088,-0.007012103,0.005716394,-0.6903076171875,-0.184945911169052,0.393130779266357,-0.613536214864365,-0.263987493038594,0.379808143784027,0
3.77999877929688,-2.55799293518066,1.57536220550537,2.81133723258972,-2.7139695770734,1.79807109095524,2.82293354268985,1880.636,3448.889,2781.471,173.3217,0.007418173,-0.008070976,0.007379696,-0.67701643705368,-0.179057508707047,0.366364777088165,-0.60023651686137,-0.258265004538452,0.371574997167698,0
3.80000305175781,-2.57128429412842,1.57188773155212,2.8188693523407,-2.72584333814708,1.79296214327972,2.83028396642013,1545.594,2494.737,2047.784,2285.808,0.01409818,-0.00858763,0.001952854,-0.664564073085785,-0.173733204603195,0.376602739095688,-0.586876524285838,-0.252516572968186,0.363304525338741,0
3.81999206542969,-2.58430695533752,1.56852900981903,2.82589864730835,-2.73744054699573,1.78797218830065,2.83746319114912,1852.017,3410.515,2738.429,271.024,0.009364289,-0.009530921,0.003291022,-0.651136636734009,-0.167924374341965,0.351462304592133,-0.573473482003301,-0.246749618311662,0.355007403690404,0
3.83999633789063,-2.59707355499268,1.56527626514435,2.83309268951416,-2.74877791451009,1.78309403578861,2.84448156171422,1555.143,2529.459,2083.424,2184.837,0.01531072,-0.01002307,-0.001780589,-0.638336539268494,-0.162650644779205,0.35970139503479,-0.560014026276881,-0.240958390526246,0.346675359432959,0
3.86000061035156,-2.60956954956055,1.56213665008545,2.83982372283936,-2.75984563331209,1.77833190558438,2.85133300688122,1825.085,3363.425,2691.381,381.3423,0.01110838,-0.01087049,-0.000767523,-0.624785482883453,-0.15696556866169,0.336553156375885,-0.546515580872635,-0.235150386571708,0.338319178707605,0
3.87998962402344,-2.62180304527283,1.55910134315491,2.84667754173279,-2.7706348636882,1.77368960116974,2.85801205444635,1568.66,2572.16,2119.507,2071.586,0.01629276,-0.01135625,-0.00539876,-0.611681342124939,-0.151776015758514,0.342689722776413,-0.532995796775444,-0.22933320117373,0.329949788314816,0
3.89999389648438,-2.63376379013062,1.55617666244507,2.85310935974121,-2.78116151864576,1.76916027562219,2.86452855531919,1795.428,3310.618,2643.082,502.2003,0.01270045,-0.01211951,-0.004696218,-0.598029315471649,-0.146242931485176,0.321592569351196,-0.519441457145543,-0.223501147495394,0.321559006401168,0
3.91999816894531,-2.64545726776123,1.55335330963135,2.85962271690369,-2.79141684911929,1.7647476934202,2.87087709341145,1582.89,2616.972,2153.154,1958.689,0.01717921,-0.01260101,-0.008867794,-0.584679305553436,-0.141154304146767,0.325668692588806,-0.505870408491346,-0.2176619043907,0.313157880805522,0
3.94000244140625,-2.65687608718872,1.55063796043396,2.86575531959534,-2.8014005971492,1.76045196555656,2.87705750903383,1771.513,3257.861,2592.499,620.3225,0.0141888,-0.01329503,-0.008470982,-0.570949673652649,-0.135777845978737,0.306634932756424,-0.492290296490434,-0.211818761581115,0.30475114456651,0
