t,x_s1,x_s2,x_s3,x_s_d1,x_s_d2,x_s_d3,propellers_rpms1,propellers_rpms2,propellers_rpms3,propellers_rpms4,rollRad,pitchRad,yawRad,v_s1,v_s2,v_s3,v_s_d1,v_s_d2,v_s_d3,insideCount
0,-0.0599999986588955,2.94000005722046,1.17999994754791,-0.0599999986588955,2.94000005722046,1.17999994754791,0,0,0,0,0,0,0,0,0,0,-1.06581410364015E-15,4.44089209850063E-16,4.44089209850063E-16,0
0.0200042724609375,-0.0599999986588955,2.94000005722046,1.1771354675293,-0.0600018701838461,2.93999925195556,1.18000110611101,0,0,0,0,0.0163538,-0.002474609,-2.024222E-05,3.71994488546079E-08,3.50004931704007E-08,-0.143225952982903,-0.000280105751305916,-0.000120521679537258,0.00017339880334547,5
0.0399932861328125,-0.0599999986588955,2.94000005722046,1.17048275470734,-0.060014863945674,2.93999366110285,1.18000914986856,0,0,0,0,0.03270752,-0.004950816,-5.430172E-05,3.62924410524101E-08,3.44428769949445E-08,-0.332637369632721,-0.00111059898697896,-0.000477859717552347,0.000687513678106196,6
0.05999755859375,-0.0600004345178604,2.94013237953186,1.16416537761688,-0.0600498857373401,2.93997859220429,1.18003083002592,3185.182,2835.672,1501.344,2767.742,0.03128216,-0.00494336,-0.01646952,-2.17777997022495E-05,0.00662205973640084,-0.315866738557816,-0.00247936261166862,-0.00106680046642749,0.00153484356504269,6
0.0800018310546875,-0.0599162131547928,2.9403874874115,1.15857708454132,-0.0601175574246769,2.93994947496775,1.18007272202403,3066.065,3067.351,2154.765,2023.927,0.01897811,-0.004311125,-0.04351445,0.00421100296080112,0.0127505138516426,-0.279414087533951,-0.00437268608126799,-0.00188144466206175,0.00270690098422899,6
0.100006103515625,-0.0596375465393066,2.94068741798401,1.15374851226807,-0.0602282404704493,2.93990185114529,1.18014124010193,2640.412,3831.792,2620.119,1134.785,-0.00585203,-0.002888997,-0.07014553,0.0139334248378873,0.0149990078061819,-0.241430014371872,-0.00677739276378709,-0.00291612276782231,0.00419552897277328,6
0.1199951171875,-0.0590848848223686,2.94089865684509,1.14957022666931,-0.0603918861403606,2.93983143898525,1.18024254456713,2092.144,4102,3169.368,755.9529,-0.04012052,-0.0004511395,-0.08993655,0.0276331454515457,0.0105631183832884,-0.208911597728729,-0.00967801353495435,-0.00416417885169243,0.00599115140585487,5
0.139999389648438,-0.0582314655184746,2.94085597991943,1.14596664905548,-0.0606185767455666,2.93973390035084,1.18038287685052,1509.82,4074.808,3736.101,702.1599,-0.07649291,0.002388631,-0.09949782,0.0426709204912186,-0.00212864298373461,-0.180180862545967,-0.0130660253322238,-0.00562194567796536,0.00808849210174802,4
0.160003662109375,-0.0570994280278683,2.94039463996887,1.14297807216644,-0.0609177895434042,2.93960515744296,1.18056810382587,1135.5,3846.896,4069.747,879.8394,-0.1062777,0.004335342,-0.09870101,0.0566018968820572,-0.0230679474771023,-0.149430781602859,-0.0169265510445065,-0.00728302204135792,0.0104783414199936,4
0.17999267578125,-0.0557376928627491,2.93938779830933,1.14071130752563,-0.0612985250199726,2.93944133760391,1.18080379722281,1101.06,3565.41,4009.875,1148.807,-0.1236298,0.004491817,-0.09000047,0.0680867731571198,-0.0503394827246666,-0.11334003508091,-0.0212433804254414,-0.00914043312572283,0.0131506644458931,3
0.199996948242188,-0.054196435958147,2.93777704238892,1.13924849033356,-0.0617704296168641,2.93923829023936,1.18109592864822,1372.789,3339.654,3595.068,1386.597,-0.1278738,0.003022869,-0.07724819,0.0770627856254578,-0.0805345773696899,-0.0731382369995117,-0.0260104776919234,-0.0111915819022102,0.0161017247421801,3
0.220001220703125,-0.0525141879916191,2.93557596206665,1.1385840177536,-0.0623420644491781,2.93899233174064,1.18144979784016,1791.279,3212.742,3016.703,1527.051,-0.122972,0.0008608057,-0.06426101,0.0841125249862671,-0.110050901770592,-0.0332254394888878,-0.03121219533433,-0.0134297356845702,0.019321835755004,3
0.240005493164063,-0.0507195070385933,2.93284702301025,1.13860714435577,-0.0630219993990999,2.93869977472688,1.18187070996396,2159.386,3168.774,2517.156,1558.232,-0.1149655,-0.0009880328,-0.05362222,0.0897341221570969,-0.136451736092567,0.00115440040826797,-0.0368361158647881,-0.0158495515746756,0.0228033104678445,3
0.259994506835938,-0.0488371625542641,2.92966485023499,1.13913798332214,-0.0638179029240226,2.93835731967507,1.18236341216003,2351.914,3159.025,2273.849,1495.926,-0.1090548,-0.001904693,-0.04623727,0.0941172763705254,-0.159105867147446,0.02654086984694,-0.0428651747123285,-0.0184436871643672,0.0265355850983733,3
0.279998779296875,-0.0468916222453117,2.92608761787415,1.13999593257904,-0.0647390625194898,2.93796097043536,1.18293365383054,2351.911,3152.214,2324.76,1363.847,-0.1078175,-0.001744371,-0.04152134,0.0972770377993584,-0.178859412670135,0.0429000034928322,-0.0492963837173861,-0.0212108567320638,0.030516809833474,3
0.300003051757813,-0.0449086017906666,2.92214369773865,1.14106202125549,-0.0657927507678135,2.93750759781875,1.18358593705038,2229.798,3143.8,2572.474,1194.488,-0.1110858,-0.000737163,-0.03798733,0.0991510525345802,-0.197191253304482,0.0533048734068871,-0.0561132031658829,-0.0241439437008635,0.0347367458022363,3
0.319992065429688,-0.0429167523980141,2.91783547401428,1.142294049263,-0.0669855955880233,2.93699435001684,1.18432436481717,2074.202,3133.069,2873.096,1032.022,-0.1169335,0.0006859004,-0.03397927,0.0995924770832062,-0.215405881404877,0.0616018623113632,-0.0632980253096114,-0.0272353719486164,0.0391844929697465,3
0.339996337890625,-0.040948748588562,2.91315102577209,1.14370715618134,-0.068326768706371,2.93641728069206,1.18515461486636,1954.493,3107.055,3109.736,922.1723,-0.1228415,0.002070007,-0.02837279,0.09840027987957,-0.234222531318665,0.0706573128700256,-0.0708499516420146,-0.0304847548730522,0.0438594951176439,3
0.360000610351563,-0.0390399843454361,2.90807723999023,1.14534342288971,-0.0698225328270578,2.93577369517774,1.1860805641102,1905.274,3065.472,3221.855,880.8794,-0.126702,0.00309234,-0.02087226,0.0954382419586182,-0.253693282604218,0.0818127021193504,-0.0787518717320621,-0.0338847303337087,0.0487511600740379,3
0.3800048828125,-0.0372254773974419,2.90261030197144,1.14724361896515,-0.0714797725314022,2.93506063123087,1.18710647443246,1924.144,3021.797,3206.961,895.2914,-0.1274205,0.003641866,-0.01188462,0.0907252281904221,-0.273341298103333,0.0950083062052727,-0.0869921272359981,-0.0374302820709642,0.0538522707687797,3
0.399993896484375,-0.0355370119214058,2.89676141738892,1.14943170547485,-0.0733036822025899,2.9342758538535,1.18823556140379,1991.102,2988.908,3098.734,939.658,-0.1250445,0.003790666,-0.002209891,0.08442322909832,-0.292449682950974,0.10940358042717,-0.0955525119207663,-0.0411135764513579,0.0591515566763244,3
0.419998168945313,-0.0340016856789589,2.89055490493774,1.1519056558609,-0.0753034649285836,2.93341540321397,1.18947352217404,2071.422,2974.436,2954.21,986.7979,-0.1205064,0.003708411,0.007339199,0.076766349375248,-0.310321986675262,0.12369691580534,-0.104434660908044,-0.0449353170220673,0.0646500300148815,3
0.44000244140625,-0.032642275094986,2.88402462005615,1.15464174747467,-0.077483988232608,2.93247718495301,1.19082336997196,2137.145,2972.524,2824.69,1023.39,-0.1150725,0.003564308,0.01614687,0.0679710134863853,-0.326508790254593,0.136806964874268,-0.113620829717891,-0.048887868829098,0.0703367061060819,4
0.459991455078125,-0.0314780920743942,2.8772075176239,1.15760159492493,-0.0798493430620752,2.93145943885026,1.19228763728888,2168.575,2978.548,2748.927,1037.921,-0.1098735,0.003474696,0.02394644,0.0582091733813286,-0.340849757194519,0.147992610931396,-0.123092454730403,-0.0529632444654124,0.0762000931848968,4
0.479995727539063,-0.0305264312773943,2.87013840675354,1.16074752807617,-0.0824088828700873,2.93035814037613,1.19387211435783,2167.198,2983.315,2733.221,1033.949,-0.10554,0.003482606,0.03074952,0.0475829765200615,-0.353457719087601,0.157295361161232,-0.132852887402757,-0.0571628859694044,0.0822422659629699,4
0.5,-0.0298033207654953,2.86284685134888,1.1640522480011,-0.085166398670376,2.92917165836334,1.1955791479969,2147.559,2989.484,2762.202,1009.172,-0.102259,0.003569032,0.03679426,0.0361555702984333,-0.364583075046539,0.165234193205833,-0.142884000065179,-0.0614789935111996,0.0884520025491718,4
0.520004272460938,-0.0293240249156952,2.8553569316864,1.16749930381775,-0.088127196023106,2.92789770997757,1.19741202260058,2117.099,2993.373,2816.863,976.754,-0.09984031,0.003685585,0.04241271,0.023964760825038,-0.374493628740311,0.172354966402054,-0.153174893518032,-0.065906877469682,0.0948225558197254,4
0.539993286132813,-0.029103722423315,2.84768843650818,1.17108595371246,-0.091293865515634,2.92653518056143,1.19937234186584,2088.828,2991.364,2870.778,952.0847,-0.09782963,0.003776646,0.0478578,0.0110150203108788,-0.383423417806625,0.179331228137016,-0.163706645289342,-0.0704383960337938,0.101342211863077,4
0.55999755859375,-0.0291571617126465,2.8398585319519,1.17481577396393,-0.094676112580471,2.92507989413848,1.20146611391775,2069.831,2989.068,2910.011,934.0236,-0.09579177,0.003796212,0.05329828,-0.00267188064754009,-0.391501247882843,0.186492055654526,-0.17448465888317,-0.0750758741803766,0.108014315705644,5
0.580001831054688,-0.0294986218214035,2.8318829536438,1.17869865894318,-0.0982762614093182,2.92353085067394,1.20369477754168,2064.615,2985.038,2920.869,932.4611,-0.09337948,0.003717708,0.05873246,-0.0170731507241726,-0.39878311753273,0.194144994020462,-0.185490414529404,-0.0798113433697334,0.11482740272751,5
0.600006103515625,-0.0301407910883427,2.8237783908844,1.1827392578125,-0.102098762959148,2.92188613504538,1.20606108809202,2067.259,2986.071,2912.935,935.5316,-0.09051232,0.003537311,0.06411689,-0.0321086570620537,-0.40523087978363,0.202032595872879,-0.196713446836865,-0.0846403006364086,0.121774994352997,5
0.6199951171875,-0.0310951061546803,2.81556224822998,1.18694221973419,-0.106144683970236,2.92014528826426,1.20856570593183,2073.984,2985.233,2886.261,955.0109,-0.08717858,0.003272418,0.06928721,-0.0477159693837166,-0.410808444023132,0.210148021578789,-0.208134604141382,-0.0895545055543457,0.128845234789665,5
0.639999389648438,-0.0323707312345505,2.80725312232971,1.19130408763885,-0.110424235525481,2.91830391678686,1.21121495220784,2082.164,2992.329,2857.456,966.4967,-0.08360887,0.002941323,0.07415542,-0.063780702650547,-0.415455222129822,0.21809321641922,-0.219761081350814,-0.0945570538913933,0.136042578028218,5
0.660003662109375,-0.0339753888547421,2.79886960983276,1.19582271575928,-0.114938248900541,2.91636166293851,1.21400934151928,2088.417,2997.865,2824.66,986.274,-0.07998697,0.002568196,0.07859138,-0.0802334398031235,-0.419174462556839,0.225933700799942,-0.231574097577923,-0.0996398647564507,0.143355397804799,5
0.67999267578125,-0.0359143801033497,2.79043030738831,1.20048689842224,-0.119686638739014,2.91431856344567,1.21694882102647,2088.945,3009.691,2807.841,989.2855,-0.07662127,0.002167018,0.08261932,-0.0969495549798012,-0.421969652175903,0.233209624886513,-0.243554411173546,-0.104794659005432,0.150771782621969,6
0.699996948242188,-0.0381922833621502,2.78195190429688,1.20529067516327,-0.124680083855354,2.91217002351282,1.22004000142426,2081.062,3012.498,2797.394,1005.106,-0.07353307,0.001760656,0.0861925,-0.113894946873188,-0.42392310500145,0.240188449621201,-0.255710395848158,-0.11002503961202,0.158296916205407,6
0.720001220703125,-0.0408121310174465,2.77344965934753,1.21022653579712,-0.129918284978346,2.90991617190799,1.22328269744952,2076.93,3023.025,2797.325,999.4822,-0.07087205,0.001344888,0.08940369,-0.130992099642754,-0.425109088420868,0.246791869401932,-0.268023157655716,-0.11532287703907,0.16591910230247,6
0.740005493164063,-0.0437762625515461,2.76493716239929,1.21528935432434,-0.13540428105644,2.90755570105657,1.22667879035609,2065.885,3026.529,2803.449,1002.464,-0.06858492,0.0009273938,0.09229971,-0.148206755518913,-0.425629764795303,0.253138929605484,-0.280482990349159,-0.120683994959631,0.173632332283853,6
0.759994506835938,-0.047086376696825,2.75642561912537,1.22047579288483,-0.14113644597991,2.90508931062815,1.2302272735046,2057.09,3030.199,2812.336,1000.746,-0.06660779,0.0005071961,0.09494396,-0.165506348013878,-0.425577253103256,0.259321391582489,-0.293070637251543,-0.126100107763583,0.181424685349205,6
0.779998779296875,-0.0507436729967594,2.74792504310608,1.22578406333923,-0.147126184485884,2.90251209348295,1.23393520697061,2048.911,3032.058,2821.084,1000.569,-0.06484105,8.445844E-05,0.09738009,-0.1828643232584,-0.42503148317337,0.265411585569382,-0.305795832832518,-0.131575403921268,0.189302187598958,6
0.800003051757813,-0.0547490902245045,2.7394437789917,1.23121643066406,-0.153371683173492,2.89982482987671,1.2378014681726,2046.615,3034.849,2820.873,1002.778,-0.06320906,-0.0003440804,0.09961461,-0.200270652770996,-0.424064427614212,0.271617919206619,-0.318639638509124,-0.13710173468952,0.197253115148089,6
0.819992065429688,-0.0591023154556751,2.73098945617676,1.23676931858063,-0.159870162197751,2.89702871589906,1.2418243362541,2043.888,3039.397,2823.635,999.8631,-0.06174113,-0.0007803062,0.1016936,-0.217661499977112,-0.422717869281769,0.277646601200104,-0.33158286215529,-0.142670842232658,0.205265587156312,6
0.839996337890625,-0.0638031810522079,2.72256851196289,1.24244439601898,-0.166633637018892,2.89411858163313,1.24601124935738,2039.362,3038.036,2818.904,1012.807,-0.0603158,-0.001209075,0.1035561,-0.235042899847031,-0.421047240495682,0.283755272626877,-0.344636106234817,-0.148287288494656,0.213346167053785,6
0.860000610351563,-0.0688503533601761,2.71418690681458,1.24824011325836,-0.173659158941841,2.89109569582005,1.2503603820997,2043.246,3045.162,2813.165,1009.318,-0.0590492,-0.001640507,0.1052322,-0.25235903263092,-0.419082254171371,0.289784222841263,-0.357780475378537,-0.153942943326036,0.221483157706883,6
0.8800048828125,-0.07424196600914,2.70584964752197,1.25415408611298,-0.180948461186242,2.88795931270381,1.25487280742661,2040.628,3047.489,2808.215,1016.451,-0.05794719,-0.002061287,0.1067029,-0.26958030462265,-0.416867136955261,0.295697450637817,-0.371007022483504,-0.159633957038354,0.229671020432672,6
0.899993896484375,-0.0799754709005356,2.69756078720093,1.26018357276917,-0.18849723509595,2.8847112861788,1.25954585807468,2039.426,3050.801,2805.335,1019.339,-0.05704597,-0.002467685,0.107971,-0.286676347255707,-0.414444029331207,0.301474720239639,-0.384296738353309,-0.165352150505452,0.237897987633041,7
0.919998168945313,-0.0860478281974792,2.68932366371155,1.26632499694824,-0.196318384305134,2.8813460641717,1.26438752200817,2036.656,3053.222,2806.769,1020.589,-0.05636048,-0.002853311,0.1090523,-0.303616940975189,-0.411856591701508,0.307073950767517,-0.397661187980262,-0.171102499820431,0.246171218589148,7
0.94000244140625,-0.0924559384584427,2.68114042282104,1.27257943153381,-0.204407453948074,2.87786556348678,1.26939504145298,2037.384,3056.39,2803.436,1023.044,-0.05588697,-0.003216566,0.109943,-0.320405900478363,-0.409159809350967,0.312723159790039,-0.411081631631503,-0.176876941799768,0.254479112513653,7
0.959991455078125,-0.0991954654455185,2.67301249504089,1.27894020080566,-0.212759000778906,2.87427212620069,1.27456504678061,2035.717,3060.997,2811.63,1014.363,-0.05571493,-0.003562244,0.1107201,-0.336977541446686,-0.406391978263855,0.318037301301956,-0.424539267042903,-0.182667386354485,0.262810029909387,7
0.979995727539063,-0.106263071298599,2.66494011878967,1.28540933132172,-0.22138664033507,2.87055989392801,1.27990596665734,2029.847,3057.32,2813.816,1025.63,-0.05566752,-0.003870638,0.111331,-0.353378653526306,-0.403614908456802,0.323456287384033,-0.438046240701377,-0.188479059778567,0.271171490030365,7
1,-0.113654270768166,2.6569230556488,1.29198408126831,-0.230284798736574,2.86673126495361,1.28541435058594,2034.885,3063.678,2820.041,1011.416,-0.05586566,-0.004161456,0.1118595,-0.369559973478317,-0.400858014822006,0.328739047050476,-0.451584000205995,-0.194303979492187,0.279552008056641,7
1.02000427246094,-0.121365085244179,2.64895963668823,1.29866528511047,-0.239454009753966,2.86278600961093,1.2910905289958,2031.478,3061.953,2823.426,1017.319,-0.05620015,-0.004420847,0.112281,-0.385541915893555,-0.39817088842392,0.334061801433563,-0.465144357597929,-0.200138622445408,0.287946515251652,7
1.03999328613281,-0.129391014575958,2.64104795455933,1.30545055866241,-0.248887339851819,2.85872711120656,1.2969302096982,2033.072,3064.161,2831.02,1009.993,-0.05670349,-0.004655738,0.1126383,-0.401296198368073,-0.395578622817993,0.339261382818222,-0.478708875293167,-0.205975055460915,0.29634359787259,7
1.05999755859375,-0.137727916240692,2.63318562507629,1.31234097480774,-0.258599401509697,2.85454828239877,1.30294243851408,2031.676,3062.198,2835.662,1013.515,-0.05727767,-0.004857073,0.1129093,-0.41684427857399,-0.393114030361176,0.34452024102211,-0.492290296490434,-0.211818761581115,0.30475114456651,7
1.08000183105469,-0.146371439099312,2.62536978721619,1.31933784484863,-0.268583149539609,2.85025255453512,1.30912285413647,2038.002,3065.858,2837.206,1006.87,-0.05797489,-0.005035505,0.1131173,-0.432177811861038,-0.390797734260559,0.349843412637711,-0.50587040849135,-0.217661904390701,0.313157880805523,7
1.10000610351563,-0.155316948890686,2.61759686470032,1.3264387845993,-0.278838480013141,2.84583997233313,1.31547139222872,2038.745,3066.922,2843.481,1003.604,-0.05880739,-0.005188903,0.1132825,-0.447274148464203,-0.388648509979248,0.355049073696136,-0.519441457145546,-0.223501147495394,0.321559006401169,7
1.1199951171875,-0.164560168981552,2.60986304283142,1.33364582061768,-0.289357002179081,2.84131414609862,1.32198285851614,2039.693,3065.708,2846.001,1007.067,-0.05970487,-0.005308213,0.1133756,-0.462161630392075,-0.386691778898239,0.360353291034698,-0.532985466132485,-0.229328756186667,0.329943393154705,8
1.13999938964844,-0.174096196889877,2.60216450691223,1.34095513820648,-0.300154365346813,2.83666834237095,1.3286669406667,2042.462,3067.678,2857.064,996.652,-0.06072646,-0.005401956,0.1134509,-0.4768006503582,-0.384929448366165,0.365466177463531,-0.546515580872639,-0.235150386571708,0.338319178707607,8
1.16000366210938,-0.183921486139297,2.59449648857117,1.34837436676025,-0.311222084148811,2.83190621216671,1.33551838583369,2046.436,3066.573,2853.073,1004.635,-0.06175551,-0.005461078,0.1134402,-0.491265803575516,-0.383396774530411,0.370963245630264,-0.560014026276883,-0.240958390526247,0.34667535943296,8
1.17999267578125,-0.194030374288559,2.58685493469238,1.35589396953583,-0.322550701230474,2.8270318247214,1.34253133946411,2052.101,3073.036,2869.99,980.7822,-0.06301519,-0.005508482,0.11348,-0.50544399023056,-0.382074922323227,0.375978589057922,-0.573463232144024,-0.246745208083563,0.355001058539242,8
1.19999694824219,-0.204419955611229,2.57923460006714,1.36352407932281,-0.334156660511822,2.8220381046756,1.34971598112778,2046.828,3063.653,2867.325,1006.045,-0.06415448,-0.005504221,0.1134123,-0.519478499889374,-0.38101464509964,0.38150542974472,-0.58687652428584,-0.252516572968185,0.36330452533874,8
1.22000122070313,-0.215084731578827,2.57163095474243,1.37125647068024,-0.346030421585499,2.81692915700008,1.35706640485806,2061.392,3074.881,2883.166,970.2275,-0.06552389,-0.005498362,0.1134189,-0.53323769569397,-0.380178153514862,0.386618494987488,-0.600236516861372,-0.258265004538453,0.371574997167698,8
1.24000549316406,-0.226021975278854,2.56403851509094,1.37910175323486,-0.358170848086624,2.8117054706409,1.36458190719098,2056.24,3066.108,2878.747,996.9391,-0.06677716,-0.005446164,0.1133365,-0.546864330768585,-0.379619956016541,0.392264902591705,-0.613536214864368,-0.263987493038594,0.379808143784027,8
1.25999450683594,-0.237226128578186,2.55645275115967,1.38704824447632,-0.3705671011502,2.80637170925886,1.37225577835275,2067.369,3075.48,2900.393,960.7877,-0.06825149,-0.005391836,0.113357,-0.560206890106201,-0.379288613796234,0.397324830293655,-0.626758665639206,-0.269676744214496,0.387993470686331,8
1.27999877929688,-0.248695313930511,2.54886794090271,1.39511072635651,-0.383236695417198,2.80092033679326,1.3800988607405,2061.155,3063.583,2893.743,994.8906,-0.06949253,-0.005284244,0.1132661,-0.573459327220917,-0.379245519638062,0.403122246265411,-0.639917282339435,-0.275338529371412,0.396139281255613,8
1.30000305175781,-0.260423928499222,2.54127955436707,1.40327680110931,-0.396168722856641,2.79535604666509,1.38810440176341,2079.701,3078.214,2914.3,947.229,-0.07098496,-0.005188903,0.1133084,-0.586430132389069,-0.379418313503265,0.408305525779724,-0.652995275331231,-0.280965624398954,0.404235181908735,8
1.31999206542969,-0.272410571575165,2.53368186950684,1.4115629196167,-0.409351342777246,2.78968393359302,1.39626507146953,2071.864,3065.467,2903.194,988.5781,-0.07223079,-0.005042429,0.1132337,-0.599333882331848,-0.379881501197815,0.414306163787842,-0.665976209205206,-0.286550957599616,0.412270998344359,8
1.33999633789063,-0.284649014472961,2.52607131004333,1.4199492931366,-0.422802873722428,2.78389611561957,1.40459220990988,2086.025,3078.831,2934.998,934.8627,-0.07375252,-0.004910869,0.1133355,-0.611922800540924,-0.380532324314117,0.419318526983261,-0.678873453515705,-0.29210028151913,0.420255006953505,8
1.36000061035156,-0.297139912843704,2.51844143867493,1.42846524715424,-0.436511415158101,2.77799771321212,1.41307845008695,2080.175,3062.62,2908.203,994.9891,-0.07485346,-0.004715393,0.1132328,-0.624545395374298,-0.381490170955658,0.425800651311874,-0.691670720740693,-0.297606588091785,0.42817712498415,9
1.3800048828125,-0.309875071048737,2.51078987121582,1.43707644939423,-0.450474904562636,2.77198961381608,1.4217225152016,2102.932,3087.57,2954.403,904.9628,-0.07648439,-0.004569985,0.1134342,-0.636757493019104,-0.382579118013382,0.430560618638992,-0.704361775018035,-0.303067194200314,0.436033492140578,9
1.39999389648438,-0.322857528924942,2.50310969352722,1.44582617282867,-0.464680216184654,2.76587746507559,1.43051627978847,2081.676,3056.297,2913.439,1011.571,-0.07742076,-0.004326571,0.113304,-0.649122416973114,-0.384004801511765,0.437484323978424,-0.716930938559026,-0.308475354130225,0.443814403124744,9
1.41999816894531,-0.336076736450195,2.49539995193481,1.45466208457947,-0.47914673136562,2.75965292774086,1.43947174182117,2116.227,3093.953,2982.203,872.4902,-0.07912198,-0.004166782,0.113626,-0.660961091518402,-0.385482966899872,0.441796243190765,-0.729391385793766,-0.313836736470737,0.451528013536465,9
1.44000244140625,-0.349539667367935,2.48765301704407,1.46365356445313,-0.493861275572861,2.75332167044526,1.4485807456364,2085.816,3048.65,2909.759,1036.543,-0.07975102,-0.003872769,0.113423,-0.673148334026337,-0.387351274490356,0.449572294950485,-0.741727567798258,-0.319144650954242,0.459164697851088,9
1.45999145507813,-0.363231480121613,2.4798698425293,1.47271716594696,-0.508809800712713,2.74688973769103,1.45783459479497,2138.594,3109.318,3010.833,819.954,-0.08165571,-0.003728958,0.1139303,-0.684590637683868,-0.389153778553009,0.453180104494095,-0.753924423002454,-0.324392617007921,0.466715132239272,9
1.47999572753906,-0.37716418504715,2.4720413684845,1.4819540977478,-0.524012471663969,2.74034845309416,1.46724577231745,2078.019,3033.345,2904.729,1082.239,-0.08188581,-0.003375823,0.1136258,-0.696637153625488,-0.39142918586731,0.461847305297852,-0.765994882555672,-0.329586198544069,0.474187321698441,9
1.5,-0.391317844390869,2.46417164802551,1.49124586582184,-0.539455198877605,2.73370387899399,1.4768055561018,2163.297,3126.021,3044.426,758.0232,-0.08398438,-0.003254383,0.1143365,-0.7076815366745,-0.393488019704819,0.46458637714386,-0.777924000354858,-0.334718964672088,0.481572013878822,9
1.52000427246094,-0.405711233615875,2.45624876022339,1.50073790550232,-0.555135099954955,2.72695725560613,1.48651216180595,2074.079,3018.632,2884.741,1138.692,-0.08373351,-0.002843723,0.1138724,-0.719667196273804,-0.396143019199371,0.47460350394249,-0.789706299681991,-0.339788558913217,0.48886581843107,9
1.53999328613281,-0.420315653085709,2.44828152656555,1.51025259494781,-0.571036956668503,2.72011513090874,1.49635616862212,2188.897,3149.075,3092.808,671.6354,-0.08623262,-0.002771818,0.1148903,-0.730224847793579,-0.398361355066299,0.475733637809753,-0.801327600455846,-0.344788879974649,0.496059957209413,9
1.55999755859375,-0.435161083936691,2.44025373458862,1.5200070142746,-0.587181951496087,2.71316839067337,1.50635068951315,2054.647,2989.529,2853.185,1237.5,-0.08520091,-0.002268481,0.114141,-0.742270350456238,-0.401385426521301,0.487723588943481,-0.812800388649436,-0.349725300221754,0.503162159625937,9
1.58000183105469,-0.450206190347672,2.43218064308167,1.52973937988281,-0.60355483331529,2.70612359703193,1.51648628330776,2229.86,3185.931,3154.503,540.2775,-0.08829391,-0.002282329,0.1155816,-0.752256512641907,-0.403651595115662,0.486619055271149,-0.824110582941666,-0.354591760855452,0.510163708672098,9
1.59999084472656,-0.465496599674225,2.42403960227966,1.53977108001709,-0.620139554045575,2.69898765502515,1.52675301547962,2027.391,2951.676,2792.02,1383.428,-0.08622676,-0.00166341,0.1143968,-0.764520764350891,-0.407055586576462,0.501584768295288,-0.835244706287931,-0.359382463079953,0.517056261415284,9
1.6199951171875,-0.480970948934555,2.41585540771484,1.54970467090607,-0.636958033083316,2.69175113334911,1.53716445517924,2277.629,3238.034,3250.298,348.0133,-0.09033815,-0.001812015,0.1164879,-0.773719847202301,-0.409213334321976,0.496677398681641,-0.846214826007804,-0.364102599125749,0.523847288101157,9
1.63999938964844,-0.496701002120972,2.40759420394897,1.56003320217133,-0.653994195024907,2.68442094880091,1.54771065096602,1975.126,2888.111,2689.113,1624.907,-0.08660227,-0.0009960223,0.1145627,-0.786498606204987,-0.413065135478973,0.51642644405365,-0.857007552155828,-0.368746407673381,0.530528499715628,9
1.66000366210938,-0.5125932097435,2.39929580688477,1.57014763355255,-0.671244443874359,2.67699864863716,1.55838937674714,2358.827,3327.123,3385.302,39.91653,-0.09243353,-0.001367799,0.1176583,-0.794613122940063,-0.414919793605804,0.50572258234024,-0.867618167158098,-0.373311858882592,0.53709697585572,9
1.67999267578125,-0.528759002685547,2.39090895652771,1.58079886436462,-0.688691692550512,2.66949158495151,1.56919005480539,1881.039,2789.757,2528.423,2004.806,-0.08625872,-0.0002402171,0.1146142,-0.808289706707001,-0.419341415166855,0.532564699649811,-0.878034183119987,-0.377793579561193,0.543544985919778,9
1.69999694824219,-0.545074224472046,2.38248300552368,1.59121108055115,-0.706358800111611,2.66188992212981,1.58012683598675,2139.277,3706.357,3262.677,0,-0.09193179,0.0004378986,0.1198318,-0.815762162208557,-0.421301960945129,0.520609378814697,-0.888267004546665,-0.382196476749158,0.549879589839776,9
1.72000122070313,-0.561659693717957,2.37397193908691,1.60213577747345,-0.724228658537036,2.6542010212754,1.5911891296115,1969.399,2584.595,2445.863,2206.037,-0.08485417,0.002559487,0.1163104,-0.82927268743515,-0.425548851490021,0.546234786510468,-0.898304216251578,-0.386515208538549,0.556093102023817,9
1.74000549316406,-0.578387677669525,2.36542987823486,1.61279034614563,-0.742297311768984,2.64642658456943,1.60237448669139,2205.306,3667.509,3242.578,0,-0.09042338,0.004079419,0.1205146,-0.836395561695099,-0.427097648382187,0.532728672027588,-0.908141534469281,-0.390747931744771,0.562182870617028,9
1.75999450683594,-0.595376372337341,2.35681557655334,1.62392830848694,-0.760546715064628,2.63857437616062,1.61367173667103,2067.923,2528.843,2488.208,2129.559,-0.08405948,0.00671892,0.1156265,-0.849437475204468,-0.430711597204208,0.556898713111877,-0.917767514700581,-0.394889722119545,0.568141810929231,9
1.77999877929688,-0.612501561641693,2.34817600250244,1.63482403755188,-0.779000609654483,2.63063418086074,1.62509557650306,2187.531,3712.227,3225.65,0,-0.09015866,0.008813226,0.118777,-0.856256783008575,-0.43197825551033,0.544787466526031,-0.927192788821983,-0.398945154262308,0.57397650459845,9
1.80000305175781,-0.629863798618317,2.33947396278381,1.64612257480621,-0.797640935141499,2.62261376955408,1.63663482594136,2143.598,2520.118,2635.412,1910.914,-0.08601104,0.01159502,0.1136235,-0.868113577365875,-0.43509715795517,0.564926862716675,-0.936405971974637,-0.402909329586356,0.579679903854719,9
1.81999206542969,-0.647355854511261,2.3307466506958,1.65720677375793,-0.816448984455027,2.61452119137054,1.64827790441807,2245.178,3574.892,3314.194,0,-0.09276642,0.01358908,0.1155284,-0.874606013298035,-0.436360985040665,0.554207265377045,-0.945396434568188,-0.406777674475912,0.585245428475252,9
1.83999633789063,-0.665064930915833,2.32195568084717,1.6686487197876,-0.835449117627072,2.60634596486888,1.66003989195343,2146.307,2579.386,2813.1,1668.596,-0.09022843,0.01598782,0.1107642,-0.885454654693604,-0.439550191164017,0.572098314762115,-0.954174163352093,-0.410554485950274,0.590679260733698,9
1.86000061035156,-0.682899475097656,2.31313014030457,1.67992103099823,-0.854622615239374,2.59809614449182,1.6719092003358,2259.113,3487.994,3392.604,0,-0.09682188,0.01749342,0.1125638,-0.891725182533264,-0.441273629665375,0.563614070415497,-0.962728579444532,-0.414235212212131,0.595974851798267,9
1.8800048828125,-0.700937628746033,2.30423045158386,1.69153487682343,-0.873964974649439,2.58977366760063,1.68388304221498,2131.49,2640.946,2913.493,1516.363,-0.09457844,0.01928253,0.1089333,-0.901908934116364,-0.444979012012482,0.580689668655396,-0.971056158224177,-0.417818336715394,0.601130019760457,9
1.89999389648438,-0.719096720218658,2.29528617858887,1.70299398899078,-0.893456683142228,2.58138692997148,1.69594933829086,2293.593,3395.351,3450.245,0,-0.1003756,0.02004751,0.1112401,-0.907957911491394,-0.447217434644699,0.572957158088684,-0.979147395688901,-0.421299770153459,0.606138881190213,9
1.91999816894531,-0.73745721578598,2.28625583648682,1.71482086181641,-0.913122862707269,2.57292512231409,1.70812364027167,2091.258,2686.262,2902.662,1521.251,-0.09687355,0.02121381,0.108529,-0.918019831180573,-0.451520413160324,0.591341614723206,-0.987011339258123,-0.424683405378145,0.611007036871143,9
1.94000244140625,-0.755933821201324,2.27717447280884,1.72649347782135,-0.932943991899774,2.5643966441608,1.72039386345315,2300.363,3411.248,3423.08,0,-0.1016113,0.02139158,0.1118105,-0.923834919929504,-0.454057902097702,0.58363139629364,-0.994638524886308,-0.427965170275055,0.615728628108227,9
1.95999145507813,-0.774612545967102,2.26800227165222,1.73855984210968,-0.952900013794853,2.55581012544606,1.73274759164336,2067.968,2695.193,2805.95,1631.292,-0.09657741,0.02218152,0.1096263,-0.933940827846527,-0.458618730306625,0.603321135044098,-1.00202031904361,-0.431141350077486,0.620298310335216,9
1.97999572753906,-0.793400526046753,2.25878262519836,1.75043904781342,-0.973016570682103,2.54715453300902,1.74520069864106,2303.606,3443.561,3381.543,0,-0.1007213,0.02203786,0.1135806,-0.939395487308502,-0.46098592877388,0.593959271907806,-1.00916501115878,-0.434215511495054,0.624721215103391,9
2,-0.812393963336945,2.24947500228882,1.76274275779724,-0.993273599084619,2.53843849960327,1.7577407641983,2047.338,2677.125,2689.939,1789.105,-0.09435047,0.02274377,0.1112011,-0.949672758579254,-0.465381652116776,0.615184903144836,-1.01606400046349,-0.437183953857422,0.628992018127441,9
2.02000427246094,-0.831489205360413,2.24012899398804,1.77483093738556,-1.01366615605493,2.52966415204104,1.77036472839513,2270.154,3540.976,3313.29,0,-0.09839315,0.0226774,0.1156149,-0.954766690731049,-0.467304855585098,0.604406714439392,-1.02271452148052,-0.440045487257004,0.633109007445237,9
2.03999328613281,-0.850788354873657,2.23070645332336,1.78733813762665,-1.03417354141348,2.52084039703127,1.78305977683431,2048.575,2630.788,2625.021,1899.583,-0.0916186,0.0235712,0.1128337,-0.964959144592285,-0.471129089593887,0.625357568264008,-1.02910913225408,-0.442796909628122,0.637067576131623,9
2.05999755859375,-0.870183050632477,2.22125816345215,1.79960298538208,-1.05482201812353,2.5119559343546,1.79584216754118,2261.003,3564.607,3297.714,0,-0.09584184,0.02371336,0.1170027,-0.969736218452454,-0.472416609525681,0.613239765167236,-1.03525504859546,-0.445441325732794,0.640872191117535,9
2.08000183105469,-0.889778196811676,2.21174740791321,1.81228220462799,-1.07559088172821,2.50301967256038,1.80869908347065,2062.587,2604.217,2613.785,1924.594,-0.08917648,0.0247936,0.1136284,-0.979755699634552,-0.475542187690735,0.633962273597717,-1.04114485287423,-0.447975543971863,0.644518260536375,9
2.09999084472656,-0.909463584423065,2.20222187042236,1.82471644878387,-1.09645901288412,2.49404069871208,1.82161745074311,2235.903,3601.719,3284.532,0,-0.09366124,0.02517201,0.1175113,-0.984269678592682,-0.476277470588684,0.621715307235718,-1.04677201701582,-0.450396755497224,0.648001743199023,9
2.1199951171875,-0.92933988571167,2.1926474571228,1.83753490447998,-1.11745308225396,2.48500753716864,1.83461377976925,2077.922,2582.209,2655.511,1883.977,-0.08755355,0.02637841,0.1138841,-0.993817329406738,-0.478720158338547,0.640923798084259,-1.0521429102862,-0.45270770082608,0.651326581984514,9
2.13999938964844,-0.949301838874817,2.18306756019592,1.85011208057404,-1.138551967509,2.47592927627801,1.8476749948214,2254.718,3554.272,3310.703,0,-0.09212726,0.02677145,0.117175,-0.998094260692596,-0.478981554508209,0.628858268260956,-1.05725102347782,-0.454905579228273,0.654488747383304,8
2.16000366210938,-0.969445466995239,2.17344903945923,1.86306059360504,-1.15975039167652,2.46680818657414,1.86079782920208,2087.256,2600.074,2697.936,1807.058,-0.0864739,0.02787484,0.1134246,-1.0071793794632,-0.480921894311905,0.647428095340729,-1.0620943502576,-0.456989527434725,0.657486997379635,8
2.17999267578125,-0.989668130874634,2.16383194923401,1.87577331066132,-1.18102676265167,2.45765355853653,1.8739689163698,2246.259,3536.871,3328.907,0,-0.09103803,0.02813706,0.1165448,-1.0111403465271,-0.480866104364395,0.635638654232025,-1.06666760390386,-0.458957270716794,0.660318059240953,7
2.19999694824219,-1.01006329059601,2.15418243408203,1.88884723186493,-1.20240821395574,2.44845371736898,1.88720505326679,2076.7,2610.728,2722.642,1770.416,-0.08543474,0.02907121,0.1129336,-1.01975107192993,-0.482467591762543,0.653693854808807,-1.07097597819164,-0.460811043810786,0.662985148161421,7
2.22000122070313,-1.03053057193756,2.14453959465027,1.90168583393097,-1.22387315175433,2.43921795429519,1.90049287228091,2254.119,3509.749,3336.531,0,-0.08975918,0.02910538,0.1160145,-1.02336394786835,-0.482146084308624,0.641931354999542,-1.07501419914593,-0.462548577472581,0.665484999299265,5
2.24000549316406,-1.0511622428894,2.1348705291748,1.91488790512085,-1.24541615591711,2.42994860144581,1.91382901809327,2064.372,2626.299,2708.22,1768.383,-0.08388744,0.02982819,0.1125161,-1.03158783912659,-0.483470410108566,0.660101711750031,-1.07878069424208,-0.464169195088763,0.667816639186824,5
2.25999450683594,-1.07185745239258,2.12521314620972,1.92784285545349,-1.26701526177039,2.4206551096063,1.92719989352455,2245.338,3511.182,3328.318,0,-0.08802014,0.02965253,0.1157583,-1.03475713729858,-0.482857406139374,0.647748947143555,-1.08227143928024,-0.465671165158559,0.669977576652695,4
2.27999877929688,-1.09271013736725,2.11553573608398,1.94116580486298,-1.28869796983554,2.41132564607061,1.9406225227075,2041.688,2623.719,2672.441,1815.2,-0.08163334,0.03024673,0.1122621,-1.042635679245,-0.483867198228836,0.666148364543915,-1.08549040888332,-0.467056197851165,0.67197027217779,3
2.30000305175781,-1.11361694335938,2.10587787628174,1.95422780513763,-1.31044231452835,2.40196966201596,1.95408330789913,2236.037,3529.268,3302.599,0,-0.08558068,0.02995982,0.11564,-1.04534459114075,-0.482895046472549,0.653100371360779,-1.08843358680109,-0.468322565086307,0.673792239511894,0
2.31999206542969,-1.13467407226563,2.09620809555054,1.96765983104706,-1.33222611841886,2.3925966997709,1.96756852021384,2031.55,2615.359,2624.385,1866.483,-0.07883809,0.03050316,0.1120035,-1.05285096168518,-0.483492344617844,0.671604454517365,-1.09109790637238,-0.469468947365361,0.675441580245663,0
2.33999633789063,-1.15577459335327,2.08656644821167,1.98080730438232,-1.35407709248145,2.38319483607731,1.98109531406483,2217.397,3546.688,3285.616,0,-0.08280141,0.03019448,0.1154163,-1.05502641201019,-0.48207876086235,0.657371401786804,-1.09348640563071,-0.470496651869278,0.67692017506657,0
2.36000061035156,-1.17701768875122,2.07692265510559,1.99432957172394,-1.37597305876702,2.37377361348711,1.99464996024512,2020.984,2597.576,2580.698,1923.53,-0.07575255,0.0307688,0.1114621,-1.06215536594391,-0.482206016778946,0.676115572452545,-1.09559602313537,-0.471404361345641,0.678226128796969,0
2.3800048828125,-1.19829380512238,2.06731557846069,2.00755262374878,-1.39790843013262,2.36433543599182,2.00822900004707,2191.75,3585.434,3254.102,0,-0.07982612,0.0305494,0.114876,-1.06380867958069,-0.480357676744461,0.66115128993988,-1.09742594550583,-0.472191725819537,0.679358937915576,0
2.39999389648438,-1.21970129013062,2.05771636962891,2.0211353302002,-1.41986083522252,2.35488992936084,2.02181858453579,2017.85,2572.41,2564.027,1950.333,-0.07284385,0.03120649,0.1106629,-1.07037806510925,-0.479964435100555,0.679135084152222,-1.09897439291323,-0.472857979480329,0.680317500623536,0
2.41999816894531,-1.24113154411316,2.04816293716431,2.03440356254578,-1.44185817738692,2.34542508756209,2.03543598721428,2187.504,3573.175,3252.715,0,-0.07703513,0.03103607,0.1137704,-1.0715035200119,-0.477674603462219,0.663411021232605,-1.10024313330221,-0.473403883025206,0.681102911362803,0
2.44000244140625,-1.26268148422241,2.0386266708374,2.0480260848999,-1.46387808506052,2.33595053645515,2.04906735901791,2016.716,2566.052,2558.246,1945.949,-0.07017323,0.03169902,0.1092507,-1.07750236988068,-0.476811319589615,0.681124269962311,-1.10123038958312,-0.473828671822132,0.681714070030222,0
2.45999145507813,-1.28424334526062,2.0291428565979,2.06133008003235,-1.48589810917879,2.32647593524532,2.06269880290633,2168.95,3587.672,3237.542,0,-0.07451685,0.03155306,0.1122137,-1.0780942440033,-0.47418150305748,0.665201663970947,-1.10193535162022,-0.474131997292339,0.68215047511319,0
2.47999572753906,-1.30591082572937,2.01968431472778,2.07496690750122,-1.50794623031618,2.31698924467309,2.07634764018804,2007.974,2555.869,2570.353,1931.126,-0.06791114,0.03219456,0.107626,-1.08337187767029,-0.472921460866928,0.681844234466553,-1.10235882472314,-0.474314205938057,0.682412625136718,0
2.5,-1.32757949829102,2.01028442382813,2.08828020095825,-1.52999999932945,2.30750012397766,2.08999997377396,2180.377,3550.636,3243.641,0,-0.07229044,0.031944,0.1102711,-1.08343470096588,-0.470002233982086,0.665661990642548,-1.10250000050292,-0.474374949932098,0.682500019669533,0
2.52000427246094,-1.34934067726135,2.00091505050659,2.10192131996155,-1.55205376834272,2.29801100328223,2.10365230735988,1997.402,2569.098,2570.135,1908.048,-0.06581843,0.03244396,0.1056172,-1.08805692195892,-0.468453496694565,0.682052910327911,-1.10235882472314,-0.474314205938057,0.682412625136718,0
2.53999328613281,-1.37109136581421,1.99160861968994,2.11523151397705,-1.57408507527774,2.28853154739156,2.11729073584934,2163.309,3549.341,3240.15,0,-0.07024354,0.03205876,0.1082726,-1.08753907680511,-0.46533140540123,0.665508985519409,-1.10193578218388,-0.474132182551855,0.682150741652607,0
2.55999755859375,-1.39292192459106,1.98233711719513,2.12886452674866,-1.59612191359838,2.27904971150017,2.13093258853001,1974.274,2567.407,2559.366,1921.637,-0.06364156,0.0324436,0.1036668,-1.09152436256409,-0.463572829961777,0.681647598743439,-1.10123038958312,-0.473828671822132,0.681714070030222,0
2.58000183105469,-1.41473078727722,1.97313189506531,2.14215779304504,-1.61814182127198,2.26957516039323,2.14456396033363,2160.031,3541.107,3229.16,0,-0.0679692,0.03192276,0.1063418,-1.09044456481934,-0.460263222455978,0.664667785167694,-1.10024313330221,-0.473403883025206,0.681102911362804,0
2.59999084472656,-1.43660771846771,1.96396589279175,2.15577483177185,-1.64012239440973,2.26011753383818,2.15817098218581,1958.601,2568.182,2528.892,1945.398,-0.06115257,0.03219601,0.1017126,-1.09384536743164,-0.458296060562134,0.680855631828308,-1.09897546783438,-0.47285844198887,0.680318166050934,0
2.6199951171875,-1.45845091342926,1.95487034320831,2.16903495788574,-1.66209156852628,2.2506648119635,2.17177094750084,2143.321,3546.535,3216.735,0,-0.06544985,0.0315827,0.1044723,-1.09216105937958,-0.454774796962738,0.66300368309021,-1.09742594550583,-0.472191725819537,0.679358937915576,0
2.63999938964844,-1.4803512096405,1.94581878185272,2.18262481689453,-1.68402693989188,2.24122663446822,2.18534998730279,1941.018,2557.676,2487.151,1994.352,-0.05829074,0.03181043,0.09969919,-1.09502387046814,-0.452577084302902,0.679499089717865,-1.09559602313537,-0.471404361345641,0.67822612879697,0
2.66000366210938,-1.50220620632172,1.93684244155884,2.19584393501282,-1.70592290617745,2.23180541187802,2.19890463348308,2123.829,3573.558,3185.44,0,-0.06262051,0.03119758,0.102547,-1.09275078773499,-0.448828995227814,0.660961806774139,-1.09348640563071,-0.470496651869278,0.67692017506657,0
2.67999267578125,-1.52410578727722,1.92791545391083,2.20938420295715,-1.72775723139253,2.2224107117184,2.21242112090437,1928.275,2538.149,2458.218,2033.172,-0.05536126,0.03144663,0.09761858,-1.09498393535614,-0.446344137191772,0.67701667547226,-1.09109983431736,-0.469469776906228,0.675442773735451,0
2.69999694824219,-1.54594838619232,1.9190685749054,2.22253727912903,-1.74955768413056,2.21303058593937,2.22591663964878,2118.113,3566.932,3175.126,0,-0.0597608,0.0308404,0.1003015,-1.09212422370911,-0.442336231470108,0.657653748989105,-1.08843358680109,-0.468322565086308,0.673792239511893,0
2.72000122070313,-1.5678231716156,1.91027736663818,2.23601031303406,-1.77130202882336,2.20367460188472,2.23937742484041,1919.918,2530.305,2436.458,2050.236,-0.05248132,0.03108271,0.09512306,-1.09373211860657,-0.439563423395157,0.673647940158844,-1.08549040888332,-0.467056197851165,0.671970272177789,0
2.74000549316406,-1.58962893486023,1.90157055854797,2.24908876419067,-1.79298473688851,2.19434513834902,2.25280005402337,2099.623,3585.013,3152.838,0,-0.05703905,0.03050048,0.09773828,-1.09029233455658,-0.435343474149704,0.653918564319611,-1.08227143928024,-0.465671165158559,0.669977576652695,0
2.75999450683594,-1.61145234107971,1.89292407035828,2.26247143745422,-1.81458384274179,2.18505164650952,2.26617092945464,1908.352,2518.364,2431.999,2054.925,-0.04994705,0.03074219,0.09247077,-1.09117102622986,-0.432321965694427,0.669137954711914,-1.07878069424208,-0.464169195088763,0.667816639186824,0
2.77999877929688,-1.63319551944733,1.88436579704285,2.2754487991333,-1.83612684690458,2.17578229366013,2.27950707526701,2099.389,3559.326,3156.65,0,-0.05460066,0.030114,0.09486376,-1.08715486526489,-0.427922576665878,0.648873209953308,-1.07501419914593,-0.462548577472581,0.665484999299265,0
2.80000305175781,-1.6549426317215,1.87587141990662,2.28872990608215,-1.85759178470316,2.16654653058634,2.29279489428112,1895.238,2521.25,2424.513,2051.253,-0.04754701,0.0302802,0.08948348,-1.08736455440521,-0.42472380399704,0.664053857326508,-1.07097597819164,-0.460811043810786,0.662985148161422,0
2.81999206542969,-1.67659831047058,1.86746692657471,2.301602602005,-1.87895695992541,2.1573536925621,2.30602095550813,2082.954,3569.099,3140.438,0,-0.05227306,0.02959725,0.09189562,-1.08278381824493,-0.420216023921967,0.643638730049133,-1.06667099276523,-0.458958728849171,0.660320157107579,0
2.83999633789063,-1.69824409484863,1.85912919044495,2.31476616859436,-1.90024960698239,2.14819206138118,2.31920211834584,1875.552,2515.08,2420.988,2056.836,-0.04525616,0.02970082,0.08658051,-1.08227753639221,-0.416883558034897,0.658176720142365,-1.06209435025759,-0.456989527434725,0.657486997379635,0
2.86000061035156,-1.71978712081909,1.8508837223053,2.32751417160034,-1.9214480311499,2.13907097167731,2.33232495272651,2093.143,3538.531,3138.342,0,-0.04994865,0.02889161,0.08884763,-1.07715928554535,-0.412271827459335,0.63739812374115,-1.05725102347782,-0.454905579228273,0.654488747383304,0
2.8800048828125,-1.74130749702454,1.84270715713501,2.34055495262146,-1.94254691640495,2.12999271078668,2.34538616777867,1858.524,2524.989,2401.7,2061.549,-0.04285878,0.02886522,0.08350775,-1.07601988315582,-0.4088294506073,0.652044594287872,-1.0521429102862,-0.45270770082608,0.651326581984514,0
2.89999389648438,-1.76271438598633,1.83462452888489,2.35317063331604,-1.96352501326936,2.1209664217661,2.35837260906308,2075.82,3545.641,3124.836,0,-0.0475843,0.02795198,0.08587348,-1.07034492492676,-0.40413373708725,0.630779802799225,-1.04677621342161,-0.450398561093403,0.648004340974112,0
2.91999816894531,-1.78408622741699,1.82661271095276,2.36607813835144,-1.98440911693069,2.11198057539494,2.37130086407726,1833.641,2518.506,2377.458,2094.772,-0.04029096,0.02785479,0.08055355,-1.06859230995178,-0.400588899850845,0.645374119281769,-1.04114485287423,-0.447975543971863,0.644518260536375,0
2.94000244140625,-1.8053343296051,1.81869697570801,2.37855005264282,-2.00517798053537,2.10304431360073,2.38415778000673,2071.588,3543.259,3108.082,0,-0.04497759,0.02686701,0.08294668,-1.06239807605743,-0.3957878947258,0.623598992824554,-1.03525504859546,-0.445441325732794,0.640872191117535,0
2.95999145507813,-1.82653546333313,1.8108549118042,2.39131546020508,-2.02581075424974,2.0941666074844,2.39693044981124,1818.496,2514.698,2345.501,2123.977,-0.03752447,0.02671142,0.07756163,-1.06006193161011,-0.392105221748352,0.638268649578094,-1.02911391720548,-0.442798968459032,0.637070538244476,0
2.97999572753906,-1.84760212898254,1.80311155319214,2.40363001823425,-2.04633384260397,2.08533609591429,2.40963521915279,2056.365,3548.083,3094.805,0,-0.04225531,0.02568918,0.07999005,-1.05333971977234,-0.387175440788269,0.615726590156555,-1.02271452148052,-0.440045487257004,0.633109007445237,0
3,-1.86861109733582,1.79544496536255,2.41624188423157,-2.06672639957428,2.07656174835205,2.42225918334961,1802.708,2503.977,2312.815,2162.124,-0.03460938,0.02551724,0.0744679,-1.05044114589691,-0.383336454629898,0.630595207214355,-1.01606400046349,-0.437183953857422,0.628992018127441,0
3.02000427246094,-1.88947558403015,1.78787922859192,2.42839288711548,-2.0869834279768,2.06784571494631,2.43479924890685,2041.033,3565.064,3069.874,0,-0.03942331,0.02451522,0.07692302,-1.04321730136871,-0.378272652626038,0.607556045055389,-1.00916501115878,-0.434215511495054,0.624721215103391,0
3.03999328613281,-1.91026949882507,1.7803943157196,2.44083309173584,-2.10708469520508,2.05919670122237,2.4472428908773,1789.061,2489.823,2294.183,2186.232,-0.03178376,0.02436201,0.07130315,-1.03970181941986,-0.37425822019577,0.62200927734375,-1.00202586176059,-0.431143734953757,0.620301741541063,0
3.05999755859375,-1.9309093952179,1.77301287651062,2.452800989151,-2.12705600675913,2.05060360379452,2.45960608409476,2038.24,3551.509,3063.94,0,-0.03667279,0.0233593,0.07360326,-1.03199076652527,-0.369059145450592,0.598397433757782,-0.994638524886308,-0.427965170275055,0.615728628108227,0
3.08000183105469,-1.95146656036377,1.7657151222229,2.46505784988403,-2.14687713595163,2.04207512564123,2.47187630727625,1777.641,2487.672,2279.06,2193.991,-0.02905029,0.02317973,0.06784423,-1.02787125110626,-0.364888995885849,0.612841784954071,-0.987011339258122,-0.424683405378145,0.611007036871143,0
3.09999084472656,-1.97186040878296,1.7585232257843,2.47683787345886,-2.16652837486666,2.03361974652815,2.48404136028297,2024.949,3559.697,3046.616,0,-0.0340597,0.02217058,0.07011498,-1.01968026161194,-0.359592646360397,0.589007258415222,-0.979153483542501,-0.421302389586788,0.606142649861596,0
3.1199951171875,-1.99215865135193,1.75141716003418,2.48889589309692,-2.18603502400946,2.02522658035469,2.49611690533293,1759.081,2481.638,2274.548,2200.276,-0.02653467,0.0219702,0.06436761,-1.01491558551788,-0.355304598808289,0.60289603471756,-0.971056158224178,-0.417818336715394,0.601130019760458,0
3.13999938964844,-2.01228404045105,1.74441862106323,2.50047135353088,-2.20537738341953,2.01690410346351,2.50809074721212,2031.53,3533.887,3044.024,0,-0.03158616,0.02089101,0.06648274,-1.00627160072327,-0.349935352802277,0.578768908977509,-0.962728579444533,-0.414235212212131,0.595974851798267,0
3.16000366210938,-2.03230237960815,1.73750722408295,2.51232481002808,-2.22455088103183,2.00865428308644,2.51996005559448,1742.823,2490.195,2261.92,2199.352,-0.02409788,0.02059961,0.06072396,-1.00090801715851,-0.345566779375076,0.59267657995224,-0.954174163352092,-0.410554485950274,0.590679260733698,0
3.17999267578125,-2.05213856697083,1.73070394992828,2.52368855476379,-2.24353658854737,2.00048526354177,2.53171311296128,2018.21,3532.735,3035.76,0,-0.02921754,0.01944296,0.06289089,-0.991807818412781,-0.340156763792038,0.56818300485611,-0.945403214201559,-0.406780591562751,0.585249625391267,0
3.19999694824219,-2.0718560218811,1.72398948669434,2.53533005714417,-2.2623590635174,1.99238647840124,2.54336512160655,1718.558,2487.63,2244.621,2221.814,-0.02160569,0.0190866,0.05718618,-0.985879719257355,-0.335735082626343,0.582078397274017,-0.936405971974636,-0.402909329586355,0.579679903854719,0
3.22000122070313,-2.09138345718384,1.71738386154175,2.54647469520569,-2.28099938900442,1.98436606709459,2.55490437104486,2015.238,3526.155,3022.698,0,-0.02669606,0.01786022,0.0593889,-0.976364612579346,-0.330278158187866,0.557227075099945,-0.927192788821982,-0.398945154262308,0.573976504598449,0
3.239990234375,-2.11078143119812,1.71086835861206,2.55789947509766,-2.2994392795179,1.97643189735754,2.5663195416865,1702.281,2486.712,2217.309,2245.08,-0.01894839,0.01743987,0.05368517,-0.969911396503448,-0.32577857375145,0.571242868900299,-0.917774783907129,-0.394892849856044,0.568146310914365,0
3.25999450683594,-2.12998151779175,1.70446300506592,2.5688145160675,-2.31770268688992,1.96857366338589,2.57762546085652,2004.869,3524.576,3011.58,0,-0.02406272,0.01616712,0.0559345,-0.959990382194519,-0.320253223180771,0.545749545097351,-0.90814153446928,-0.390747931744771,0.562182870617026,0
3.27999877929688,-2.14904236793518,1.69815015792847,2.5800154209137,-2.33577134012187,1.96079922667992,2.58881081793642,1685.203,2479.883,2185.926,2279.908,-0.01611852,0.01571397,0.05015447,-0.953045070171356,-0.315653026103973,0.560048162937164,-0.898304216251578,-0.386515208538549,0.556093102023818,0
3.30000305175781,-2.16789722442627,1.69194936752319,2.59069776535034,-2.35364119854729,1.95311032582551,2.59987311156116,1992.933,3537.18,2988.147,0,-0.0212957,0.01444471,0.05245489,-0.942743182182312,-0.31004124879837,0.534113466739655,-0.888267004546666,-0.382196476749158,0.549879589839776,0
3.31999206542969,-2.18660283088684,1.68584287166595,2.60166120529175,-2.37129490830989,1.94551442770222,2.61080159886703,1669.897,2469.229,2163.912,2306.404,-0.01332486,0.01400045,0.04661914,-0.935285270214081,-0.305316537618637,0.548172831535339,-0.878042061913513,-0.37779696958594,0.54354986326829,0
3.33999633789063,-2.20509505271912,1.67985081672668,2.61209464073181,-2.38875555478454,1.93800159931817,2.62161057080077,1990.607,3525.153,2980.664,0,-0.01858034,0.01273203,0.04881386,-0.924620985984802,-0.299615353345871,0.521676421165466,-0.867618167158097,-0.373311858882592,0.53709697585572,0
3.36000061035156,-2.22342824935913,1.67395520210266,2.62281107902527,-2.406005803634,1.93057929915441,2.6322892965819,1656.83,2467.375,2145.572,2319.703,-0.01060631,0.01226995,0.04287156,-0.916659593582153,-0.294775724411011,0.535826861858368,-0.857007552155826,-0.36874640767338,0.530528499715627,0
3.3800048828125,-2.24154138565063,1.66817498207092,2.6329927444458,-2.42304196557559,1.92324911460621,2.64283549236868,1978.931,3532.087,2963.824,0,-0.01598749,0.01100871,0.04505774,-0.905639350414276,-0.28900808095932,0.509081423282623,-0.846214826007803,-0.364102599125748,0.523847288101157,0
3.39999389648438,-2.25948452949524,1.66249322891235,2.64345049858093,-2.43984769972619,1.91601807669906,2.65323904237604,1639.976,2462.701,2135.258,2330.294,-0.00810826,0.01054198,0.03912624,-0.897159159183502,-0.284085124731064,0.522892415523529,-0.835253140422974,-0.35938609205264,0.51706148254665,0
3.41999816894531,-2.27720046043396,1.65692782402039,2.65336513519287,-2.45644516534361,1.90887665092339,2.66351366424015,1979.135,3511.453,2963.233,0,-0.01356561,0.009251964,0.04121649,-0.885806322097778,-0.278279900550842,0.495729029178619,-0.824110582941664,-0.354591760855451,0.510163708672097,0
3.44000244140625,-2.29473733901978,1.65146160125732,2.6635594367981,-2.47281804716281,1.90183185728196,2.67364925803476,1623.627,2466.265,2120.983,2337.874,-0.005669337,0.008735046,0.03526542,-0.876842200756073,-0.27330556511879,0.509717226028442,-0.812800388649434,-0.349725300221754,0.503162159625937,0
3.45999145507813,-2.31204104423523,1.64611172676086,2.67320680618286,-2.48895081463434,1.8948903781363,2.68363620960993,1968.789,3515.305,2948.54,0,-0.01119753,0.007416433,0.03741263,-0.865171909332275,-0.267481505870819,0.482367306947708,-0.80133641229185,-0.344792671461508,0.496065412155666,0
3.47999572753906,-2.32915568351746,1.64086246490479,2.68312978744507,-2.50486489870395,1.88804299234919,2.69348778574196,1603.038,2463.142,2107.64,2354.196,-0.003281015,0.006871745,0.03153554,-0.855738818645477,-0.262469232082367,0.496152967214584,-0.789706299681989,-0.339788558913217,0.488865818431069,0
3.5,-2.346031665802,1.63572978973389,2.6924991607666,-2.5205447997813,1.88129636896134,2.70319439144611,1974.59,3495.411,2941.94,0,-0.008826781,0.005499093,0.03362506,-0.843789398670197,-0.256627529859543,0.468466192483902,-0.777924000354857,-0.334718964672089,0.481572013878822,0
3.52000427246094,-2.36270999908447,1.63069844245911,2.70214819908142,-2.53598752699493,1.87465179486116,2.71275417523047,1586.761,2468.406,2086.935,2366.757,-0.0008649947,0.004892684,0.02774894,-0.833922863006592,-0.251573026180267,0.48244771361351,-0.765994882555673,-0.32958619854407,0.474187321698442,0
3.53999328613281,-2.37914419174194,1.62578415870667,2.71123552322388,-2.55117869390181,1.86811546013321,2.72215823120146,1964.982,3495.97,2930.01,0,-0.00648746,0.003482343,0.02989542,-0.82170432806015,-0.245714515447617,0.454370230436325,-0.753933682518821,-0.324396601119134,0.466720864320997,0
3.55999755859375,-2.39537262916565,1.62097191810608,2.72060394287109,-2.56613872308604,1.86167857751006,2.73141920191151,1566.353,2465.152,2066.181,2391.883,0.001556278,0.002847158,0.02404536,-0.811430037021637,-0.240621000528336,0.468422055244446,-0.741727567798258,-0.319144650954242,0.459164697851087,0
3.58000183105469,-2.41135239601135,1.61627721786499,2.72940349578857,-2.58085326729328,1.85534732021446,2.74052820572674,1962.749,3490.383,2917.473,0,-0.004112453,0.001416454,0.02620328,-0.798976361751556,-0.234740570187569,0.439983397722244,-0.729391385793765,-0.313836736470737,0.451528013536464,0
3.59999084472656,-2.42711877822876,1.61168503761292,2.73848628997803,-2.59530884290342,1.84912748987145,2.74947689564398,1552.048,2464.063,2043.988,2410.801,0.003959834,0.0007574873,0.02034643,-0.788316786289215,-0.229596897959709,0.454140394926071,-0.716940488958392,-0.308479463400265,0.4438203152769,0
3.6199951171875,-2.442631483078,1.60721111297607,2.74699068069458,-2.60952509409627,1.84301063413925,2.75827743234631,1955.409,3486.019,2909.105,0,-0.001798699,-0.0006780408,0.0225163,-0.775645971298218,-0.22369684278965,0.425219595432281,-0.704361775018033,-0.303067194200314,0.436033492140578,0
3.63999938964844,-2.45792388916016,1.60284101963043,2.75578212738037,-2.6234885835008,1.83700253474321,2.76692149746096,1537.217,2460.744,2022.978,2432.125,0.006319299,-0.001348092,0.01663196,-0.764621436595917,-0.218510374426842,0.439573049545288,-0.691670720740692,-0.297606588091786,0.428177124984152,0
3.66000366210938,-2.47295928001404,1.59858894348145,2.76399159431458,-2.63719712493647,1.83110413233575,2.77540773763803,1943.395,3492.063,2889.492,6.329621,0.0005002627,-0.002750513,0.01883914,-0.751756310462952,-0.212594777345657,0.410477519035339,-0.678873453515702,-0.29210028151913,0.420255006953505,0
3.67999267578125,-2.4877667427063,1.59444165229797,2.7724826335907,-2.65063849381582,1.82532068681534,2.78372858527554,1525.142,2455.794,2010.174,2443.289,0.008545404,-0.003399791,0.01298396,-0.740375518798828,-0.207368448376656,0.424555629491806,-0.665986083416798,-0.286555206197011,0.41227711095171,0
3.69999694824219,-2.5023136138916,1.59041285514832,2.78039741516113,-2.66383127580226,1.81964420129024,2.79189554578451,1921.03,3490.573,2860.275,41.8564,0.002866085,-0.004702077,0.01514578,-0.727350890636444,-0.201448440551758,0.395740896463394,-0.65299527533123,-0.280965624398954,0.404235181908735,0
3.72000122070313,-2.51662588119507,1.58648955821991,2.78857851028442,-2.6767633032417,1.81407991116207,2.79990108680742,1528.458,2456.244,2007.919,2422.4,0.01067762,-0.005303419,0.009354582,-0.715617775917053,-0.196170255541801,0.409058749675751,-0.639917282339434,-0.275338529371411,0.396139281255611,0
3.739990234375,-2.53067493438721,1.58268451690674,2.79619860649109,-2.68942333385363,1.80863265367006,2.80773824883709,1902.153,3476.376,2822.779,96.68565,0.005213538,-0.00648533,0.01131961,-0.702452898025513,-0.190250650048256,0.381006628274918,-0.62676873176137,-0.26968107538565,0.387999702095468,0
3.75999450683594,-2.54448199272156,1.57898569107056,2.80405783653259,-2.70182915057228,1.80329477731443,2.81541804035694,1533.556,2468.445,2022.641,2370.09,0.01255941,-0.007034474,0.005659851,-0.690356314182281,-0.184932470321655,0.392957389354706,-0.613536214864365,-0.263987493038594,0.379808143784027,0
3.77999877929688,-2.55802321434021,1.57540476322174,2.81138205528259,-2.7139695770734,1.79807109095524,2.82293354268985,1880.2,3448.491,2781.143,174.5005,0.007425117,-0.008091749,0.00731947,-0.677054941654205,-0.179044499993324,0.366212069988251,-0.60023651686137,-0.258265004538452,0.371574997167698,0
3.80000305175781,-2.57131505012512,1.57193028926849,2.81891059875488,-2.72584333814708,1.79296214327972,2.83028396642013,1545.638,2495.205,2048.507,2284.521,0.0140911,-0.008607336,0.001898254,-0.664589822292328,-0.173722013831139,0.376427739858627,-0.586876524285838,-0.252516572968186,0.363304525338741,0
3.81999206542969,-2.58433818817139,1.56857180595398,2.82593703269958,-2.73744054699573,1.78797218830065,2.83746319114912,1851.696,3409.98,2738.061,272.3576,0.009360558,-0.009549563,0.003234013,-0.651153206825256,-0.167915970087051,0.35131847858429,-0.573473482003301,-0.246749618311662,0.355007403690404,0
3.83999633789063,-2.59710502624512,1.56531882286072,2.83312773704529,-2.74877791451009,1.78309403578861,2.84448156171422,1555.316,2530.048,2084.128,2183.366,0.01529532,-0.01004172,-0.001830124,-0.638342142105103,-0.16264583170414,0.359535694122314,-0.560014026276881,-0.240958390526246,0.346675359432959,0
3.86000061035156,-2.60960078239441,1.56217968463898,2.83985614776611,-2.75984563331209,1.77833190558438,2.85133300688122,1824.77,3362.796,2690.918,382.9101,0.01110032,-0.010887,-0.0008186557,-0.624783277511597,-0.156964585185051,0.336421370506287,-0.546515580872635,-0.235150386571708,0.338319178707605,0
3.8800048828125,-2.62183427810669,1.55914425849915,2.84670686721802,-2.77064299647982,1.77368610185671,2.85801708903178,1569.059,2572.797,2119.971,2070.122,0.01627486,-0.0113733,-0.005442969,-0.611670017242432,-0.151778995990753,0.342540055513382,-0.532985466132484,-0.229328756186666,0.329943393154704,0
3.89999389648438,-2.63379430770874,1.55621910095215,2.85313677787781,-2.78116151864576,1.76916027562219,2.86452855531919,1796.067,3310.184,2641.812,503.4792,0.01268208,-0.01213656,-0.00474522,-0.598011255264282,-0.146249532699585,0.32149076461792,-0.519441457145543,-0.223501147495394,0.321559006401168,0
3.91999816894531,-2.6454873085022,1.55339598655701,2.8596465587616,-2.79141684911929,1.7647476934202,2.87087709341145,1581.244,2617.882,2155.386,1957.149,0.01714627,-0.01261539,-0.008900284,-0.584653854370117,-0.141167059540749,0.325487315654755,-0.505870408491346,-0.2176619043907,0.313157880805522,0
