t,x_s1,x_s2,x_s3,x_s_d1,x_s_d2,x_s_d3,propellers_rpms1,propellers_rpms2,propellers_rpms3,propellers_rpms4,rollRad,pitchRad,yawRad,v_s1,v_s2,v_s3,v_s_d1,v_s_d2,v_s_d3,insideCount
0,-0.0599999986588955,2.94000005722046,1.17999994754791,-0.0599999986588955,2.94000005722046,1.17999994754791,0,0,0,0,0,0,0,0,0,0,-1.06581410364015E-15,4.44089209850063E-16,4.44089209850063E-16,0
0.0200042724609375,-0.0599999986588955,2.94000005722046,1.1771354675293,-0.0600018701838461,2.93999925195556,1.18000110611101,0,0,0,0,0.0163538,-0.002474609,-2.024222E-05,3.71994488546079E-08,3.50004931704007E-08,-0.143225952982903,-0.000280105751305916,-0.000120521679537258,0.00017339880334547,5
0.0399932861328125,-0.0599999986588955,2.94000005722046,1.17048275470734,-0.060014863945674,2.93999366110285,1.18000914986856,0,0,0,0,0.03270752,-0.004950816,-5.430172E-05,3.62924410524101E-08,3.44428769949445E-08,-0.332637369632721,-0.00111059898697896,-0.000477859717552347,0.000687513678106196,6
0.05999755859375,-0.0600004345178604,2.94013237953186,1.16416537761688,-0.0600498857373401,2.93997859220429,1.18003083002592,3185.182,2835.672,1501.344,2767.742,0.03128216,-0.00494336,-0.01646952,-2.17777997022495E-05,0.00662205973640084,-0.315866738557816,-0.00247936261166862,-0.00106680046642749,0.00153484356504269,6
0.0800018310546875,-0.0599162131547928,2.9403874874115,1.15857708454132,-0.0601175574246769,2.93994947496775,1.18007272202403,3066.065,3067.351,2154.765,2023.927,0.01897811,-0.004311125,-0.04351445,0.00421100296080112,0.0127505138516426,-0.279414087533951,-0.00437268608126799,-0.00188144466206175,0.00270690098422899,6
0.100006103515625,-0.0596375465393066,2.94068741798401,1.15374851226807,-0.0602282404704493,2.93990185114529,1.18014124010193,2640.412,3831.792,2620.119,1134.785,-0.00585203,-0.002888997,-0.07014553,0.0139334248378873,0.0149990078061819,-0.241430014371872,-0.00677739276378709,-0.00291612276782231,0.00419552897277328,6
0.1199951171875,-0.0590848848223686,2.94089865684509,1.14957022666931,-0.0603918861403606,2.93983143898525,1.18024254456713,2092.144,4102,3169.368,755.9529,-0.04012052,-0.0004511395,-0.08993655,0.0276331454515457,0.0105631183832884,-0.208911597728729,-0.00967801353495435,-0.00416417885169243,0.00599115140585487,5
0.139999389648438,-0.0582314655184746,2.94085597991943,1.14596664905548,-0.0606185767455666,2.93973390035084,1.18038287685052,1509.82,4074.808,3736.101,702.1599,-0.07649291,0.002388631,-0.09949782,0.0426709204912186,-0.00212864298373461,-0.180180862545967,-0.0130660253322238,-0.00562194567796536,0.00808849210174802,4
0.160003662109375,-0.0570994280278683,2.94039463996887,1.14297807216644,-0.0609177895434042,2.93960515744296,1.18056810382587,1135.5,3846.896,4069.747,879.8394,-0.1062777,0.004335342,-0.09870101,0.0566018968820572,-0.0230679474771023,-0.149430781602859,-0.0169265510445065,-0.00728302204135792,0.0104783414199936,4
0.17999267578125,-0.0557376928627491,2.93938779830933,1.14071130752563,-0.0612985250199726,2.93944133760391,1.18080379722281,1101.06,3565.41,4009.875,1148.807,-0.1236298,0.004491817,-0.09000047,0.0680867731571198,-0.0503394827246666,-0.11334003508091,-0.0212433804254414,-0.00914043312572283,0.0131506644458931,3
0.199996948242188,-0.054196435958147,2.93777704238892,1.13924849033356,-0.0617704296168641,2.93923829023936,1.18109592864822,1372.789,3339.654,3595.068,1386.597,-0.1278738,0.003022869,-0.07724819,0.0770627856254578,-0.0805345773696899,-0.0731382369995117,-0.0260104776919234,-0.0111915819022102,0.0161017247421801,3
0.220001220703125,-0.0525141879916191,2.93557596206665,1.1385840177536,-0.0623420644491781,2.93899233174064,1.18144979784016,1791.279,3212.742,3016.703,1527.051,-0.122972,0.0008608057,-0.06426101,0.0841125249862671,-0.110050901770592,-0.0332254394888878,-0.03121219533433,-0.0134297356845702,0.019321835755004,3
0.240005493164063,-0.0507195070385933,2.93284702301025,1.13860714435577,-0.0630219993990999,2.93869977472688,1.18187070996396,2159.386,3168.774,2517.156,1558.232,-0.1149655,-0.0009880328,-0.05362222,0.0897341221570969,-0.136451736092567,0.00115440040826797,-0.0368361158647881,-0.0158495515746756,0.0228033104678445,3
0.259994506835938,-0.0488371625542641,2.92966485023499,1.13913798332214,-0.0638179029240226,2.93835731967507,1.18236341216003,2351.914,3159.025,2273.849,1495.926,-0.1090548,-0.001904693,-0.04623727,0.0941172763705254,-0.159105867147446,0.02654086984694,-0.0428651747123285,-0.0184436871643672,0.0265355850983733,3
0.279998779296875,-0.0468916222453117,2.92608761787415,1.13999593257904,-0.0647390625194898,2.93796097043536,1.18293365383054,2351.911,3152.214,2324.76,1363.847,-0.1078175,-0.001744371,-0.04152134,0.0972770377993584,-0.178859412670135,0.0429000034928322,-0.0492963837173861,-0.0212108567320638,0.030516809833474,3
0.300003051757813,-0.0449086017906666,2.92214369773865,1.14106202125549,-0.0657927507678135,2.93750759781875,1.18358593705038,2229.798,3143.8,2572.474,1194.488,-0.1110858,-0.000737163,-0.03798733,0.0991510525345802,-0.197191253304482,0.0533048734068871,-0.0561132031658829,-0.0241439437008635,0.0347367458022363,3
0.319992065429688,-0.0429167523980141,2.91783547401428,1.142294049263,-0.0669855955880233,2.93699435001684,1.18432436481717,2074.202,3133.069,2873.096,1032.022,-0.1169335,0.0006859004,-0.03397927,0.0995924770832062,-0.215405881404877,0.0616018623113632,-0.0632980253096114,-0.0272353719486164,0.0391844929697465,3
0.339996337890625,-0.040948748588562,2.91315102577209,1.14370715618134,-0.068326768706371,2.93641728069206,1.18515461486636,1954.493,3107.055,3109.736,922.1723,-0.1228415,0.002070007,-0.02837279,0.09840027987957,-0.234222531318665,0.0706573128700256,-0.0708499516420146,-0.0304847548730522,0.0438594951176439,3
0.360000610351563,-0.0390399843454361,2.90807723999023,1.14534342288971,-0.0698225328270578,2.93577369517774,1.1860805641102,1905.274,3065.472,3221.855,880.8794,-0.126702,0.00309234,-0.02087226,0.0954382419586182,-0.253693282604218,0.0818127021193504,-0.0787518717320621,-0.0338847303337087,0.0487511600740379,3
0.3800048828125,-0.0372254773974419,2.90261030197144,1.14724361896515,-0.0714797725314022,2.93506063123087,1.18710647443246,1924.144,3021.797,3206.961,895.2914,-0.1274205,0.003641866,-0.01188462,0.0907252281904221,-0.273341298103333,0.0950083062052727,-0.0869921272359981,-0.0374302820709642,0.0538522707687797,3
0.399993896484375,-0.0355370119214058,2.89676141738892,1.14943170547485,-0.0733036822025899,2.9342758538535,1.18823556140379,1991.102,2988.908,3098.734,939.658,-0.1250445,0.003790666,-0.002209891,0.08442322909832,-0.292449682950974,0.10940358042717,-0.0955525119207663,-0.0411135764513579,0.0591515566763244,3
0.419998168945313,-0.0340016856789589,2.89055490493774,1.1519056558609,-0.0753034649285836,2.93341540321397,1.18947352217404,2071.422,2974.436,2954.21,986.7979,-0.1205064,0.003708411,0.007339199,0.076766349375248,-0.310321986675262,0.12369691580534,-0.104434660908044,-0.0449353170220673,0.0646500300148815,3
0.44000244140625,-0.032642275094986,2.88402462005615,1.15464174747467,-0.077483988232608,2.93247718495301,1.19082336997196,2137.145,2972.524,2824.69,1023.39,-0.1150725,0.003564308,0.01614687,0.0679710134863853,-0.326508790254593,0.136806964874268,-0.113620829717891,-0.048887868829098,0.0703367061060819,4
0.460006713867188,-0.0314780920743942,2.8772075176239,1.15760159492493,-0.0798512213598696,2.93145863067119,1.19228880004469,2168.575,2978.548,2748.927,1037.921,-0.1098735,0.003474696,0.02394644,0.0582091733813286,-0.340849757194519,0.147992610931396,-0.123099793815011,-0.0529664022684887,0.0762046364278779,4
0.479995727539063,-0.0305264368653297,2.87013840675354,1.16074788570404,-0.0824088828700873,2.93035814037613,1.19387211435783,2168.064,2983.511,2732.34,1033.819,-0.1055464,0.003481757,0.03074675,0.0475824549794197,-0.353460073471069,0.157316714525223,-0.132852887402757,-0.0571628859694044,0.0822422659629699,4
0.5,-0.0298032648861408,2.86284685134888,1.16405165195465,-0.085166398670376,2.92917165836334,1.1955791479969,2145.871,2989.654,2764.089,1008.682,-0.1022734,0.003569687,0.03680092,0.0361586958169937,-0.364580810070038,0.165188759565353,-0.142884000065179,-0.0614789935111996,0.0884520025491718,4
0.520004272460938,-0.0293240509927273,2.8553569316864,1.16749918460846,-0.088127196023106,2.92789770997757,1.19741202260058,2117.468,2991.883,2815.955,979.0168,-0.09982912,0.003686576,0.04240715,0.0239606946706772,-0.374498307704926,0.172379419207573,-0.153174893518032,-0.065906877469682,0.0948225558197254,4
0.539993286132813,-0.0291037447750568,2.84768843650818,1.17108559608459,-0.091293865515634,2.92653518056143,1.19937234186584,2089.617,2993.288,2871.189,948.8362,-0.09783282,0.003776299,0.04786342,0.011015216819942,-0.383424192667007,0.179322451353073,-0.163706645289342,-0.0704383960337938,0.101342211863077,4
0.55999755859375,-0.0291572399437428,2.83985829353333,1.17481577396393,-0.094676112580471,2.92507989413848,1.20146611391775,2069.436,2987.775,2909.285,936.4968,-0.09578325,0.003796206,0.05329702,-0.00267467647790909,-0.391504406929016,0.18651071190834,-0.17448465888317,-0.0750758741803766,0.108014315705644,5
0.580001831054688,-0.0294986963272095,2.83188271522522,1.17869853973389,-0.0982762614093182,2.92353085067394,1.20369477754168,2064.891,2985.919,2921.195,930.8906,-0.09337948,0.003717304,0.05873591,-0.0170729774981737,-0.398783266544342,0.194137334823608,-0.185490414529404,-0.0798113433697334,0.11482740272751,5
0.600006103515625,-0.0301409102976322,2.82377815246582,1.18273937702179,-0.102098762959148,2.92188613504538,1.20606108809202,2067.024,2985.361,2912.496,936.9622,-0.0905054,0.003537553,0.06411484,-0.0321105942130089,-0.405232071876526,0.202043622732162,-0.196713446836865,-0.0846403006364086,0.121774994352997,5
0.6199951171875,-0.0310952179133892,2.8155620098114,1.18694221973419,-0.106144683970236,2.92014528826426,1.20856570593183,2074.195,2985.845,2886.591,953.8026,-0.08718017,0.003272028,0.06928828,-0.0477155409753323,-0.410807490348816,0.210140079259872,-0.208134604141382,-0.0895545055543457,0.128845234789665,5
0.639999389648438,-0.0323708541691303,2.80725288391113,1.19130420684814,-0.110424235525481,2.91830391678686,1.21121495220784,2081.937,2991.844,2857.212,967.4925,-0.08360621,0.002941591,0.07415286,-0.0637818872928619,-0.415455162525177,0.218099474906921,-0.219761081350814,-0.0945570538913933,0.136042578028218,5
0.660003662109375,-0.0339755080640316,2.79886937141418,1.19582271575928,-0.114938248900541,2.91636166293851,1.21400934151928,2088.55,2998.283,2825.006,985.3387,-0.07999017,0.002568113,0.07859178,-0.080232709646225,-0.419173151254654,0.22592556476593,-0.231574097577923,-0.0996398647564507,0.143355397804799,5
0.67999267578125,-0.0359145291149616,2.79043006896973,1.20048701763153,-0.119686638739014,2.91431856344567,1.21694882102647,2088.762,3009.307,2807.647,990.0829,-0.07662021,0.002167256,0.08261728,-0.0969504192471504,-0.421969354152679,0.233214735984802,-0.243554411173546,-0.104794659005432,0.150771782621969,6
0.699996948242188,-0.0381924100220203,2.7819516658783,1.20529067516327,-0.124680083855354,2.91217002351282,1.22004000142426,2081.193,3012.825,2797.693,1004.316,-0.07353627,0.001760606,0.08619335,-0.113894246518612,-0.423922121524811,0.240181401371956,-0.255710395848158,-0.11002503961202,0.158296916205407,6
0.720001220703125,-0.0408122651278973,2.77344942092896,1.21022665500641,-0.129918284978346,2.90991617190799,1.22328269744952,2076.79,3022.697,2797.087,1000.223,-0.07087044,0.00134518,0.08940242,-0.130993038415909,-0.425109088420868,0.246797978878021,-0.268023157655716,-0.11532287703907,0.16591910230247,6
0.740005493164063,-0.0437763892114162,2.76493692398071,1.21528935432434,-0.13540428105644,2.90755570105657,1.22667879035609,2066.04,3026.834,2803.689,1001.729,-0.06858705,0.0009273083,0.09230114,-0.148206204175949,-0.425629168748856,0.253133207559586,-0.280482990349159,-0.120683994959631,0.173632332283853,6
0.759994506835938,-0.047086525708437,2.75642538070679,1.22047591209412,-0.14113644597991,2.90508931062815,1.2302272735046,2056.951,3029.895,2812.053,1001.502,-0.06660513,0.0005074118,0.09494309,-0.165507465600967,-0.425577372312546,0.259328424930573,-0.293070637251543,-0.126100107763583,0.181424685349205,6
0.779998779296875,-0.0507438071072102,2.7479248046875,1.22578406333923,-0.147126184485884,2.90251209348295,1.23393520697061,2049.077,3032.354,2821.313,999.8412,-0.06484211,8.411407E-05,0.09738159,-0.182863846421242,-0.425030887126923,0.265406012535095,-0.305795832832518,-0.131575403921268,0.189302187598958,6
0.800003051757813,-0.054749246686697,2.73944354057312,1.23121654987335,-0.153371683173492,2.89982482987671,1.2378014681726,2046.465,3034.562,2820.566,1003.553,-0.06320587,-0.0003435478,0.0996135,-0.200271844863892,-0.42406439781189,0.271625399589539,-0.318639638509124,-0.13710173468952,0.197253115148089,6
0.819992065429688,-0.0591024570167065,2.73098921775818,1.23676931858063,-0.159870162197751,2.89702871589906,1.2418243362541,2044.059,3039.702,2823.909,999.076,-0.06174273,-0.0007803062,0.1016949,-0.217660784721375,-0.422716975212097,0.277639806270599,-0.33158286215529,-0.142670842232658,0.205265587156312,6
0.839996337890625,-0.0638033300638199,2.72256827354431,1.24244463443756,-0.166633637018892,2.89411858163313,1.24601124935738,2039.182,3037.732,2818.576,1013.654,-0.06031261,-0.001209075,0.1035545,-0.235044091939926,-0.421046853065491,0.283763140439987,-0.344636106234817,-0.148287288494656,0.213346167053785,6
0.860000610351563,-0.068850502371788,2.714186668396,1.24824011325836,-0.173659158941841,2.89109569582005,1.2503603820997,2043.433,3045.493,2813.518,1008.403,-0.05905133,-0.00164104,0.1052335,-0.252357929944992,-0.419081032276154,0.289775460958481,-0.357780475378537,-0.153942943326036,0.221483157706883,6
0.8800048828125,-0.074242115020752,2.70584940910339,1.25415420532227,-0.180948461186242,2.88795931270381,1.25487280742661,2040.403,3047.131,2807.843,1017.449,-0.05794399,-0.002061287,0.106701,-0.26958155632019,-0.416866600513458,0.295706391334534,-0.371007022483504,-0.159633957038354,0.229671020432672,6
0.899993896484375,-0.0799756199121475,2.69756054878235,1.26018345355988,-0.18849723509595,2.8847112861788,1.25954585807468,2039.657,3051.176,2805.772,1018.246,-0.0570497,-0.002468218,0.1079726,-0.286674916744232,-0.414442658424377,0.301463931798935,-0.384296738353309,-0.165352150505452,0.237897987633041,7
0.919998168945313,-0.0860479772090912,2.68932342529297,1.26632511615753,-0.196318384305134,2.8813460641717,1.26438752200817,2036.389,3052.812,2806.304,1021.786,-0.05635675,-0.002852778,0.1090501,-0.303618520498276,-0.411856144666672,0.30708521604538,-0.397661187980262,-0.171102499820431,0.246171218589148,7
0.94000244140625,-0.0924560725688934,2.68114018440247,1.27257931232452,-0.204407453948074,2.87786556348678,1.26939504145298,2037.676,3056.841,2803.983,1021.694,-0.05589123,-0.003217099,0.1099451,-0.32040411233902,-0.409158378839493,0.312709718942642,-0.411081631631503,-0.176876941799768,0.254479112513653,7
0.959991455078125,-0.099195659160614,2.67301225662231,1.27894032001495,-0.212759000778906,2.87427212620069,1.27456504678061,2035.388,3060.496,2811.011,1015.881,-0.05571013,-0.003561712,0.1107173,-0.336979568004608,-0.406391769647598,0.31805232167244,-0.424539267042903,-0.182667386354485,0.262810029909387,7
0.979995727539063,-0.106263175606728,2.66493988037109,1.28540909290314,-0.22138664033507,2.87055989392801,1.27990596665734,2030.224,3057.875,2814.532,1023.903,-0.05567285,-0.003871171,0.1113339,-0.353376239538193,-0.403613418340683,0.323438793420792,-0.438046240701377,-0.188479059778567,0.271171490030365,7
1,-0.113654434680939,2.65692281723022,1.29198431968689,-0.230284798736574,2.86673126495361,1.28541435058594,2034.464,3063.05,2819.191,1013.408,-0.05585927,-0.004160923,0.111856,-0.369562774896622,-0.400857955217361,0.328759700059891,-0.451584000205995,-0.194303979492187,0.279552008056641,7
1.02000427246094,-0.12136521935463,2.64895939826965,1.29866504669189,-0.239454009753966,2.86278600961093,1.2910905289958,2031.977,3062.686,2824.408,1014.996,-0.05620761,-0.004421913,0.112285,-0.385538637638092,-0.398169100284576,0.334037780761719,-0.465144357597929,-0.200138622445408,0.287946515251652,7
1.03999328613281,-0.129391193389893,2.64104771614075,1.30545079708099,-0.248887339851819,2.85872711120656,1.2969302096982,2032.466,3063.305,2829.865,1012.734,-0.05669444,-0.004654673,0.1126335,-0.401300042867661,-0.395578801631927,0.339289337396622,-0.478708875293167,-0.205975055460915,0.29634359787259,7
1.05999755859375,-0.137728005647659,2.63318538665771,1.31234049797058,-0.258599401509697,2.85454828239877,1.30294243851408,2032.394,3063.188,2837.002,1010.321,-0.05728779,-0.004858671,0.1129145,-0.416839718818665,-0.393111795186996,0.344487488269806,-0.492290296490434,-0.211818761581115,0.30475114456651,7
1.08000183105469,-0.146371632814407,2.62536931037903,1.31933808326721,-0.268583149539609,2.85025255453512,1.30912285413647,2037.171,3064.718,2835.606,1010.611,-0.05796263,-0.005033907,0.1131107,-0.432183086872101,-0.390798389911652,0.349882245063782,-0.50587040849135,-0.217661904390701,0.313157880805523,7
1.10000610351563,-0.15531699359417,2.61759638786316,1.32643806934357,-0.278838480013141,2.84583997233313,1.31547139222872,2039.709,3068.265,2845.428,999.1505,-0.05882177,-0.005190501,0.1132902,-0.447267532348633,-0.388645648956299,0.355001747608185,-0.519441457145546,-0.223501147495394,0.321559006401169,7
1.1199951171875,-0.164560407400131,2.60986256599426,1.33364629745483,-0.289357002179081,2.84131414609862,1.32198285851614,2038.523,3064.114,2843.693,1012.389,-0.0596873,-0.005306082,0.1133665,-0.462169289588928,-0.386693090200424,0.360409438610077,-0.532985466132485,-0.229328756186667,0.329943393154705,8
1.13999938964844,-0.174096196889877,2.60216403007507,1.34095430374146,-0.300154365346813,2.83666834237095,1.3286669406667,2043.88,3069.58,2859.813,990.292,-0.0607467,-0.005404619,0.1134622,-0.476791262626648,-0.384925663471222,0.365399450063705,-0.546515580872639,-0.235150386571708,0.338319178707607,8
1.16000366210938,-0.183921754360199,2.59449601173401,1.34837520122528,-0.311222084148811,2.83190621216671,1.33551838583369,2044.735,3064.32,2849.77,1012.243,-0.06173047,-0.005457882,0.1134273,-0.491276919841766,-0.383399277925491,0.371043652296066,-0.560014026276883,-0.240958390526247,0.34667535943296,8
1.17999267578125,-0.194030344486237,2.5868546962738,1.35589289665222,-0.322550701230474,2.8270318247214,1.34253133946411,2054.137,3075.718,2873.947,971.688,-0.06304501,-0.005512211,0.1134961,-0.505430519580841,-0.382069706916809,0.375882536172867,-0.573463232144024,-0.246745208083563,0.355001058539242,8
1.19999694824219,-0.204420238733292,2.57923436164856,1.363525390625,-0.334156660511822,2.8220381046756,1.34971598112778,2044.375,3060.443,2862.506,1017.029,-0.06411773,-0.00549996,0.1133933,-0.519494891166687,-0.381018906831741,0.381622523069382,-0.58687652428584,-0.252516572968185,0.36330452533874,8
1.22000122070313,-0.215084582567215,2.57163095474243,1.37125492095947,-0.346030421585499,2.81692915700008,1.35706640485806,2064.378,3078.756,2888.933,956.9875,-0.06556756,-0.005503688,0.113442,-0.533218085765839,-0.380170702934265,0.386478334665298,-0.600236516861372,-0.258265004538453,0.371574997167698,8
1.24000549316406,-0.226022332906723,2.56403851509094,1.3791036605835,-0.358170848086624,2.8117054706409,1.36458190719098,2052.602,3061.452,2871.75,1012.962,-0.06672443,-0.005439773,0.1133085,-0.546888291835785,-0.379627108573914,0.392434746026993,-0.613536214864368,-0.263987493038594,0.379808143784027,8
1.25999450683594,-0.237225949764252,2.55645298957825,1.38704609870911,-0.3705671011502,2.80637170925886,1.37225577835275,2071.769,3081.097,2908.84,941.4365,-0.06831594,-0.005399826,0.1133905,-0.560178101062775,-0.379277795553207,0.397119581699371,-0.626758665639206,-0.269676744214496,0.387993470686331,8
1.27999877929688,-0.248695805668831,2.54886794090271,1.39511346817017,-0.383236695417198,2.80092033679326,1.3800988607405,2055.77,3056.816,2883.532,1018.321,-0.06941529,-0.005274657,0.1132252,-0.573494493961334,-0.37925723195076,0.403369963169098,-0.639917282339435,-0.275338529371412,0.396139281255613,8
1.30000305175781,-0.260423511266708,2.54127979278564,1.4032735824585,-0.396168722856641,2.79535604666509,1.38810440176341,2086.213,3086.404,2926.68,918.8522,-0.07107924,-0.005200088,0.1133577,-0.586387693881989,-0.379402309656143,0.408004879951477,-0.652995275331231,-0.280965624398954,0.404235181908735,8
1.31999206542969,-0.272411286830902,2.53368186950684,1.41156697273254,-0.409351342777246,2.78968393359302,1.39626507146953,2063.911,3055.6,2888.174,1022.985,-0.07211734,-0.005028048,0.1131743,-0.599385917186737,-0.379900276660919,0.414670556783676,-0.665976209205206,-0.286550957599616,0.412270998344359,8
1.33999633789063,-0.284648478031158,2.52607178688049,1.41994452476501,-0.422802873722428,2.78389611561957,1.40459220990988,2095.647,3090.804,2953.208,893.1545,-0.07389047,-0.00492738,0.1134086,-0.61186021566391,-0.380508452653885,0.418876439332962,-0.678873453515705,-0.29210028151913,0.420255006953505,8
1.36000061035156,-0.297140926122665,2.51844143867493,1.428471326828,-0.436511415158101,2.77799771321212,1.41307845008695,2068.349,3048.142,2886.001,1045.801,-0.07468409,-0.004694088,0.1131454,-0.62462317943573,-0.381519734859467,0.426338821649551,-0.691670720740693,-0.297606588091785,0.42817712498415,9
1.3800048828125,-0.309874206781387,2.51079058647156,1.43706953525543,-0.450474904562636,2.77198961381608,1.4217225152016,2117.275,3105.253,2981.262,843.2691,-0.07668839,-0.004593953,0.1135429,-0.636665105819702,-0.382542937994003,0.42990854382515,-0.704361775018035,-0.303067194200314,0.436033492140578,9
1.39999389648438,-0.322858989238739,2.50310945510864,1.44583511352539,-0.464680216184654,2.76587746507559,1.43051627978847,2063.975,3034.984,2880.545,1086.884,-0.07716935,-0.004294081,0.1131757,-0.649239122867584,-0.384051144123077,0.438281089067459,-0.716930938559026,-0.308475354130225,0.443814403124744,9
1.41999816894531,-0.336075484752655,2.49540090560913,1.45465171337128,-0.47914673136562,2.75965292774086,1.43947174182117,2137.577,3120.084,3022.021,781.0385,-0.07942345,-0.004201403,0.1137885,-0.660824477672577,-0.385427802801132,0.440829515457153,-0.729391385793766,-0.313836736470737,0.451528013536465,9
1.44000244140625,-0.349542021751404,2.48765254020691,1.46366691589355,-0.493861275572861,2.75332167044526,1.4485807456364,2059.254,3017.169,2860.775,1148.63,-0.07937392,-0.003822701,0.1132339,-0.673325002193451,-0.387423783540726,0.450757950544357,-0.741727567798258,-0.319144650954242,0.459164697851088,9
1.45999145507813,-0.363229811191559,2.47987103462219,1.47270178794861,-0.508809800712713,2.74688973769103,1.45783459479497,2170.489,3148.206,3070.017,683.8145,-0.08210206,-0.003777428,0.1141753,-0.684388816356659,-0.389070123434067,0.45174315571785,-0.753924423002454,-0.324392617007921,0.466715132239272,9
1.47999572753906,-0.377167880535126,2.4720401763916,1.48197412490845,-0.524012471663969,2.74034845309416,1.46724577231745,2037.927,2986.721,2831.482,1249.738,-0.08131749,-0.003296993,0.1133482,-0.696906864643097,-0.391542881727219,0.463618725538254,-0.765994882555672,-0.329586198544069,0.474187321698441,9
1.5,-0.391315579414368,2.46417284011841,1.49122297763824,-0.539455198877605,2.73370387899399,1.4768055561018,2211.07,3184.085,3132.653,554.7515,-0.08464591,-0.003321494,0.1147092,-0.707384169101715,-0.393361628055573,0.462443768978119,-0.777924000354858,-0.334718964672088,0.481572013878822,9
1.52000427246094,-0.405717223882675,2.4562463760376,1.50076818466187,-0.555135099954955,2.72695725560613,1.48651216180595,2013.31,2949.392,2774.711,1390.002,-0.08287171,-0.002716957,0.113466,-0.720083057880402,-0.39632174372673,0.477261811494827,-0.789706299681991,-0.339788558913217,0.48886581843107,9
1.53999328613281,-0.420312970876694,2.44828295707703,1.51021873950958,-0.571036956668503,2.72011513090874,1.49635616862212,2260.476,3236.258,3224.632,367.2698,-0.08721267,-0.0028613,0.1154629,-0.729789555072784,-0.39817214012146,0.472530633211136,-0.801327600455846,-0.344788879974649,0.496059957209413,9
1.55999755859375,-0.43517142534256,2.4402494430542,1.52005350589752,-0.587181951496087,2.71316839067337,1.50635068951315,1961.858,2886.708,2686.863,1616.345,-0.08388265,-0.002059689,0.1135503,-0.742920696735382,-0.401668667793274,0.491735994815826,-0.812800388649436,-0.349725300221754,0.503162159625937,9
1.58000183105469,-0.450203955173492,2.43218231201172,1.52968978881836,-0.60355483331529,2.70612359703193,1.51648628330776,2336.99,3317.659,3351.996,83.20271,-0.0897416,-0.002392051,0.1164744,-0.75162661075592,-0.403372883796692,0.48181489109993,-0.824110582941666,-0.354591760855452,0.510163708672098,9
1.60000610351563,-0.465515047311783,2.42403221130371,1.53984344005585,-0.620152298932711,2.69898217125626,1.52676090517188,1884.689,2798.813,2538.82,1957.699,-0.08418678,-0.001307079,0.1135495,-0.765555918216705,-0.407509744167328,0.507680237293243,-0.835253140422976,-0.35938609205264,0.51706148254665,9
1.6199951171875,-0.48098611831665,2.41584491729736,1.54975914955139,-0.636958033083316,2.69175113334911,1.53716445517924,2172.68,3640.888,3276.138,0,-0.09024281,-0.000819721,0.1183828,-0.773552060127258,-0.409349650144577,0.495785385370255,-0.846214826007804,-0.364102599125749,0.523847288101157,9
1.63999938964844,-0.496735721826553,2.40757417678833,1.56019353866577,-0.653994195024907,2.68442094880091,1.54771065096602,1937.997,2613.413,2453.698,2183.6,-0.08355135,0.001133963,0.1149087,-0.787479996681213,-0.413545787334442,0.521718740463257,-0.857007552155828,-0.368746407673381,0.530528499715628,9
1.66000366210938,-0.51263815164566,2.39927077293396,1.57036709785461,-0.671244443874359,2.67699864863716,1.55838937674714,2189.817,3671.747,3237.109,0,-0.0893906,0.002503443,0.1192575,-0.795124888420105,-0.415175199508667,0.508676707744598,-0.867618167158098,-0.373311858882592,0.53709697585572,9
1.67999267578125,-0.528810679912567,2.39089226722717,1.58102965354919,-0.688691692550512,2.66949158495151,1.56919005480539,2043.254,2538.984,2477.947,2138.459,-0.0832126,0.005037068,0.114643,-0.808626115322113,-0.418923020362854,0.533130466938019,-0.878034183119987,-0.377793579561193,0.543544985919778,9
1.69999694824219,-0.545129776000977,2.38248562812805,1.59144747257233,-0.706358800111611,2.66188992212981,1.58012683598675,2190.934,3691.156,3229.091,0,-0.0894886,0.006994345,0.1179416,-0.815958857536316,-0.420331984758377,0.520892858505249,-0.888267004546665,-0.382196476749158,0.549879589839776,9
1.72000122070313,-0.561699092388153,2.3740119934082,1.60228908061981,-0.724228658537036,2.6542010212754,1.5911891296115,2119.422,2525.897,2605.708,1949.343,-0.08518334,0.009721042,0.1128766,-0.828462064266205,-0.423687130212784,0.542080819606781,-0.898304216251578,-0.386515208538549,0.556093102023817,9
1.74000549316406,-0.57840895652771,2.36550903320313,1.61291670799255,-0.742297311768984,2.64642658456943,1.60237448669139,2228.635,3600.65,3294.033,0,-0.09206175,0.01171343,0.1150818,-0.83549028635025,-0.42514580488205,0.531380832195282,-0.908141534469281,-0.390747931744771,0.562182870617028,9
1.75999450683594,-0.595348656177521,2.35693764686584,1.62391686439514,-0.760546715064628,2.63857437616062,1.61367173667103,2138.155,2570.036,2774.837,1717.369,-0.08944599,0.0141717,0.1103427,-0.846986770629883,-0.428571879863739,0.550007462501526,-0.917767514700581,-0.394889722119545,0.568141810929231,9
1.77999877929688,-0.612424194812775,2.34832835197449,1.63474023342133,-0.779000609654483,2.63063418086074,1.62509557650306,2250.825,3498.702,3383.042,0,-0.09627327,0.01576377,0.1122604,-0.85377824306488,-0.430461794137955,0.541170299053192,-0.927192788821983,-0.398945154262308,0.57397650459845,9
1.80000305175781,-0.629717111587524,2.33964014053345,1.64592301845551,-0.797640935141499,2.62261376955408,1.63663482594136,2128.358,2628.441,2883.199,1560.335,-0.09401704,0.01768192,0.108458,-0.864649534225464,-0.434406369924545,0.559141933917999,-0.936405971974637,-0.402909329586356,0.579679903854719,9
1.81999206542969,-0.64714241027832,2.33090281486511,1.65695440769196,-0.816448984455027,2.61452119137054,1.64827790441807,2276.342,3430.233,3429.806,0,-0.1001295,0.01864321,0.1108542,-0.871259272098541,-0.436867147684097,0.551572263240814,-0.945396434568188,-0.406777674475912,0.585245428475252,9
1.83999633789063,-0.664780080318451,2.32207465171814,1.66835463047028,-0.835449117627072,2.60634596486888,1.66003989195343,2098.931,2669.188,2898.595,1533.989,-0.09698381,0.01999149,0.1080379,-0.881884157657623,-0.441404402256012,0.570009887218475,-0.954174163352093,-0.410554485950274,0.590679260733698,9
1.86000061035156,-0.682546079158783,2.31319046020508,1.67960643768311,-0.854622615239374,2.59809614449182,1.6719092003358,2306.267,3403.032,3427.303,0,-0.1021003,0.02033633,0.1111426,-0.888307332992554,-0.444214969873428,0.562589287757874,-0.962728579444532,-0.414235212212131,0.595974851798267,9
1.8800048828125,-0.700525641441345,2.30420827865601,1.69125497341156,-0.873964974649439,2.58977366760063,1.68388304221498,2075.666,2694.135,2825.563,1608.265,-0.09757289,0.02124629,0.1088681,-0.898976743221283,-0.449103325605392,0.582428336143494,-0.971056158224177,-0.417818336715394,0.601130019760457,9
1.89999389648438,-0.718627572059631,2.295170545578,1.70273351669312,-0.893456683142228,2.58138692997148,1.69594933829086,2304.73,3442.475,3387.206,0,-0.102071,0.02122591,0.1127239,-0.905101239681244,-0.451891481876373,0.57392954826355,-0.979147395688901,-0.421299770153459,0.606138881190213,9
1.91999816894531,-0.73694521188736,2.28603601455688,1.71463000774384,-0.913122862707269,2.57292512231409,1.70812364027167,2051.881,2680.27,2731.797,1744.021,-0.09629245,0.02199431,0.1104923,-0.915880560874939,-0.456730723381042,0.594823956489563,-0.987011339258123,-0.424683405378145,0.611007036871143,9
1.94000244140625,-0.755379438400269,2.27685260772705,1.72633111476898,-0.932943991899774,2.5643966441608,1.72039386345315,2293.721,3502.908,3337.197,0,-0.1005269,0.02192529,0.1147481,-0.921712040901184,-0.459175288677216,0.585055887699127,-0.994638524886308,-0.427965170275055,0.615728628108227,9
1.95999145507813,-0.774029791355133,2.26758050918579,1.7384569644928,-0.952900013794853,2.55581012544606,1.73274759164336,2051.833,2653.161,2660.79,1846.721,-0.09417523,0.02276901,0.1122029,-0.932513773441315,-0.463598996400833,0.60629266500473,-1.00202031904361,-0.431141350077486,0.620298310335216,9
1.97999572753906,-0.792790651321411,2.25827074050903,1.75036096572876,-0.973016570682103,2.54715453300902,1.74520069864106,2271.544,3547.918,3315.168,0,-0.09850713,0.02284941,0.1164772,-0.938042819499969,-0.465505659580231,0.595199227333069,-1.00916501115878,-0.434215511495054,0.624721215103391,9
2,-0.811765909194946,2.24888396263123,1.76268970966339,-0.993273599084619,2.53843849960327,1.7577407641983,2060.635,2621.571,2633.715,1900.597,-0.09201808,0.0238702,0.113442,-0.948770046234131,-0.469339400529861,0.616439640522003,-1.01606400046349,-0.437183953857422,0.628992018127441,9
2.02000427246094,-0.830847203731537,2.23946952819824,1.77478897571564,-1.01366615605493,2.52966415204104,1.77036472839513,2249.902,3588.144,3297.846,0,-0.09652095,0.02418235,0.117532,-0.954060673713684,-0.470717072486877,0.604961454868317,-1.02271452148052,-0.440045487257004,0.633109007445237,9
2.03999328613281,-0.850136339664459,2.22999143600464,1.78729093074799,-1.03417354141348,2.52084039703127,1.78305977683431,2078.346,2596.145,2655.737,1885.101,-0.09039035,0.02535813,0.1141762,-0.964458763599396,-0.473899781703949,0.625099241733551,-1.02910913225408,-0.442796909628122,0.637067576131623,9
2.05999755859375,-0.8695268034935,2.22049593925476,1.79956066608429,-1.05482201812353,2.5119559343546,1.79584216754118,2255.059,3562.128,3318.831,0,-0.09497365,0.02576185,0.1177832,-0.969520449638367,-0.474778026342392,0.61348694562912,-1.03525504859546,-0.445441325732794,0.640872191117535,9
2.08000183105469,-0.889118134975433,2.21094751358032,1.81222355365753,-1.07559088172821,2.50301967256038,1.80869908347065,2092.347,2600.077,2688.27,1831.291,-0.08915517,0.0269256,0.1141902,-0.97956258058548,-0.477421432733536,0.633141756057739,-1.04114485287423,-0.447975543971863,0.644518260536375,9
2.10000610351563,-0.908805191516876,2.2013885974884,1.82466185092926,-1.09647498538954,2.49403382618922,1.82162733848484,2248.189,3559.51,3324.105,0,-0.09375073,0.02730216,0.1175788,-0.984363615512848,-0.477940171957016,0.621915221214294,-1.04677621342161,-0.450398561093403,0.648004340974112,9
2.1199951171875,-0.928683638572693,2.19178557395935,1.83747434616089,-1.11745308225396,2.48500753716864,1.83461377976925,2093.929,2604.91,2719.537,1784.212,-0.08819643,0.02836732,0.1140434,-0.993920147418976,-0.480155527591705,0.640626609325409,-1.0521429102862,-0.45270770082608,0.651326581984514,9
2.13999938964844,-0.948651611804962,2.18217873573303,1.85005986690521,-1.138551967509,2.47592927627801,1.8476749948214,2260.025,3516.662,3347.117,0,-0.09265297,0.02856213,0.1172112,-0.998395621776581,-0.480347990989685,0.629275977611542,-1.05725102347782,-0.454905579228273,0.654488747383304,8
2.16000366210938,-0.968803524971008,2.17253351211548,1.86302304267883,-1.15975039167652,2.46680818657414,1.86079782920208,2084.772,2622.431,2720.355,1765.406,-0.08693037,0.02943652,0.1136937,-1.00759708881378,-0.482249021530151,0.648159146308899,-1.0620943502576,-0.456989527434725,0.657486997379635,8
2.17999267578125,-0.989037334918976,2.16289019584656,1.8757575750351,-1.18102676265167,2.45765355853653,1.8739689163698,2247.165,3530.503,3333.87,0,-0.09121913,0.02946112,0.1170121,-1.01169168949127,-0.482172280550003,0.636728167533875,-1.06666760390386,-0.458957270716794,0.660318059240953,7
2.19999694824219,-1.00944674015045,2.15321516990662,1.88886117935181,-1.20240821395574,2.44845371736898,1.88720505326679,2068.034,2620.103,2707.285,1783.74,-0.08523234,0.03020421,0.1136144,-1.02046537399292,-0.48374205827713,0.655178487300873,-1.07097597819164,-0.460811043810786,0.662985148161421,7
2.22000122070313,-1.02992963790894,2.1435489654541,1.90172433853149,-1.22387315175433,2.43921795429519,1.90049287228091,2259.003,3510.638,3328.149,0,-0.08932243,0.03004065,0.1168887,-1.02414929866791,-0.483317375183105,0.643156051635742,-1.07501419914593,-0.462548577472581,0.665484999299265,7
2.24000549316406,-1.05058133602142,2.13385844230652,1.91496253013611,-1.24541615591711,2.42994860144581,1.91382901809327,2054.699,2627.969,2671.998,1811.955,-0.08300221,0.03064739,0.1133965,-1.03258574008942,-0.48452439904213,0.661907553672791,-1.07878069424208,-0.464169195088763,0.667816639186824,5
2.25999450683594,-1.07129693031311,2.12418365478516,1.92794406414032,-1.26701526177039,2.4206551096063,1.92719989352455,2236.088,3537.589,3308.04,0,-0.08705767,0.03039616,0.1168229,-1.03578305244446,-0.483725190162659,0.649078726768494,-1.08227143928024,-0.465671165158559,0.669977576652695,4
2.27999877929688,-1.09217357635498,2.11449360847473,1.94129872322083,-1.28869796983554,2.41132564607061,1.9406225227075,2037.269,2612.895,2638.493,1863.49,-0.08041042,0.03098155,0.1132075,-1.04382824897766,-0.484513223171234,0.667733728885651,-1.08549040888332,-0.467056197851165,0.67197027217779,3
2.30000305175781,-1.1131044626236,2.1048276424408,1.95438170433044,-1.31044231452835,2.40196966201596,1.95408330789913,2227.928,3549.261,3288.309,0,-0.08442434,0.03071233,0.1166047,-1.04654979705811,-0.483293861150742,0.654148995876312,-1.08843358680109,-0.468322565086307,0.673792239511894,0
2.31999206542969,-1.13418769836426,2.0951554775238,1.96783542633057,-1.33222611841886,2.3925966997709,1.96756852021384,2032.584,2602.528,2606.792,1895.185,-0.07764339,0.0312998,0.1127552,-1.05416417121887,-0.483611077070236,0.672688543796539,-1.09109790637238,-0.469468947365361,0.675441580245663,0
2.33999633789063,-1.15531492233276,2.08551645278931,1.98099899291992,-1.35407709248145,2.38319483607731,1.98109531406483,2207.225,3563.114,3277.762,0,-0.08173934,0.03105744,0.116086,-1.05635523796082,-0.481955766677856,0.65817666053772,-1.09348640563071,-0.470496651869278,0.67692017506657,0
2.36000061035156,-1.17658483982086,2.07588028907776,1.99453234672546,-1.37597305876702,2.37377361348711,1.99464996024512,2026.74,2586.686,2581.783,1926.007,-0.07484708,0.0316809,0.1119493,-1.06350517272949,-0.481807619333267,0.676667213439941,-1.09559602313537,-0.471404361345641,0.678226128796969,0
2.3800048828125,-1.19788837432861,2.06628513336182,2.00776505470276,-1.39790843013262,2.36433543599182,2.00822900004707,2188.192,3585.478,3256.289,0,-0.07905114,0.03150398,0.1151962,-1.06517386436462,-0.479760199785233,0.661639034748077,-1.09742594550583,-0.472191725819537,0.679358937915576,0
2.39999389648438,-1.21932256221771,2.05670213699341,2.02135181427002,-1.41986083522252,2.35488992936084,2.02181858453579,2023.253,2569.223,2576.293,1933.557,-0.07228831,0.03216596,0.1108639,-1.07171070575714,-0.479151219129562,0.679336309432983,-1.09897439291323,-0.472857979480329,0.680317500623536,0
2.41999816894531,-1.24077939987183,2.04716753959656,2.03462624549866,-1.44185817738692,2.34542508756209,2.03543598721428,2185.783,3567.42,3258.409,0,-0.07656428,0.03198692,0.1138302,-1.07284164428711,-0.476730197668076,0.663721024990082,-1.10024313330221,-0.473403883025206,0.681102911362803,0
2.44000244140625,-1.26235496997833,2.03765296936035,2.04824995994568,-1.46387808506052,2.33595053645515,2.04906735901791,2019.148,2568.197,2571.429,1924.996,-0.06988294,0.03260736,0.1092826,-1.0787798166275,-0.475730687379837,0.681190848350525,-1.10123038958312,-0.473828671822132,0.681714070030222,0
2.45999145507813,-1.28394198417664,2.0281925201416,2.06155729293823,-1.48589810917879,2.32647593524532,2.06269880290633,2169.946,3577.74,3243.905,0,-0.07425798,0.03239998,0.1121615,-1.0793594121933,-0.47302770614624,0.665367126464844,-1.10193535162022,-0.474131997292339,0.68215047511319,0
2.47999572753906,-1.30563354492188,2.01875853538513,2.07519602775574,-1.50794623031618,2.31698924467309,2.07634764018804,2006.111,2560.764,2576.392,1918.618,-0.06771833,0.03296784,0.1075927,-1.08458733558655,-0.471699714660645,0.681940853595734,-1.10235882472314,-0.474314205938057,0.682412625136718,0
2.5,-1.32732605934143,2.00938367843628,2.08851170539856,-1.52999999932945,2.30750012397766,2.08999997377396,2179.672,3546.144,3245.546,0,-0.07209017,0.03263584,0.1102372,-1.0846198797226,-0.468744665384293,0.665779054164886,-1.10250000050292,-0.474374949932098,0.682500019669533,0
2.52000427246094,-1.34911036491394,2.00004053115845,2.10215592384338,-1.55205376834272,2.29801100328223,2.10365230735988,1993.226,2572.008,2566.973,1909.066,-0.06558353,0.03306348,0.1056126,-1.08921027183533,-0.467163413763046,0.682209491729736,-1.10235882472314,-0.474314205938057,0.682412625136718,0
2.53999328613281,-1.37088334560394,1.99076008796692,2.1154670715332,-1.57408507527774,2.28853154739156,2.11729073584934,2162.083,3549.16,3237.994,0,-0.0699916,0.03260637,0.1083023,-1.08864915370941,-0.464014500379562,0.665561020374298,-1.10193578218388,-0.474132182551855,0.682150741652607,0
2.55999755859375,-1.39273571968079,1.98151564598083,2.12910318374634,-1.59612191359838,2.27904971150017,2.13093258853001,1969.972,2567.412,2549.757,1932.582,-0.06330813,0.03293937,0.1036919,-1.09261810779572,-0.462228208780289,0.681804478168488,-1.10123038958312,-0.473828671822132,0.681714070030222,0
2.58000183105469,-1.41456544399261,1.9723379611969,2.14239621162415,-1.61814182127198,2.26957516039323,2.14456396033363,2156.844,3546.391,3223.687,0,-0.06763896,0.03237685,0.1064048,-1.09148716926575,-0.458887219429016,0.664653182029724,-1.10024313330221,-0.473403883025206,0.681102911362804,0
2.59999084472656,-1.43646264076233,1.96320033073425,2.15601420402527,-1.64012239440973,2.26011753383818,2.15817098218581,1955.984,2565.022,2518.282,1959.233,-0.06076428,0.03262719,0.101734,-1.09486830234528,-0.456882804632187,0.680903911590576,-1.09897546783438,-0.47285844198887,0.680318166050934,0
2.6199951171875,-1.45832538604736,1.95413374900818,2.16927146911621,-1.66209156852628,2.2506648119635,2.17177094750084,2139.938,3552.386,3211.416,0,-0.06509937,0.03200157,0.1044983,-1.09312963485718,-0.453325480222702,0.662868797779083,-1.09742594550583,-0.472191725819537,0.679358937915576,0
2.63999938964844,-1.48024451732635,1.94511198997498,2.18285870552063,-1.68402693989188,2.24122663446822,2.18534998730279,1940.261,2553.415,2480.35,2004.035,-0.0579408,0.03222591,0.09965841,-1.0959575176239,-0.451085656881332,0.679356396198273,-1.09559602313537,-0.471404361345641,0.67822612879697,0
2.66000366210938,-1.50211703777313,1.93616580963135,2.19607257843018,-1.70592290617745,2.23180541187802,2.19890463348308,2120.541,3578.022,3182.055,0,-0.06233075,0.03161816,0.1024781,-1.09363055229187,-0.447308510541916,0.66069769859314,-1.09348640563071,-0.470496651869278,0.67692017506657,0
2.67999267578125,-1.52403330802917,1.92726993560791,2.20960593223572,-1.72775723139253,2.2224107117184,2.21242112090437,1928.993,2534.61,2457.047,2035.265,-0.05513276,0.0318685,0.09748849,-1.09580767154694,-0.444792091846466,0.676669359207153,-1.09109983431736,-0.469469776906228,0.675442773735451,0
2.69999694824219,-1.54589116573334,1.91845440864563,2.22275114059448,-1.74955768413056,2.21303058593937,2.22591663964878,2116.271,3567.496,3174.749,0,-0.05959675,0.0312652,0.1001219,-1.09289562702179,-0.440774083137512,0.657262027263641,-1.08843358680109,-0.468322565086308,0.673792239511893,0
2.72000122070313,-1.56777989864349,1.90969455242157,2.23621416091919,-1.77130202882336,2.20367460188472,2.23937742484041,1920.769,2528.904,2439.47,2046.083,-0.05240409,0.03149956,0.09490573,-1.09443366527557,-0.437994778156281,0.673153936862946,-1.08549040888332,-0.467056197851165,0.671970272177789,0
2.74000549316406,-1.58959853649139,1.90101885795593,2.24928307533264,-1.79298473688851,2.19434513834902,2.25280005402337,2098.713,3583.193,3154.264,0,-0.05701242,0.03090749,0.09747857,-1.09094274044037,-0.433790117502213,0.653445541858673,-1.08227143928024,-0.465671165158559,0.669977576652695,0
2.75999450683594,-1.61143350601196,1.89240312576294,2.26265478134155,-1.81458384274179,2.18505164650952,2.26617092945464,1908.441,2518.795,2436.241,2048.647,-0.04999606,0.03112809,0.0922055,-1.09174823760986,-0.4307921230793,0.668581247329712,-1.07878069424208,-0.464169195088763,0.667816639186824,0
2.77999877929688,-1.63318729400635,1.88387441635132,2.27562189102173,-1.83612684690458,2.17578229366013,2.27950707526701,2099.503,3556.097,3158.657,0,-0.05467629,0.03047489,0.09457628,-1.08768272399902,-0.426430195569992,0.648357570171356,-1.07501419914593,-0.462548577472581,0.665484999299265,0
2.80000305175781,-1.6549437046051,1.87540876865387,2.28889203071594,-1.85759178470316,2.16654653058634,2.29279489428112,1894.278,2522.741,2427.252,2046.737,-0.047661,0.03060998,0.08921178,-1.08782732486725,-0.423278838396072,0.663508355617523,-1.07097597819164,-0.460811043810786,0.662985148161422,0
2.81999206542969,-1.67660784721375,1.867032289505,2.30175447463989,-1.87895695992541,2.1573536925621,2.30602095550813,2083.228,3566.795,3141.496,0,-0.05239343,0.02989424,0.09162716,-1.08319997787476,-0.418821454048157,0.643123865127563,-1.06667099276523,-0.458958728849171,0.660320157107579,0
2.83999633789063,-1.69826066493988,1.85872137546539,2.31490802764893,-1.90024960698239,2.14819206138118,2.31920211834584,1874.029,2516.402,2420.847,2056.249,-0.045376,0.0299658,0.08633383,-1.08264148235321,-0.415548175573349,0.657682478427887,-1.06209435025759,-0.456989527434725,0.657486997379635,0
2.86000061035156,-1.71981024742126,1.850501537323,2.32764601707458,-1.9214480311499,2.13907097167731,2.33232495272651,2093.279,3537.987,3137.931,0,-0.05006743,0.02912591,0.08861983,-1.07747995853424,-0.410989612340927,0.636904120445251,-1.05725102347782,-0.454905579228273,0.654488747383304,0
2.8800048828125,-1.74133622646332,1.84234941005707,2.3406777381897,-1.94254691640495,2.12999271078668,2.34538616777867,1856.961,2525.386,2399.534,2064.299,-0.04295785,0.02907383,0.08329459,-1.07629942893982,-0.407606691122055,0.651590526103973,-1.0521429102862,-0.45270770082608,0.651326581984514,0
2.89999389648438,-1.76274800300598,1.83429026603699,2.35328388214111,-1.96352501326936,2.1209664217661,2.35837260906308,2075.699,3546.456,3123.586,0,-0.04768496,0.02813876,0.08568022,-1.07058548927307,-0.402960389852524,0.630303561687469,-1.04677621342161,-0.450398561093403,0.648004340974112,0
2.91999816894531,-1.78412389755249,1.82630097866058,2.36618256568909,-1.98440911693069,2.11198057539494,2.37130086407726,1832.657,2518.111,2374.857,2098.511,-0.04037459,0.02802506,0.08036353,-1.06879854202271,-0.399469494819641,0.644935429096222,-1.04114485287423,-0.447975543971863,0.644518260536375,0
2.94000244140625,-1.80537509918213,1.81840670108795,2.37864542007446,-2.00517798053537,2.10304431360073,2.38415778000673,2071.266,3544.7,3106.727,0,-0.04507027,0.02702553,0.08276937,-1.06256985664368,-0.394713342189789,0.623137295246124,-1.03525504859546,-0.445441325732794,0.640872191117535,0
2.95999145507813,-1.82657933235168,1.81058490276337,2.39140176773071,-2.02581075424974,2.0941666074844,2.39693044981124,1818.178,2513.966,2343.997,2126.557,-0.03761715,0.02686059,0.07738159,-1.06020128726959,-0.391079902648926,0.637822508811951,-1.02911391720548,-0.442798968459032,0.637070538244476,0
2.97999572753906,-1.84764814376831,1.80286121368408,2.4037070274353,-2.04633384260397,2.08533609591429,2.40963521915279,2056.084,3548.903,3094.361,0,-0.0423629,0.02583297,0.07981326,-1.05344915390015,-0.386193126440048,0.615269124507904,-1.02271452148052,-0.440045487257004,0.633109007445237,0
3,-1.86865878105164,1.79521298408508,2.41630983352661,-2.06672639957428,2.07656174835205,2.42225918334961,1802.772,2503.436,2312.808,2162.874,-0.03472815,0.02565472,0.07428797,-1.05051958560944,-0.382402807474136,0.630145013332367,-1.01606400046349,-0.437183953857422,0.628992018127441,0
3.02000427246094,-1.88952422142029,1.78766536712646,2.42845225334167,-2.0869834279768,2.06784571494631,2.43479924890685,2040.79,3565.61,3069.931,0,-0.03955487,0.0246495,0.07674436,-1.04327023029327,-0.377383232116699,0.607123374938965,-1.00916501115878,-0.434215511495054,0.624721215103391,0
3.03999328613281,-1.91031861305237,1.78019690513611,2.44088363647461,-2.10708469520508,2.05919670122237,2.4472428908773,1789.379,2489.647,2295.293,2185.359,-0.0319329,0.0244902,0.07112873,-1.03972494602203,-0.373419463634491,0.621571660041809,-1.00202586176059,-0.431143734953757,0.620301741541063,0
3.05999755859375,-1.93095850944519,1.7728316783905,2.45284342765808,-2.12705600675913,2.05060360379452,2.45960608409476,2038.588,3550.902,3064.726,0,-0.03682992,0.02348187,0.07342862,-1.03199255466461,-0.368266373872757,0.597989499568939,-0.994638524886308,-0.427965170275055,0.615728628108227,0
3.08000183105469,-1.95151543617249,1.76554870605469,2.46509218215942,-2.14687713595163,2.04207512564123,2.47187630727625,1777.807,2488.069,2280.457,2192.534,-0.0292186,0.02329377,0.06767923,-1.02784729003906,-0.364149302244186,0.612441122531891,-0.987011339258122,-0.424683405378145,0.611007036871143,0
3.09999084472656,-1.97190821170807,1.75837087631226,2.47686505317688,-2.16652837486666,2.03361974652815,2.48404136028297,2025.329,3559.186,3047.349,0,-0.03422854,0.02227651,0.06995557,-1.01963865756989,-0.358899921178818,0.588644802570343,-0.979153483542501,-0.421302389586788,0.606142649861596,0
3.1199951171875,-1.99220514297485,1.75127744674683,2.48891592025757,-2.18603502400946,2.02522658035469,2.49611690533293,1759.155,2482.239,2275.555,2199.152,-0.02670778,0.02206602,0.06422329,-1.01485347747803,-0.354665279388428,0.602548599243164,-0.971056158224178,-0.417818336715394,0.601130019760458,0
3.13999938964844,-2.0123291015625,1.74429059028625,2.50048494338989,-2.20537738341953,2.01690410346351,2.50809074721212,2032.095,3533.319,3044.655,0,-0.031755,0.02097746,0.0663482,-1.00619578361511,-0.349341303110123,0.578452289104462,-0.962728579444533,-0.414235212212131,0.595974851798267,0
3.16000366210938,-2.03234553337097,1.7373902797699,2.51233267784119,-2.22455088103183,2.00865428308644,2.51996005559448,1742.638,2490.731,2262.392,2199.16,-0.02426033,0.0206762,0.06060461,-1.00081789493561,-0.345023512840271,0.592385292053223,-0.954174163352092,-0.410554485950274,0.590679260733698,0
3.17999267578125,-2.05217957496643,1.73059725761414,2.52369117736816,-2.24353658854737,2.00048526354177,2.53171311296128,2018.797,3532.663,3035.896,0,-0.02937254,0.01951092,0.06278383,-0.991707980632782,-0.339654862880707,0.567920863628387,-0.945403214201559,-0.406780591562751,0.585249625391267,0
3.19999694824219,-2.0718948841095,1.7238917350769,2.53532791137695,-2.2623590635174,1.99238647840124,2.54336512160655,1718.508,2488.036,2244.623,2222.108,-0.02175163,0.01914622,0.0570927,-0.985770523548126,-0.335278779268265,0.581840038299561,-0.936405971974636,-0.402909329586355,0.579679903854719,0
3.22000122070313,-2.09142017364502,1.71729445457458,2.54646801948547,-2.28099938900442,1.98436606709459,2.55490437104486,2015.763,3526.105,3022.881,0,-0.02683614,0.01791281,0.05930645,-0.976248800754547,-0.329858183860779,0.557004809379578,-0.927192788821982,-0.398945154262308,0.573976504598449,0
3.24000549316406,-2.11081576347351,1.71078634262085,2.55788898468018,-2.29945328359428,1.9764258717947,2.56632821087688,1702.219,2486.94,2217.168,2245.76,-0.01907729,0.01748653,0.05361203,-0.969790637493134,-0.325398534536362,0.5710489153862,-0.91776751470058,-0.394889722119544,0.568141810929231,0
3.25999450683594,-2.13001346588135,1.70438838005066,2.56880164146423,-2.31770268688992,1.96857366338589,2.57762546085652,2007.014,3525.635,3009.152,0,-0.02419855,0.01620738,0.05586539,-0.959869027137756,-0.319905579090118,0.545630156993866,-0.90814153446928,-0.390747931744771,0.562182870617026,0
3.27999877929688,-2.14907145500183,1.69808149337769,2.57999682426453,-2.33577134012187,1.96079922667992,2.58881081793642,1681.676,2480.079,2191.207,2278.311,-0.01627085,0.01575345,0.05011753,-0.952910184860229,-0.31534081697464,0.559762120246887,-0.898304216251578,-0.386515208538549,0.556093102023818,0
3.30000305175781,-2.16792368888855,1.69188642501831,2.59067559242249,-2.35364119854729,1.95311032582551,2.59987311156116,2000.138,3529.277,2990.027,0,-0.02141927,0.01446262,0.05237212,-0.942615628242493,-0.309757798910141,0.533938527107239,-0.888267004546666,-0.382196476749158,0.549879589839776,0
3.31999206542969,-2.18662667274475,1.68578505516052,2.60163569450378,-2.37129490830989,1.94551442770222,2.61080159886703,1669.499,2475.111,2166.354,2299.208,-0.01347346,0.01399326,0.04656203,-0.935150623321533,-0.305065184831619,0.5480055809021,-0.878042061913513,-0.37779696958594,0.54354986326829,0
3.33999633789063,-2.20511651039124,1.67979717254639,2.61206674575806,-2.38875555478454,1.93800159931817,2.62161057080077,1991.53,3523.35,2982.254,0,-0.01873001,0.01269654,0.04876863,-0.924486815929413,-0.299393653869629,0.521548569202423,-0.867618167158097,-0.373311858882592,0.53709697585572,0
3.36000061035156,-2.22344708442688,1.67390561103821,2.62278199195862,-2.406005803634,1.93057929915441,2.6322892965819,1653.889,2470.127,2144.938,2321.203,-0.0107352,0.01221442,0.04285999,-0.916530072689056,-0.294590294361115,0.535768210887909,-0.857007552155826,-0.36874640767338,0.530528499715627,0
3.3800048828125,-2.24155759811401,1.66812825202942,2.63296222686768,-2.42304196557559,1.92324911460621,2.64283549236868,1978.704,3532.532,2964.076,0,-0.01610147,0.01093601,0.04508359,-0.90551495552063,-0.288848400115967,0.509014248847961,-0.846214826007803,-0.364102599125748,0.523847288101157,0
3.39999389648438,-2.25949835777283,1.66244947910309,2.64342045783997,-2.43984769972619,1.91601807669906,2.65323904237604,1638.323,2462.744,2132.375,2335.485,-0.008167915,0.01046135,0.03917051,-0.897051930427551,-0.2839515209198,0.522914171218872,-0.835253140422974,-0.35938609205264,0.51706148254665,0
3.41999816894531,-2.27721261978149,1.65688645839691,2.65333485603333,-2.45644516534361,1.90887665092339,2.66351366424015,1979.047,3513.208,2961.968,0,-0.01360183,0.009168099,0.04128891,-0.885709881782532,-0.278159201145172,0.495722025632858,-0.824110582941664,-0.354591760855451,0.510163708672097,0
3.44000244140625,-2.29474806785583,1.65142226219177,2.66353034973145,-2.47281804716281,1.90183185728196,2.67364925803476,1623.683,2464.959,2117.592,2343.161,-0.005656554,0.00865503,0.03533037,-0.876766383647919,-0.273193299770355,0.50977349281311,-0.812800388649434,-0.349725300221754,0.503162159625937,0
3.45999145507813,-2.31204986572266,1.64607524871826,2.67317819595337,-2.48895081463434,1.8948903781363,2.68363620960993,1968.778,3517.477,2946.77,0,-0.01117303,0.007345143,0.03748132,-0.86510705947876,-0.267369478940964,0.482393741607666,-0.80133641229185,-0.344792671461508,0.496065412155666,0
3.47999572753906,-2.32916378974915,1.64082789421082,2.68310213088989,-2.50486489870395,1.88804299234919,2.69348778574196,1604.307,2461.857,2105.499,2356.871,-0.003244795,0.006811145,0.03158018,-0.855688333511353,-0.262353330850601,0.496198832988739,-0.789706299681989,-0.339788558913217,0.488865818431069,0
3.5,-2.3460385799408,1.63569760322571,2.69247198104858,-2.5205447997813,1.88129636896134,2.70319439144611,1974.082,3497.062,2941.177,0,-0.008800682,0.005453188,0.03365675,-0.843745410442352,-0.256507933139801,0.468487948179245,-0.777924000354857,-0.334718964672089,0.481572013878822,0
3.52000427246094,-2.36271595954895,1.63066911697388,2.7021210193634,-2.53598752699493,1.87465179486116,2.71275417523047,1587.831,2467.572,2087.265,2366.593,-0.0008580705,0.004859755,0.02775848,-0.833884179592133,-0.251449853181839,0.482452929019928,-0.765994882555673,-0.32958619854407,0.474187321698442,0
3.53999328613281,-2.37914943695068,1.62575685977936,2.71120882034302,-2.55117869390181,1.86811546013321,2.72215823120146,1964.513,3496.538,2930.323,0,-0.006497048,0.003463208,0.02988824,-0.821667969226837,-0.245592325925827,0.454385161399841,-0.753933682518821,-0.324396601119134,0.466720864320997,0
3.55999755859375,-2.39537692070007,1.62094688415527,2.72057676315308,-2.56613872308604,1.86167857751006,2.73141920191151,1566.892,2465.129,2068.512,2389.298,0.001515801,0.002837839,0.02403235,-0.811392188072205,-0.240503132343292,0.468396335840225,-0.741727567798258,-0.319144650954242,0.459164697851087,0
3.58000183105469,-2.41135573387146,1.6162543296814,2.72937655448914,-2.58085326729328,1.85534732021446,2.74052820572674,1962.938,3489.195,2918.875,0,-0.00416039,0.001413434,0.02617723,-0.798938870429993,-0.234631046652794,0.439988940954208,-0.729391385793765,-0.313836736470737,0.451528013536464,0
3.59999084472656,-2.42712116241455,1.61166417598724,2.73845911026001,-2.59530884290342,1.84912748987145,2.74947689564398,1552.197,2464.875,2046.286,2407.749,0.003893471,0.0007566555,0.02032723,-0.788276672363281,-0.229499593377113,0.45413014292717,-0.716940488958392,-0.308479463400265,0.4438203152769,0
3.6199951171875,-2.44263362884521,1.60719203948975,2.74696397781372,-2.60952509409627,1.84301063413925,2.75827743234631,1955.66,3484.862,2910.286,0,-0.001860484,-0.0006796387,0.0224967,-0.775606036186218,-0.223611816763878,0.425241649150848,-0.704361775018033,-0.303067194200314,0.436033492140578,0
3.63999938964844,-2.45792508125305,1.60282301902771,2.75575590133667,-2.6234885835008,1.83700253474321,2.76692149746096,1536.963,2461.433,2023.971,2430.826,0.006261787,-0.001352353,0.01662395,-0.764581441879272,-0.218439638614655,0.439601987600327,-0.691670720740692,-0.297606588091786,0.428177124984152,0
3.66000366210938,-2.47295951843262,1.59857249259949,2.76396656036377,-2.63719712493647,1.83110413233575,2.77540773763803,1943.339,3491.871,2889.258,6.942661,0.0004595724,-0.002756904,0.01883885,-0.751718044281006,-0.212534427642822,0.410537332296371,-0.678873453515702,-0.29210028151913,0.420255006953505,0
3.67999267578125,-2.48776650428772,1.59442591667175,2.77245879173279,-2.65063849381582,1.82532068681534,2.78372858527554,1525.456,2456.038,2009.851,2443.062,0.008515625,-0.003407781,0.01299225,-0.740339934825897,-0.207317352294922,0.424616485834122,-0.665986083416798,-0.286555206197011,0.41227711095171,0
3.69999694824219,-2.50231266021729,1.59039807319641,2.7803750038147,-2.66383127580226,1.81964420129024,2.79189554578451,1921.064,3490.283,2859.586,42.82719,0.002851461,-0.004711132,0.01515586,-0.727318525314331,-0.201402798295021,0.395809561014175,-0.65299527533123,-0.280965624398954,0.404235181908735,0
3.72000122070313,-2.51662445068359,1.58647549152374,2.78855752944946,-2.6767633032417,1.81407991116207,2.79990108680742,1528.944,2456.325,2007.3,2422.443,0.01067009,-0.005312474,0.009364083,-0.715588808059692,-0.196128085255623,0.409124195575714,-0.639917282339434,-0.275338529371411,0.396139281255611,0
3.74000549316406,-2.53067326545715,1.58267116546631,2.79617881774902,-2.6894328975087,1.80862853869646,2.80774416919516,1902.334,3476.39,2822.283,96.97809,0.00520885,-0.006493852,0.01132611,-0.702426373958588,-0.190210342407227,0.381067752838135,-0.626758665639204,-0.269676744214497,0.387993470686332,0
3.75999450683594,-2.54447984695435,1.57897353172302,2.804039478302,-2.70182915057228,1.80329477731443,2.81541804035694,1534.878,2468.683,2021.391,2369.821,0.01254386,-0.007043528,0.005659012,-0.690332114696503,-0.184893637895584,0.393035650253296,-0.613536214864365,-0.263987493038594,0.379808143784027,0
3.77999877929688,-2.55802035331726,1.57539296150208,2.81136345863342,-2.7139695770734,1.79807109095524,2.82293354268985,1877.791,3448.843,2783.41,174.1444,0.007398355,-0.008096542,0.007327788,-0.677031457424164,-0.179009974002838,0.366204380989075,-0.60023651686137,-0.258265004538452,0.371574997167698,0
3.80000305175781,-2.57131171226501,1.57191920280457,2.81889367103577,-2.72584333814708,1.79296214327972,2.83028396642013,1546.274,2493.772,2047.188,2286.925,0.01408812,-0.00861,0.001892104,-0.664569914340973,-0.173692137002945,0.376509517431259,-0.586876524285838,-0.252516572968186,0.363304525338741,0
3.81999206542969,-2.58433413505554,1.56856155395508,2.82592010498047,-2.73744054699573,1.78797218830065,2.83746319114912,1852.308,3412.144,2739.681,267.7776,0.009331334,-0.009552759,0.003245732,-0.651133000850677,-0.167888253927231,0.351326614618301,-0.573473482003301,-0.246749618311662,0.355007403690404,0
3.83999633789063,-2.59710121154785,1.5653088092804,2.83311247825623,-2.74877791451009,1.78309403578861,2.84448156171422,1554.548,2528.086,2082.708,2187.71,0.01529084,-0.01004278,-0.001829592,-0.638325810432434,-0.162622958421707,0.359618216753006,-0.560014026276881,-0.240958390526246,0.346675359432959,0
3.86000061035156,-2.60959601402283,1.56217002868652,2.83984112739563,-2.75984563331209,1.77833190558438,2.85133300688122,1825.145,3364.523,2692.435,379.097,0.01107759,-0.01088807,-0.0008026767,-0.624767959117889,-0.156943827867508,0.336430162191391,-0.546515580872635,-0.235150386571708,0.338319178707605,0
3.8800048828125,-2.62182950973511,1.55913496017456,2.84669351577759,-2.77064299647982,1.77368610185671,2.85801708903178,1568.79,2570.948,2118.5,2073.894,0.01627767,-0.01137276,-0.00543924,-0.611658692359924,-0.151761502027512,0.342621833086014,-0.532985466132484,-0.229328756186666,0.329943393154704,0
3.89999389648438,-2.63378953933716,1.55621004104614,2.85312366485596,-2.78116151864576,1.76916027562219,2.86452855531919,1796.565,3311.897,2643.044,499.8373,0.01266737,-0.01213549,-0.004728176,-0.59800136089325,-0.146232604980469,0.321504026651382,-0.519441457145543,-0.223501147495394,0.321559006401168,0
3.91999816894531,-2.64548254013062,1.55338740348816,2.85963487625122,-2.79141684911929,1.7647476934202,2.87087709341145,1580.841,2616.111,2154.075,1960.781,0.01715509,-0.01261326,-0.008896023,-0.584647476673126,-0.141151934862137,0.325562328100204,-0.505870408491346,-0.2176619043907,0.313157880805522,0
