t,x_s1,x_s2,x_s3,x_s_d1,x_s_d2,x_s_d3,propellers_rpms1,propellers_rpms2,propellers_rpms3,propellers_rpms4,rollRad,pitchRad,yawRad,v_s1,v_s2,v_s3,v_s_d1,v_s_d2,v_s_d3,insideCount
0,-0.0599999986588955,2.94000005722046,1.17999994754791,-0.0599999986588955,2.94000005722046,1.17999994754791,0,0,0,0,0,0,0,0,0,0,-1.06581410364015E-15,4.44089209850063E-16,4.44089209850063E-16,0
0.02001953125,-0.0599999986588955,2.94000005722046,1.1771354675293,-0.0600018744611685,2.93999925011514,1.18000110875888,0,0,0,0,0.0163538,-0.002474609,-2.024222E-05,3.71994488546079E-08,3.50004931704007E-08,-0.143225952982903,-0.000280531511337879,-0.000120704872184653,0.000173662369087018,5
0.040008544921875,-0.0599999986588955,2.94000005722046,1.17048275470734,-0.060014880898484,2.93999365380853,1.18000916036316,0,0,0,0,0.03270752,-0.004950816,-5.430172E-05,3.62924410524101E-08,3.44428769949445E-08,-0.332637369632721,-0.00111143977225461,-0.000478221483967637,0.00068803416424398,6
0.05999755859375,-0.0600004345178604,2.94013237953186,1.16416537761688,-0.0600498857373401,2.93997859220429,1.18003083002592,3185.047,2835.61,1501.497,2767.799,0.03128355,-0.004942827,-0.01646899,-2.17774486372946E-05,0.00662195403128862,-0.315869957208633,-0.00247936261166862,-0.00106680046642749,0.00153484356504269,6
0.08001708984375,-0.0599162131547928,2.9403874874115,1.15857708454132,-0.0601176241590912,2.9399494462538,1.18007276333581,3065.904,3067.256,2154.947,2024.016,0.01898389,-0.004311125,-0.04351445,0.00421105837449431,0.012750624679029,-0.279417544603348,-0.00437432711648753,-0.0018821507536715,0.00270791686320324,6
0.100006103515625,-0.0596375241875648,2.94068741798401,1.15374875068665,-0.0602282404704493,2.93990185114529,1.18014124010193,2641.104,3831.896,2619.575,1134.562,-0.005845638,-0.002890062,-0.07014766,0.0139344744384289,0.0150005463510752,-0.241416051983833,-0.00677739276378709,-0.00291612276782231,0.00419552897277328,6
0.120025634765625,-0.0590848438441753,2.94089865684509,1.14957046508789,-0.0603921815631679,2.93983131187307,1.18024272744792,2091.666,4102.055,3169.471,756.1996,-0.04011466,-0.0004516721,-0.08993868,0.027634009718895,0.0105665139853954,-0.208914488554001,-0.00968281574750508,-0.00416624510959472,0.00599412420418488,5
0.1400146484375,-0.0582313686609268,2.94085621833801,1.14596712589264,-0.0606187761383957,2.93973381455767,1.18038300028418,1510.861,4074.834,3735.594,701.6448,-0.07649504,0.002387591,-0.09950369,0.0426738075911999,-0.00212511699646711,-0.180168598890305,-0.0130687916036232,-0.00562313592726786,0.00809020455552005,4
0.160003662109375,-0.0570992864668369,2.94039487838745,1.14297831058502,-0.0609177895434042,2.93960515744296,1.18056810382587,1134.294,3847.206,4070.274,880.1567,-0.1062857,0.004335606,-0.09870314,0.0566041730344296,-0.0230627506971359,-0.149443760514259,-0.0169265510445065,-0.00728302204135792,0.0104783414199936,4
0.180023193359375,-0.055737528949976,2.93938803672791,1.14071130752563,-0.061299173422313,2.9394410586145,1.18080419861474,1100.565,3565.099,4010.333,1149.211,-0.1236325,0.004492518,-0.09000047,0.0680879354476929,-0.0503368452191353,-0.113350093364716,-0.0212503155312517,-0.00914341710800856,0.0131549576067545,3
0.20001220703125,-0.0541962273418903,2.9377772808075,1.13924884796143,-0.0617708265342762,2.93923811945689,1.181096174359,1374.294,3339.683,3594.41,1385.82,-0.1278802,0.00302207,-0.07724978,0.0770650655031204,-0.0805361270904541,-0.0731205269694328,-0.0260142813927851,-0.0111932185284278,0.0161040794142088,3
0.220001220703125,-0.0525139458477497,2.93557620048523,1.13858413696289,-0.0623420644491781,2.93899233174064,1.18144979784016,1789.949,3213.137,3017.277,1527.343,-0.1229805,0.000860845,-0.06425622,0.0841141194105148,-0.110049709677696,-0.0332379452884197,-0.03121219533433,-0.0134297356845702,0.019321835755004,3
0.240020751953125,-0.0507192760705948,2.93284702301025,1.13860714435577,-0.0630225615075555,2.93869953286731,1.18187105793587,2159.123,3168.027,2517.384,1559.075,-0.1149612,-0.0009885654,-0.05361849,0.0897335559129715,-0.136453315615654,0.00115128979086876,-0.0368405636651345,-0.0158514653389075,0.022806063868137,3
0.260009765625,-0.0488369353115559,2.92966485023499,1.1391384601593,-0.0638185570309634,2.93835703823113,1.18236381708338,2353.177,3159.382,2273.014,1495.196,-0.109049,-0.001906291,-0.04623567,0.0941170454025269,-0.159109324216843,0.0265635028481483,-0.0428699302682246,-0.0184457333472145,0.0265385290140116,3
0.279998779296875,-0.0468913875520229,2.92608761787415,1.13999652862549,-0.0647390625194898,2.93796097043536,1.18293365383054,2351.681,3152.552,2324.678,1363.744,-0.1078181,-0.001744903,-0.04151762,0.0972774624824524,-0.178859561681747,0.0429033190011978,-0.0492963837173861,-0.0212108567320638,0.030516809833474,3
0.300018310546875,-0.0449083782732487,2.92214393615723,1.14106237888336,-0.0657936070281142,2.93750722939386,1.1835864671163,2228.999,3143.274,2572.981,1195.288,-0.1110815,-0.0007366303,-0.03798467,0.0991503745317459,-0.197189882397652,0.0532942861318588,-0.0561185469977389,-0.0241462430024218,0.0347400538887172,3
0.32000732421875,-0.042916551232338,2.91783571243286,1.14229488372803,-0.0669865614821475,2.93699393441958,1.18432496275165,2075.503,3133.048,2872.303,1031.626,-0.1169304,0.0006852079,-0.033983,0.0995916202664375,-0.215407103300095,0.061623428016901,-0.0633036493784043,-0.0272377918282996,0.0391879745362408,3
0.34002685546875,-0.0409485325217247,2.91315126419067,1.14370787143707,-0.068328931055223,2.93641635029375,1.18515595346331,1954.054,3107.831,3110.07,921.4189,-0.1228506,0.002070327,-0.02837225,0.0984010398387909,-0.234220191836357,0.0706508606672287,-0.0708617428582823,-0.0304898283040037,0.0438667944422071,3
0.360015869140625,-0.0390397682785988,2.90807747840881,1.14534437656403,-0.0698237345322385,2.93577317811757,1.18608130802295,1905.654,3064.824,3221.554,881.5448,-0.1267159,0.003092612,-0.02087599,0.095438078045845,-0.253694504499435,0.081822894513607,-0.0787580297418618,-0.0338873799532906,0.0487549721754506,3
0.3800048828125,-0.0372252762317657,2.90261077880859,1.14724397659302,-0.0714797725314022,2.93506063123087,1.18710647443246,1922.629,3022.299,3208.401,894.8235,-0.1274381,0.003643709,-0.01187983,0.0907248705625534,-0.273340225219727,0.0949771329760551,-0.0869921272359981,-0.0374302820709642,0.0538522707687797,3
0.4000244140625,-0.0355369076132774,2.8967616558075,1.14943194389343,-0.0733065984369745,2.93427459907931,1.1882373666918,1990.727,2987.691,3099.062,941.0622,-0.1250391,0.003792359,-0.002208293,0.0844182521104813,-0.2924545109272,0.109401188790798,-0.0955658248284375,-0.0411193046236092,0.0591597980003546,3
0.420013427734375,-0.0340016856789589,2.89055490493774,1.15190696716309,-0.0753050585276311,2.93341471753282,1.18947450868777,2074.221,2975.527,2952.178,985.0458,-0.1205059,0.003707528,0.007338022,0.0767608657479286,-0.310332417488098,0.12375108897686,-0.104441553474511,-0.0449382827008623,0.0646542968418633,3
0.44000244140625,-0.0326422825455666,2.88402462005615,1.15464234352112,-0.077483988232608,2.93247718495301,1.19082336997196,2135.172,2973.192,2826.321,1022.825,-0.1150885,0.003564882,0.01615954,0.0679705291986465,-0.3265101313591,0.136770784854889,-0.113620829717891,-0.048887868829098,0.0703367061060819,4
0.46002197265625,-0.0314782485365868,2.8772075176239,1.15760231018066,-0.0798530997696509,2.93145782244394,1.19228996286983,2167.789,2976.111,2748.897,1041.357,-0.109857,0.003476342,0.02394609,0.0582019649446011,-0.340856701135635,0.14799889922142,-0.123107133063502,-0.0529695601420796,0.0762091797723108,4
0.480010986328125,-0.0305267330259085,2.87013816833496,1.1607494354248,-0.0824109101018722,2.93035726811493,1.19387336931088,2170.417,2985.442,2730.955,1030.943,-0.1055373,0.003481545,0.03074668,0.0475754626095295,-0.35346731543541,0.157354742288589,-0.132860437136906,-0.0571661344090936,0.082246939608052,4
0.5,-0.0298036206513643,2.8628466129303,1.16405308246613,-0.085166398670376,2.92917165836334,1.1955791479969,2145.237,2989.877,2764.434,1008.599,-0.1022798,0.003569495,0.03680584,0.0361557006835938,-0.364583283662796,0.165183186531067,-0.142884000065179,-0.0614789935111996,0.0884520025491718,4
0.52001953125,-0.0293244887143373,2.85535669326782,1.16750025749207,-0.0881295333471192,2.92789670429234,1.19741346951549,2116.025,2990.584,2816.88,980.8459,-0.0998238,0.003688501,0.04240789,0.0239565223455429,-0.374499917030334,0.172360777854919,-0.153182839569029,-0.0659102964334391,0.0948274748038155,4
0.540008544921875,-0.02910434640944,2.8476881980896,1.17108762264252,-0.0912963635428427,2.92653410573011,1.19937388826368,2091.533,2993.795,2869.517,948.2225,-0.09782536,0.003777013,0.04785613,0.0110072838142514,-0.383429706096649,0.179366871714592,-0.163714777034477,-0.0704418948965508,0.101347245800684,4
0.55999755859375,-0.0291578508913517,2.83985805511475,1.17481732368469,-0.094676112580471,2.92507989413848,1.20146611391775,2068.974,2989.034,2910.48,934.3041,-0.09580243,0.003796388,0.05330237,-0.00267522502690554,-0.391504257917404,0.18648424744606,-0.17448465888317,-0.0750758741803766,0.108014315705644,5
0.58001708984375,-0.0294994004070759,2.83188223838806,1.17869973182678,-0.0982790918331175,2.92352963282165,1.20369652970884,2063.039,2983.719,2921.971,934.2675,-0.09337575,0.003719833,0.05873381,-0.017077524214983,-0.3987857401371,0.194122850894928,-0.185498893714783,-0.0798149917263209,0.114832651747179,5
0.600006103515625,-0.0301417745649815,2.82377743721008,1.18274140357971,-0.102098762959148,2.92188613504538,1.20606108809202,2069.348,2986.604,2910.895,935.1105,-0.09050274,0.00353822,0.06410993,-0.0321187749505043,-0.405238032341003,0.20208652317524,-0.196713446836865,-0.0846403006364086,0.121774994352997,5
0.620025634765625,-0.0310960598289967,2.81556129455566,1.18694305419922,-0.106151036002673,2.92014255516215,1.2085696381425,2072.589,2986.298,2889.075,952.2179,-0.08719242,0.003272773,0.06929956,-0.0477144308388233,-0.410806626081467,0.210082903504372,-0.208152193747382,-0.0895620738704106,0.128856123593688,5
0.6400146484375,-0.0323720388114452,2.80725193023682,1.19130754470825,-0.110427588881679,2.91830247393137,1.21121702809507,2084.052,2990.366,2852.241,972.2466,-0.0835929,0.002941951,0.07413624,-0.0637984126806259,-0.41546756029129,0.218223422765732,-0.21977002223474,-0.0945609009039674,0.136048112861281,5
0.660003662109375,-0.0339764542877674,2.79886841773987,1.19582319259644,-0.114938248900541,2.91636166293851,1.21400934151928,2087.04,3001.689,2831.072,976.7543,-0.08004557,0.002566335,0.07861896,-0.0802209600806236,-0.41917011141777,0.225780576467514,-0.231574097577923,-0.0996398647564507,0.143355397804799,5
0.680023193359375,-0.0359158255159855,2.79042887687683,1.20048916339874,-0.119694071710854,2.91431536524554,1.21695342239012,2086.05,3002.738,2804.58,1003.154,-0.07657653,0.002173523,0.08259737,-0.0969690009951591,-0.421982437372208,0.23329696059227,-0.243572831403349,-0.104802584715715,0.150783185621694,6
0.70001220703125,-0.0381938181817532,2.78195023536682,1.20529305934906,-0.124683985757554,2.91216834463331,1.22004241688759,2087.487,3020.025,2797.37,990.8432,-0.07356343,0.001757699,0.08620466,-0.113898947834969,-0.423928081989288,0.24019330739975,-0.255719729227087,-0.11002905550423,0.158302694011575,6
0.720001220703125,-0.0408137477934361,2.77344799041748,1.21022844314575,-0.129918284978346,2.90991617190799,1.22328269744952,2071.853,3018.782,2798.444,1007.702,-0.07088269,0.001346193,0.08940919,-0.130997374653816,-0.425117194652557,0.246770203113556,-0.268023157655716,-0.11532287703907,0.16591910230247,6
0.740020751953125,-0.0437780283391476,2.76493525505066,1.21529078483582,-0.135408560960145,2.90755385953358,1.22668143982036,2066.009,3026.381,2804.786,1001.231,-0.0685732,0.0009306522,0.09230389,-0.148213759064674,-0.425637006759644,0.253114253282547,-0.280492548100696,-0.120688107393104,0.173638248987353,6
0.760009765625,-0.0470885224640369,2.75642347335815,1.22047901153564,-0.141140917956636,2.9050873864615,1.23023004187122,2059.859,3031.161,2808.766,1000.785,-0.06658382,0.0005084896,0.09493753,-0.165525019168854,-0.425587326288223,0.259414196014404,-0.293080296154222,-0.126104263719567,0.181430664670081,6
0.779998779296875,-0.0507458262145519,2.74792289733887,1.22578608989716,-0.147126184485884,2.90251209348295,1.23393520697061,2048.584,3033.811,2823.509,996.3021,-0.06486342,8.175951E-05,0.09739687,-0.182864829897881,-0.425034582614899,0.26535627245903,-0.305795832832518,-0.131575403921268,0.189302187598958,6
0.800018310546875,-0.0547515042126179,2.73944139480591,1.23121893405914,-0.153376545303595,2.89982273783796,1.23780447806275,2043.6,3031.075,2820.076,1010.628,-0.06317923,-0.0003398194,0.09960771,-0.200283989310265,-0.424071162939072,0.27164289355278,-0.318649478366155,-0.137105968505107,0.197259206488328,6
0.82000732421875,-0.059104960411787,2.73098707199097,1.23677253723145,-0.159875221826383,2.89702653888221,1.24182746840525,2047.871,3042.682,2822.503,993.6617,-0.06173846,-0.0007808388,0.1016936,-0.217672303318977,-0.422721207141876,0.277677744626999,-0.331592781842754,-0.14267511039705,0.205271727915392,6
0.84002685546875,-0.0638059228658676,2.7225661277771,1.24244737625122,-0.166644154783139,2.89411405613301,1.24601776035448,2037.65,3037.354,2819.521,1014.471,-0.06032699,-0.00121014,0.1035589,-0.23504863679409,-0.42104971408844,0.28374320268631,-0.344656091553402,-0.148295887618918,0.213358538918022,6
0.860015869140625,-0.0688533782958984,2.71418428421021,1.24824416637421,-0.173664618315387,2.89109334680413,1.25036376171199,2043.924,3045.032,2811.054,1011.065,-0.05906305,-0.001639975,0.1052243,-0.252372801303864,-0.4190893471241,0.289838820695877,-0.357790534090669,-0.153947271308859,0.221489384528856,6
0.8800048828125,-0.0742448270320892,2.70584678649902,1.25415539741516,-0.180948461186242,2.88795931270381,1.25487280742661,2038.659,3047.721,2814.016,1012.105,-0.05799459,-0.002061819,0.1067192,-0.269572645425797,-0.416870325803757,0.295563519001007,-0.371007022483504,-0.159633957038354,0.229671020432672,6
0.9000244140625,-0.0799787640571594,2.6975576877594,1.26018631458282,-0.188508963212068,2.88470623989808,1.25955311833725,2037.693,3047.066,2802.879,1027.89,-0.05700549,-0.002459163,0.1079544,-0.286697059869766,-0.414454638957977,0.301545828580856,-0.384317079523421,-0.165360902742685,0.237910579786325,7
0.920013427734375,-0.0860513746738434,2.68932032585144,1.26632881164551,-0.196324452211266,2.88134345332121,1.26439127833112,2043.609,3059.219,2804.866,1009.334,-0.05638178,-0.002856507,0.1090601,-0.303630083799362,-0.411864250898361,0.307127058506012,-0.397671404529394,-0.171106895716105,0.246177543119742,7
0.94000244140625,-0.092459499835968,2.68113684654236,1.27258193492889,-0.204407453948074,2.87786556348678,1.26939504145298,2031.723,3053.35,2806.599,1028.36,-0.05590934,-0.003217099,0.1099589,-0.320407569408417,-0.409168213605881,0.312653809785843,-0.411081631631503,-0.176876941799768,0.254479112513653,7
0.96002197265625,-0.0991993993520737,2.67300891876221,1.2789431810379,-0.21277195700315,2.87426655149935,1.27457306730061,2034.956,3058.852,2811.051,1018.171,-0.05567764,-0.003556918,0.1107163,-0.336993902921677,-0.406402170658112,0.318061709403992,-0.424559845004915,-0.182676240476657,0.262822768648136,7
0.980010986328125,-0.10626745223999,2.66493654251099,1.28541481494904,-0.221393324468958,2.87055701793193,1.27991010445463,2035.979,3061.458,2808.969,1020.273,-0.05565953,-0.003872236,0.111327,-0.353403300046921,-0.40362486243248,0.32357981801033,-0.438056556301695,-0.188483498293199,0.271177875878363,7
1,-0.113658487796783,2.65691924095154,1.29198658466339,-0.230284798736574,2.86673126495361,1.28541435058594,2030.549,3063.065,2826.615,1009.201,-0.05590987,-0.004165716,0.1118861,-0.369551539421082,-0.400861740112305,0.328585684299469,-0.451584000205995,-0.194303979492187,0.279552008056641,7
1.02001953125,-0.121369898319244,2.64895558357239,1.29867005348206,-0.239461107372567,2.86278295570393,1.29109492275982,2028.618,3056.988,2819.322,1029.989,-0.05613517,-0.004411793,0.1122579,-0.385570913553238,-0.398181974887848,0.334171384572983,-0.465154707681581,-0.200143075797255,0.287952922446475,7
1.04000854492188,-0.129395887255669,2.64104390144348,1.30545437335968,-0.248894644448595,2.85872396824263,1.29693473159157,2040.215,3070.877,2833.139,993.5115,-0.0567248,-0.004660532,0.1126541,-0.401299476623535,-0.395578533411026,0.339216262102127,-0.47871923339115,-0.205979512261105,0.296350010028666,7
1.05999755859375,-0.137733235955238,2.63318157196045,1.31234681606293,-0.258599401509697,2.85454828239877,1.30294243851408,2027.033,3058.185,2831.746,1026.38,-0.05725211,-0.004854943,0.1128963,-0.41686800122261,-0.393120765686035,0.344620078802109,-0.492290296490434,-0.211818761581115,0.30475114456651,7
1.08001708984375,-0.146376579999924,2.62536573410034,1.31934022903442,-0.268590868588476,2.85024923324404,1.30912763259543,2038.47,3067.865,2844.613,996.3933,-0.05800312,-0.005038168,0.1131408,-0.43216598033905,-0.390793055295944,0.349669486284256,-0.505880764601332,-0.21766636033551,0.313164291730931,7
1.10000610351563,-0.155322968959808,2.61759257316589,1.3264467716217,-0.278838480013141,2.84583997233313,1.31547139222872,2038.843,3063.643,2832.29,1018.941,-0.05873229,-0.005180913,0.1132414,-0.447320312261581,-0.3886578977108,0.355324864387512,-0.519441457145546,-0.223501147495394,0.321559006401169,7
1.12002563476563,-0.164565339684486,2.60985898971558,1.33364641666412,-0.28937326791995,2.84130714740473,1.32199292778458,2041.902,3072.255,2861.316,981.4766,-0.05979862,-0.005319398,0.1134322,-0.462120860815048,-0.386675655841827,0.359984934329987,-0.533006127404302,-0.22933764615472,0.329956183466192,8
1.1400146484375,-0.174103066325188,2.60215997695923,1.34096717834473,-0.300162704591434,2.83666475422696,1.32867210305637,2038.893,3058.438,2833.508,1035.109,-0.06059277,-0.005387042,0.1133655,-0.476885169744492,-0.384950876235962,0.366038829088211,-0.54652589017629,-0.235154822377061,0.338325560657667,8
1.16000366210938,-0.18392650783062,2.5944926738739,1.34837138652802,-0.311222084148811,2.83190621216671,1.33551838583369,2053.34,3081.239,2884.103,949.0464,-0.06199466,-0.005486112,0.1135572,-0.491171807050705,-0.383368819952011,0.370212405920029,-0.560014026276883,-0.240958390526247,0.34667535943296,8
1.18002319335938,-0.194037809967995,2.58685040473938,1.35590672492981,-0.322568202252263,2.82702429452064,1.34254217343029,2034.732,3049.072,2837.981,1057.926,-0.06274514,-0.005471198,0.1133422,-0.505566000938416,-0.382112741470337,0.376764237880707,-0.573483731835696,-0.246754028528194,0.355013748824923,8
1.20001220703125,-0.204425275325775,2.57923078536987,1.363520860672,-0.334165615614823,2.82203425154496,1.34972152476313,2073.979,3094.305,2900.447,911.1962,-0.06445009,-0.005541506,0.1135588,-0.519372582435608,-0.380979269742966,0.380704343318939,-0.586886736182789,-0.252520966862155,0.363310846989412,8
1.22000122070313,-0.215092897415161,2.57162618637085,1.37127184867859,-0.346030421585499,2.81692915700008,1.35706640485806,2032.126,3042.972,2844.942,1073.831,-0.06523626,-0.00545948,0.1132667,-0.533380568027496,-0.380229651927948,0.387552082538605,-0.600236516861372,-0.258265004538453,0.371574997167698,8
1.24002075195313,-0.226027056574821,2.56403470039368,1.37909281253815,-0.358180209983518,2.8117014424782,1.36458770265112,2081.817,3097.736,2929.081,884.4441,-0.06712124,-0.005485047,0.1135346,-0.546708643436432,-0.379569083452225,0.391050934791565,-0.613546334788502,-0.263991847359231,0.379814408499145,8
1.260009765625,-0.237235844135284,2.55644726753235,1.38707077503204,-0.37057666480527,2.80636759428526,1.37226169871082,2040.994,3038.507,2835.87,1095.086,-0.06776626,-0.005333779,0.1131137,-0.560438990592957,-0.379366874694824,0.398896098136902,-0.626768731761373,-0.26968107538565,0.387999702095469,8
1.27999877929688,-0.248700082302094,2.54886412620544,1.39509654045105,-0.383236695417198,2.80092033679326,1.3800988607405,2097.928,3112.874,2969.346,825.11,-0.07006457,-0.005354019,0.113578,-0.573212802410126,-0.379157692193985,0.401288568973541,-0.639917282339435,-0.275338529371412,0.396139281255613,8
1.30001831054688,-0.260435163974762,2.54127335548401,1.40330612659454,-0.396178686849666,2.79535175943725,1.38811056994974,2028.721,3016.154,2824.896,1159.179,-0.07026697,-0.005097291,0.1129537,-0.586755275726318,-0.379532963037491,0.410478323698044,-0.653005218467598,-0.280969902652754,0.404241337183804,8
1.32000732421875,-0.272414922714233,2.53367829322815,1.41154146194458,-0.409361504843077,2.78967956113998,1.39627136227237,2133.945,3140.103,3007.792,736.0211,-0.07302601,-0.005136705,0.1136655,-0.598987758159637,-0.379747748374939,0.411766976118088,-0.6659860834168,-0.286555206197011,0.41227711095171,8
1.34002685546875,-0.284662663936615,2.52606415748596,1.41999042034149,-0.422823591595166,2.78388720129772,1.40460503526004,2014.141,2993.316,2805.999,1234.587,-0.07277141,-0.004781972,0.1128351,-0.612387716770172,-0.380702674388885,0.422445803880692,-0.67889305416841,-0.29210871513241,0.420267140691238,8
1.36001586914063,-0.297143369913101,2.5184383392334,1.42843198776245,-0.4365219692899,2.77799317206405,1.4130849835973,2164.19,3166.177,3061.448,638.0556,-0.07604763,-0.004846421,0.1138638,-0.624035656452179,-0.381292760372162,0.422079175710678,-0.691680442442074,-0.297610771068296,0.428183143180414,9
1.3800048828125,-0.30989196896553,2.51078152656555,1.43713200092316,-0.450474904562636,2.77198961381608,1.4217225152016,1997.203,2963.297,2771.274,1337.559,-0.07507344,-0.00437078,0.1127206,-0.637430667877197,-0.382843226194382,0.435002654790878,-0.704361775018035,-0.303067194200314,0.436033492140578,9
1.4000244140625,-0.322859585285187,2.50310730934143,1.44577181339264,-0.464702095472036,2.76586805102946,1.43052982410961,2202.057,3204.065,3139.959,493.6674,-0.07908577,-0.004497014,0.1142363,-0.648379504680634,-0.383706778287888,0.431993514299393,-0.716950039288891,-0.308483572640673,0.443826227386424,9
1.42001342773438,-0.336099922657013,2.49538922309875,1.45474648475647,-0.479157861067077,2.75964813894125,1.43947863163655,1972.644,2919.71,2695.829,1505.713,-0.07694884,-0.003860518,0.112561,-0.662018716335297,-0.385906368494034,0.448732972145081,-0.729400843645231,-0.313840805920001,0.451533868397062,9
1.44000244140625,-0.349540263414383,2.48765134811401,1.46357035636902,-0.493861275572861,2.75332167044526,1.4485807456364,2260.124,3270.798,3254.769,259.0977,-0.0823247,-0.004125237,0.1148854,-0.672018587589264,-0.386889666318893,0.441196501255035,-0.741727567798258,-0.319144650954242,0.459164697851088,9
1.46002197265625,-0.363264560699463,2.47985482215881,1.47283971309662,-0.50883280894277,2.74687983789241,1.45784883798541,1904.855,2838.464,2585.498,1793.832,-0.07828096,-0.00322349,0.1123638,-0.686211764812469,-0.38982281088829,0.463470488786697,-0.753942941956197,-0.324400585196357,0.466726596353819,9
1.48001098632813,-0.377169072628021,2.47203707695007,1.48186838626862,-0.524024159888143,2.74034342397783,1.467253007885,2284.624,3432.06,3330.506,0,-0.08500331,-0.003399791,0.1159662,-0.695225298404694,-0.390884846448898,0.451431125402451,-0.766004036374583,-0.329590137176618,0.474192988348404,9
1.5,-0.391368687152863,2.4641478061676,1.4914425611496,-0.539455198877605,2.73370387899399,1.4768055561018,1855.463,2715.979,2455.219,2121.872,-0.07900267,-0.002022404,0.1125427,-0.709981322288513,-0.394466996192932,0.478710472583771,-0.777924000354858,-0.334718964672088,0.481572013878822,9
1.52001953125,-0.405738353729248,2.45623159408569,1.50076293945313,-0.555147149984933,2.72695207081487,1.48651962134853,2113.763,3718.566,3221.189,0,-0.08537402,-0.001101483,0.1175546,-0.71848475933075,-0.39580625295639,0.466017663478851,-0.789715229532175,-0.33979240117828,0.488871346433721,9
1.54000854492188,-0.420396834611893,2.44824433326721,1.5105949640274,-0.571049184024557,2.72010986981902,1.49636373793799,1971.166,2549.255,2413.469,2222.715,-0.07906712,0.001180737,0.1135549,-0.732924461364746,-0.399367213249207,0.491599082946777,-0.801336412291853,-0.344792671461508,0.496065412155667,9
1.55999755859375,-0.435218453407288,2.44023323059082,1.52015471458435,-0.587181951496087,2.71316839067337,1.50635068951315,2178.158,3667.844,3222.404,0,-0.08553647,0.002855188,0.1174053,-0.741081297397614,-0.400553345680237,0.477985084056854,-0.812800388649436,-0.349725300221754,0.503162159625937,9
1.58001708984375,-0.45031663775444,2.43215703964233,1.53018999099731,-0.603567408310176,2.70611818636293,1.51649406782863,2060.02,2512.701,2496.863,2100.701,-0.08026981,0.005545265,0.1122882,-0.754907548427582,-0.403810411691666,0.501766264438629,-0.824119146742882,-0.35459544561987,0.510169010073001,9
1.60000610351563,-0.465572953224182,2.42405557632446,1.53999865055084,-0.620152298932711,2.69898217125626,1.52676090517188,2181.531,3689.543,3215.528,0,-0.08726539,0.007640855,0.1151172,-0.762819468975067,-0.405067950487137,0.49043333530426,-0.835253140422976,-0.35938609205264,0.51706148254665,9
1.62002563476563,-0.481080859899521,2.41589093208313,1.55019438266754,-0.636983857763694,2.69174002171061,1.53718044188659,2121.082,2526.068,2675.384,1848.774,-0.08434657,0.01033515,0.1101349,-0.775395512580872,-0.408230125904083,0.509787917137146,-0.846231427202183,-0.364109742155907,0.523857565031302,9
1.6400146484375,-0.496741831302643,2.40769457817078,1.56019580364227,-0.654007271984653,2.68441532215046,1.54771874622704,2259.689,3511.563,3332.806,0,-0.09177519,0.01213063,0.1118148,-0.783046543598175,-0.409820139408112,0.500072240829468,-0.857015715678588,-0.368749920209162,0.530533553325099,9
1.66000366210938,-0.512638509273529,2.39942502975464,1.57056248188019,-0.671244443874359,2.67699864863716,1.55838937674714,2113.691,2610.127,2839.361,1615.574,-0.0900436,0.0143019,0.1074463,-0.79483437538147,-0.413480252027512,0.518332719802856,-0.867618167158098,-0.373311858882592,0.53709697585572,9
1.68002319335938,-0.528684437274933,2.391108751297,1.58077716827393,-0.688718488267733,2.66948005550297,1.56920664263081,2252.64,3456.542,3406.717,0,-0.09704453,0.01554996,0.109517,-0.802295744419098,-0.415812641382217,0.510731816291809,-0.87804994059578,-0.377800359562815,0.543554740547927,9
1.70001220703125,-0.544958472251892,2.38270258903503,1.5913622379303,-0.706372354049449,2.66188409024902,1.58013522651994,2099.605,2661.365,2894.484,1527.668,-0.09497259,0.0171362,0.1063676,-0.813701808452606,-0.420304894447327,0.529253304004669,-0.888274735793774,-0.382199803288802,0.549884375850026,9
1.72000122070313,-0.561377882957458,2.37423706054688,1.60180044174194,-0.724228658537036,2.6542010212754,1.5911891296115,2279.645,3398.203,3443.715,0,-0.1010318,0.01773404,0.1092423,-0.820969104766846,-0.423272490501404,0.521909952163696,-0.898304216251578,-0.386515208538549,0.556093102023817,9
1.74002075195313,-0.578027069568634,2.36566781997681,1.61264264583588,-0.742311168965756,2.64642062220478,1.6023830649563,2065.709,2683.163,2853.1,1589.783,-0.09731137,0.01884333,0.10684,-0.832462012767792,-0.428464412689209,0.542109847068787,-0.908148960779607,-0.390751127078638,0.562187467856884,9
1.760009765625,-0.594818651676178,2.35703277587891,1.62333905696869,-0.760560719141003,2.63856835059778,1.61368040586141,2293.867,3441.453,3390.439,0,-0.1023426,0.0190281,0.1106176,-0.839580118656158,-0.431748509407043,0.534822285175323,-0.91777478390713,-0.394892849856044,0.568146310914365,9
1.77999877929688,-0.611841142177582,2.34829020500183,1.63444995880127,-0.779000609654483,2.63063418086074,1.62509557650306,2056.117,2679.864,2769.356,1693.13,-0.09737103,0.01990869,0.1085734,-0.851120352745056,-0.437128752470016,0.55554723739624,-0.927192788821983,-0.398945154262308,0.57397650459845,9
1.80001831054688,-0.629000842571259,2.33948564529419,1.64538466930389,-0.797655223615693,2.62260762162281,1.63664367118754,2315.372,3450.335,3364.57,0,-0.1019618,0.01986604,0.1126446,-0.857983887195587,-0.440222948789597,0.546736717224121,-0.936412917636689,-0.402912318110697,0.579684203550397,9
1.82000732421875,-0.646395564079285,2.3305766582489,1.65676426887512,-0.816463410111527,2.61451498441355,1.64828683458664,2051.87,2675.894,2676.843,1806.257,-0.09609111,0.02069104,0.1102627,-0.869738101959229,-0.445455282926559,0.56898158788681,-0.94540321420156,-0.406780591562751,0.585249625391268,9
1.84002685546875,-0.663921535015106,2.32161283493042,1.66794371604919,-0.835478236913388,2.60633343565348,1.6600579181788,2263.651,3554.342,3316.723,0,-0.1007676,0.02079456,0.1147783,-0.87629896402359,-0.448195725679398,0.558973371982574,-0.954187384555097,-0.410560174664568,0.59068744528817,9
1.86001586914063,-0.681681990623474,2.31255292892456,1.6795619726181,-0.854637305360818,2.59808982374295,1.67191829422076,2058.275,2627.177,2638.557,1894.896,-0.094653,0.02184125,0.1120631,-0.88801908493042,-0.452989548444748,0.58091127872467,-0.962735018414262,-0.414237982720922,0.595978837827261,9
1.8800048828125,-0.699569582939148,2.30344796180725,1.69096302986145,-0.873964974649439,2.58977366760063,1.68388304221498,2258.55,3571.494,3311.999,0,-0.0994467,0.02218236,0.116352,-0.894378900527954,-0.455251395702362,0.570054233074188,-0.971056158224177,-0.417818336715394,0.601130019760457,9
1.9000244140625,-0.71768844127655,2.29425835609436,1.70279026031494,-0.893486564535158,2.58137407284289,1.69596783629653,2075.26,2600.484,2658.55,1892,-0.09345618,0.02341278,0.1132004,-0.905947625637054,-0.459475100040436,0.591364741325378,-0.979159571260204,-0.421305008961645,0.606146418448853,9
1.92001342773438,-0.735932767391205,2.28503179550171,1.71441173553467,-0.913137923350175,2.5729186421402,1.70813296352707,2263.005,3581.127,3305.448,0,-0.09829621,0.02391696,0.1170762,-0.912213683128357,-0.461326360702515,0.581072449684143,-0.987017247723777,-0.424685947625853,0.611010694492843,9
1.94000244140625,-0.754399836063385,2.27573204040527,1.72642707824707,-0.932943991899774,2.5643966441608,1.72039386345315,2097.639,2600.376,2714,1814.749,-0.09294911,0.02517504,0.1138227,-0.923354387283325,-0.46498429775238,0.600767850875854,-0.994638524886308,-0.427965170275055,0.615728628108227,9
1.96002197265625,-0.772988796234131,2.26640295982361,1.7382390499115,-0.952930593197372,2.55579696798345,1.73276652175022,2286.623,3515.918,3350.952,0,-0.09778488,0.02557777,0.1171462,-0.929451048374176,-0.466453373432159,0.590598821640015,-1.00203140433628,-0.431146119769234,0.620305172659443,9
1.98001098632813,-0.791795551776886,2.25700736045837,1.75045013427734,-0.973031969359004,2.54714790738853,1.74521023115561,2104.345,2631.493,2740.574,1750.838,-0.09263113,0.02665944,0.1138181,-0.940338909626007,-0.469778090715408,0.610555291175842,-1.00917036754089,-0.434217816196637,0.624724530959079,9
2,-0.810718774795532,2.24758696556091,1.76246130466461,-0.993273599084619,2.53843849960327,1.7577407641983,2256.325,3535.431,3358.592,0,-0.09739234,0.02694491,0.1173177,-0.946155548095703,-0.471025675535202,0.600556194782257,-1.01606400046349,-0.437183953857422,0.628992018127441,9
2.02001953125,-0.829852938652039,2.23810529708862,1.77486288547516,-1.01368176147806,2.52965743746343,1.77037438889544,2092.078,2625.281,2752.445,1751.322,-0.09200263,0.02791987,0.1141914,-0.956714570522308,-0.474087446928024,0.620081782341003,-1.0227194988233,-0.440047628868552,0.633112088657522,9
2.04000854492188,-0.849098742008209,2.22860336303711,1.78706562519073,-1.03418924440916,2.52083364047092,1.78306949773667,2280.782,3509.811,3354.443,0,-0.09643466,0.02802072,0.1176398,-0.962288081645966,-0.475080937147141,0.61013925075531,-1.02911391720548,-0.442798968459032,0.637070538244476,9
2.05999755859375,-0.868549227714539,2.21904730796814,1.79965317249298,-1.05482201812353,2.5119559343546,1.79584216754118,2083.746,2637.422,2745.776,1746.931,-0.09079355,0.02882901,0.1145871,-0.972529113292694,-0.47781902551651,0.629377722740173,-1.03525504859546,-0.445441325732794,0.640872191117535,9
2.08001708984375,-0.888104319572449,2.20947790145874,1.81203079223633,-1.07560676837143,2.50301283698163,1.80870891805959,2282.496,3498.085,3356.108,0,-0.09497525,0.02873467,0.1180383,-0.977756261825562,-0.478466629981995,0.618881702423096,-1.0411492471255,-0.447977434695423,0.644520980787238,9
2.10000610351563,-0.907860517501831,2.19986033439636,1.82480835914612,-1.09647498538954,2.49403382618922,1.82162733848484,2077.213,2648.286,2700.448,1780.942,-0.08891229,0.02940553,0.1148859,-0.987801253795624,-0.480879008769989,0.638877391815186,-1.04677621342161,-0.450398561093403,0.648004340974112,9
2.12002563476563,-0.927711606025696,2.19023728370667,1.83735656738281,-1.11748519122939,2.48499372157354,1.8346336567546,2247.792,3542.668,3333.863,0,-0.09307535,0.02926562,0.1186323,-0.992565631866455,-0.481150507926941,0.6274094581604,-1.05215090364426,-0.452711140144745,0.65133153025393,9
2.1400146484375,-0.947758615016937,2.1805739402771,1.85030686855316,-1.13856809990831,2.47592233495728,1.84768498154507,2064.351,2623.152,2657.314,1852.423,-0.08657937,0.02997366,0.1153135,-1.00234341621399,-0.483155429363251,0.647514998912811,-1.05725481901126,-0.454907212340279,0.654491096999312,9
2.16000366210938,-0.967891991138458,2.17091464996338,1.86300921440125,-1.15975039167652,2.46680818657414,1.86079782920208,2232.919,3566.048,3313.204,0,-0.09069341,0.02990186,0.1190804,-1.00666582584381,-0.482980310916901,0.635114908218384,-1.0620943502576,-0.456989527434725,0.657486997379635,8
2.18002319335938,-0.988213300704956,2.16122555732727,1.87610602378845,-1.18105931486702,2.45763955222766,1.87398906774178,2061.88,2598.616,2637.194,1888.675,-0.08397479,0.03069348,0.1154669,-1.01607275009155,-0.48445338010788,0.654843688011169,-1.0666743814704,-0.458960186914335,0.660322254877504,8
2.20001220703125,-1.00861346721649,2.15154933929443,1.88895070552826,-1.20242455577657,2.44844668594002,1.88721516963236,2236.623,3578.014,3285.926,0,-0.08811388,0.03068388,0.1189751,-1.02000629901886,-0.483815908432007,0.642234981060028,-1.07097916161324,-0.460812413548163,0.662987118851036,7
2.22000122070313,-1.02919006347656,2.14185476303101,1.90216565132141,-1.22387315175433,2.43921795429519,1.90049287228091,2065.124,2592.464,2645.055,1869.263,-0.08173028,0.03148579,0.115161,-1.0288268327713,-0.484711199998856,0.660745799541473,-1.07501419914593,-0.462548577472581,0.665484999299265,7
2.24002075195313,-1.04983580112457,2.13218259811401,1.91511678695679,-1.24543261682529,2.42994151877688,1.91383920817958,2241.958,3542.575,3303.173,0,-0.08599081,0.03141277,0.1182565,-1.0322949886322,-0.483615934848785,0.647554457187653,-1.07878346314438,-0.464170386470068,0.667818353269249,5
2.260009765625,-1.07064878940582,2.12250089645386,1.92844212055206,-1.26703177594152,2.42064800401982,1.92721011658316,2062.701,2606.484,2638.401,1851.234,-0.07976007,0.03211779,0.1142136,-1.04064679145813,-0.484090566635132,0.666266024112701,-1.08227399942825,-0.465672266718726,0.669979161506271,5
2.27999877929688,-1.09152030944824,2.11284685134888,1.94149458408356,-1.28869796983554,2.41132564607061,1.9406225227075,2201.413,3572.51,3296.987,0,-0.08417027,0.03202637,0.1174315,-1.04357540607452,-0.48268461227417,0.652621984481812,-1.08549040888332,-0.467056197851165,0.67197027217779,2
2.30001831054688,-1.1125476360321,2.10319066047668,1.954909324646,-1.31045892272318,2.4019625159737,1.95409358916289,2045.794,2586.473,2638.999,1870.103,-0.07784154,0.03272362,0.113391,-1.05136394500732,-0.482817858457565,0.670736193656921,-1.08843572622736,-0.468323485621664,0.673793563918671,1
2.32000732421875,-1.13362431526184,2.09356808662415,1.96804857254028,-1.33224276726637,2.39258953623693,1.96757882664355,2214.83,3554.617,3285.074,0,-0.08213455,0.03256196,0.1164497,-1.05383825302124,-0.481124490499496,0.656961381435394,-1.09109983431736,-0.469469776906228,0.675442773735451,0
2.34002685546875,-1.15484488010406,2.08395004272461,1.98153603076935,-1.35411046309062,2.38318047763645,1.98111597206157,2038.154,2589.291,2638.66,1857.064,-0.07583085,0.03316538,0.1123755,-1.06102216243744,-0.480903893709183,0.674373507499695,-1.09348983658457,-0.470498128112872,0.676922298990446,0
2.36001586914063,-1.17610466480255,2.07437181472778,1.99474000930786,-1.3759897762471,2.37376642042246,1.99466030916165,2221.607,3531.669,3283.687,0,-0.08007327,0.03285296,0.1152461,-1.06299030780792,-0.478915274143219,0.660200834274292,-1.09559752564474,-0.471405007833448,0.678227058921845,0
2.3800048828125,-1.19749689102173,2.06480407714844,2.00829005241394,-1.39790843013262,2.36433543599182,2.00822900004707,2022.072,2599.974,2624.179,1859.068,-0.073695,0.03331838,0.1111096,-1.06961786746979,-0.478389590978622,0.67750757932663,-1.09742594550583,-0.472191725819537,0.679358937915576,0
2.4000244140625,-1.21891713142395,2.05528140068054,2.02154350280762,-1.41989437329222,2.3548754988664,2.02183934619858,2201.604,3537.338,3278.077,0,-0.07790492,0.03288841,0.1140431,-1.0710129737854,-0.476130068302155,0.66267204284668,-1.09897654259203,-0.472858904427064,0.68031883137712,0
2.42001342773438,-1.24046051502228,2.04577445983887,2.03515219688416,-1.44187496577138,2.34541786398928,2.035446380024,2010.59,2598.075,2581.268,1897.239,-0.07126459,0.03327497,0.1098099,-1.07716083526611,-0.475347548723221,0.680436253547668,-1.1002439936861,-0.473404253224357,0.681103443981416,0
2.44000244140625,-1.26201915740967,2.03631806373596,2.04844307899475,-1.46387808506052,2.33595053645515,2.04906735901791,2169.519,3565.901,3259.603,0,-0.07553204,0.03283533,0.1129483,-1.07793009281158,-0.472822248935699,0.664542615413666,-1.10123038958312,-0.473828671822132,0.681714070030222,0
2.46002197265625,-1.28369033336639,2.02688336372375,2.06208753585815,-1.48593173759011,2.32646146587939,2.06271962049488,1990.848,2569.813,2548.871,1958.628,-0.06850875,0.03327101,0.1085397,-1.0835587978363,-0.471736311912537,0.682221829891205,-1.10193621258339,-0.474132367740737,0.682151008090402,0
2.48001098632813,-1.3053662776947,2.01750469207764,2.07540655136108,-1.5079630509786,2.31698200721197,2.07635805297935,2167.654,3582.62,3224.667,0,-0.07273519,0.03287986,0.1115921,-1.08379721641541,-0.468919903039932,0.665954768657684,-1.10235904000526,-0.474314298567936,0.682412758406602,0
2.5,-1.32714104652405,2.00815606117249,2.08905982971191,-1.52999999932945,2.30750012397766,2.08999997377396,1988.375,2556.462,2537.793,1964.531,-0.06583281,0.03333718,0.107012,-1.08874273300171,-0.467445105314255,0.682661771774292,-1.10250000050292,-0.474374949932098,0.682500019669533,0
2.52001953125,-1.34890913963318,1.99886989593506,2.10237264633179,-1.55207058900185,2.29800376582252,2.10366272014916,2172.255,3553.846,3229.09,0,-0.07014819,0.03290599,0.109718,-1.08839929103851,-0.46430292725563,0.66564553976059,-1.10235860927677,-0.474314113237503,0.682412491765153,0
2.54000854492188,-1.37076413631439,1.9896194934845,2.11602473258972,-1.57410188948011,2.28852431271001,2.11730114464159,1984.554,2564.38,2516.618,1963.086,-0.06333796,0.03329526,0.1048635,-1.09274792671204,-0.46251904964447,0.682607889175415,-1.10193535162022,-0.474131997292339,0.682150475113189,0
2.55999755859375,-1.39259958267212,1.98043632507324,2.1293249130249,-1.59612191359838,2.27904971150017,2.13093258853001,2131.127,3587.584,3214.302,0,-0.06787812,0.03288208,0.1076706,-1.09176576137543,-0.459160298109055,0.665013134479523,-1.10123038958312,-0.473828671822132,0.681714070030222,0
2.58001708984375,-1.41450774669647,1.97129356861115,2.14295125007629,-1.6181586096433,2.26956793682606,2.14457435313522,1965.619,2541.346,2512.805,1986.923,-0.06105936,0.03329454,0.1027696,-1.09541821479797,-0.45713597536087,0.681320369243622,-1.10024227275454,-0.473403512755585,0.681102378642802,0
2.60000610351563,-1.43638563156128,1.96222186088562,2.15622282028198,-1.64013916343638,2.26011031859448,2.15818136301212,2142.059,3569.914,3200.547,0,-0.06559579,0.03284801,0.1053818,-1.09389448165894,-0.453591048717499,0.663577735424042,-1.09897439291323,-0.472857979480329,0.680317500623536,0
2.62002563476563,-1.45832192897797,1.95319497585297,2.1698043346405,-1.66212505926897,2.25065040183254,2.17179167986595,1955.446,2542.734,2517.4,1969.142,-0.05893575,0.03318678,0.1004472,-1.09681236743927,-0.451335668563843,0.679079949855804,-1.09742336725307,-0.472190616469403,0.679357341854299,0
2.6400146484375,-1.48021650314331,1.94424271583557,2.18302536010742,-1.68404365734903,2.24121944141343,2.18536033620513,2148.58,3541.538,3201.81,0,-0.06348976,0.03260628,0.1028454,-1.09472739696503,-0.447627037763596,0.661055743694305,-1.09559452046326,-0.471403714787811,0.678225198571351,0
2.66000366210938,-1.50215590000153,1.93533837795258,2.19655346870422,-1.70592290617745,2.23180541187802,2.19890463348308,1936.95,2555.029,2510.577,1961.173,-0.05685316,0.03280225,0.0979031,-1.09697163105011,-0.445211172103882,0.676401853561401,-1.09348640563071,-0.470496651869278,0.67692017506657,0
2.68002319335938,-1.52404153347015,1.92651081085205,2.20971131324768,-1.72779052905813,2.22239638466312,2.21244173374556,2131.033,3539.144,3199.363,0,-0.06138586,0.03209031,0.1003681,-1.09429085254669,-0.441380739212036,0.657888650894165,-1.09109597826566,-0.469468117754907,0.675440386655758,0
2.70001220703125,-1.54596078395844,1.91773355007172,2.22318530082703,-1.74957429229274,2.21302343991116,2.22592692089233,1922.142,2556.378,2473.334,1991.143,-0.0545181,0.03217829,0.09541695,-1.09596085548401,-0.438857585191727,0.673704743385315,-1.08843144721369,-0.468321644481621,0.673790915005369,0
2.72000122070313,-1.56781411170959,1.90903544425964,2.23627114295959,-1.77130202882336,2.20367460188472,2.23937742484041,2103.245,3559.438,3182.695,0,-0.05907797,0.03141844,0.09811486,-1.09266233444214,-0.434907525777817,0.654290497303009,-1.08549040888332,-0.467056197851165,0.671970272177789,0
2.74002075195313,-1.58968925476074,1.90039086341858,2.24967432022095,-1.79300125102058,2.19433803277934,2.25281027705779,1897.981,2532.949,2440.139,2050.872,-0.05179369,0.03151594,0.09307905,-1.0937659740448,-0.432233780622482,0.67015540599823,-1.08226887897249,-0.465670063529659,0.669975991700231,0
2.760009765625,-1.61148822307587,1.89182841777802,2.26268267631531,-1.81460030360772,2.18504456385877,2.26618111951479,2103.005,3572.794,3147.386,0,-0.05627739,0.03076739,0.09575834,-1.0899418592453,-0.428117454051971,0.650420308113098,-1.07877792518082,-0.464168003639063,0.667814925005998,0
2.77999877929688,-1.63329565525055,1.88332462310791,2.27599334716797,-1.83612684690458,2.17578229366013,2.27950707526701,1890.027,2521.946,2422.156,2065.362,-0.04901921,0.03086626,0.09061472,-1.09037089347839,-0.425197899341583,0.665538191795349,-1.07501419914593,-0.462548577472581,0.665484999299265,0
2.80001831054688,-1.65501523017883,1.87490725517273,2.28889441490173,-1.85760812647542,2.16653949917827,2.29280501061661,2107.533,3546.7,3147.366,0,-0.05356576,0.03006814,0.09302583,-1.08598673343658,-0.420870065689087,0.645057260990143,-1.07097279461286,-0.460809674005774,0.6629831773745,0
2.82000732421875,-1.6767315864563,1.86655211448669,2.30210542678833,-1.87897323600723,2.1573466894188,2.30603103117811,1882.63,2528.742,2394.697,2073.84,-0.04633101,0.03009895,0.08764789,-1.08581328392029,-0.417742758989334,0.660552263259888,-1.06666760390385,-0.458957270716794,0.660318059240952,0
2.84002685546875,-1.69834804534912,1.85828685760498,2.31489515304565,-1.90028201942005,2.14817811521475,2.31922218318877,2068.745,3580.111,3129.41,0,-0.05109541,0.02931976,0.09019069,-1.08083033561707,-0.413275480270386,0.639491021633148,-1.06208716414723,-0.456986435452194,0.657482548835001,0
2.86001586914063,-1.71994805335999,1.85008692741394,2.32798767089844,-1.9214641634913,2.13906403038149,2.33233493941432,1865.46,2508.157,2378.974,2105.127,-0.04385321,0.02937626,0.08476426,-1.07999980449677,-0.409996569156647,0.654623687267303,-1.05724722779031,-0.454903946049977,0.654486397671922,0
2.8800048828125,-1.74143767356873,1.84197878837585,2.34064817428589,-1.94254691640495,2.12999271078668,2.34538616777867,2063.646,3569.298,3123.241,0,-0.04865862,0.02860807,0.08722695,-1.07447588443756,-0.405406713485718,0.633022010326385,-1.0521429102862,-0.45270770082608,0.651326581984514,0
2.9000244140625,-1.76289772987366,1.83393931388855,2.35360527038574,-1.96355695821617,2.12095267674793,2.3583923845069,1850.862,2498.601,2374.223,2112.794,-0.04134185,0.02865247,0.08171277,-1.07299840450287,-0.401975065469742,0.647849440574646,-1.04676782045836,-0.450394949835786,0.647999145330045,0
2.92001342773438,-1.78423714637756,1.82599377632141,2.36613249778748,-1.98442500350686,2.11197373984504,2.37131069862469,2068.277,3565.734,3101.009,0,-0.04612914,0.02784439,0.0840444,-1.06698703765869,-0.397277504205704,0.626365184783936,-1.04114045847258,-0.4479736531836,0.644515540192422,0
2.94000244140625,-1.80553317070007,1.818119764328,2.37893962860107,-2.00517798053537,2.10304431360073,2.38415778000673,1838.071,2502.593,2374.699,2097.74,-0.03900998,0.02781508,0.07857536,-1.06479227542877,-0.393697172403336,0.640355229377747,-1.03525504859546,-0.445441325732794,0.640872191117535,0
2.96002197265625,-1.82669830322266,1.81034171581268,2.39130663871765,-2.02584216016808,2.09415309439512,2.39694989157076,2077.128,3524.428,3111.656,0,-0.04382817,0.02686023,0.0806935,-1.05825996398926,-0.388898909091949,0.618350327014923,-1.02910434715508,-0.442794850733705,0.637064613927399,0
2.98001098632813,-1.84780788421631,1.80263710021973,2.40396547317505,-2.04634944795115,2.08532938136936,2.40964487960608,1820.798,2519.299,2349.762,2103.241,-0.03663338,0.02667871,0.07516524,-1.05547952651978,-0.38523930311203,0.63294130563736,-1.02270954399162,-0.440043345582586,0.633105926142498,0
3,-1.86877584457397,1.79502940177917,2.4161741733551,-2.06672639957428,2.07656174835205,2.42225918334961,2040.821,3554.459,3093.828,0,-0.04154744,0.02565695,0.07756398,-1.04840564727783,-0.380392611026764,0.610432624816895,-1.01606400046349,-0.437183953857422,0.628992018127441,0
3.02001953125,-1.88967680931091,1.7874960899353,2.42867159843445,-2.08699882657197,2.06783908936099,2.4348087813708,1792.585,2500.895,2326.329,2150.758,-0.03408527,0.02545312,0.07211795,-1.04504144191742,-0.376664340496063,0.624869227409363,-1.0091596546337,-0.434213206731958,0.624717899159203,0
3.04000854492188,-1.91042721271515,1.78006148338318,2.44071173667908,-2.10709998486405,2.05919012250926,2.44725235590455,2050.217,3543.643,3072.772,0,-0.0389189,0.02437799,0.07449374,-1.03751766681671,-0.37172943353653,0.602008581161499,-1.00202031904361,-0.431141350077486,0.620298310335216,0
3.05999755859375,-1.9310986995697,1.77270412445068,2.45303535461426,-2.12705600675913,2.05060360379452,2.45960608409476,1776.15,2498.453,2305.891,2168.391,-0.03135233,0.02412715,0.06900993,-1.03357648849487,-0.367862462997437,0.616176068782806,-0.994638524886308,-0.427965170275055,0.615728628108227,0
3.08001708984375,-1.95161056518555,1.76544809341431,2.46488976478577,-2.14689219650438,2.04206864550612,2.47188563047583,2047.099,3531.424,3065.838,0,-0.03616892,0.02298908,0.07129941,-1.02559280395508,-0.362803488969803,0.592723608016968,-0.987005430654711,-0.424680863071165,0.611003379164165,0
3.10000610351563,-1.97203314304352,1.75827217102051,2.47703647613525,-2.16654331551667,2.03361331798384,2.48405060925705,1766.207,2501.102,2270.834,2190.594,-0.02849156,0.02267238,0.06568368,-1.02112007141113,-0.358789533376694,0.607333481311798,-0.979147395688901,-0.421299770153459,0.606138881190213,0
3.12002563476563,-1.99228596687317,1.75119996070862,2.48870038986206,-2.18606465810045,2.02521382963322,2.49613525024692,2019.494,3554.234,3046.916,0,-0.03345623,0.02153572,0.06809969,-1.01265573501587,-0.353616863489151,0.583198130130768,-0.971043628570469,-0.417812945555442,0.601122263307942,0
3.1400146484375,-2.01243877410889,1.74421072006226,2.50065517425537,-2.20539207344272,2.01689778275692,2.50809984103626,1747.675,2483.494,2244.595,2231.492,-0.02566648,0.02123945,0.06240427,-1.00763642787933,-0.349464863538742,0.59774261713028,-0.962722140342815,-0.41423244164655,0.595970865687568,0
3.16000366210938,-2.03241348266602,1.73732721805573,2.51211619377136,-2.22455088103183,2.00865428308644,2.51996005559448,2010.475,3554.66,3032.989,0,-0.03068867,0.02013507,0.06478823,-0.998736560344696,-0.344177156686783,0.573050081729889,-0.954174163352092,-0.410554485950274,0.590679260733698,0
3.18002319335938,-2.05227661132813,1.73052978515625,2.52386283874512,-2.24356543975693,2.00047284967231,2.53173097323436,1732.761,2471.858,2232.503,2248.894,-0.0228382,0.01985767,0.05899424,-0.993156015872955,-0.339870810508728,0.587334752082825,-0.945389654806993,-0.406774757334075,0.585241231480108,0
3.20001220703125,-2.07195377349854,1.7238404750824,2.53511500358582,-2.26237335188561,1.99238033051557,2.54337396678712,2015.045,3549.558,3012.229,0,-0.02790407,0.01874975,0.06122917,-0.98385614156723,-0.334471225738525,0.562609553337097,-0.93639902618694,-0.402906341007952,0.579675604081262,0
3.22000122070313,-2.09150695800781,1.71723985671997,2.54663968086243,-2.28099938900442,1.98436606709459,2.55490437104486,1718.796,2474.75,2229.728,2240.198,-0.0202576,0.01843996,0.05543095,-0.977664113044739,-0.33002096414566,0.576238036155701,-0.927192788821982,-0.398945154262308,0.573976504598449,0
3.24002075195313,-2.11086559295654,1.71074914932251,2.55766105651855,-2.29946728755973,1.97641984627959,2.5663368799986,2019.014,3517.146,3019.115,0,-0.02540815,0.01724744,0.0574736,-0.967947781085968,-0.324541211128235,0.551063299179077,-0.917760245372928,-0.394886594330938,0.568137310869129,0
3.260009765625,-2.13008975982666,1.70434904098511,2.56896376609802,-2.31771654397337,1.96856770107001,2.57763403905129,1703.153,2487.526,2210.353,2242.461,-0.0177766,0.01683078,0.05163017,-0.961212158203125,-0.320014208555222,0.565130114555359,-0.908134108040216,-0.390744736359816,0.562178273303667,0
3.27999877929688,-2.14911150932312,1.69805884361267,2.57975435256958,-2.33577134012187,1.96079922667992,2.58881081793642,1990.859,3534.817,3006.344,0,-0.02304806,0.015593,0.05386629,-0.951072514057159,-0.314501941204071,0.539535343647003,-0.898304216251578,-0.386515208538549,0.556093102023818,0
3.30001831054688,-2.16798782348633,1.69186043739319,2.59082460403442,-2.35365475236716,1.95310449399547,2.59988150202132,1676.437,2474.748,2192.212,2278.25,-0.01523967,0.01515478,0.04810807,-0.943819522857666,-0.309927463531494,0.553509891033173,-0.88825927318574,-0.382193150160541,0.549874803759067,0
3.32000732421875,-2.18665456771851,1.68577289581299,2.60137796401978,-2.37130830610839,1.94550866300381,2.61080989274252,1998.251,3522.952,2988.814,0,-0.02046213,0.01387237,0.05033036,-0.933332800865173,-0.304364204406738,0.527665972709656,-0.878034183119985,-0.377793579561194,0.543544985919778,0
3.33999633789063,-2.20516586303711,1.67977905273438,2.61220717430115,-2.38875555478454,1.93800159931817,2.62161057080077,1659.203,2474.643,2173.629,2292.863,-0.01258077,0.01339004,0.04458022,-0.925581514835358,-0.299696683883667,0.54146409034729,-0.867618167158097,-0.373311858882592,0.53709697585572,0
3.36001586914063,-2.22346091270447,1.67389810085297,2.62250924110413,-2.40601888046917,1.93057367255756,2.63229739176581,1997.374,3507.777,2982.933,0,-0.01779897,0.01204891,0.04673702,-0.914751648902893,-0.294060826301575,0.515099465847015,-0.856999388527103,-0.368742895092007,0.53052344604056,0
3.3800048828125,-2.24159169197083,1.66811203956604,2.63309621810913,-2.42304196557559,1.92324911460621,2.64283549236868,1647.731,2478.103,2141.416,2313.396,-0.009816945,0.01150118,0.04090089,-0.906536996364594,-0.289289176464081,0.529350578784943,-0.846214826007803,-0.364102599125748,0.523847288101157,0
3.4000244140625,-2.25949907302856,1.66244041919708,2.64314413070679,-2.43987318937177,1.91600710921667,2.65325482168089,1975.296,3524.576,2965.235,0,-0.01516777,0.01015529,0.04317513,-0.895358145236969,-0.28358194231987,0.502398371696472,-0.835236272052476,-0.359378834064062,0.51705104022176,0
3.42001342773438,-2.27723288536072,1.65686631202698,2.65347719192505,-2.45645774020782,1.90887124031063,2.66352144868012,1629.22,2464.695,2115.776,2350.252,-0.007096259,0.009617725,0.03729793,-0.88668555021286,-0.278713226318359,0.516653954982758,-0.824102019042908,-0.354588076049064,0.510158407210813,0
3.44000244140625,-2.29473662376404,1.65140748023987,2.66326093673706,-2.47281804716281,1.90183185728196,2.67364925803476,1969.005,3522.066,2952.277,0,-0.01251952,0.008296181,0.03955207,-0.875197947025299,-0.272934973239899,0.48919153213501,-0.812800388649434,-0.349725300221754,0.503162159625937,0
3.46002197265625,-2.31205797195435,1.64604830741882,2.67332744598389,-2.48897526921199,1.89487985601472,2.68365134815842,1613.27,2456.778,2101.403,2368.387,-0.004406999,0.007772597,0.03361225,-0.866067945957184,-0.267962157726288,0.503321409225464,-0.801318788528228,-0.344785088448372,0.496054502206447,0
3.48001098632813,-2.32914400100708,1.64080572128296,2.68284273147583,-2.50487694859767,1.88803780761656,2.69349524520019,1971.722,3517.115,2934.071,0,-0.009900568,0.006455992,0.03576562,-0.854294538497925,-0.262116968631744,0.475768804550171,-0.789697369743255,-0.339784716610052,0.488860290373601,0
3.5,-2.3460373878479,1.63566470146179,2.69263219833374,-2.5205447997813,1.88129636896134,2.70319439144611,1598.002,2459.425,2094.372,2367.234,-0.001951032,0.005918442,0.02983763,-0.844685554504395,-0.257054477930069,0.489467918872833,-0.777924000354857,-0.334718964672089,0.481572013878822,0
3.52001953125,-2.36269021034241,1.63064134120941,2.70186233520508,-2.53599921507943,1.87464676580493,2.71276141071155,1974.252,3490.948,2937.417,0,-0.007544735,0.004554112,0.03185542,-0.832628905773163,-0.251178771257401,0.461508393287659,-0.765985728654519,-0.329582259876133,0.474181654997567,0
3.54000854492188,-2.37914156913757,1.62571978569031,2.71137404441833,-2.55119019794619,1.86811051026429,2.72216535275294,1583.12,2469.019,2076.507,2371.904,0.0003709976,0.003944351,0.02590854,-0.822575569152832,-0.246077761054039,0.475588470697403,-0.753924423002452,-0.324392617007921,0.466715132239272,0
3.55999755859375,-2.39534664154053,1.62091541290283,2.72031950950623,-2.56613872308604,1.86167857751006,2.73141920191151,1953.778,3501.059,2926.634,0,-0.005350291,0.002556476,0.02807087,-0.810240268707275,-0.240204349160194,0.447275757789612,-0.741727567798258,-0.319144650954242,0.459164697851087,0
3.58001708984375,-2.41134214401245,1.61621356010437,2.72954630851746,-2.58086439685043,1.85534253147694,2.74053509545279,1559.752,2460.781,2060.13,2400.254,0.002666324,0.001933563,0.02221048,-0.799780309200287,-0.235093384981155,0.461344629526138,-0.729381927869994,-0.313832666990361,0.451522158631107,0
3.60000610351563,-2.42708659172058,1.61162924766541,2.7382025718689,-2.59531978247425,1.84912278287974,2.74948366775945,1959.605,3489.212,2912.696,0,-0.003057841,0.0005208567,0.02436992,-0.787226676940918,-0.229215264320374,0.432815670967102,-0.716930938559024,-0.308475354130224,0.443814403124743,0
3.62002563476563,-2.44261407852173,1.60714793205261,2.74713921546936,-2.60954658921762,1.84300138538903,2.75829073885038,1543.234,2461.945,2043.248,2413.531,0.00498957,-0.0001299623,0.01854198,-0.77638703584671,-0.224069163203239,0.44682788848877,-0.704342498157626,-0.303058899905815,0.436021558845703,0
3.6400146484375,-2.4578869342804,1.6027843952179,2.75550031661987,-2.62349913748426,1.83699799365897,2.76692803087948,1957.505,3479.215,2899.891,5.513719,-0.0007488809,-0.00156221,0.02066659,-0.763635575771332,-0.218179300427437,0.418060094118118,-0.691660998977508,-0.297602405088683,0.428171106749629,0
3.66000366210938,-2.47293543815613,1.59852468967438,2.76414179801941,-2.63719712493647,1.83110413233575,2.77540773763803,1529.119,2464.97,2025.469,2424.076,0.007288822,-0.002240784,0.01485115,-0.752431809902191,-0.212991759181023,0.432078748941422,-0.678873453515702,-0.29210028151913,0.420255006953505,0
3.68002319335938,-2.48772549629211,1.59438276290894,2.77221059799194,-2.65065881779682,1.8253119419741,2.78374116678794,1930.999,3486.508,2870.752,35.17865,0.001657336,-0.003609648,0.01701238,-0.739502251148224,-0.207090452313423,0.403445273637772,-0.665966334939126,-0.286546708978778,0.41226488570328,0
3.70001220703125,-2.50228476524353,1.59034585952759,2.78055024147034,-2.66384123964357,1.81963991412768,2.79190171387692,1531.171,2462.819,2011.118,2419,0.009535826,-0.004261591,0.01125187,-0.727947950363159,-0.201842233538628,0.4169802069664,-0.65298533214413,-0.280961346123326,0.404229026602262,0
3.72000122070313,-2.51658201217651,1.58642733097076,2.78832411766052,-2.6767633032417,1.81407991116207,2.79990108680742,1907.451,3478.298,2837.299,83.04585,0.004055703,-0.005515406,0.01329961,-0.714871048927307,-0.195929124951363,0.388694077730179,-0.639917282339434,-0.275338529371411,0.396139281255611,0
3.74002075195313,-2.53064155578613,1.58261466026306,2.79634761810303,-2.68944246101018,1.80862442378895,2.80775008945815,1532.75,2465.883,2016.673,2389.022,0.01162557,-0.006103965,0.007605839,-0.702965915203094,-0.190624564886093,0.401180177927017,-0.626748599474004,-0.269672413024826,0.387987239250554,0
3.760009765625,-2.54443645477295,1.57892060279846,2.80382657051086,-2.70183851231475,1.80329074921818,2.81542383572149,1892.334,3459.254,2796.096,143.7254,0.006383484,-0.007233678,0.009383757,-0.689750373363495,-0.184713423252106,0.373951137065887,-0.613526094901139,-0.263983138701136,0.379801879044709,0
3.77999877929688,-2.55798578262329,1.57533299922943,2.81152272224426,-2.7139695770734,1.79807109095524,2.82293354268985,1539.477,2485.95,2038.776,2319.359,0.01333631,-0.007774833,0.003872908,-0.677475690841675,-0.179378643631935,0.384801954030991,-0.60023651686137,-0.258265004538452,0.371574997167698,0
3.80001831054688,-2.5712685585022,1.57186269760132,2.81870341300964,-2.72585229309426,1.79295829021612,2.83028950995902,1863.807,3424.225,2756.339,234.1672,0.008472532,-0.008775649,0.005328073,-0.66412228345871,-0.173524096608162,0.359029114246368,-0.586866312357872,-0.25251217906087,0.363298203668867,0
3.82000732421875,-2.58429837226868,1.56849825382233,2.82606601715088,-2.73744929742843,1.78796842323393,2.8374686080838,1554.876,2517.382,2067.493,2223.127,0.01470782,-0.009290704,0.0001017323,-0.651487648487091,-0.168210551142693,0.368127197027206,-0.573463232144022,-0.246745208083563,0.355001058539243,0
3.83999633789063,-2.59705805778503,1.56524896621704,2.83294677734375,-2.74877791451009,1.78309403578861,2.84448156171422,1833.753,3383.532,2714.299,335.1224,0.0102694,-0.01018499,0.001260134,-0.638001024723053,-0.1624616086483,0.344043403863907,-0.560014026276881,-0.240958390526246,0.346675359432959,0
3.86001586914063,-2.60955905914307,1.56210446357727,2.83997011184692,-2.7598539723994,1.77832831750807,2.85133816917351,1562.892,2552.87,2103.586,2122.79,0.0158137,-0.01067821,-0.003574495,-0.625043928623199,-0.157224297523499,0.351162374019623,-0.546505271550556,-0.235145950758426,0.338312796746137,0
3.8800048828125,-2.62178802490234,1.55907225608826,2.84655332565308,-2.77064299647982,1.77368610185671,2.85801708903178,1811.178,3335.521,2664.481,445.2693,0.01193369,-0.01148834,-0.002730805,-0.611444354057312,-0.151611119508743,0.329156756401062,-0.532985466132484,-0.229328756186666,0.329943393154704,0
3.9000244140625,-2.63375234603882,1.55614280700684,2.85323548316956,-2.78117737042527,1.76915345504432,2.86453836832583,1573.799,2596.84,2139.844,2010.831,0.01673631,-0.01197464,-0.007101585,-0.598214089870453,-0.146468177437782,0.334106087684631,-0.51942076458699,-0.223492244065531,0.321546196721701,0
3.92001342773438,-2.64544296264648,1.55332267284393,2.85951995849609,-2.79142456801014,1.76474437219711,2.87088187177258,1784.666,3280.595,2613.554,568.3323,0.01349468,-0.01270647,-0.006583867,-0.584527134895325,-0.141009896993637,0.314229786396027,-0.505860052376089,-0.217657448443621,0.313151469876846,0
3.94000244140625,-2.65686440467834,1.55060338973999,2.86586117744446,-2.8014005971492,1.76045196555656,2.87705750903383,1587.894,2644.12,2173.351,1895.991,0.01757703,-0.01318638,-0.010487,-0.571080088615417,-0.135967716574669,0.31706491112709,-0.492290296490434,-0.211818761581115,0.30475114456651,0
