t,x_s1,x_s2,x_s3,x_s_d1,x_s_d2,x_s_d3,propellers_rpms1,propellers_rpms2,propellers_rpms3,propellers_rpms4,rollRad,pitchRad,yawRad,v_s1,v_s2,v_s3,v_s_d1,v_s_d2,v_s_d3,insideCount
0,-0.0599999986588955,2.94000005722046,1.17999994754791,-0.0599999986588955,2.94000005722046,1.17999994754791,0,0,0,0,0,0,0,0,0,0,-1.06581410364015E-15,4.44089209850063E-16,4.44089209850063E-16,0
0.0199966430664063,-0.0599999986588955,2.94000005722046,1.1771354675293,-0.0600018680476204,2.93999925287472,1.18000110478858,0,0,0,0,0.0163538,-0.002474609,-2.024222E-05,3.71994488546079E-08,3.50004931704007E-08,-0.143225952982903,-0.000279892991557604,-0.000120430134961378,0.000173267094926113,5
0.0399971008300781,-0.0599999986588955,2.94000005722046,1.17048275470734,-0.0600148681826738,2.93999365927978,1.18000915249146,0,0,0,0,0.03270752,-0.004950816,-5.430172E-05,3.62924410524101E-08,3.44428769949445E-08,-0.332637369632721,-0.00111080915396111,-0.000477950146533378,0.000687643781479785,6
0.05999755859375,-0.0600004345178604,2.94013261795044,1.16416549682617,-0.0600498857373401,2.93997859220429,1.18003083002592,3185.417,2835.788,1501.084,2767.654,0.0312798,-0.00494336,-0.01646952,-2.17784563574241E-05,0.00662225764244795,-0.315860688686371,-0.00247936261166862,-0.00106680046642749,0.00153484356504269,6
0.0799980163574219,-0.0599162206053734,2.94038772583008,1.15857708454132,-0.0601175407449857,2.93994948214456,1.18007271169851,3065.806,3067.271,2154.969,2024.032,0.0189738,-0.004310593,-0.04351445,0.00421071797609329,0.0127499792724848,-0.279419511556625,-0.00437227586895222,-0.00188126815916228,0.00270664704326441,6
0.0999984741210938,-0.0596375614404678,2.94068765640259,1.15374839305878,-0.0602281887669101,2.93990187339187,1.18014120809498,2640.244,3831.791,2620.331,1134.765,-0.005855759,-0.002888465,-0.07014393,0.0139330439269543,0.0149974562227726,-0.241434946656227,-0.00677637982016689,-0.00291568692648091,0.00419490191241918,6
0.119998931884766,-0.0590849108994007,2.94089889526367,1.14957010746002,-0.0603919230601972,2.93983142309968,1.18024256742227,2092.121,4101.934,3169.445,755.9836,-0.04012159,-0.0004506069,-0.08993442,0.0276325102895498,0.0105606578290462,-0.208912894129753,-0.00967861374975049,-0.00416443710735115,0.00599152296740588,5
0.139999389648438,-0.0582315027713776,2.94085621833801,1.14596664905548,-0.0606185767455666,2.93973390035084,1.18038287685052,1510.287,4074.781,3735.844,701.9886,-0.07649398,0.002388579,-0.09949676,0.042670413851738,-0.00213159061968327,-0.180174112319946,-0.0130660253322238,-0.00562194567796536,0.00808849210174802,4
0.159999847412109,-0.057099487632513,2.94039487838745,1.14297795295715,-0.0609177249752248,2.93960518522485,1.18056806385509,1135.185,3846.969,4069.815,879.9801,-0.1062788,0.004335658,-0.09869888,0.0566007345914841,-0.0230700764805079,-0.149432331323624,-0.0169257706321904,-0.00728268625174051,0.0104778583075938,4
0.179996490478516,-0.0557377859950066,2.93938803672791,1.14071118831635,-0.0612986060586912,2.93944130273522,1.18080384738964,1100.995,3565.29,4009.929,1148.942,-0.1236287,0.004492339,-0.0899994,0.0680851191282272,-0.0503417477011681,-0.113341070711613,-0.0212442472567593,-0.00914080609902243,0.0131512010557717,3
0.199996948242188,-0.0541965588927269,2.9377772808075,1.13924849033356,-0.0617704296168641,2.93923829023936,1.18109592864822,1373.226,3339.681,3594.863,1386.352,-0.1278738,0.003023117,-0.07724871,0.0770614370703697,-0.0805371999740601,-0.0731329843401909,-0.0260104776919234,-0.0111915819022102,0.0161017247421801,3
0.219997406005859,-0.052514337003231,2.93557620048523,1.13858389854431,-0.0623419453860714,2.93899238297017,1.18144972413443,1790.962,3212.857,3016.852,1527.079,-0.1229731,0.0008614791,-0.06426048,0.0841111615300179,-0.110052280128002,-0.0332289449870586,-0.0312111627562649,-0.0134292913950757,0.0193211965399932,3
0.239997863769531,-0.0507196895778179,2.93284702301025,1.13860690593719,-0.0630217183703222,2.93869989564571,1.18187053599376,2159.299,3168.599,2517.263,1558.398,-0.1149644,-0.0009875001,-0.05362222,0.0897323861718178,-0.136453479528427,0.00115213915705681,-0.0368338920540454,-0.0158485947310391,0.02280193382306,3
0.259998321533203,-0.0488373823463917,2.92966485023499,1.13913774490356,-0.063818066443955,2.93835724931701,1.18236351338666,2351.878,3159.099,2273.918,1495.818,-0.1090517,-0.00190416,-0.04623727,0.0941154882311821,-0.159107476472855,0.0265394691377878,-0.04286636357961,-0.0184441987007453,0.0265363210638542,3
0.279998779296875,-0.0468918681144714,2.92608761787415,1.13999593257904,-0.0647390625194898,2.93796097043536,1.18293365383054,2352.586,3152.223,2324.29,1363.653,-0.1078165,-0.001744371,-0.04152294,0.0972758382558823,-0.178861781954765,0.0429114401340485,-0.0492963837173861,-0.0212108567320638,0.030516809833474,3
0.299999237060547,-0.0449088588356972,2.92214369773865,1.1410619020462,-0.065792536715479,2.93750768991949,1.18358580454179,2229.242,3144.043,2572.778,1194.438,-0.1110895,-0.0007366303,-0.0379868,0.0991504266858101,-0.197191402316093,0.0532970353960991,-0.0561118672418845,-0.0241433688900884,0.0347359188016424,3
0.319999694824219,-0.0429170355200768,2.91783547401428,1.14229381084442,-0.0669860785243584,2.93699414222283,1.18432466377777,2074.003,3132.625,2873.273,1032.516,-0.116933,0.0006865342,-0.03398034,0.099591076374054,-0.21540692448616,0.0615976490080357,-0.0633008373176985,-0.0272365818771378,0.0391862337367069,3
0.340000152587891,-0.0409490540623665,2.91315102577209,1.14370715618134,-0.0683270389802989,2.93641716440073,1.1851547821788,1955.243,3107.313,3109.286,921.6544,-0.1228436,0.002069987,-0.02837492,0.09839928150177,-0.234225198626518,0.0706684365868568,-0.0708514254995047,-0.0304853890327553,0.0438604075056398,3
0.359996795654297,-0.0390402972698212,2.90807723999023,1.14534318447113,-0.0698222324154443,2.93577382443646,1.1860803781411,1904.662,3065.718,3222.286,880.763,-0.1267084,0.003092779,-0.02087066,0.0954378768801689,-0.253693878650665,0.0818022489547729,-0.0787503322603694,-0.0338840679420472,0.0487502070677249,3
0.379997253417969,-0.0372258275747299,2.90261030197144,1.14724326133728,-0.0714791088463715,2.935060916796,1.18710606357981,1923.698,3021.196,3207.247,896.0927,-0.1274184,0.003642475,-0.01188356,0.0907233208417892,-0.273343354463577,0.0950020924210548,-0.0869889214763108,-0.0374289027221294,0.0538502862508218,3
0.399997711181641,-0.035537414252758,2.89676117897034,1.14943134784698,-0.0733040467096699,2.93427569701629,1.18823578705104,1991.395,2989.099,3098.638,939.2823,-0.1250365,0.003790898,-0.002208826,0.084420844912529,-0.292452275753021,0.109406560659409,-0.0955541759940907,-0.0411142924556206,0.059152586816983,3
0.419998168945313,-0.0340021252632141,2.89055466651917,1.1519056558609,-0.0753034649285836,2.93341540321397,1.18947352217404,2072.385,2974.656,2953.333,986.501,-0.1205011,0.003707658,0.007338133,0.0767644345760345,-0.310325354337692,0.123718097805977,-0.104434660908044,-0.0449353170220673,0.0646500300148815,3
0.439998626708984,-0.0326426960527897,2.88402462005615,1.15464150905609,-0.0774835548069347,2.93247737144397,1.19082310166083,2136.461,2972.789,2825.188,1023.209,-0.1150757,0.003564066,0.01614962,0.0679715424776077,-0.326507896184921,0.136794090270996,-0.113619049702587,-0.0488871029382406,0.0703356041918149,4
0.459999084472656,-0.0314785353839397,2.8772075176239,1.15760135650635,-0.0798502821969742,2.93145903476675,1.19228821865812,2168.273,2977.71,2748.919,1039.126,-0.1098682,0.003474848,0.02394377,0.0582079291343689,-0.340850323438644,0.147992745041847,-0.123096124252221,-0.0529648233581361,0.0762023647937057,4
0.479999542236328,-0.0305268969386816,2.87013840675354,1.16074752807617,-0.0824093896672336,2.93035792231548,1.19387242808941,2168.205,2984.089,2732.595,1032.819,-0.1055421,0.003482027,0.03074631,0.047582171857357,-0.353459000587463,0.157310366630554,-0.13285477482153,-0.0571636980729742,0.0822434343651008,4
0.5,-0.0298037454485893,2.86284685134888,1.16405177116394,-0.085166398670376,2.92917165836334,1.1955791479969,2146.719,2989.563,2763.043,1009.022,-0.1022702,0.003569096,0.03679603,0.0361573025584221,-0.364581972360611,0.16521367430687,-0.142884000065179,-0.0614789935111996,0.0884520025491718,4
0.519996643066406,-0.0293244700878859,2.8553569316864,1.16749882698059,-0.0881260274065667,2.92789821280061,1.19741129917127,2116.713,2992.482,2816.989,978.0053,-0.09984031,0.003686372,0.04241016,0.023963738232851,-0.374495267868042,0.172353208065033,-0.153170920546857,-0.0659051680111775,0.0948200963613094,4
0.539997100830078,-0.0291041824966669,2.84768843650818,1.17108523845673,-0.0912944900108037,2.92653491185861,1.1993727284581,2088.864,2991.899,2871.36,950.9094,-0.09782696,0.003777268,0.04785991,0.0110147967934608,-0.383423894643784,0.179318591952324,-0.163708678212627,-0.0704392707438901,0.101343470339432,4
0.55999755859375,-0.0291576832532883,2.83985829353333,1.17481589317322,-0.094676112580471,2.92507989413848,1.20146611391775,2070.974,2988.885,2908.37,934.7991,-0.09578272,0.003795641,0.05329405,-0.00267563387751579,-0.391505420207977,0.186532750725746,-0.17448465888317,-0.0750758741803766,0.108014315705644,5
0.579998016357422,-0.0294990874826908,2.83188271522522,1.17869818210602,-0.0982755538235842,2.92353115512831,1.2036943395124,2064.045,2986.041,2922.099,930.5935,-0.09338907,0.003716768,0.05874,-0.0170698687434196,-0.398781508207321,0.194114610552788,-0.185488294752812,-0.0798104312890852,0.11482609048482,5
0.599998474121094,-0.0301413163542747,2.82377815246582,1.18273913860321,-0.102097262171133,2.92188678079254,1.20606015903275,2066.535,2984.231,2912.281,938.8997,-0.09049901,0.003538116,0.0641122,-0.0321114398539066,-0.405233114957809,0.202049076557159,-0.196709126405959,-0.0846384416756885,0.121772319800455,5
0.619998931884766,-0.0310956016182899,2.8155620098114,1.18694174289703,-0.106145477944935,2.92014494663912,1.20856619743999,2074.641,2986.688,2887.057,951.9892,-0.08717591,0.003272117,0.06929081,-0.0477142371237278,-0.410806268453598,0.210128664970398,-0.208136802817102,-0.0895554515830839,0.128846595874672,5
0.639999389648438,-0.0323712974786758,2.80725288391113,1.19130456447601,-0.110424235525481,2.91830391678686,1.21121495220784,2082.813,2991.609,2855.343,968.8108,-0.08359769,0.002940879,0.07414771,-0.063785195350647,-0.41545706987381,0.218143820762634,-0.219761081350814,-0.0945570538913933,0.136042578028218,5
0.659999847412109,-0.0339758321642876,2.79886960983276,1.19582211971283,-0.114937365519793,2.91636204303257,1.21400879466451,2087.91,2999.243,2826.778,983.0178,-0.08000509,0.002566665,0.07859968,-0.080226369202137,-0.41916960477829,0.225880637764931,-0.231571827761751,-0.0996388881179631,0.143353992680462,5
0.679996490478516,-0.0359149016439915,2.79043030738831,1.20048689842224,-0.119687567829752,2.91431816368388,1.21694939617789,2087.851,3007.211,2806.654,994.3015,-0.07660636,0.002168673,0.08260921,-0.0969531238079071,-0.42197060585022,0.233238697052002,-0.24355671368107,-0.104795649710095,0.15077320798381,6
0.699996948242188,-0.0381927229464054,2.78195190429688,1.2052903175354,-0.124680083855354,2.91217002351282,1.22004000142426,2082.94,3015.041,2797.99,999.9498,-0.07354639,0.001759433,0.08619557,-0.113891422748566,-0.423920631408691,0.240173354744911,-0.255710395848158,-0.11002503961202,0.158296916205407,6
0.719997406005859,-0.0408125631511211,2.77344965934753,1.21022617816925,-0.129917262555645,2.90991661182791,1.22328206452116,2075.37,3021.371,2797.243,1002.852,-0.0708731,0.001345417,0.08940101,-0.130991667509079,-0.425109148025513,0.246794059872627,-0.26802079535749,-0.115321860608138,0.165917639927336,6
0.739997863769531,-0.0437766350805759,2.76493716239929,1.21528851985931,-0.135402141159277,2.90755662179454,1.22667746565781,2066.165,3027.05,2804.324,1000.752,-0.06858759,0.0009277209,0.09230192,-0.148203819990158,-0.425628662109375,0.253118395805359,-0.280478211503383,-0.120681938755799,0.173629373950669,6
0.759998321533203,-0.0470867864787579,2.75642561912537,1.22047519683838,-0.141137563960274,2.90508882959244,1.2302279655877,2056.937,3029.606,2811.844,1002.058,-0.066595,0.0005083131,0.09494159,-0.16550749540329,-0.425577104091644,0.259334176778793,-0.293073051970232,-0.126101146749576,0.181426180175103,6
0.779998779296875,-0.050744105130434,2.74792504310608,1.22578406333923,-0.147126184485884,2.90251209348295,1.23393520697061,2050.503,3033.254,2819.695,999.1429,-0.06483892,8.305479E-05,0.09737905,-0.182866141200066,-0.425031334161758,0.265444278717041,-0.305795832832518,-0.131575403921268,0.189302187598958,6
0.799999237060547,-0.0547494031488895,2.7394437789917,1.23121571540833,-0.153370467664426,2.8998253528763,1.23780071571459,2045.324,3034.61,2822.322,1002.698,-0.06322078,-0.0003451457,0.09962057,-0.20026484131813,-0.424062192440033,0.271581321954727,-0.318637178554805,-0.1371006762399,0.197251592319181,6
0.819999694824219,-0.0591026656329632,2.73098945617676,1.23676896095276,-0.159872691993147,2.89702762739878,1.24182590231796,2043.242,3038.081,2822.913,1002.723,-0.06172888,-0.0007787083,0.1016875,-0.217663288116455,-0.422717928886414,0.277664095163345,-0.331587821991737,-0.142672976311719,0.205268657531342,6
0.839996337890625,-0.0638035237789154,2.72256851196289,1.24244427680969,-0.166633637018892,2.89411858163313,1.24601124935738,2041.463,3039.921,2818.317,1009.365,-0.06032486,-0.001210673,0.1035557,-0.235042303800583,-0.421046495437622,0.283768624067307,-0.344636106234817,-0.148287288494656,0.213346167053785,6
0.859996795654297,-0.068850576877594,2.71418690681458,1.24823915958405,-0.173657794122436,2.89109628306371,1.25035953721147,2041.224,3044.172,2814.915,1010.503,-0.05906252,-0.00164104,0.1052362,-0.252352893352509,-0.41908124089241,0.289742052555084,-0.357777960707973,-0.153941861333544,0.221481601006014,6
0.879997253417969,-0.0742422193288803,2.70584964752197,1.25415349006653,-0.180945630646592,2.88796053060595,1.25487105518773,2040.537,3046.612,2807.503,1018.325,-0.05793547,-0.002059689,0.1066971,-0.269582509994507,-0.416868358850479,0.295716643333435,-0.371001963495383,-0.159631780297098,0.229667888678032,6
0.899997711181641,-0.0799756199121475,2.69756078720093,1.26018238067627,-0.188498701076517,2.88471065540831,1.25954676558649,2040.343,3052.019,2806.641,1015.761,-0.05704597,-0.002468218,0.1079766,-0.286671459674835,-0.41444194316864,0.301444590091705,-0.384299280991351,-0.165353244531568,0.237899561647111,7
0.919998168945313,-0.0860482007265091,2.68932366371155,1.26632571220398,-0.196318384305134,2.8813460641717,1.26438752200817,2037.282,3052.737,2802.95,1024.475,-0.05634077,-0.002853311,0.1090424,-0.303626716136932,-0.411858409643173,0.307166248559952,-0.397661187980262,-0.171102499820431,0.246171218589148,7
0.939998626708984,-0.0924559980630875,2.68114066123962,1.27257812023163,-0.204405885800988,2.87786623821667,1.26939407069523,2037.15,3058.053,2807.702,1016.877,-0.05591946,-0.003220827,0.1099609,-0.320390671491623,-0.409155577421188,0.312618374824524,-0.411079067636589,-0.176875838584386,0.254477525278661,7
0.959999084472656,-0.0991957932710648,2.67301273345947,1.27894079685211,-0.212762239776093,2.87427073255068,1.27456705187416,2033.453,3057.258,2807.652,1024.871,-0.05567658,-0.003557983,0.1107007,-0.336990207433701,-0.40639516711235,0.318134397268295,-0.424544411524882,-0.18266959988136,0.262813214588797,7
0.979999542236328,-0.106263130903244,2.66494059562683,1.28540849685669,-0.221388311353785,2.87055917493534,1.27990700109753,2034.127,3062.134,2816.764,1013.137,-0.05570587,-0.003875965,0.1113457,-0.353366404771805,-0.40361088514328,0.32338359951973,-0.438048819599778,-0.188480169406503,0.271173086491326,7
0.999996185302734,-0.113654479384422,2.65692329406738,1.29198467731476,-0.230283076085251,2.86673200616235,1.28541328418271,2030.733,3059.537,2817.257,1022.889,-0.05585128,-0.00415826,0.1118454,-0.369568556547165,-0.400862157344818,0.328807175159454,-0.45158141622203,-0.194302867676075,0.279550408447474,7
1.01999664306641,-0.121364966034889,2.64895987510681,1.29866325855255,-0.239450461003889,2.86278753653895,1.29108833215045,2033.241,3064.586,2828.914,1007.036,-0.05623424,-0.004423511,0.1122987,-0.385524392127991,-0.398167878389359,0.333930820226669,-0.465139182559269,-0.200136395770846,0.2879433116562,7
1.03999710083008,-0.129391252994537,2.64104819297791,1.30545115470886,-0.248889165986195,2.85872632547195,1.29693134016237,2031.116,3060.536,2825.603,1021.624,-0.0566497,-0.004649879,0.1126157,-0.401314467191696,-0.395584017038345,0.339395970106125,-0.478711464817306,-0.205976169660809,0.296345200911388,7
1.05999755859375,-0.137727826833725,2.63318610191345,1.31233978271484,-0.258599401509697,2.85454828239877,1.30294243851408,2036.672,3067.832,2839.306,998.592,-0.05731655,-0.004863997,0.1129316,-0.416829615831375,-0.393109411001205,0.344431281089783,-0.492290296490434,-0.211818761581115,0.30475114456651,7
1.07999801635742,-0.146371722221375,2.62537002563477,1.31933891773224,-0.268581219802083,2.85025338484727,1.30912165953701,2032.833,3060.707,2832.524,1022.35,-0.05793814,-0.005031777,0.1130995,-0.432192772626877,-0.390803098678589,0.349956452846527,-0.50586781946303,-0.217660790404144,0.31315627807366,7
1.09999847412109,-0.155316740274429,2.6175971031189,1.32643675804138,-0.278834517009062,2.84584167750307,1.31546893894041,2041.825,3070.855,2849.973,989.4888,-0.05884681,-0.005193697,0.1133064,-0.447252452373505,-0.388642400503159,0.354891330003738,-0.519436284009554,-0.223498921639497,0.321555803983559,7
1.11999893188477,-0.164560437202454,2.60986328125,1.33364725112915,-0.289359035362208,2.84131327127672,1.32198411715334,2036.307,3060.821,2839.014,1023.103,-0.05963776,-0.005300756,0.1133456,-0.462184876203537,-0.386696875095367,0.360523402690887,-0.532988048794549,-0.229329867434001,0.329944991945551,8
1.13999938964844,-0.174096003174782,2.60216498374939,1.34095370769501,-0.300154365346813,2.83666834237095,1.3286669406667,2048.555,3074.537,2862.853,977.0707,-0.06078292,-0.005410478,0.1134785,-0.476777970790863,-0.384920060634613,0.36532324552536,-0.546515580872639,-0.235150386571708,0.338319178707607,8
1.15999984741211,-0.183921724557877,2.59449696540833,1.3483761548996,-0.311219947869739,2.83190713134792,1.33551706337518,2039.841,3059.902,2846.354,1025.362,-0.06170704,-0.005454154,0.113411,-0.491287022829056,-0.383402615785599,0.371124625205994,-0.560011455688534,-0.240957284473894,0.346673768116318,8
1.17999649047852,-0.194029942154884,2.58685564994812,1.35589110851288,-0.322552888823985,2.82703088346102,1.34253269368871,2056.672,3078.741,2879.541,960.0699,-0.06308176,-0.005515406,0.1135136,-0.50541090965271,-0.382063508033752,0.375746041536331,-0.573465794611364,-0.246746310641672,0.355002644828593,8
1.19999694824219,-0.20442034304142,2.5792350769043,1.36352729797363,-0.334156660511822,2.8220381046756,1.34971598112778,2042.8,3057.195,2854.851,1030.244,-0.06407353,-0.005494101,0.1133633,-0.519518435001373,-0.38102662563324,0.381807416677475,-0.58687652428584,-0.252516572968185,0.36330452533874,8
1.21999740600586,-0.215083986520767,2.57163190841675,1.37125194072723,-0.346028131869748,2.8169301422008,1.35706498741494,2067.18,3083.837,2898.993,938.066,-0.06564692,-0.005511678,0.1134802,-0.533182859420776,-0.380160987377167,0.38623371720314,-0.600233974716476,-0.258263910724523,0.371573423458908,8
1.23999786376953,-0.226022452116013,2.5640389919281,1.37910592556,-0.358166167196084,2.81170748469733,1.36457900949675,2046.745,3053.663,2860.904,1038.693,-0.06663602,-0.005427522,0.1132636,-0.546925127506256,-0.379641443490982,0.392698913812637,-0.613531154887641,-0.263985315871967,0.379805011417393,8
1.2599983215332,-0.237225115299225,2.55645370483398,1.3870415687561,-0.370569492049568,2.80637068052165,1.37225725843336,2079.188,3090.279,2922.659,909.5861,-0.06840649,-0.005411011,0.1134466,-0.560130655765533,-0.379261881113052,0.396784633398056,-0.626761182173783,-0.269677827009021,0.387995028541113,8
1.27999877929688,-0.248696267604828,2.54886817932129,1.39511859416962,-0.383236695417198,2.80092033679326,1.3800988607405,2048.898,3046.824,2863.656,1056.876,-0.06927681,-0.005259211,0.1131545,-0.573559820652008,-0.379280537366867,0.403850167989731,-0.639917282339435,-0.275338529371412,0.396139281255613,8
1.29999923706055,-0.26042240858078,2.54128074645996,1.40326702594757,-0.396166231882091,2.79535711846185,1.3881028597315,2095.483,3100.177,2950.531,869.468,-0.07125927,-0.005221926,0.1134546,-0.586305201053619,-0.379374355077744,0.407423496246338,-0.652992789539212,-0.280964554832093,0.404233643085061,8
1.31999969482422,-0.272412031888962,2.53368210792542,1.41157388687134,-0.409356423791328,2.7896817473746,1.39626821685929,2048.871,3036.675,2860.332,1087.803,-0.0718947,-0.004999286,0.1130623,-0.5994833111763,-0.379937082529068,0.41534498333931,-0.665981146317813,-0.286553081901244,0.412274054652251,8
1.33999633789063,-0.284647017717361,2.52607274055481,1.41993606090546,-0.422802873722428,2.78389611561957,1.40459220990988,2115.914,3114.576,2984.69,814.2012,-0.07414826,-0.004957208,0.1135403,-0.611750781536102,-0.380468398332596,0.418110191822052,-0.678873453515705,-0.29210028151913,0.420255006953505,8
1.3599967956543,-0.297142118215561,2.51844120025635,1.42848074436188,-0.436508776648329,2.77799884848916,1.41307681672372,2044.167,3021.094,2849.114,1137.917,-0.07440073,-0.004654673,0.1129989,-0.624754965305328,-0.381573408842087,0.427232921123505,-0.691668290305691,-0.297605542343502,0.428175620429107,9
1.37999725341797,-0.309872359037399,2.51079154014587,1.43705642223358,-0.450469530727146,2.77199192602736,1.42171918854144,2142.411,3135.576,3027.643,736.7366,-0.07702767,-0.004629639,0.113731,-0.636509954929352,-0.382484316825867,0.428784281015396,-0.704356955827446,-0.303065120637236,0.436030508832034,9
1.39999771118164,-0.322861194610596,2.50310897827148,1.44584929943085,-0.464682951063699,2.76587628833354,1.43051797280888,2033.986,2998.883,2824.309,1215.047,-0.07671875,-0.004232296,0.1129618,-0.649443924427032,-0.384132504463196,0.439644783735275,-0.716933326165324,-0.308476381450513,0.44381588116678,9
1.41999816894531,-0.336073338985443,2.49540209770203,1.45463466644287,-0.47914673136562,2.75965292774086,1.43947174182117,2175.768,3165.996,3086.171,625.7746,-0.0799172,-0.004254133,0.1140669,-0.660608172416687,-0.38534027338028,0.439269930124283,-0.729391385793766,-0.313836736470737,0.451528013536465,9
1.43999862670898,-0.349545836448669,2.48765110969543,1.46368837356567,-0.4938584461112,2.75332288788357,1.44857899406484,2012.171,2964.187,2780.94,1336.741,-0.07875074,-0.003731621,0.1129379,-0.673621654510498,-0.387546390295029,0.452687382698059,-0.741725227577294,-0.31914364402254,0.459163249142831,9
1.45999908447266,-0.363227248191833,2.47987222671509,1.47267615795135,-0.508815552717244,2.74688726276417,1.45783815555978,2222.101,3211.802,3166.836,461.7577,-0.08281046,-0.003842409,0.1145891,-0.684072613716125,-0.388938367366791,0.449390053749084,-0.753929052770513,-0.324394609067776,0.466717998286247,9
1.47999954223633,-0.37717479467392,2.47203731536865,1.48200821876526,-0.524015393706918,2.74034719582071,1.46724758120123,1973.866,2912.31,2707.988,1524.196,-0.08036568,-0.003148389,0.1129062,-0.697378158569336,-0.391740262508392,0.466600775718689,-0.76599717101811,-0.329587183205524,0.474188738365705,9
1.49999618530273,-0.391313076019287,2.4641740322113,1.49118530750275,-0.539452231337361,2.73370515584365,1.47680371905302,2286.513,3280.548,3280.214,219.8934,-0.08573994,-0.003407248,0.1153636,-0.706914722919464,-0.393163532018661,0.458854764699936,-0.777921739365859,-0.334717991831687,0.481570614218926,9
1.51999664306641,-0.405729532241821,2.45624113082886,1.50081944465637,-0.555129074991064,2.72695984797977,1.48650843206629,1909.094,2834.458,2590.32,1812.488,-0.08138407,-0.002461293,0.1128313,-0.720824122428894,-0.396639496088028,0.481709957122803,-0.789701834723693,-0.339786637766398,0.488863054409188,9
1.53999710083008,-0.420318096876144,2.44827914237976,1.51021528244019,-0.571040013494911,2.72011381564173,1.49635806094328,2269.017,3466.708,3332.783,0,-0.0878481,-0.002497512,0.1166845,-0.729425549507141,-0.398095607757568,0.469793319702148,-0.801329803423436,-0.344789827850059,0.496061320951293,9
1.55999755859375,-0.435195207595825,2.44023752212524,1.52015614509583,-0.587181951496087,2.71316839067337,1.50635068951315,1881.088,2700.992,2459.889,2127.166,-0.08159393,-0.001003479,0.1132763,-0.74385792016983,-0.402086228132248,0.497045040130615,-0.812800388649436,-0.349725300221754,0.503162159625937,9
1.57999801635742,-0.450234830379486,2.43216371536255,1.5298445224762,-0.603551689586986,2.70612494969039,1.51648433719019,2126.677,3722.291,3225.223,0,-0.08775488,4.36201E-05,0.1182624,-0.751980304718018,-0.403696030378342,0.484416663646698,-0.824108441976122,-0.354590839657789,0.510162383312438,9
1.59999847412109,-0.465555429458618,2.42401361465454,1.54003500938416,-0.620145926473056,2.69898491314762,1.52675696031579,1990.459,2542.004,2438.431,2204.851,-0.08136277,0.002412983,0.1142002,-0.766030251979828,-0.407503634691238,0.509523391723633,-0.835248923368005,-0.359384277571697,0.517058871988737,9
1.61999893188477,-0.481032580137253,2.41583585739136,1.54996371269226,-0.636961261140657,2.69174974440622,1.53716645350051,2197.768,3664.303,3226.756,0,-0.08763345,0.004156899,0.1178768,-0.773859322071075,-0.408883929252625,0.496438324451447,-0.846216901179681,-0.364103492014234,0.523848572731403,9
1.63999938964844,-0.496776878833771,2.40758991241455,1.56035327911377,-0.653994195024907,2.68442094880091,1.54771065096602,2081.024,2522.741,2531.444,2051.353,-0.08256438,0.006847881,0.1128029,-0.787216305732727,-0.412299811840057,0.519478738307953,-0.857007552155828,-0.368746407673381,0.530528499715628,9
1.65999603271484,-0.512672066688538,2.39931607246399,1.57051908969879,-0.671237824488362,2.67700149677403,1.55838527903188,2196.349,3664.043,3244.066,0,-0.08942575,0.008910552,0.1154765,-0.794760644435883,-0.413696527481079,0.50829005241394,-0.867614155697522,-0.373310132863173,0.537094492570531,9
1.67999649047852,-0.528811514377594,2.39097547531128,1.58107268810272,-0.688695041988866,2.66949014378176,1.56919212826729,2130.073,2541.21,2700.13,1815.674,-0.08645473,0.01154303,0.1105542,-0.806970417499542,-0.417030304670334,0.52768212556839,-0.878036152828799,-0.377794427071868,0.543546205263364,9
1.69999694824219,-0.545096457004547,2.3826003074646,1.59143543243408,-0.706358800111611,2.66188992212981,1.58012683598675,2251.274,3520.261,3346.734,0,-0.09363248,0.01331675,0.1123861,-0.814249873161316,-0.418753892183304,0.518135845661163,-0.888267004546665,-0.382196476749158,0.549879589839776,9
1.71999740600586,-0.561610639095306,2.37414956092834,1.60216379165649,-0.724225231782013,2.65420249571236,1.5911870082869,2124.572,2610.211,2846.474,1609.88,-0.09162766,0.01545702,0.1081477,-0.825705587863922,-0.422542244195938,0.536420464515686,-0.898302321135456,-0.386514393123025,0.556091928856661,9
1.73999786376953,-0.578266680240631,2.36565113067627,1.61273837089539,-0.742290383213093,2.64642956573347,1.60237019758524,2259.065,3456.897,3411.23,0,-0.0983319,0.01668022,0.1103219,-0.832801878452301,-0.424920409917831,0.528731822967529,-0.908137821269591,-0.39074633405868,0.562180571969536,9
1.7599983215332,-0.595144033432007,2.35706305503845,1.62367868423462,-0.760550216073323,2.63857286977439,1.61367390396219,2104.173,2656.984,2901.756,1530.336,-0.09591109,0.01825001,0.1072153,-0.843868911266327,-0.429409772157669,0.547013759613037,-0.917769332013572,-0.394890504058555,0.568142935932543,9
1.77999877929688,-0.612160086631775,2.34841656684875,1.63447427749634,-0.779000609654483,2.63063418086074,1.62509557650306,2294.892,3397.515,3438.969,0,-0.1016406,0.01881518,0.1100553,-0.850801587104797,-0.432318955659866,0.53977769613266,-0.927192788821983,-0.398945154262308,0.57397650459845,9
1.79999923706055,-0.629398167133331,2.33966898918152,1.64566564559937,-0.79763736303951,2.62261530652977,1.63663261464007,2076.853,2689.38,2856.531,1576.359,-0.09779287,0.01987919,0.107666,-0.861904442310333,-0.437380522489548,0.559567987918854,-0.936404235539493,-0.402908582446823,0.579678828918647,9
1.81999588012695,-0.646770477294922,2.33085918426514,1.65670323371887,-0.816452590859454,2.61451963963547,1.64828013695421,2299.072,3431.685,3401.777,0,-0.1026436,0.02000415,0.1113816,-0.86861515045166,-0.440492928028107,0.551878809928894,-0.945398129488514,-0.406778403752778,0.585246477711674,9
1.83999633789063,-0.664367020130157,2.32194495201111,1.66815876960754,-0.835449117627072,2.60634596486888,1.66003989195343,2059.074,2684.788,2763.498,1697.669,-0.0974195,0.02083859,0.1092585,-0.879830718040466,-0.445710003376007,0.572777807712555,-0.954174163352093,-0.410554485950274,0.590679260733698,9
1.8599967956543,-0.682092368602753,2.31297278404236,1.67943382263184,-0.854618942724365,2.59809772467243,1.67190692687406,2301.885,3476.029,3356.096,0,-0.1018643,0.0207999,0.113449,-0.886265277862549,-0.448612540960312,0.563751935958862,-0.962726969681477,-0.41423451957606,0.595973855278252,9
1.87999725341797,-0.70004403591156,2.30390119552612,1.69114148616791,-0.873957566090845,2.58977685529642,1.6838784559643,2051.624,2664.316,2681.57,1815.404,-0.0958003,0.02163858,0.1110751,-0.897587299346924,-0.45357757806778,0.58538419008255,-0.971053025860989,-0.417816988947023,0.601128080678429,9
1.89999771118164,-0.718119084835052,2.29478025436401,1.70264494419098,-0.893460418296025,2.58138532283915,1.69595165052899,2280.1,3539.245,3317.928,0,-0.1002574,0.0217072,0.1154386,-0.90375018119812,-0.456043601036072,0.575174450874329,-0.979148917665041,-0.421300425017273,0.606139823365946,9
1.91999816894531,-0.736419439315796,2.28557014465332,1.71457695960999,-0.913122862707269,2.57292512231409,1.70812364027167,2058.494,2631.609,2648.045,1881.175,-0.09401385,0.02270851,0.1126659,-0.915017664432526,-0.460490047931671,0.596603691577911,-0.987011339258123,-0.424683405378145,0.611007036871143,9
1.93999862670898,-0.754838764667511,2.27632141113281,1.72629141807556,-0.932940197657643,2.56439827671719,1.72039151463653,2267.526,3565.719,3308.755,0,-0.09862431,0.02297154,0.1168217,-0.920963108539581,-0.462443232536316,0.585720539093018,-0.99463709319481,-0.4279645542582,0.615727741822989,9
1.95999908447266,-0.773479342460632,2.26699542999268,1.73842215538025,-0.952907658613767,2.55580683609405,1.73275232415044,2074.331,2610.638,2660.627,1877.812,-0.09260503,0.02411767,0.1136692,-0.932032942771912,-0.46629610657692,0.60653680562973,-1.00202309041976,-0.431142542523221,0.620300025949072,9
1.97999954223633,-0.792235136032104,2.25763964653015,1.75033497810364,-0.973020420343666,2.54715287660719,1.74520308176496,2260.435,3568.247,3316.979,0,-0.0973183,0.02451632,0.1174894,-0.937792897224426,-0.467789113521576,0.595641195774078,-1.00916635026771,-0.434216087676217,0.62472204407561,9
1.99999618530273,-0.811205923557281,2.24821758270264,1.76264786720276,-0.993269723110518,2.53844016732665,1.7577383647857,2090.09,2605.216,2695.905,1831.914,-0.09164843,0.02570174,0.1141458,-0.94853550195694,-0.471105664968491,0.615647673606873,-1.01606270846678,-0.437183397947334,0.628991218319934,9
2.01999664306641,-0.830287575721741,2.23877310752869,1.77474689483643,-1.01365835337184,2.52966750931758,1.77035989816261,2263.509,3546.269,3336.095,0,-0.09633985,0.02608951,0.1176458,-0.954087316989899,-0.472218781709671,0.604949653148651,-1.02271203275434,-0.440044416427654,0.633107466805174,9
2.03999710083008,-0.849577009677887,2.22927093505859,1.78723609447479,-1.03417746715556,2.52083870789413,1.78306220705567,2096.486,2614.021,2725.409,1783.186,-0.09084948,0.02718905,0.1142631,-0.964471578598022,-0.475114464759827,0.624458849430084,-1.02911032850577,-0.442797424341804,0.637068316668402,9
2.05999755859375,-0.868972301483154,2.21975255012512,1.79951465129852,-1.05482201812353,2.5119559343546,1.79584216754118,2265.381,3529.58,3346.537,0,-0.09541414,0.02745282,0.1176286,-0.969760239124298,-0.475921541452408,0.613930940628052,-1.03525504859546,-0.445441325732794,0.640872191117535,9
2.07999801635742,-0.888567686080933,2.21018314361572,1.81217682361603,-1.07558691007788,2.50302138145056,1.8086966248299,2091.975,2624.283,2735.888,1759.337,-0.08987796,0.02840568,0.1143167,-0.979775428771973,-0.47847580909729,0.633106529712677,-1.04114375428791,-0.447975071280863,0.644517580459114,9
2.09999847412109,-0.908262431621552,2.20060348510742,1.82462465763092,-1.09646699912883,2.4940372624541,1.82162239460902,2268.03,3515.023,3350.15,0,-0.09425513,0.02848904,0.1176641,-0.984734952449799,-0.478984445333481,0.622389018535614,-1.04677411523768,-0.450397658303471,0.648003042098304,9
2.11999893188477,-0.92815089225769,2.19097900390625,1.83745658397675,-1.11745709586255,2.485005810225,1.83461626438416,2080.427,2632.315,2722.572,1766.927,-0.08844518,0.02928874,0.1143892,-0.994424760341644,-0.481219977140427,0.641594290733337,-1.0521439094894,-0.452708130755304,0.651327200538896,9
2.13999938964844,-0.948130786418915,2.18135094642639,1.85006463527679,-1.138551967509,2.47592927627801,1.8476749948214,2260.949,3520.995,3339.944,0,-0.09264871,0.0292229,0.1178363,-0.998995780944824,-0.481403112411499,0.630401432514191,-1.05725102347782,-0.454905579228273,0.654488747383304,8
2.15999603271484,-0.968298077583313,2.17168545722961,1.86305785179138,-1.15974228854654,2.4668116731246,1.86079281297862,2067.774,2630.108,2693.337,1800.199,-0.08648722,0.0299265,0.1145272,-1.00836372375488,-0.483279585838318,0.649662613868713,-1.06209255378819,-0.456988754464129,0.657485885279498,8
2.17999649047852,-0.988548099994659,2.16202402114868,1.87581217288971,-1.18103083166728,2.45765180775279,1.8739714352843,2251.122,3532.719,3324.921,0,-0.09057996,0.02977643,0.118044,-1.01250028610229,-0.483077496290207,0.63771516084671,-1.06666845113384,-0.45895763525619,0.660318583716675,7
2.19999694824219,-1.00897872447968,2.15233325958252,1.88895308971405,-1.20240821395574,2.44845371736898,1.88720505326679,2057.708,2621.037,2658.917,1842.11,-0.08409943,0.03044603,0.114575,-1.02153491973877,-0.48453077673912,0.657043695449829,-1.07097597819164,-0.460811043810786,0.662985148161421,7
2.21999740600586,-1.02948296070099,2.14265537261963,1.90183997154236,-1.22386905090202,2.43921971877738,1.90049033365798,2236.631,3553.518,3304.404,0,-0.08817833,0.03028744,0.1181045,-1.02521157264709,-0.483905613422394,0.644345819950104,-1.07501345493598,-0.46254825725983,0.665484538597853,7
2.23999786376953,-1.05015957355499,2.13295793533325,1.91510796546936,-1.24540792547886,2.42995214277345,1.91382392305993,2051.255,2606.509,2633.358,1875.32,-0.08155718,0.03097351,0.1144215,-1.03383207321167,-0.484878033399582,0.663399577140808,-1.07877930973132,-0.464168599372462,0.667815782108711,5
2.2599983215332,-1.07090032100677,2.12328171730042,1.92810773849487,-1.26701939030951,2.42065333321126,1.92720244928693,2226.271,3561.932,3291.585,0,-0.08568987,0.03083326,0.1178254,-1.03703212738037,-0.483812510967255,0.649991095066071,-1.08227207933222,-0.465671440555045,0.66997797287536,4
2.27999877929688,-1.0918036699295,2.11359572410583,1.94148147106171,-1.28869796983554,2.41132564607061,1.9406225227075,2046.989,2595.625,2619.224,1890.126,-0.07906818,0.03153318,0.1139007,-1.04517507553101,-0.484296888113022,0.668687880039215,-1.08549040888332,-0.467056197851165,0.67197027217779,3
2.29999923706055,-1.11276137828827,2.10393905639648,1.95457673072815,-1.31043816248474,2.40197144852433,1.95408073758635,2213.539,3568.564,3281.967,0,-0.08328397,0.03140941,0.1171547,-1.04788315296173,-0.482823550701141,0.654761850833893,-1.08843305191934,-0.468322334941636,0.673791908394614,0
2.31999588012695,-1.13387095928192,2.09428215026855,1.9680358171463,-1.33223028062798,2.39259490888859,1.96757109681956,2042.617,2587.086,2613.95,1891.91,-0.07674751,0.03210272,0.1130493,-1.05547595024109,-0.482856631278992,0.672953546047211,-1.09109838837379,-0.469469154757102,0.675441878627497,0
2.33999633789063,-1.15502429008484,2.08466196060181,1.98120713233948,-1.35407709248145,2.38319483607731,1.98109531406483,2204.873,3563.558,3278.693,0,-0.08102401,0.03195699,0.1161359,-1.05767202377319,-0.481020748615265,0.658563137054443,-1.09348640563071,-0.470496651869278,0.67692017506657,0
2.3599967956543,-1.17631828784943,2.07504844665527,1.99473476409912,-1.37596887940059,2.37377541175173,1.99464737301821,2035.772,2583.391,2608.994,1889.808,-0.07453549,0.03260638,0.1118918,-1.0646915435791,-0.480665147304535,0.676384031772614,-1.09559564748259,-0.471404199712748,0.678225896250009,0
2.37999725341797,-1.19764542579651,2.06547808647156,2.00796699523926,-1.39790005743958,2.36433903852774,2.00822381695123,2194.985,3562.224,3271.488,0,-0.07884555,0.03240905,0.1148783,-1.06635737419128,-0.478522449731827,0.661612629890442,-1.09742530100382,-0.472191448508328,0.679358538938131,0
2.39999771118164,-1.21910071372986,2.05592155456543,2.0215470790863,-1.41986502747765,2.35488812555058,2.02182117974142,2025.422,2579.731,2601.784,1891.895,-0.07236501,0.03299515,0.1105582,-1.07277226448059,-0.477831035852432,0.679007649421692,-1.09897466165884,-0.47285809511406,0.680317666989874,0
2.41999816894531,-1.24057853221893,2.04641342163086,2.03482246398926,-1.44185817738692,2.34542508756209,2.03543598721428,2189.367,3554.214,3265.575,0,-0.0766756,0.03271485,0.1134522,-1.07388925552368,-0.475412249565125,0.663766801357269,-1.10024313330221,-0.473403883025206,0.681102911362803,0
2.43999862670898,-1.2621728181839,2.03692483901978,2.04844117164612,-1.46387388420027,2.33595234396796,2.0490647584853,2012.436,2578.483,2587.838,1900.57,-0.07012316,0.03321977,0.1090536,-1.07971024513245,-0.474424570798874,0.680930972099304,-1.10123022817855,-0.473828602374257,0.681713970113108,0
2.45999908447266,-1.2837780714035,2.02748966217041,2.06174468994141,-1.48590651627916,2.32647231790489,2.06270400730194,2178.798,3555.399,3254.347,0,-0.0744279,0.03285801,0.1119244,-1.08026027679443,-0.471753895282745,0.665180742740631,-1.10193556692257,-0.474132089930926,0.682150608395601,0
2.47999572753906,-1.30548763275146,2.01807999610901,2.07538723945618,-1.50794623031618,2.31698924467309,2.07634764018804,1998.314,2573.918,2567.93,1918.987,-0.06776307,0.03329464,0.1074521,-1.08548319339752,-0.470489144325256,0.682130515575409,-1.10235882472314,-0.474314205938057,0.682412625136718,0
2.49999618530273,-1.32719671726227,2.00872826576233,2.08870220184326,-1.52999579362571,2.30750193357449,2.089997370243,2168.671,3556.179,3242.406,0,-0.07206887,0.03286374,0.1103,-1.08545184135437,-0.467570662498474,0.665751814842224,-1.10250000049778,-0.474374949929889,0.682500019666355,0
2.51999664306641,-1.34899854660034,1.99940776824951,2.10235381126404,-1.55204535801192,2.29801462201262,2.10364710096447,1984.419,2567.581,2543.877,1943.063,-0.06526449,0.03324779,0.1057136,-1.09008312225342,-0.466033577919006,0.682584047317505,-1.10235893238473,-0.47431425226183,0.68241269178437,0
2.53999710083008,-1.37078785896301,1.99015045166016,2.11566591262817,-1.57408927882895,2.2885297387209,2.11729333804778,2156.208,3563.915,3225.477,0,-0.06960171,0.03277543,0.1085456,-1.08946633338928,-0.462873965501785,0.665605008602142,-1.10193567455836,-0.474132136243598,0.68215067502728,0
2.55999755859375,-1.39265727996826,1.98092913627625,2.1293089389801,-1.59612191359838,2.27904971150017,2.13093258853001,1971.229,2558.246,2522.472,1966.179,-0.06272117,0.03312844,0.1038391,-1.0934751033783,-0.461062043905258,0.682148694992065,-1.10123038958312,-0.473828671822132,0.681714070030222,0
2.57999801635742,-1.4145028591156,1.97177600860596,2.14260005950928,-1.6181376241771,2.2695769662859,2.14456136213196,2147.15,3564.128,3212.721,0,-0.06711059,0.03262163,0.1065935,-1.09227216243744,-0.457665175199509,0.664554476737976,-1.10024334841354,-0.473403975581601,0.681103044526962,0
2.59999847412109,-1.43641567230225,1.96266412734985,2.15621709823608,-1.64013077892511,2.26011392621545,2.15817617260023,1958.659,2551.194,2504.531,1983.002,-0.06019223,0.03294119,0.1017492,-1.09564673900604,-0.455589324235916,0.68084841966629,-1.09897493039424,-0.472858210743393,0.680317833349887,0
2.61999893188477,-1.45829284191132,1.9536247253418,2.16947174072266,-1.66209575487342,2.25066301069528,2.17177353904914,2135.407,3567.067,3199.819,0,-0.06464664,0.03240532,0.1044363,-1.09385871887207,-0.451977640390396,0.662738263607025,-1.09742562325992,-0.472191587166126,0.67935873843001,0
2.63999557495117,-1.48022449016571,1.94463133811951,2.18304586410522,-1.68402276052401,2.24122843273345,2.18534740007499,1946.194,2544.227,2489.82,1995.879,-0.05772562,0.0326893,0.09948705,-1.09657657146454,-0.449661195278168,0.678710341453552,-1.09559639877797,-0.471404522974156,0.678226361337632,0
2.65999603271484,-1.50210857391357,1.93571424484253,2.19624757766724,-1.70591456353497,2.23180900148401,2.19889946898997,2126.163,3563.473,3190.783,0,-0.06223381,0.0321119,0.1020941,-1.09420394897461,-0.445856750011444,0.660082578659058,-1.09348726343002,-0.470497020956359,0.676920706085208,0
2.67999649047852,-1.52403366565704,1.9268479347229,2.20976448059082,-1.72776139360717,2.22240892083372,2.2124236975135,1933,2539.461,2474.659,2007.748,-0.05528296,0.0323475,0.09704817,-1.09626948833466,-0.443329304456711,0.675849378108978,-1.09109935234628,-0.469469569527535,0.67544247537239,0
2.69999694824219,-1.54590010643005,1.91806054115295,2.22290015220642,-1.74955768413056,2.21303058593937,2.22591663964878,2115.898,3564.386,3177.95,0,-0.05983963,0.03172331,0.09961224,-1.09331834316254,-0.43935963511467,0.656788468360901,-1.08843358680109,-0.468322565086308,0.673792239511893,0
2.71999740600586,-1.56779444217682,1.90932774543762,2.23634505271912,-1.77129788800495,2.2036763835632,2.23937486147656,1918.238,2533.988,2460.37,2020.444,-0.05286694,0.03190872,0.09450714,-1.09471797943115,-0.436643809080124,0.672242820262909,-1.08549099645889,-0.467056450668518,0.671970635915057,0
2.73999786376953,-1.58961844444275,1.90067720413208,2.24939918518066,-1.79297647980783,2.19434869114016,2.25279494249708,2109.876,3557.537,3168.581,0,-0.05745504,0.03122165,0.09700477,-1.0911945104599,-0.432522416114807,0.652701914310455,-1.08227271937422,-0.465671715947234,0.669978369091845,0
2.7599983215332,-1.61145734786987,1.89208447933197,2.2627592086792,-1.81458795796224,2.18504987584512,2.26617347697213,1902.621,2531.428,2443.633,2033.861,-0.05042323,0.03134369,0.09183295,-1.09194588661194,-0.429637491703033,0.668002247810364,-1.07878000199166,-0.464168897232749,0.667816210650842,0
2.77999877929688,-1.63321447372437,1.8835768699646,2.27571940422058,-1.83612684690458,2.17578229366013,2.27950707526701,2099.621,3557.982,3155.866,0,-0.05504008,0.03059632,0.09431574,-1.087855219841,-0.425380021333694,0.648007810115814,-1.07501419914593,-0.462548577472581,0.665484999299265,0
2.79999923706055,-1.65497374534607,1.87513017654419,2.28898215293884,-1.85758769925251,2.16654828844162,2.29279236519255,1886.46,2526.762,2424.628,2051.919,-0.04793371,0.03066202,0.08909595,-1.08796274662018,-0.422337770462036,0.663134396076202,-1.07097677406178,-0.460811386251471,0.662985640842947,0
2.81999588012695,-1.67664003372192,1.86677122116089,2.30183482170105,-1.87896102895071,2.15735194177419,2.30602347442862,2091.753,3555.296,3143.781,0,-0.05257879,0.02985615,0.09155454,-1.08331370353699,-0.41794815659523,0.64262855052948,-1.06667014556453,-0.458958364322378,0.660319632649988,0
2.83999633789063,-1.69829571247101,1.85847640037537,2.31498742103577,-1.90024960698239,2.14819206138118,2.31920211834584,1869.408,2521.979,2404.869,2071.946,-0.04537654,0.02987019,0.08627122,-1.08279001712799,-0.414751291275024,0.657630324363708,-1.06209435025759,-0.456989527434725,0.657486997379635,0
2.8599967956543,-1.71984767913818,1.85027146339417,2.32772064208984,-1.9214439980555,2.13907270700516,2.33232245604895,2083.083,3555.827,3129.305,0,-0.05004666,0.02901508,0.0887109,-1.07759630680084,-0.410232275724411,0.636662900447845,-1.05725197237562,-0.454905987512489,0.654489334796247,0
2.87999725341797,-1.74137675762177,1.84213399887085,2.34075093269348,-1.94253888918396,2.12999616467562,2.34538119854648,1854.236,2517.259,2383.973,2091.029,-0.04277996,0.02898238,0.08336582,-1.0764434337616,-0.406880736351013,0.651518821716309,-1.05214490868305,-0.452708560680416,0.651327819087361,0
2.89999771118164,-1.76279091835022,1.8340892791748,2.353351354599,-1.96352900640172,2.1209647036328,2.35837508100222,2074.428,3553.791,3117.3,0,-0.0475028,0.02808152,0.0857751,-1.07071053981781,-0.40223440527916,0.630015730857849,-1.04677516433438,-0.450398109700476,0.648003691539142,0
2.91999816894531,-1.7841694355011,1.82611453533173,2.36624717712402,-1.98440911693069,2.11198057539494,2.37130086407726,1837.541,2512.1,2363.723,2111.701,-0.04015994,0.0280073,0.0803543,-1.06893992424011,-0.398734629154205,0.644785940647125,-1.04114485287423,-0.447975543971863,0.644518260536375,0
2.93999862670898,-1.80542325973511,1.818235039711,2.37870359420776,-2.00517403134858,2.10304601282548,2.38415533527198,2063.701,3555.882,3103.304,0,-0.04493072,0.02707428,0.08275148,-1.06268274784088,-0.393969357013702,0.622820019721985,-1.03525619623725,-0.445441819530995,0.640872901562472,0
2.95999908447266,-1.82662904262543,1.81042861938477,2.3914520740509,-2.02581860575671,2.0941632292003,2.39693531026807,1821.955,2505.829,2345.011,2130.582,-0.03753299,0.02696665,0.07727225,-1.06029307842255,-0.390325307846069,0.637427091598511,-1.02911152474823,-0.442797939051516,0.637069057199471,0
2.97999572753906,-1.84769952297211,1.8027195930481,2.40375185012817,-2.04633384260397,2.08533609591429,2.40963521915279,2056.719,3552.087,3091.557,0,-0.04234799,0.02599735,0.07962546,-1.05352640151978,-0.385445237159729,0.614994645118713,-1.02271452148052,-0.440045487257004,0.633109007445237,0
2.99999618530273,-1.86871016025543,1.79508638381958,2.41634130477905,-2.06672252359526,2.07656341607755,2.42225678393395,1805.722,2501.579,2327.676,2146.855,-0.03489753,0.02585041,0.07408455,-1.05052483081818,-0.381662607192993,0.629472613334656,-1.01606529245116,-0.437184509763622,0.628992817929355,0
3.01999664306641,-1.88957548141479,1.78755295276642,2.42847418785095,-2.08697572864857,2.06784902775215,2.4347944826559,2049.117,3550.014,3078.721,0,-0.03975407,0.02484185,0.07640295,-1.04326295852661,-0.376675963401794,0.606640577316284,-1.00916768936771,-0.434216663853534,0.624722873042298,0
3.03999710083008,-1.91036832332611,1.7800977230072,2.44089388847351,-2.10708851762775,2.05919505654068,2.44724525713902,1790.231,2498.464,2309.385,2162.02,-0.03227165,0.02465065,0.07081796,-1.03965425491333,-0.372763484716415,0.620990455150604,-1.00202447609459,-0.431143138740389,0.620300883747801,0
3.05999755859375,-1.93100678920746,1.77274394035339,2.4528477191925,-2.12705600675913,2.05060360379452,2.45960608409476,2041.526,3545.662,3067.983,0,-0.03718678,0.02359744,0.0731078,-1.03190612792969,-0.367679178714752,0.597692787647247,-0.994638524886308,-0.427965170275055,0.615728628108227,0
3.07999801635742,-1.95156073570251,1.76547110080719,2.46508741378784,-2.14687337079936,2.04207674568107,2.47187397646763,1772.416,2495.056,2290.817,2180.316,-0.02964311,0.02336177,0.06747917,-1.02770709991455,-0.363649189472198,0.611983418464661,-0.987012816387451,-0.424684040945629,0.611007951284564,0
3.09999847412109,-1.97195053100586,1.75830149650574,2.47685265541077,-2.16653584520328,2.033616532251,2.4840459847772,2032.618,3544.637,3055.265,0,-0.03459926,0.02227012,0.069765,-1.01949071884155,-0.358475416898727,0.588267683982849,-0.979150439632689,-0.421301079877433,0.606140765536421,0
3.11999893188477,-1.99224472045898,1.7512149810791,2.48890209197998,-2.18603872829175,2.02522498650551,2.49611919846012,1755.679,2490.819,2271.457,2199.039,-0.02699061,0.02199482,0.06410577,-1.01471245288849,-0.354331344366074,0.602475583553314,-0.971054592046769,-0.41781766283301,0.601129050222034,0
3.13999557495117,-2.01236581802368,1.74423348903656,2.50046825408936,-2.20537371089838,2.01690568364676,2.50808847374658,2026.062,3540.422,3043.41,0,-0.03198723,0.02086408,0.06637231,-1.00604522228241,-0.349069386720657,0.578311145305634,-0.962730189199339,-0.414235904844652,0.595975848313175,0
3.15999603271484,-2.03237986564636,1.73733735084534,2.5123176574707,-2.22454360124808,2.00865741537402,2.51995554906156,1738.187,2487.178,2252.042,2218.175,-0.02430348,0.02054974,0.06067238,-1.00070226192474,-0.344811409711838,0.592469394207001,-0.95417746870157,-0.410555908149813,0.590681306902481,0
3.17999649047852,-2.05221199989319,1.73054826259613,2.52367568016052,-2.2435401949712,2.00048371179835,2.53171534550942,2019.163,3538.331,3029.852,0,-0.02934005,0.01938368,0.06292266,-0.991601586341858,-0.339462339878082,0.5679030418396,-0.9454015193052,-0.406779862296197,0.585248576169681,0
3.19999694824219,-2.07192587852478,1.72384643554688,2.53531575202942,-2.2623590635174,1.99238647840124,2.54336512160655,1722.156,2484.098,2231.649,2236.197,-0.02161155,0.01903125,0.05718694,-0.985702514648438,-0.33509036898613,0.581999123096466,-0.936405971974636,-0.402909329586355,0.579679903854719,0
3.21999740600586,-2.09144949913025,1.71725332736969,2.5464551448822,-2.28099585204123,1.98436758895103,2.55490218149615,2012.105,3534.233,3018.428,0,-0.02671364,0.0178312,0.05941652,-0.976181268692017,-0.329658091068268,0.556964695453644,-0.927194566064376,-0.398945918960059,0.573977604796153,0
3.23999786376953,-2.110844373703,1.71074986457825,2.5578761100769,-2.29944628156995,1.97642888457015,2.56632387629027,1704.436,2480.693,2211.953,2255.855,-0.01893028,0.01744411,0.05363958,-0.969741642475128,-0.325179725885391,0.571045935153961,-0.917771149318993,-0.394891285994308,0.568144060931169,0
3.2599983215332,-2.13004064559937,1.70435619354248,2.56878805160522,-2.31770615117141,1.96857217280235,2.57762760541179,2003.726,3532.877,3005.768,0,-0.02408989,0.01621859,0.05586452,-0.959818542003632,-0.319671273231506,0.545598447322845,-0.908139677873146,-0.390747132903322,0.562181721295578,0
3.27999877929688,-2.14909768104553,1.69805443286896,2.57998061180115,-2.33577134012187,1.96079922667992,2.58881081793642,1687.765,2476.703,2192.939,2274.343,-0.01626286,0.01580258,0.05006066,-0.9528489112854,-0.315090984106064,0.559625029563904,-0.898304216251578,-0.386515208538549,0.556093102023818,0
3.29999542236328,-2.16794848442078,1.69186437129974,2.59065580368042,-2.35363442159312,1.95311324175956,2.5998689163037,1997.875,3527.833,2994.461,0,-0.02147893,0.01455023,0.05226335,-0.942543625831604,-0.309511095285416,0.533759236335754,-0.888270870184445,-0.382198140025101,0.549881982853707,0
3.31999588012695,-2.18664956092834,1.68576765060425,2.60161089897156,-2.37129825777079,1.94551298652277,2.61080367234288,1670.568,2473.841,2174.591,2291.824,-0.01360449,0.0141033,0.04642953,-0.935057997703552,-0.304833889007568,0.547758460044861,-0.878040092225563,-0.377796122084242,0.54354864393762,0
3.33999633789063,-2.20513725280762,1.67978405952454,2.61204123497009,-2.38875555478454,1.93800159931817,2.62161057080077,1991.909,3524.079,2982.165,0,-0.01887542,0.01282472,0.04861465,-0.924388766288757,-0.299188047647476,0.521522223949432,-0.867618167158097,-0.373311858882592,0.53709697585572,0
3.3599967956543,-2.22346544265747,1.6738954782486,2.62275099754333,-2.40600253440574,1.930580705812,2.63228727277387,1654.402,2471.802,2155.596,2308.156,-0.01097702,0.01234535,0.04276116,-0.91639906167984,-0.294419258832932,0.535491406917572,-0.85700959304645,-0.368747285811601,0.530529763124145,0
3.37999725341797,-2.24157285690308,1.66812133789063,2.63292765617371,-2.42303550945299,1.9232518924954,2.64283149572124,1985.966,3518.419,2971.834,0,-0.01632038,0.01103892,0.04492923,-0.905382096767426,-0.288715243339539,0.508830845355988,-0.846218976345105,-0.364104384899943,0.523849857357654,0
3.39999771118164,-2.25951099395752,1.66244411468506,2.64338421821594,-2.43985088596004,1.91601670575165,2.65324101480657,1636.861,2469.701,2136.713,2326.221,-0.008383098,0.01052801,0.03905468,-0.896906435489655,-0.283865571022034,0.522826910018921,-0.835251031898626,-0.359385184813519,0.517060177269636,0
3.41999816894531,-2.27722239494324,1.65688180923462,2.65330004692078,-2.45644516534361,1.90887665092339,2.66351366424015,1978.919,3515.599,2960.017,0,-0.01379251,0.009200555,0.04122536,-0.885561883449554,-0.278111636638641,0.495788931846619,-0.824110582941664,-0.354591760855451,0.510163708672097,0
3.43999862670898,-2.29475450515747,1.65141820907593,2.6634955406189,-2.47281494657125,1.90183319137989,2.67364733862088,1619.979,2466.877,2118.185,2344.094,-0.00582167,0.008663944,0.03534364,-0.876615881919861,-0.273187518119812,0.509774506092072,-0.812802561098952,-0.34972623496609,0.503163504475677,0
3.45999526977539,-2.3120539188385,1.6460702419281,2.67314267158508,-2.48895387148596,1.89488906285845,2.6836381019467,1974.391,3509.437,2949.343,0,-0.01129447,0.007315164,0.03750058,-0.864966094493866,-0.267389118671417,0.482352256774902,-0.801334209341438,-0.344791723593488,0.49606404842442,0
3.47999572753906,-2.32916522026062,1.6408224105835,2.68306970596313,-2.50486489870395,1.88804299234919,2.69348778574196,1602.908,2465.195,2100.171,2360.908,-0.003290602,0.006751481,0.0316085,-0.855567157268524,-0.26239600777626,0.496354609727859,-0.789706299681989,-0.339788558913217,0.488865818431069,0
3.49999618530273,-2.34603786468506,1.63569140434265,2.69244146347046,-2.52054183223243,1.88129764581471,2.703192554392,1969.695,3504.42,2938.03,0,-0.008828379,0.005382662,0.03375562,-0.84363204240799,-0.256559073925018,0.46858611702919,-0.777926261338517,-0.334719937510192,0.481573413535413,0
3.51999664306641,-2.36271381378174,1.63066124916077,2.70209360122681,-2.53598168290031,1.87465430941181,2.7127505574575,1586.934,2464.173,2081.539,2376.837,-0.0008122641,0.004792153,0.02785995,-0.833796262741089,-0.251503497362137,0.482612937688828,-0.765999459475408,-0.329588167864767,0.474190155029786,0
3.53999710083008,-2.37914562225342,1.62574827671051,2.7111828327179,-2.55118156992615,1.86811422266028,2.72216001159753,1964.658,3498.446,2928.261,0,-0.006433664,0.003404716,0.03000122,-0.821595072746277,-0.245636999607086,0.454456865787506,-0.753931367647136,-0.324395605094516,0.466719431305148,0
3.55999755859375,-2.39537239074707,1.62093806266785,2.7205536365509,-2.56613872308604,1.86167857751006,2.73141920191151,1569.878,2462.877,2063.543,2394.004,0.001602313,0.002790177,0.02410397,-0.811342358589172,-0.24053105711937,0.468543738126755,-0.741727567798258,-0.319144650954242,0.459164697851087,0
3.57999801635742,-2.41135048866272,1.61624479293823,2.72935461997986,-2.58085048488145,1.85534851740854,2.74052648328127,1959.299,3494.042,2917.703,0,-0.004095942,0.001390524,0.02625168,-0.798897385597229,-0.234644412994385,0.440046429634094,-0.72939375026341,-0.313837753835969,0.451529477255809,0
3.59999847412109,-2.42711520195007,1.61165499687195,2.73843789100647,-2.59531431270705,1.84912513636775,2.74948028171299,1553.606,2461.358,2046.162,2410.306,0.003952524,0.0007570322,0.02036488,-0.788247168064117,-0.229497075080872,0.454169392585754,-0.716935713767317,-0.308477408768949,0.443817359206151,0
3.61999893188477,-2.442626953125,1.60718321800232,2.74694466590881,-2.6095277810186,1.84300947803163,2.75827909567923,1955.768,3487.241,2908.201,0,-0.001822135,-0.000654605,0.02250922,-0.775582194328308,-0.223598599433899,0.425334453582764,-0.704359365424783,-0.303066157419654,0.436032000487571,0
3.63999557495117,-2.45791840553284,1.60281467437744,2.75573515892029,-2.62348594498176,1.83700367002424,2.76691986409198,1537.692,2460.798,2028.982,2425.644,0.006235485,-0.001308145,0.0166317,-0.764555215835571,-0.218418926000595,0.439527690410614,-0.691673151171832,-0.297607633838406,0.428178629536803,0
3.65999603271484,-2.47295212745667,1.59856426715851,2.76394653320313,-2.63719194552437,1.83110636089208,2.77540453133521,1942.903,3487.799,2890.595,10.74288,0.0004519134,-0.00269725,0.01880251,-0.751694917678833,-0.212516203522682,0.410563677549362,-0.678878353700696,-0.292102389931838,0.420258040401444,0
3.67999649047852,-2.48775863647461,1.59441804885864,2.77243757247925,-2.65064103434641,1.825319593696,2.783730157985,1527.702,2458.657,2014.985,2433.07,0.008456342,-0.003345996,0.01296692,-0.740308701992035,-0.207302093505859,0.424555152654648,-0.665983614869008,-0.28655414404986,0.412275582803033,0
3.69999694824219,-2.50230431556702,1.5903902053833,2.78035569190979,-2.66383127580226,1.81964420129024,2.79189554578451,1921.565,3488.091,2858.342,46.22473,0.00280776,-0.004650944,0.01510948,-0.727286577224731,-0.201395824551582,0.395907193422318,-0.65299527533123,-0.280965624398954,0.404235181908735,0
3.71999740600586,-2.51661539077759,1.58646738529205,2.78853702545166,-2.67676086214623,1.81408096149726,2.79989957565303,1528.236,2459.342,2012.257,2414.785,0.01057851,-0.005257613,0.009356938,-0.715548276901245,-0.19613242149353,0.409068167209625,-0.639919784131907,-0.275339605822821,0.396140829984331,0
3.73999786376953,-2.53066325187683,1.58266305923462,2.79616069793701,-2.68942811570037,1.808630596175,2.80774120902801,1901.047,3472.231,2820.385,104.7413,0.005179369,-0.006441654,0.01130213,-0.702388763427734,-0.190227136015892,0.381180644035339,-0.626763698705669,-0.269678909802388,0.38799658639423,0
3.7599983215332,-2.54446911811829,1.57896435260773,2.80402112007141,-2.70183149102237,1.80329377028414,2.81541948920704,1536.528,2472.185,2024.366,2361.27,0.01248761,-0.006999853,0.00567325,-0.690290808677673,-0.184917688369751,0.393024325370789,-0.613533684877225,-0.263986404455806,0.379806577601466,0
3.77999877929688,-2.55800867080688,1.57538390159607,2.81134843826294,-2.7139695770734,1.79807109095524,2.82293354268985,1878.026,3445.464,2779.412,181.5854,0.007395762,-0.008059258,0.007321913,-0.676995158195496,-0.179040044546127,0.366360932588577,-0.60023651686137,-0.258265004538452,0.371574997167698,0
3.79999542236328,-2.57129955291748,1.57190942764282,2.8188784122467,-2.72583886061506,1.79296406983666,2.83028119461452,1546.644,2497.304,2049.914,2279.727,0.0140482,-0.008580172,0.001920824,-0.664532661437988,-0.173723846673965,0.376494884490967,-0.586881630238189,-0.252518769916838,0.363307686166475,0
3.81999588012695,-2.58432149887085,1.56855082511902,2.82590746879578,-2.73744273461857,1.78797124702766,2.83746454539187,1850.937,3407.928,2736.671,276.6717,0.009353694,-0.009523996,0.003247165,-0.651101887226105,-0.167923092842102,0.351451426744461,-0.573470919541002,-0.246748515755721,0.355005817404173,0
3.83999633789063,-2.59708738327026,1.56529784202576,2.83310008049011,-2.74877791451009,1.78309403578861,2.84448156171422,1557.482,2531.89,2083.898,2179.393,0.01527055,-0.01002201,-0.001806688,-0.638294756412506,-0.162653774023056,0.359634757041931,-0.560014026276881,-0.240958390526246,0.346675359432959,0
3.8599967956543,-2.60958194732666,1.56215834617615,2.83983039855957,-2.75984354851568,1.77833280261403,2.85133171629293,1823.254,3361.86,2690.639,385.5782,0.01108375,-0.01086889,-0.0007973504,-0.62474137544632,-0.156975671648979,0.336518228054047,-0.546518158200277,-0.23515149552379,0.33832077419619,0
3.8799934387207,-2.6218147277832,1.55912268161774,2.84668278694153,-2.77063689690088,1.77368872633512,2.85801331310185,1569.042,2573.111,2120.335,2069.377,0.01625876,-0.01135572,-0.00541687,-0.611633777618408,-0.151792213320732,0.342618316411972,-0.532993214116031,-0.229332089927533,0.329948189525607,0
3.89999771118164,-2.63377451896667,1.55619716644287,2.85311412811279,-2.78116350015273,1.7691594230351,2.8645297819664,1795.766,3309.802,2642.001,503.9506,0.01267559,-0.01212005,-0.004717524,-0.597980380058289,-0.14626432955265,0.321570992469788,-0.519438870577852,-0.223500034567577,0.321557405192552,0
3.91999435424805,-2.64546680450439,1.55337357521057,2.85962605476379,-2.79141491937189,1.76474852373659,2.87087589880588,1582.647,2618.089,2154.389,1956.537,0.01713886,-0.01260208,-0.008874185,-0.584628760814667,-0.14118130505085,0.325593233108521,-0.505872997519337,-0.217663018377115,0.313159483537181,0
