t,x_s1,x_s2,x_s3,x_s_d1,x_s_d2,x_s_d3,propellers_rpms1,propellers_rpms2,propellers_rpms3,propellers_rpms4,rollRad,pitchRad,yawRad,v_s1,v_s2,v_s3,v_s_d1,v_s_d2,v_s_d3,insideCount
0,-0.0599999986588955,2.94000005722046,1.17999994754791,-0.0599999986588955,2.94000005722046,1.17999994754791,0,0,0,0,0,0,0,0,0,0,-1.06581410364015E-15,4.44089209850063E-16,4.44089209850063E-16,0
0.0199966430664063,-0.0599999986588955,2.94000005722046,1.1771354675293,-0.0600018680476204,2.93999925287472,1.18000110478858,0,0,0,0,0.0163538,-0.002474609,-2.024222E-05,3.71994488546079E-08,3.50004931704007E-08,-0.143225952982903,-0.000279892991557604,-0.000120430134961378,0.000173267094926113,5
0.0400009155273438,-0.0599999986588955,2.94000005722046,1.17048275470734,-0.0600148724204753,2.93999365745638,1.18000915511487,0,0,0,0,0.03270752,-0.004950816,-5.430172E-05,3.62924410524101E-08,3.44428769949445E-08,-0.332637369632721,-0.00111101934050116,-0.00047804058392963,0.00068777389696065,6
0.05999755859375,-0.0600004345178604,2.94013261795044,1.16416561603546,-0.0600498857373401,2.93997859220429,1.18003083002592,3185.473,2835.817,1501.023,2767.634,0.03127922,-0.00494336,-0.01646952,-2.17786164284917E-05,0.00662230560556054,-0.315859228372574,-0.00247936261166862,-0.00106680046642749,0.00153484356504269,6
0.0799942016601563,-0.0599162243306637,2.94038772583008,1.15857720375061,-0.0601175240668593,2.93994948932069,1.18007270137395,3065.683,3067.238,2155.073,2024.076,0.01897327,-0.004310593,-0.04351445,0.00421056058257818,0.0127498283982277,-0.279422104358673,-0.00437186567523228,-0.00188109166426407,0.00270639311381153,6
0.0999984741210938,-0.0596375651657581,2.94068765640259,1.15374851226807,-0.0602281887669101,2.93990187339187,1.18014120809498,2640.201,3831.766,2620.39,1134.782,-0.005854693,-0.002887932,-0.07014393,0.0139328734949231,0.0149971218779683,-0.241436272859573,-0.00677637982016689,-0.00291568692648091,0.00419490191241918,6
0.1199951171875,-0.059084914624691,2.94089889526367,1.1495703458786,-0.0603918861403606,2.93983143898525,1.18024254456713,2092.321,4101.94,3169.318,755.9096,-0.04012052,-0.0004506069,-0.08993442,0.0276325792074203,0.0105604007840157,-0.208909749984741,-0.00967801353495435,-0.00416417885169243,0.00599115140585487,5
0.139999389648438,-0.0582315064966679,2.94085621833801,1.14596688747406,-0.0606185767455666,2.93973390035084,1.18038287685052,1510.144,4074.802,3735.872,702.0605,-0.07649291,0.002388573,-0.09949676,0.0426703728735447,-0.00213142205029726,-0.180175065994263,-0.0130660253322238,-0.00562194567796536,0.00808849210174802,4
0.159996032714844,-0.057099487632513,2.94039487838745,1.14297831058502,-0.0609176604100223,2.93960521300545,1.18056802388615,1135.368,3846.936,4069.735,879.9127,-0.1062782,0.004335486,-0.09869994,0.0566009618341923,-0.0230698734521866,-0.149430751800537,-0.0169249902365933,-0.00728235046931681,0.0104773752055438,4
0.180000305175781,-0.0557377822697163,2.93938803672791,1.14071142673492,-0.0612986871007165,2.9394412678651,1.18080389755851,1100.784,3565.35,4010.016,1148.989,-0.1236282,0.004492516,-0.0899994,0.0680852830410004,-0.0503410175442696,-0.113343797624111,-0.0212451141043368,-0.00914117907931815,0.0131517376757159,3
0.199996948242188,-0.0541965439915657,2.9377772808075,1.13924884796143,-0.0617704296168641,2.93923829023936,1.18109592864822,1373.552,3339.622,3594.728,1386.237,-0.1278749,0.003023064,-0.07724978,0.0770619511604309,-0.0805371999740601,-0.073130190372467,-0.0260104776919234,-0.0111915819022102,0.0161017247421801,3
0.220001220703125,-0.0525143146514893,2.93557620048523,1.13858413696289,-0.0623420644491781,2.93899233174064,1.18144979784016,1790.593,3212.981,3017.05,1527.103,-0.1229757,0.0008615369,-0.06426048,0.0841115415096283,-0.110051535069942,-0.0332342982292175,-0.03121219533433,-0.0134297356845702,0.019321835755004,3
0.239997863769531,-0.0507196672260761,2.93284702301025,1.13860726356506,-0.0630217183703222,2.93869989564571,1.18187053599376,2159.486,3168.434,2517.198,1558.47,-0.1149665,-0.0009875001,-0.05362275,0.0897324681282043,-0.136454120278358,0.00115353241562843,-0.0368338920540454,-0.0158485947310391,0.02280193382306,3
0.259994506835938,-0.0488373599946499,2.92966485023499,1.13913798332214,-0.0638179029240226,2.93835731967507,1.18236341216003,2351.611,3159.241,2274.083,1495.764,-0.1090532,-0.00190416,-0.04623567,0.0941153988242149,-0.159107759594917,0.0265351571142673,-0.0428651747123285,-0.0184436871643672,0.0265355850983733,3
0.279998779296875,-0.0468918532133102,2.92608761787415,1.13999617099762,-0.0647390625194898,2.93796097043536,1.18293365383054,2352.566,3152.02,2324.306,1363.871,-0.1078138,-0.001744371,-0.04152188,0.0972752124071121,-0.178862661123276,0.0429108701646328,-0.0492963837173861,-0.0212108567320638,0.030516809833474,3
0.299995422363281,-0.0449088588356972,2.92214369773865,1.14106225967407,-0.0657923226682404,2.93750778201804,1.18358567203635,2229.629,3144.149,2572.475,1194.25,-0.1110858,-0.000737163,-0.03798626,0.0991499722003937,-0.197192519903183,0.0533039383590221,-0.0561105313314725,-0.0241427940851591,0.0347350918094591,3
0.319999694824219,-0.0429170355200768,2.91783547401428,1.14229416847229,-0.0669860785243584,2.93699414222283,1.18432466377777,2073.762,3132.723,2873.357,1032.532,-0.1169304,0.0006861268,-0.03397927,0.0995909571647644,-0.215406343340874,0.0615946240723133,-0.0633008373176985,-0.0272365818771378,0.0391862337367069,3
0.339996337890625,-0.0409490577876568,2.91315102577209,1.14370763301849,-0.068326768706371,2.93641728069206,1.18515461486636,1955.524,3107.119,3109.051,921.8162,-0.122841,0.002069497,-0.02837651,0.0983991548418999,-0.234224990010262,0.0706731677055359,-0.0708499516420146,-0.0304847548730522,0.0438594951176439,3
0.360000610351563,-0.0390402935445309,2.90807723999023,1.145343542099,-0.0698225328270578,2.93577369517774,1.1860805641102,1904.355,3065.963,3222.538,880.5309,-0.1267084,0.003092767,-0.02087066,0.0954383239150047,-0.253691911697388,0.0817948207259178,-0.0787518717320621,-0.0338847303337087,0.0487511600740379,3
0.379997253417969,-0.0372258238494396,2.90261030197144,1.14724373817444,-0.0714791088463715,2.935060916796,1.18710606357981,1924.142,3020.954,3206.89,896.2907,-0.1274195,0.003642182,-0.01188675,0.090723492205143,-0.273343205451965,0.0950097069144249,-0.0869889214763108,-0.0374289027221294,0.0538502862508218,3
0.399993896484375,-0.0355373807251453,2.89676141738892,1.14943158626556,-0.0733036822025899,2.9342758538535,1.18823556140379,1990.897,2989.486,3099.152,938.8292,-0.1250423,0.003791011,-0.00220776,0.0844220072031021,-0.292449921369553,0.109392926096916,-0.0955525119207663,-0.0411135764513579,0.0591515566763244,3
0.419998168945313,-0.0340021029114723,2.89055490493774,1.15190589427948,-0.0753034649285836,2.93341540321397,1.18947352217404,2072.182,2974.029,2953.398,987.3155,-0.1204995,0.003707744,0.007336798,0.0767640322446823,-0.310325115919113,0.123716041445732,-0.104434660908044,-0.0449353170220673,0.0646500300148815,3
0.439994812011719,-0.0326426774263382,2.88402485847473,1.15464186668396,-0.0774831213880516,2.93247755793201,1.19082283335389,2136.983,2973.245,2824.925,1022.499,-0.1150752,0.003563675,0.01614923,0.067971333861351,-0.326508283615112,0.136799722909927,-0.11361726969793,-0.0488863370519643,0.070334502284139,4
0.459999084472656,-0.0314785093069077,2.87720775604248,1.15760159492493,-0.0798502821969742,2.93145903476675,1.19228821865812,2167.927,2977.682,2749.162,1039.213,-0.1098682,0.003474452,0.02394556,0.0582085102796555,-0.340849339962006,0.147985681891441,-0.123096124252221,-0.0529648233581361,0.0762023647937057,4
0.479995727539063,-0.0305268801748753,2.87013864517212,1.16074800491333,-0.0824088828700873,2.93035814037613,1.19387211435783,2168.528,2983.827,2732.111,1033.279,-0.1055384,0.003481506,0.03074476,0.0475816130638123,-0.353459566831589,0.157320886850357,-0.132852887402757,-0.0571628859694044,0.0822422659629699,4
0.5,-0.0298036988824606,2.86284708976746,1.16405200958252,-0.085166398670376,2.92917165836334,1.1955791479969,2146.443,2989.984,2763.51,1008.339,-0.1022712,0.003568836,0.03679837,0.0361587107181549,-0.364580035209656,0.165200635790825,-0.142884000065179,-0.0614789935111996,0.0884520025491718,4
0.519996643066406,-0.0293244421482086,2.85535717010498,1.16749930381775,-0.0881260274065667,2.92789821280061,1.19741129917127,2116.966,2991.939,2816.377,978.9738,-0.09983552,0.003686023,0.0424071,0.0239630155265331,-0.374495595693588,0.172366619110107,-0.153170920546857,-0.0659051680111775,0.0948200963613094,4
0.540000915527344,-0.0291041005402803,2.84768867492676,1.17108547687531,-0.0912951145137283,2.92653464315245,1.19937311505516,2088.866,2992.628,2871.794,949.667,-0.09783228,0.003776807,0.04786185,0.011016771197319,-0.383421778678894,0.179306134581566,-0.163710711144578,-0.0704401454577151,0.101344728821151,4
0.55999755859375,-0.0291576236486435,2.8398585319519,1.17481637001038,-0.094676112580471,2.92507989413848,1.20146611391775,2070.927,2988.214,2907.894,936.0667,-0.09578378,0.003795465,0.05329097,-0.00267595332115889,-0.391505897045135,0.186543002724648,-0.17448465888317,-0.0750758741803766,0.108014315705644,5
0.579994201660156,-0.0294989757239819,2.8318829536438,1.17869818210602,-0.0982748462459366,2.92353145957921,1.20369390148813,2063.759,2986.601,2923.029,929.3233,-0.09339812,0.003716668,0.0587431,-0.0170672684907913,-0.398779779672623,0.194090977311134,-0.185486174984119,-0.0798095192118365,0.114824778247021,5
0.599998474121094,-0.0301412306725979,2.8237783908844,1.1827392578125,-0.102097262171133,2.92188678079254,1.20606015903275,2066.225,2983.308,2912.051,940.4617,-0.09049315,0.003538596,0.06410988,-0.0321126207709312,-0.405234098434448,0.202054604887962,-0.196709126405959,-0.0846384416756885,0.121772319800455,5
0.6199951171875,-0.0310955122113228,2.81556224822998,1.18694198131561,-0.106144683970236,2.92014528826426,1.20856570593183,2075.527,2987.613,2886.807,950.399,-0.08717538,0.003271609,0.06929193,-0.047714427113533,-0.410806566476822,0.210134044289589,-0.208134604141382,-0.0895545055543457,0.128845234789665,5
0.639999389648438,-0.0323712043464184,2.80725312232971,1.1913046836853,-0.110424235525481,2.91830391678686,1.21121495220784,2082.215,2991.231,2855.604,969.4839,-0.08359556,0.002940512,0.0741497,-0.0637844353914261,-0.415456652641296,0.218136474490166,-0.219761081350814,-0.0945570538913933,0.136042578028218,5
0.659996032714844,-0.0339757464826107,2.79886960983276,1.19582259654999,-0.114936482147704,2.9163624231229,1.21400824781511,2088.335,2999.174,2826.013,983.4701,-0.07999923,0.002566271,0.07859758,-0.0802279263734818,-0.419170320034027,0.225897908210754,-0.231569557951997,-0.0996379114822372,0.143352587560098,5
0.680000305175781,-0.0359147526323795,2.79043030738831,1.20048689842224,-0.119688496929273,2.91431776391831,1.21694997133476,2087.561,3007.644,2807.607,993.098,-0.07660956,0.002167913,0.08261321,-0.0969500243663788,-0.421968311071396,0.233213931322098,-0.243559016194652,-0.104796640417365,0.150774633349401,6
0.699996948242188,-0.03819265589118,2.78195190429688,1.20529115200043,-0.124680083855354,2.91217002351282,1.22004000142426,2083.341,3014.384,2796.29,1002.054,-0.0735384,0.001759302,0.08618885,-0.113895259797573,-0.423921883106232,0.240213051438332,-0.255710395848158,-0.11002503961202,0.158296916205407,6
0.719993591308594,-0.0408123545348644,2.77344989776611,1.21022593975067,-0.129916240141956,2.90991705174396,1.22328143159838,2075.148,3022.595,2799.369,999.5061,-0.07089069,0.001343907,0.08940919,-0.130984753370285,-0.425105661153793,0.246740639209747,-0.268018433064612,-0.115320844179508,0.165916177555513,6
0.739997863769531,-0.0437765009701252,2.76493740081787,1.21528899669647,-0.135402141159277,2.90755662179454,1.22667746565781,2065.167,3024.883,2802.989,1005.503,-0.06857213,0.0009292898,0.09229305,-0.148208126425743,-0.425630122423172,0.253150582313538,-0.280478211503383,-0.120681938755799,0.173629373950669,6
0.759994506835938,-0.0470865853130817,2.75642585754395,1.22047519683838,-0.14113644597991,2.90508931062815,1.2302272735046,2058.643,3031.929,2812.823,996.8778,-0.06660566,0.000506649,0.09494728,-0.165503457188606,-0.425574749708176,0.25930917263031,-0.293070637251543,-0.126100107763583,0.181424685349205,6
0.779998779296875,-0.0507439412176609,2.74792528152466,1.2257844209671,-0.147126184485884,2.90251209348295,1.23393520697061,2049.041,3031.477,2818.953,1003.232,-0.0648288,8.371526E-05,0.09737521,-0.182868123054504,-0.42503160238266,0.265461355447769,-0.305795832832518,-0.131575403921268,0.189302187598958,6
0.799995422363281,-0.0547492019832134,2.73944401741028,1.23121583461761,-0.153369252164744,2.89982587587186,1.23779996326238,2046.527,3035.9,2822.573,999.8655,-0.06322451,-0.0003467436,0.0996232,-0.200262919068336,-0.424060791730881,0.271573543548584,-0.318634718604462,-0.13709961779199,0.197250069492735,6
0.819999694824219,-0.0591024495661259,2.73098969459534,1.23676908016205,-0.159872691993147,2.89702762739878,1.24182590231796,2042.234,3037.184,2822.96,1004.599,-0.06172462,-0.0007787083,0.1016869,-0.217662647366524,-0.422717064619064,0.277661502361298,-0.331587821991737,-0.142672976311719,0.205268657531342,6
0.839996337890625,-0.0638033002614975,2.72256875038147,1.24244463443756,-0.166633637018892,2.89411858163313,1.24601124935738,2042.268,3040.408,2817.771,1008.634,-0.06032273,-0.001211206,0.1035543,-0.235042840242386,-0.421045660972595,0.283780097961426,-0.344636106234817,-0.148287288494656,0.213346167053785,6
0.860000610351563,-0.0688503086566925,2.71418714523315,1.24823915958405,-0.173659158941841,2.89109569582005,1.2503603820997,2040.975,3044.286,2815.41,1010.081,-0.05906785,-0.001641572,0.1052381,-0.252350270748138,-0.419079691171646,0.289728045463562,-0.357780475378537,-0.153942943326036,0.221483157706883,6
0.879997253417969,-0.0742419958114624,2.70584988594055,1.2541538476944,-0.180945630646592,2.88796053060595,1.25487105518773,2040.537,3046.271,2806.61,1019.65,-0.05793654,-0.002059156,0.1066934,-0.269584268331528,-0.416868716478348,0.295736581087112,-0.371001963495383,-0.159631780297098,0.229667888678032,6
0.899993896484375,-0.0799753069877625,2.69756102561951,1.26018178462982,-0.18849723509595,2.8847112861788,1.25954585807468,2040.073,3052.415,2808.506,1013.654,-0.05706089,-0.00246875,0.1079821,-0.286665290594101,-0.414440661668777,0.301398485898972,-0.384296738353309,-0.165352150505452,0.237897987633041,7
0.919998168945313,-0.0860479027032852,2.68932390213013,1.26632559299469,-0.196318384305134,2.8813460641717,1.26438752200817,2036.606,3051.421,2801.848,1027.78,-0.05632639,-0.002850648,0.1090358,-0.303630650043488,-0.411859810352325,0.307193458080292,-0.397661187980262,-0.171102499820431,0.246171218589148,7
0.939994812011719,-0.09245565533638,2.6811408996582,1.27257764339447,-0.204404317663683,2.87786691294234,1.26939309994354,2038.88,3059.833,2808.283,1012.651,-0.05592638,-0.003221892,0.1099657,-0.320387929677963,-0.409154534339905,0.312603741884232,-0.4110765036434,-0.176874735369747,0.254475938044738,7
0.959999084472656,-0.0991955101490021,2.67301297187805,1.27894055843353,-0.212762239776093,2.87427073255068,1.27456705187416,2031.968,3055.926,2807.107,1028.296,-0.05566646,-0.003556918,0.1106988,-0.336991816759109,-0.406395524740219,0.318147033452988,-0.424544411524882,-0.18266959988136,0.262813214588797,7
0.979995727539063,-0.10626283288002,2.66494083404541,1.28540825843811,-0.22138664033507,2.87055989392801,1.27990596665734,2035.321,3063.072,2816.569,1011.148,-0.05570534,-0.003876497,0.1113468,-0.353366047143936,-0.403610020875931,0.323386967182159,-0.438046240701377,-0.188479059778567,0.271171490030365,7
1,-0.113654136657715,2.65692353248596,1.29198408126831,-0.230284798736574,2.86673126495361,1.28541435058594,2029.792,3058.994,2817.767,1023.829,-0.05584862,-0.00415826,0.1118463,-0.369566440582275,-0.400860697031021,0.328793555498123,-0.451584000205995,-0.194303979492187,0.279552008056641,7
1.01999664306641,-0.121364712715149,2.64896011352539,1.29866349697113,-0.239450461003889,2.86278753653895,1.29108833215045,2034.248,3064.91,2827.073,1007.654,-0.05622945,-0.004423511,0.1122926,-0.385528743267059,-0.398167937994003,0.333973705768585,-0.465139182559269,-0.200136395770846,0.2879433116562,7
1.04000091552734,-0.12939079105854,2.64104843139648,1.30545008182526,-0.24889099213045,2.8587255397331,1.29693247063265,2030.49,3061.035,2828.423,1018.705,-0.05667207,-0.004651477,0.1126243,-0.401304483413696,-0.395581245422363,0.339326500892639,-0.478714054341683,-0.205977283860805,0.296346803950333,7
1.05999755859375,-0.137727558612823,2.63318610191345,1.312340259552,-0.258599401509697,2.85454828239877,1.30294243851408,2036.121,3066.194,2836.007,1004.463,-0.05730111,-0.004861334,0.1129171,-0.41683965921402,-0.39311283826828,0.344511419534683,-0.492290296490434,-0.211818761581115,0.30475114456651,7
1.07999420166016,-0.146371081471443,2.62537002563477,1.31933701038361,-0.268579290074434,2.85025421515517,1.30912046494367,2033.982,3063.089,2837.568,1013.347,-0.05797755,-0.005034972,0.1131176,-0.432175874710083,-0.390799880027771,0.349835127592087,-0.50586523043438,-0.217659676417445,0.313154675341593,7
1.09999847412109,-0.155316472053528,2.6175971031189,1.32643723487854,-0.278834517009062,2.84584167750307,1.31546893894041,2039.25,3067.057,2845.118,1001.323,-0.05880366,-0.005187838,0.113286,-0.447269201278687,-0.388648569583893,0.355011612176895,-0.519436284009554,-0.223498921639497,0.321555803983559,7
1.1199951171875,-0.164559841156006,2.60986328125,1.33364534378052,-0.289357002179081,2.84131414609862,1.32198285851614,2040.489,3065.608,2843.895,1008.642,-0.05967611,-0.005306082,0.1133692,-0.462167739868164,-0.386692523956299,0.360405832529068,-0.532985466132485,-0.229328756186667,0.329943393154705,8
1.13999938964844,-0.174095779657364,2.60216474533081,1.34095466136932,-0.300154365346813,2.83666834237095,1.3286669406667,2044.208,3069.609,2857.026,992.779,-0.06073073,-0.005405152,0.1134568,-0.476797789335251,-0.384926676750183,0.365465551614761,-0.546515580872639,-0.235150386571708,0.338319178707607,8
1.15999603271484,-0.183921128511429,2.59449672698975,1.34837424755096,-0.311217811600473,2.8319080505249,1.33551574092274,2044.439,3065.144,2852.253,1008.906,-0.06175125,-0.005461078,0.1134377,-0.491266369819641,-0.383395850658417,0.370980858802795,-0.560008885098767,-0.240956178420931,0.346672176798798,8
1.18000030517578,-0.194029793143272,2.58685541152954,1.35589241981506,-0.322555076427271,2.82702994219644,1.34253404791935,2051.735,3073.107,2872.723,978.1964,-0.06302104,-0.005509015,0.1134855,-0.505434036254883,-0.382069885730743,0.375911355018616,-0.573468357077025,-0.246747413199059,0.355004231116904,8
1.19999694824219,-0.204419687390327,2.5792350769043,1.36352527141571,-0.334156660511822,2.8220381046756,1.34971598112778,2048.587,3063.575,2861.552,1010.56,-0.06413371,-0.005502624,0.1133917,-0.51949405670166,-0.381017327308655,0.381643414497375,-0.58687652428584,-0.252516572968185,0.36330452533874,8
1.21999359130859,-0.215083837509155,2.57163166999817,1.371253490448,-0.346025842163694,2.81693112739735,1.35706356997782,2060.952,3077.207,2891.652,959.119,-0.06559206,-0.005504221,0.1134472,-0.533207535743713,-0.380168735980988,0.386411845684052,-0.600231432569387,-0.258262816909651,0.371571849748761,8
1.23999786376953,-0.226021602749825,2.5640389919281,1.3791024684906,-0.358166167196084,2.81170748469733,1.36457900949675,2051.864,3059.942,2871.328,1015.902,-0.06670845,-0.005435512,0.1133005,-0.54688972234726,-0.379628539085388,0.392447024583817,-0.613531154887641,-0.263985315871967,0.379805011417393,8
1.25999450683594,-0.237225100398064,2.55645346641541,1.38704442977905,-0.3705671011502,2.80637170925886,1.37225577835275,2074.115,3082.922,2909.664,936.3274,-0.06831274,-0.005399826,0.1133947,-0.560173630714417,-0.379275351762772,0.397100955247879,-0.626758665639206,-0.269676744214496,0.387993470686331,8
1.27999877929688,-0.248695120215416,2.54886817932129,1.39511358737946,-0.383236695417198,2.80092033679326,1.3800988607405,2055.868,3056.491,2879.948,1022.267,-0.06939612,-0.005274124,0.1132178,-0.573502838611603,-0.379259407520294,0.403455466032028,-0.639917282339435,-0.275338529371412,0.396139281255613,8
1.29999542236328,-0.260422587394714,2.5412802696228,1.40327203273773,-0.396163740917024,2.79535819025452,1.38810131770546,2086.314,3087.745,2930.079,913.5919,-0.07110853,-0.005204349,0.113374,-0.586373090744019,-0.379397690296173,0.407920002937317,-0.652990303744023,-0.280963485263868,0.404232104259424,8
1.31999969482422,-0.272410482168198,2.53368210792542,1.41156661510468,-0.409356423791328,2.7896817473746,1.39626821685929,2060.795,3052.206,2885.735,1032.326,-0.07208218,-0.005023255,0.1131612,-0.599393606185913,-0.379902839660645,0.414728760719299,-0.665981146317813,-0.286553081901244,0.412274054652251,8
1.33999633789063,-0.284647554159164,2.52607202529907,1.41994404792786,-0.422802873722428,2.78389611561957,1.40459220990988,2100.93,3094.949,2953.265,883.4601,-0.0739139,-0.004931109,0.1134141,-0.611855745315552,-0.380506247282028,0.418872565031052,-0.678873453515705,-0.29210028151913,0.420255006953505,8
1.36000061035156,-0.297139942646027,2.51844167709351,1.42847013473511,-0.436511415158101,2.77799771321212,1.41307845008695,2063.879,3045.552,2887.349,1051.531,-0.07469634,-0.004693555,0.1131471,-0.624617576599121,-0.381519556045532,0.4263054728508,-0.691670720740693,-0.297606588091785,0.42817712498415,9
1.37999725341797,-0.309873223304749,2.51079082489014,1.43706846237183,-0.450469530727146,2.77199192602736,1.42171918854144,2118.317,3105.284,2980.928,842.7021,-0.07668732,-0.004591822,0.113539,-0.636665940284729,-0.382544904947281,0.429917931556702,-0.704356955827446,-0.303065120637236,0.436030508832034,9
1.39999389648438,-0.322857916355133,2.5031099319458,1.44583296775818,-0.464680216184654,2.76587746507559,1.43051627978847,2063.8,3035.226,2883.029,1084.221,-0.07717255,-0.004293016,0.113183,-0.649231433868408,-0.384048759937286,0.438223600387573,-0.716930938559026,-0.308475354130225,0.443814403124744,9
1.41999816894531,-0.336074650287628,2.49540114402771,1.45465195178986,-0.47914673136562,2.75965292774086,1.43947174182117,2138.658,3119.708,3017.083,785.6069,-0.07939149,-0.004198207,0.1137746,-0.660839796066284,-0.38543364405632,0.440950006246567,-0.729391385793766,-0.313836736470737,0.451528013536465,9
1.43999481201172,-0.349540770053864,2.48765277862549,1.46366465091705,-0.493855616658466,2.75332410531803,1.44857724249882,2060.414,3019.714,2865.731,1139.371,-0.0794144,-0.00382856,0.1132567,-0.673305869102478,-0.387416541576385,0.450637429952621,-0.7417228873516,-0.319142637088802,0.459161800431646,9
1.45999908447266,-0.363228857517242,2.47987127304077,1.47270166873932,-0.508815552717244,2.74688726276417,1.45783815555978,2166.075,3143.395,3065.572,698.0627,-0.08204986,-0.003771569,0.1141541,-0.684404611587524,-0.3890760242939,0.451851665973663,-0.753929052770513,-0.324394609067776,0.466717998286247,9
1.47999572753906,-0.377166748046875,2.47204065322876,1.48197293281555,-0.524012471663969,2.74034845309416,1.46724577231745,2044.855,2992.412,2833.625,1234.518,-0.08135797,-0.003303918,0.113361,-0.696894764900208,-0.391536861658096,0.463565707206726,-0.765994882555672,-0.329586198544069,0.474187321698441,9
1.5,-0.391314506530762,2.46417331695557,1.4912223815918,-0.539455198877605,2.73370387899399,1.4768055561018,2204.886,3179.645,3131.482,566.8186,-0.08463952,-0.003320429,0.114698,-0.707386910915375,-0.393364250659943,0.462472707033157,-0.777924000354858,-0.334718964672088,0.481572013878822,9
1.51999664306641,-0.405715942382813,2.45624685287476,1.50076627731323,-0.555129074991064,2.72695984797977,1.48650843206629,2016.137,2951.515,2777.597,1382.003,-0.08289728,-0.00271962,0.1134715,-0.720071375370026,-0.396318107843399,0.477194339036942,-0.789701834723693,-0.339786637766398,0.488863054409188,9
1.53999328613281,-0.420311808586121,2.44828343391418,1.51021754741669,-0.571036956668503,2.72011513090874,1.49635616862212,2258.124,3233.994,3223.51,373.2766,-0.08719029,-0.00285917,0.1154523,-0.729793012142181,-0.398174196481705,0.47256150841713,-0.801327600455846,-0.344788879974649,0.496059957209413,9
1.55999755859375,-0.43517017364502,2.44025015830994,1.52005255222321,-0.587181951496087,2.71316839067337,1.50635068951315,1965.563,2889.333,2686.453,1610.286,-0.08388904,-0.002064483,0.1135519,-0.742917835712433,-0.401667803525925,0.491747558116913,-0.812800388649436,-0.349725300221754,0.503162159625937,9
1.57999420166016,-0.450202614068985,2.43218278884888,1.52968907356262,-0.603548545866849,2.70612630234534,1.51648239107766,2335.024,3316.673,3351.452,86.65515,-0.08974427,-0.002396312,0.1164739,-0.751624286174774,-0.403374314308167,0.481828153133392,-0.824106301004481,-0.354589918457504,0.510161057949003,9
1.59999847412109,-0.465513497591019,2.42403268814087,1.53984153270721,-0.620145926473056,2.69898491314762,1.52675696031579,1883.723,2798.387,2541.183,1956.593,-0.08418892,-0.001310808,0.1135557,-0.765545070171356,-0.407506942749023,0.507623791694641,-0.835248923368005,-0.359384277571697,0.517058871988737,9
1.6199951171875,-0.480984538793564,2.41584587097168,1.54975748062134,-0.636958033083316,2.69175113334911,1.53716445517924,2175.817,3638.243,3275.828,0,-0.09022896,-0.0008314389,0.1183667,-0.773551344871521,-0.409346848726273,0.495795011520386,-0.846214826007804,-0.364102599125749,0.523847288101157,9
1.63999938964844,-0.496734023094177,2.40757513046265,1.5601921081543,-0.653994195024907,2.68442094880091,1.54771065096602,1939.176,2616.49,2453.108,2179.867,-0.0835668,0.001110334,0.1149006,-0.787475407123566,-0.413542598485947,0.521733701229095,-0.857007552155828,-0.368746407673381,0.530528499715628,9
1.65999603271484,-0.512636244297028,2.39927172660828,1.57036471366882,-0.671237824488362,2.67700149677403,1.55838527903188,2188.663,3670.746,3239.12,0,-0.08942842,0.002469222,0.1192581,-0.795111775398254,-0.415171951055527,0.508628785610199,-0.867614155697522,-0.373310132863173,0.537094492570531,9
1.68000030517578,-0.52880871295929,2.39089322090149,1.58102703094482,-0.688698391434734,2.66948870260877,1.56919420173384,2040.08,2538.366,2478.629,2141.696,-0.08321899,0.005000964,0.1146472,-0.80862021446228,-0.418926566839218,0.533115863800049,-0.878038122530658,-0.377795274579551,0.543547424602645,9
1.69999694824219,-0.545128107070923,2.38248634338379,1.59144735336304,-0.706358800111611,2.66188992212981,1.58012683598675,2193.32,3694.132,3223.935,0,-0.08948754,0.006955194,0.1179527,-0.815970063209534,-0.42034700512886,0.521016180515289,-0.888267004546665,-0.382196476749158,0.549879589839776,9
1.71999359130859,-0.561696827411652,2.37401247024536,1.60228598117828,-0.72422180503422,2.6542039701462,1.59118488696678,2117.437,2526.001,2611.942,1944.421,-0.08523074,0.009677676,0.1129318,-0.828438878059387,-0.423690766096115,0.541928768157959,-0.898300426012065,-0.386513577704374,0.556090755685004,9
1.73999786376953,-0.578406572341919,2.36550974845886,1.61291074752808,-0.742290383213093,2.64642956573347,1.60237019758524,2237.507,3586.013,3300.333,0,-0.09207986,0.01163474,0.1150627,-0.83548378944397,-0.425141960382462,0.531240522861481,-0.908137821269591,-0.39074633405868,0.562180571969536,9
1.75999450683594,-0.595346510410309,2.35693836212158,1.6239116191864,-0.760546715064628,2.63857437616062,1.61367173667103,2136.772,2577.774,2774.189,1712.206,-0.08944706,0.01406,0.1103241,-0.847000956535339,-0.428574860095978,0.55004096031189,-0.917767514700581,-0.394889722119545,0.568141810929231,9
1.77999877929688,-0.612422406673431,2.34832882881165,1.63473725318909,-0.779000609654483,2.63063418086074,1.62509557650306,2247.147,3506.434,3378.827,0,-0.09628339,0.01563297,0.1123002,-0.853796124458313,-0.430476784706116,0.541281163692474,-0.927192788821983,-0.398945154262308,0.57397650459845,9
1.79999542236328,-0.629715621471405,2.33964037895203,1.64592051506042,-0.797633790944145,2.62261684350262,1.63663040334288,2124.847,2627.998,2882.308,1564.754,-0.09402344,0.01754475,0.1085468,-0.864660799503326,-0.434426695108414,0.559163808822632,-0.936402499096495,-0.402907835303912,0.579677753977713,9
1.81999969482422,-0.647141098976135,2.33090281486511,1.65694987773895,-0.816456197270346,2.61451808789761,1.64828236949435,2279.511,3422.441,3434.382,0,-0.1001152,0.01848708,0.1109365,-0.87127012014389,-0.436877429485321,0.551465928554535,-0.945399824400851,-0.406779133026206,0.585247526943151,9
1.83999633789063,-0.664780139923096,2.3220739364624,1.66835486888885,-0.835449117627072,2.60634596486888,1.66003989195343,2099.274,2672.157,2888.807,1541.381,-0.09689059,0.01982726,0.1080863,-0.881951630115509,-0.441433727741241,0.570252060890198,-0.954174163352093,-0.410554485950274,0.590679260733698,9
1.86000061035156,-0.682547152042389,2.31318950653076,1.67960810661316,-0.854622615239374,2.59809614449182,1.6719092003358,2292.854,3419.054,3424.044,0,-0.102015,0.0202042,0.1113051,-0.888349533081055,-0.444236874580383,0.562663614749908,-0.962728579444532,-0.414235212212131,0.595974851798267,9
1.87999725341797,-0.70052832365036,2.30420684814453,1.69126117229462,-0.873957566090845,2.58977685529642,1.6838784559643,2076.559,2685.063,2815.933,1626.357,-0.09737955,0.02115936,0.1089937,-0.899058222770691,-0.449124813079834,0.582650661468506,-0.971053025860989,-0.417816988947023,0.601128080678429,9
1.89999389648438,-0.718631684780121,2.29516935348511,1.70274126529694,-0.893456683142228,2.58138692997148,1.69594933829086,2300.746,3449.76,3383.564,0,-0.1018611,0.02119926,0.1128687,-0.905168831348419,-0.451883912086487,0.574004173278809,-0.979147395688901,-0.421299770153459,0.606138881190213,9
1.91999816894531,-0.736951112747192,2.28603553771973,1.71464121341705,-0.913122862707269,2.57292512231409,1.70812364027167,2058.639,2673.667,2724.056,1751.939,-0.09605436,0.02202057,0.1105449,-0.915971875190735,-0.456692278385162,0.594999194145203,-0.987011339258123,-0.424683405378145,0.611007036871143,9
1.93999481201172,-0.755386710166931,2.27685356140137,1.72634398937225,-0.932936403420974,2.56439990927123,1.72038916582329,2288.721,3511.58,3333.26,0,-0.1003394,0.02202055,0.1147767,-0.921783328056335,-0.459102928638458,0.585138142108917,-0.994635661494588,-0.427963938237592,0.615726855532351,9
1.95999908447266,-0.774037837982178,2.2675838470459,1.73846769332886,-0.952907658613767,2.55580683609405,1.73275232415044,2055.87,2645.89,2664.941,1845.497,-0.09406072,0.0229175,0.112157,-0.932554125785828,-0.463477104902267,0.606185555458069,-1.00202309041976,-0.431142542523221,0.620300025949072,9
1.97999572753906,-0.792799711227417,2.25827646255493,1.75037312507629,-0.973016570682103,2.54715453300902,1.74520069864106,2277.156,3545.69,3312.235,0,-0.09845227,0.02303666,0.1163173,-0.938093364238739,-0.465370327234268,0.595269083976746,-1.00916501115878,-0.434215511495054,0.624721215103391,9
2,-0.811774134635925,2.24889349937439,1.76269328594208,-0.993273599084619,2.53843849960327,1.7577407641983,2062.863,2622.592,2651.994,1878.028,-0.09218585,0.0240639,0.1132869,-0.94872373342514,-0.469158679246902,0.616006731987,-1.01606400046349,-0.437183953857422,0.628992018127441,9
2.01999664306641,-0.830854833126068,2.23948264122009,1.77478802204132,-1.01365835337184,2.52966750931758,1.77035989816261,2261.185,3567.388,3308.178,0,-0.09672175,0.02433974,0.1172207,-0.954033672809601,-0.470544844865799,0.604738414287567,-1.02271203275434,-0.440044416427654,0.633107466805174,9
2.03999328613281,-0.850142180919647,2.2300078868866,1.78728246688843,-1.03417354141348,2.52084039703127,1.78305977683431,2076.14,2607.457,2672.823,1858.441,-0.0907355,0.02545654,0.1139253,-0.964370727539063,-0.473743498325348,0.62472003698349,-1.02910913225408,-0.442796909628122,0.637067576131623,9
2.05999755859375,-0.869531333446503,2.22051429748535,1.79955065250397,-1.05482201812353,2.5119559343546,1.79584216754118,2259.422,3553.574,3323.276,0,-0.09530921,0.02578554,0.1175289,-0.969453096389771,-0.474678635597229,0.613408803939819,-1.03525504859546,-0.445441325732794,0.640872191117535,9
2.07999420166016,-0.889120280742645,2.21096658706665,1.81220960617065,-1.07558293843174,2.50302309033894,1.80869416619175,2086.468,2609.307,2697.02,1818.255,-0.08953281,0.02687646,0.1140816,-0.979454040527344,-0.477383673191071,0.632945358753204,-1.0411426556922,-0.447974598585819,0.644516900376035,9
2.09999847412109,-0.908805549144745,2.20140743255615,1.82464373111725,-1.09646699912883,2.4940372624541,1.82162239460902,2253.503,3545.017,3333.043,0,-0.09405326,0.02715906,0.1175168,-0.984260141849518,-0.477953195571899,0.621708810329437,-1.04677411523768,-0.450397658303471,0.648003042098304,9
2.1199951171875,-0.928683042526245,2.19180250167847,1.83746016025543,-1.11745308225396,2.48500753716864,1.83461377976925,2086.831,2612.577,2711.21,1792.458,-0.08831096,0.0281606,0.1140573,-0.993877410888672,-0.480250746011734,0.64082407951355,-1.0521429102862,-0.45270770082608,0.651326581984514,9
2.13999938964844,-0.948650121688843,2.1821928024292,1.85004949569702,-1.138551967509,2.47592927627801,1.8476749948214,2255.021,3530.024,3337.987,0,-0.09268813,0.02831731,0.1173944,-0.998354911804199,-0.480486214160919,0.629467904567719,-1.05725102347782,-0.454905579228273,0.654488747383304,8
2.15999603271484,-0.968802154064178,2.17254447937012,1.86301815509796,-1.15974228854654,2.4668116731246,1.86079281297862,2080.214,2618.834,2707.045,1786.706,-0.08679561,0.02918929,0.1139323,-1.00759828090668,-0.482418656349182,0.648433208465576,-1.06209255378819,-0.456988754464129,0.657485885279498,8
2.18000030517578,-0.989035904407501,2.16289806365967,1.87575268745422,-1.18103490068612,2.45765005696766,1.87397395420079,2250.239,3529.088,3331.877,0,-0.09102844,0.02920655,0.1172829,-1.01168692111969,-0.482319325208664,0.63672798871994,-1.06666929835407,-0.458957999791384,0.660319108186354,7
2.19999694824219,-1.00944685935974,2.15322041511536,1.88886499404907,-1.20240821395574,2.44845371736898,1.88720505326679,2069.297,2619.571,2687.315,1804.385,-0.08489252,0.02996794,0.1137937,-1.02055275440216,-0.483882546424866,0.655616879463196,-1.07097597819164,-0.460811043810786,0.662985148161421,7
2.21999359130859,-1.02993094921112,2.14355206489563,1.90173101425171,-1.22386495005255,2.43922148325834,1.90048779503681,2242.79,3534.368,3320.002,0,-0.08902735,0.02987471,0.117177,-1.02420341968536,-0.483418077230453,0.643303275108337,-1.07501271071614,-0.462547937042828,0.665484077890325,7
2.23999786376953,-1.05058467388153,2.13386058807373,1.91497313976288,-1.24540792547886,2.42995214277345,1.91382392305993,2056.287,2614.099,2661.938,1834.869,-0.08262617,0.03056685,0.1135882,-1.03267920017242,-0.484576433897018,0.662106812000275,-1.07877930973132,-0.464168599372462,0.667815782108711,5
2.25999450683594,-1.07130205631256,2.12418627738953,1.92795705795288,-1.26701526177039,2.4206551096063,1.92719989352455,2234.7,3545.556,3301.735,0,-0.08671412,0.03040881,0.1169641,-1.03587472438812,-0.483721345663071,0.64919638633728,-1.08227143928024,-0.465671165158559,0.669977576652695,4
2.27999877929688,-1.09218013286591,2.11449766159058,1.94131100177765,-1.28869796983554,2.41132564607061,1.9406225227075,2046.241,2606.428,2639.192,1860.506,-0.08018032,0.03106219,0.1132365,-1.04390406608582,-0.484434604644775,0.667697370052338,-1.08549040888332,-0.467056197851165,0.67197027217779,3
2.29999542236328,-1.11311256885529,2.10483431816101,1.95439267158508,-1.31043401044317,2.40197323503182,1.95407816727483,2226.832,3548.336,3290.808,0,-0.08429224,0.0308585,0.1165215,-1.04661560058594,-0.483169764280319,0.654086112976074,-1.08843251702753,-0.468322104792631,0.6737915772711,0
2.31999969482422,-1.13419604301453,2.09516549110413,1.96784031391144,-1.33223444283894,2.39259311800549,1.96757367342642,2036.159,2599.877,2620.05,1880.896,-0.07767323,0.03148132,0.1126075,-1.05417716503143,-0.483437836170197,0.672383904457092,-1.09109887036509,-0.469469362144493,0.675442177003072,0
2.33999633789063,-1.15532386302948,2.08552980422974,1.98100411891937,-1.35407709248145,2.38319483607731,1.98109531406483,2212.031,3558.568,3278.311,0,-0.08183042,0.03125907,0.1158269,-1.05638659000397,-0.481785744428635,0.658189475536346,-1.09348640563071,-0.470496651869278,0.67692017506657,0
2.35999298095703,-1.17659223079681,2.07589721679688,1.99452686309814,-1.37596470003558,2.37377721001573,1.99464478579218,2027.681,2590.5,2605.078,1896.678,-0.07517944,0.03186503,0.1117557,-1.06342613697052,-0.481625139713287,0.676136791706085,-1.09559527181965,-0.471404038075479,0.678225663696753,0
2.37999725341797,-1.19789457321167,2.06630516052246,2.00775337219238,-1.39790005743958,2.36433903852774,2.00822381695123,2201.173,3558.263,3271.365,0,-0.07936859,0.03161928,0.1148655,-1.06511294841766,-0.479604214429855,0.661325514316559,-1.09742530100382,-0.472191448508328,0.679358538938131,0
2.39999389648438,-1.21932685375214,2.05672407150269,2.02133584022522,-1.41986083522252,2.35488992936084,2.02181858453579,2020.791,2584.074,2587.328,1910.009,-0.07266701,0.03219666,0.1106147,-1.07162177562714,-0.479049116373062,0.679121315479279,-1.09897439291323,-0.472857979480329,0.680317500623536,0
2.41999816894531,-1.24078214168549,2.04719018936157,2.03461050987244,-1.44185817738692,2.34542508756209,2.03543598721428,2184.217,3567.568,3259.476,0,-0.07690996,0.03193745,0.1136724,-1.07275879383087,-0.47669643163681,0.663730025291443,-1.10024313330221,-0.473403883025206,0.681102911362803,0
2.43999481201172,-1.26235580444336,2.03767442703247,2.04823422431946,-1.46386968334064,2.3359541514805,2.04906215795307,2011.684,2573.056,2571.981,1926.141,-0.07016578,0.0324982,0.1092726,-1.07868659496307,-0.475774317979813,0.681188821792603,-1.10123006676374,-0.473828532921971,0.681713870189648,0
2.45999908447266,-1.2839412689209,2.02821207046509,2.06153917312622,-1.48590651627916,2.32647231790489,2.06270400730194,2174.822,3567.268,3248.966,0,-0.07444227,0.03221556,0.1122224,-1.07926607131958,-0.473112821578979,0.665246367454529,-1.10193556692257,-0.474132089930926,0.682150608395601,0
2.47999572753906,-1.30563294887543,2.01877546310425,2.07518649101257,-1.50794623031618,2.31698924467309,2.07634764018804,2002.872,2565.952,2558.369,1935.593,-0.06768318,0.03274112,0.1076737,-1.08458232879639,-0.471848100423813,0.682365655899048,-1.10235882472314,-0.474314205938057,0.682412625136718,0
2.5,-1.32732474803925,2.00939726829529,2.08850502967834,-1.52999999932945,2.30750012397766,2.08999997377396,2164.918,3567.265,3237.943,0,-0.07200761,0.03241831,0.11052,-1.08459103107452,-0.468907862901688,0.665927708148956,-1.10250000050292,-0.474374949932098,0.682500019669533,0
2.51999664306641,-1.34910988807678,2.00005054473877,2.10215854644775,-1.55204535801192,2.29801462201262,2.10364710096447,1992.067,2560.589,2545.769,1943.41,-0.0652597,0.03289389,0.1058556,-1.08926570415497,-0.467335164546967,0.682673037052155,-1.10235893238473,-0.47431425226183,0.68241269178437,0
2.53999328613281,-1.3708838224411,1.99076747894287,2.11547303199768,-1.57408507527774,2.28853154739156,2.11729073584934,2156.029,3563.945,3228.613,0,-0.06963687,0.0325119,0.1086102,-1.08869194984436,-0.464147686958313,0.665729284286499,-1.10193578218388,-0.474132182551855,0.682150741652607,0
2.55999755859375,-1.39273810386658,1.98152148723602,2.12911558151245,-1.59612191359838,2.27904971150017,2.13093258853001,1977.56,2556.084,2534.221,1952.607,-0.06286871,0.03292522,0.103858,-1.09271419048309,-0.462303698062897,0.682125210762024,-1.10123038958312,-0.473828671822132,0.681714070030222,0
2.57999420166016,-1.41456937789917,1.97234332561493,2.14241123199463,-1.61813342708139,2.26957877217893,2.14455876392979,2150.023,3560.789,3215.97,0,-0.06727678,0.03246813,0.1065354,-1.09156572818756,-0.458900839090347,0.664787471294403,-1.10024356351463,-0.47340406813359,0.681103177684783,0
2.59999847412109,-1.43646776676178,1.96320712566376,2.15602684020996,-1.64013077892511,2.26011392621545,2.15817617260023,1962.491,2554.02,2521.811,1960.241,-0.06051021,0.03280396,0.1017343,-1.09492039680481,-0.456814587116241,0.680781722068787,-1.09897493039424,-0.472858210743393,0.680317833349887,0
2.6199951171875,-1.45833158493042,1.9541426897049,2.1692852973938,-1.66209156852628,2.2506648119635,2.17177094750084,2144.898,3551.343,3208.41,0,-0.06494917,0.03225055,0.1043372,-1.09318852424622,-0.453214406967163,0.662922263145447,-1.09742594550583,-0.472191725819537,0.679358937915576,0
2.63999938964844,-1.48024964332581,1.9451242685318,2.18286108970642,-1.68402693989188,2.24122663446822,2.18534998730279,1944.771,2553.558,2503.84,1975.035,-0.05810059,0.03250068,0.09947297,-1.09590840339661,-0.450918346643448,0.67878919839859,-1.09559602313537,-0.471404361345641,0.67822612879697,0
2.65999603271484,-1.50212144851685,1.93618154525757,2.19606947898865,-1.70591456353497,2.23180900148401,2.19889946898997,2132.206,3554.791,3195.046,0,-0.06255712,0.03186958,0.1020913,-1.09359240531921,-0.447142511606216,0.660416483879089,-1.09348726343002,-0.470497020956359,0.676920706085208,0
2.68000030517578,-1.52403509616852,1.92728853225708,2.20959210395813,-1.72776555581996,2.22240712994983,2.2124262741215,1927.706,2547.72,2481.241,1998.837,-0.05558496,0.03205848,0.09717433,-1.09568393230438,-0.444648236036301,0.676133751869202,-1.09109887036509,-0.469469362144494,0.675442177003072,0
2.69999694824219,-1.54589104652405,1.91847455501556,2.22273516654968,-1.74955768413056,2.21303058593937,2.22591663964878,2123.139,3554.584,3181.566,0,-0.06005482,0.03136662,0.0997813,-1.09278845787048,-0.440694659948349,0.657153785228729,-1.08843358680109,-0.468322565086308,0.673792239511893,0
2.71999359130859,-1.56777608394623,1.9097146987915,2.23619103431702,-1.77129374718429,2.20367816524265,2.23937229811132,1911.729,2541.02,2456.577,2024.801,-0.05294524,0.03150971,0.09476352,-1.09426307678223,-0.437996745109558,0.672788798809052,-1.08549158402443,-0.467056703481556,0.671970999646117,0
2.73999786376953,-1.58959197998047,1.9010374546051,2.24925518035889,-1.79297647980783,2.19434869114016,2.25279494249708,2110.042,3559.962,3166.441,0,-0.05743853,0.03078458,0.09736012,-1.09079027175903,-0.433862835168839,0.653204083442688,-1.08227271937422,-0.465671715947234,0.669978369091845,0
2.75999450683594,-1.61142480373383,1.89241826534271,2.26263070106506,-1.81458384274179,2.18505164650952,2.26617092945464,1899.704,2532.646,2429.774,2050.522,-0.05022882,0.03090001,0.09221616,-1.09164535999298,-0.430957078933716,0.668780505657196,-1.07878069424208,-0.464169195088763,0.667816639186824,0
2.77999877929688,-1.63317680358887,1.88388526439667,2.27560186386108,-1.83612684690458,2.17578229366013,2.27950707526701,2095.834,3566.513,3151.054,0,-0.05480093,0.03016354,0.09478887,-1.0875928401947,-0.426646620035172,0.64855694770813,-1.07501419914593,-0.462548577472581,0.665484999299265,0
2.79999542236328,-1.65493297576904,1.87541460990906,2.28888058662415,-1.85758361379882,2.16655004629821,2.2927898361021,1886.069,2521.511,2409.027,2074.354,-0.04753529,0.03026932,0.08951016,-1.08780872821808,-0.423537164926529,0.663939952850342,-1.07097756992209,-0.460811728687929,0.662986133518392,0
2.81999969482422,-1.67659687995911,1.86703324317932,2.30174493789673,-1.87896509797278,2.15735019098767,2.30602599334712,2084.896,3568.995,3136.868,0,-0.05217878,0.02952943,0.09201346,-1.08319270610809,-0.419063597917557,0.643213927745819,-1.06666929835407,-0.458957999791384,0.660319108186353,0
2.83999633789063,-1.69825172424316,1.858717918396,2.31491088867188,-1.90024960698239,2.14819206138118,2.31920211834584,1874.332,2513.433,2394.67,2086.541,-0.04493126,0.02961618,0.08662502,-1.08274519443512,-0.415763258934021,0.658292293548584,-1.06209435025759,-0.456989527434725,0.657486997379635,0
2.85999298095703,-1.71980333328247,1.85049510002136,2.32765364646912,-1.92143996495749,2.13907444233456,2.33231995936916,2077.346,3564.403,3126.542,0,-0.04965091,0.02885022,0.08903109,-1.0775750875473,-0.411148339509964,0.637140870094299,-1.0572529212638,-0.454906395792563,0.654489922203231,0
2.87999725341797,-1.74133229255676,1.84234142303467,2.34069180488586,-1.94253888918396,2.12999616467562,2.34538119854648,1859.492,2509.335,2384.992,2093.029,-0.04243108,0.02889426,0.08357311,-1.07645499706268,-0.407686650753021,0.651906669139862,-1.05214490868305,-0.452708560680416,0.651327819087361,0
2.89999389648438,-1.76274704933167,1.83428239822388,2.35330128669739,-1.96352501326936,2.1209664217661,2.35837260906308,2073.145,3557.617,3115.145,0,-0.04720719,0.02807088,0.08589452,-1.07074785232544,-0.402959853410721,0.630477011203766,-1.04677621342161,-0.450398561093403,0.648004340974112,0
2.91999816894531,-1.78412628173828,1.82629489898682,2.36619925498962,-1.98440911693069,2.11198057539494,2.37130086407726,1842.724,2509.624,2375.552,2096.476,-0.04003317,0.02804446,0.08042901,-1.06895363330841,-0.399369388818741,0.644902408123016,-1.04114485287423,-0.447975543971863,0.644518260536375,0
2.93999481201172,-1.80538082122803,1.81840395927429,2.3786609172821,-2.00517008215741,2.10304771205211,2.38415289053452,2069.784,3544.237,3109.311,0,-0.0448503,0.02712964,0.08269013,-1.0627156496048,-0.394553184509277,0.623077809810638,-1.03525734386973,-0.445442313325187,0.640873612001643,0
2.95999908447266,-1.82658648490906,1.81058669090271,2.39141035079956,-2.02581860575671,2.0941632292003,2.39693531026807,1822.528,2511.883,2359.535,2108.683,-0.03760809,0.02701421,0.07722207,-1.06029200553894,-0.390865117311478,0.637469172477722,-1.02911152474823,-0.442797939051516,0.637069057199471,0
2.97999572753906,-1.84765720367432,1.80286717414856,2.40371513366699,-2.04633384260397,2.08533609591429,2.40963521915279,2059.61,3543.726,3097.014,0,-0.04243641,0.02601722,0.07952897,-1.05353736877441,-0.385973632335663,0.615243971347809,-1.02271452148052,-0.440045487257004,0.633109007445237,0
3,-1.86866760253906,1.79522323608398,2.41630744934082,-2.06672639957428,2.07656174835205,2.42225918334961,1802.72,2508.677,2336.679,2132.656,-0.03505572,0.02583336,0.07407083,-1.05051362514496,-0.382189899682999,0.629611194133759,-1.01606400046349,-0.437183953857422,0.628992018127441,0
3.01999664306641,-1.88953280448914,1.78767919540405,2.42844462394714,-2.08697572864857,2.06784902775215,2.4347944826559,2052.909,3540.614,3083.746,0,-0.03988137,0.02476937,0.07640462,-1.04326248168945,-0.377209305763245,0.606853544712067,-1.00916768936771,-0.434216663853534,0.624722873042298,0
3.03999328613281,-1.91032600402832,1.78021287918091,2.44087052345276,-2.10708469520508,2.05919670122237,2.4472428908773,1784.35,2503.908,2309.575,2161.544,-0.03232918,0.02453501,0.07089581,-1.03966867923737,-0.373308390378952,0.621292471885681,-1.00202586176059,-0.431143734953757,0.620301741541063,0
3.05999755859375,-1.93096470832825,1.77284860610962,2.45283007621765,-2.12705600675913,2.05060360379452,2.45960608409476,2041.667,3545.033,3067.479,0,-0.03717027,0.02343783,0.07325795,-1.03193473815918,-0.368220448493958,0.597980558872223,-0.994638524886308,-0.427965170275055,0.615728628108227,0
3.07999420166016,-1.95152020454407,1.76556515693665,2.46507954597473,-2.14686960564145,2.04207836572333,2.47187164565552,1770.248,2496.306,2280.551,2190.94,-0.02949291,0.02317791,0.06766116,-1.02777886390686,-0.36417892575264,0.612474501132965,-0.987014293508169,-0.424684676509408,0.611008865692653,0
3.09999847412109,-1.97191190719604,1.75838530063629,2.47685098648071,-2.16653584520328,2.033616532251,2.4840459847772,2030.009,3549.806,3051.311,0,-0.03440911,0.02207553,0.0700184,-1.0195723772049,-0.358973056077957,0.588570415973663,-0.979150439632689,-0.421301079877433,0.606140765536421,0
3.1199951171875,-1.99220871925354,1.75128984451294,2.48891043663025,-2.18603502400946,2.02522658035469,2.49611690533293,1755.109,2486.729,2258.297,2216.554,-0.02667209,0.02181176,0.0643168,-1.01484572887421,-0.354783117771149,0.60297429561615,-0.971056158224178,-0.417818336715394,0.601130019760458,0
3.13999938964844,-2.01233220100403,1.744300365448,2.50048279762268,-2.20537738341953,2.01690410346351,2.50809074721212,2020.826,3550.818,3037.019,0,-0.03166978,0.02071499,0.06662066,-1.00618553161621,-0.349464863538742,0.578615128993988,-0.962728579444533,-0.414235212212131,0.595974851798267,0
3.15999603271484,-2.0323498249054,1.73739767074585,2.51233911514282,-2.22454360124808,2.00865741537402,2.51995554906156,1741.724,2480.398,2242.866,2230.199,-0.02395513,0.0204418,0.06083896,-1.00087451934814,-0.34513533115387,0.592820763587952,-0.95417746870157,-0.410555908149813,0.590681306902481,0
3.17999267578125,-2.05218505859375,1.73060345649719,2.52370071411133,-2.24353658854737,2.00048526354177,2.53171311296128,2014.368,3544.88,3027.267,0,-0.02904124,0.0193325,0.06306499,-0.99177348613739,-0.339723914861679,0.568076491355896,-0.945403214201559,-0.406780591562751,0.585249625391267,0
3.19999694824219,-2.07190275192261,1.72389769554138,2.53534269332886,-2.2623590635174,1.99238647840124,2.54336512160655,1725.4,2477.89,2231.751,2238.687,-0.02135482,0.0190296,0.05724229,-0.98587840795517,-0.335282444953918,0.582098782062531,-0.936405971974636,-0.402909329586355,0.579679903854719,0
3.21999359130859,-2.09142994880676,1.71730172634125,2.54648470878601,-2.28099231507127,1.9843691108104,2.55489999194326,2010.317,3537.733,3016.48,0,-0.02650698,0.01788217,0.05941156,-0.976354956626892,-0.32980290055275,0.557104468345642,-0.927196343299057,-0.398946683654493,0.573978704989081,0
3.23999786376953,-2.11082768440247,1.71079611778259,2.55790328979492,-2.29944628156995,1.97642888457015,2.56632387629027,1707.489,2478.706,2220.398,2245.447,-0.01885252,0.01752845,0.05360417,-0.9698845744133,-0.325276345014572,0.570924639701843,-0.917771149318993,-0.394891285994308,0.568144060931169,0
3.25999450683594,-2.1300265789032,1.70440125465393,2.56881499290466,-2.31770268688992,1.96857366338589,2.57762546085652,2007.821,3524.654,3009.966,0,-0.02405314,0.01631465,0.05573467,-0.959954619407654,-0.319747239351273,0.545579552650452,-0.90814153446928,-0.390747931744771,0.562182870617026,0
3.27999877929688,-2.149085521698,1.69809794425964,2.5800039768219,-2.33577134012187,1.96079922667992,2.58881081793642,1687.497,2481.184,2203.264,2259.087,-0.01634009,0.01589238,0.04994337,-0.952946245670319,-0.315155625343323,0.559450745582581,-0.898304216251578,-0.386515208538549,0.556093102023818,0
3.29999542236328,-2.1679379940033,1.69190645217896,2.59067869186401,-2.35363442159312,1.95311324175956,2.5998689163037,1999.874,3521.877,2998.323,0,-0.02156947,0.01461852,0.05211774,-0.942629516124725,-0.309583485126495,0.533735811710358,-0.888270870184445,-0.382198140025101,0.549881982853707,0
3.31999969482422,-2.18664050102234,1.68580794334412,2.6016321182251,-2.37130160722417,1.94551154534655,2.61080574581408,1667.978,2478.998,2180.559,2282.474,-0.01374298,0.01414364,0.04634645,-0.935114800930023,-0.304924070835114,0.547669410705566,-0.878038122530657,-0.377795274579551,0.543547424602645,0
3.33999633789063,-2.20512890815735,1.67982220649719,2.6120617389679,-2.38875555478454,1.93800159931817,2.62161057080077,1994.552,3517.689,2985.471,0,-0.01899526,0.01282435,0.0485476,-0.924437999725342,-0.299297362565994,0.521486401557922,-0.867618167158097,-0.373311858882592,0.53709697585572,0
3.35999298095703,-2.22345805168152,1.67393088340759,2.62277221679688,-2.40599926516969,1.93058211247293,2.63228524896102,1650.113,2475.439,2155.36,2308.556,-0.01104626,0.01231198,0.04274938,-0.916443586349487,-0.294551610946655,0.535526871681213,-0.857011633930453,-0.36874816394697,0.530531026528563,0
3.37999725341797,-2.24156665802002,1.66815376281738,2.6329493522644,-2.42303550945299,1.9232518924954,2.64283149572124,1986.307,3517.943,2971.299,0,-0.01634009,0.01097276,0.04496875,-0.905426025390625,-0.28885692358017,0.508857011795044,-0.846218976345105,-0.364104384899943,0.523849857357654,0
3.39999389648438,-2.25950598716736,1.66247367858887,2.64340925216675,-2.43984769972619,1.91601807669906,2.65323904237604,1635.687,2470.224,2129.702,2333.552,-0.008313856,0.01044101,0.03911482,-0.896964550018311,-0.284009695053101,0.522993624210358,-0.835253140422974,-0.35938609205264,0.51706148254665,0
3.41999816894531,-2.27721834182739,1.65690875053406,2.6533260345459,-2.45644516534361,1.90887665092339,2.66351366424015,1977.566,3518.881,2957.203,0,-0.01369877,0.009102929,0.04133008,-0.885622322559357,-0.278243988752365,0.495834976434708,-0.824110582941664,-0.354591760855451,0.510163708672097,0
3.43999481201172,-2.29475235939026,1.65144240856171,2.66352486610413,-2.4728118459714,1.90183452548138,2.67364541920187,1620.222,2464.103,2109.798,2354.869,-0.005653359,0.008567924,0.0354192,-0.876696228981018,-0.273298293352127,0.509943962097168,-0.812804733542555,-0.349727169707881,0.503164849321754,0
3.45999908447266,-2.31205320358276,1.64609313011169,2.67317271232605,-2.48895692832918,1.89488774758421,2.68363999427827,1971.017,3515.787,2945.656,0,-0.01113308,0.007237591,0.03759724,-0.865047752857208,-0.267473042011261,0.482393443584442,-0.801332006385299,-0.344790775723006,0.496062684689628,0
3.47999572753906,-2.32916617393494,1.64084446430206,2.68310141563416,-2.50486489870395,1.88804299234919,2.69348778574196,1605.569,2460.875,2094.726,2367.904,-0.003118029,0.006695721,0.03165206,-0.855659782886505,-0.262445420026779,0.496432572603226,-0.789706299681989,-0.339788558913217,0.488865818431069,0
3.5,-2.34604048728943,1.63571262359619,2.69247269630432,-2.5205447997813,1.88129636896134,2.70319439144611,1966.163,3508.958,2936.642,0,-0.008692558,0.005361149,0.03378785,-0.843721389770508,-0.256581217050552,0.46856015920639,-0.777924000354857,-0.334718964672089,0.481572013878822,0
3.51999664306641,-2.36271810531616,1.63068282604218,2.70212364196777,-2.53598168290031,1.87465430941181,2.7127505574575,1589.587,2460.449,2081.69,2377.717,-0.0007137271,0.004798719,0.02784274,-0.833882331848145,-0.251497775316238,0.482551127672195,-0.765999459475408,-0.329588167864767,0.474190155029786,0
3.53999328613281,-2.37915182113647,1.62577033042908,2.71121144294739,-2.55117869390181,1.86811546013321,2.72215823120146,1962.045,3500.451,2928.882,0,-0.006368151,0.003444104,0.02995851,-0.821673035621643,-0.245616123080254,0.454385846853256,-0.753933682518821,-0.324396601119134,0.466720864320997,0
3.55999755859375,-2.3953800201416,1.62096035480499,2.72057914733887,-2.56613872308604,1.86167857751006,2.73141920191151,1571.781,2461.078,2067.951,2389.353,0.001613296,0.002850881,0.02404138,-0.811404407024384,-0.240498706698418,0.468384057283401,-0.741727567798258,-0.319144650954242,0.459164697851087,0
3.57999420166016,-2.41135931015015,1.61626815795898,2.72937846183777,-2.58084770246059,1.8553497146065,2.74052476083022,1960.08,3492.363,2918.838,0,-0.004100735,0.001465467,0.02615633,-0.79894894361496,-0.234611049294472,0.439971059560776,-0.729396114728537,-0.313838771199258,0.451530940972359,0
3.59999847412109,-2.42712450027466,1.61167871952057,2.73845815658569,-2.59531431270705,1.84912513636775,2.74948028171299,1554.073,2462.592,2051.776,2402.699,0.00389035,0.0008359323,0.0202816,-0.788276255130768,-0.229468449950218,0.453986167907715,-0.716935713767317,-0.308477408768949,0.443817359206151,0
3.6199951171875,-2.44263625144958,1.60720729827881,2.74696278572083,-2.60952509409627,1.84301063413925,2.75827743234631,1958.357,3482.604,2910.45,0,-0.001887116,-0.0005842975,0.0224003,-0.775600016117096,-0.223580911755562,0.425237357616425,-0.704361775018033,-0.303067194200314,0.436033492140578,0
3.63999938964844,-2.45792722702026,1.60283887386322,2.75575065612793,-2.6234885835008,1.83700253474321,2.76692149746096,1536.358,2463.973,2032.822,2419.752,0.006142842,-0.001251153,0.01655247,-0.764553248882294,-0.21841824054718,0.439391553401947,-0.691670720740692,-0.297606588091786,0.428177124984152,0
3.65999603271484,-2.47296094894409,1.59858822822571,2.76396203041077,-2.63719194552437,1.83110636089208,2.77540453133521,1942.429,3486.955,2888.73,14.03237,0.0003864793,-0.002652508,0.01873392,-0.751684844493866,-0.212530985474586,0.410564452409744,-0.678878353700696,-0.292102389931838,0.420258040401444,0
3.67999267578125,-2.4877667427063,1.59444141387939,2.77245092391968,-2.65063849381582,1.82532068681534,2.78372858527554,1526.568,2460.743,2017.371,2429.225,0.008377879,-0.003312972,0.01294653,-0.740286588668823,-0.207332924008369,0.424446523189545,-0.665986083416798,-0.286555206197011,0.41227711095171,0
3.69999694824219,-2.50231218338013,1.5904129743576,2.78036952018738,-2.66383127580226,1.81964420129024,2.79189554578451,1920.662,3484.789,2855.259,53.68691,0.002798046,-0.00462378,0.01508537,-0.727265298366547,-0.201437622308731,0.395930916070938,-0.65299527533123,-0.280965624398954,0.404235181908735,0
3.71999359130859,-2.51662230491638,1.58648943901062,2.78854966163635,-2.6767584210412,1.81408201183655,2.79989806449274,1530.509,2461.913,2012.627,2409.179,0.01055703,-0.005240036,0.009360473,-0.715522229671478,-0.19617722928524,0.409002929925919,-0.639922285921447,-0.275340682272968,0.396142378711232,0
3.73999786376953,-2.53066968917847,1.58268404006958,2.79617357254028,-2.68942811570037,1.808630596175,2.80774120902801,1900.099,3469.79,2817.339,111.2886,0.005202919,-0.006427805,0.01129095,-0.702365159988403,-0.19027341902256,0.381197988986969,-0.626763698705669,-0.269678909802388,0.38799658639423,0
3.75999450683594,-2.54447507858276,1.57898449897766,2.80403280258179,-2.70182915057228,1.80329477731443,2.81541804035694,1538.291,2474.343,2024.57,2356.878,0.01248751,-0.006991331,0.00567269,-0.690263986587524,-0.184959769248962,0.392960250377655,-0.613536214864365,-0.263987493038594,0.379808143784027,0
3.77999877929688,-2.55801439285278,1.57540273666382,2.81135964393616,-2.7139695770734,1.79807109095524,2.82293354268985,1876.925,3443.805,2777.715,186.1771,0.007413416,-0.008051269,0.007304861,-0.676968991756439,-0.179080650210381,0.366345018148422,-0.60023651686137,-0.258265004538452,0.371574997167698,0
3.79999542236328,-2.57130479812622,1.57192778587341,2.81888794898987,-2.72583886061506,1.79296406983666,2.83028119461452,1547.62,2499.036,2050.806,2276.02,0.01403567,-0.008574313,0.001910871,-0.664502799510956,-0.173761636018753,0.376417189836502,-0.586881630238189,-0.252518769916838,0.363307686166475,0
3.81999969482422,-2.58432626724243,1.56856846809387,2.8259162902832,-2.73744492223163,1.78797030575888,2.83746589962856,1850.031,3406.765,2736.038,279.5732,0.009344774,-0.009518137,0.00322765,-0.65107136964798,-0.167961910367012,0.351415038108826,-0.573468357077023,-0.246747413199059,0.355004231116903,0
3.83999633789063,-2.59709143638611,1.56531453132629,2.83310723304749,-2.74877791451009,1.78309403578861,2.84448156171422,1557.702,2533.213,2085.276,2176.469,0.01523618,-0.01001668,-0.001814678,-0.638261437416077,-0.162694737315178,0.359552711248398,-0.560014026276881,-0.240958390526246,0.346675359432959,0
3.85999298095703,-2.60958552360535,1.56217396259308,2.83983659744263,-2.75984146370944,1.77833369964791,2.85133042569855,1822.083,3360.737,2690.896,387.8505,0.01105932,-0.01086357,-0.0008048073,-0.62470817565918,-0.1570213586092,0.336469233036041,-0.546520735526767,-0.235152604475377,0.338322369684062,0
3.87999725341797,-2.62181758880615,1.55913734436035,2.84668755531311,-2.77063893010371,1.77368785150474,2.85801457175126,1569.064,2573.816,2121.535,2067.542,0.01623247,-0.01135146,-0.005411011,-0.611600756645203,-0.15184211730957,0.342550724744797,-0.532990631455729,-0.229330978680956,0.329946590735853,0
3.89999389648438,-2.63377642631531,1.55621099472046,2.85311889648438,-2.78116151864576,1.76916027562219,2.86452855531919,1796.409,3309.045,2640.99,505.3306,0.01266484,-0.01211792,-0.004713262,-0.597949266433716,-0.146316647529602,0.32156166434288,-0.519441457145543,-0.223501147495394,0.321559006401168,0
3.91999816894531,-2.64546871185303,1.55338609218597,2.85962963104248,-2.79141684911929,1.7647476934202,2.87087709341145,1582.145,2619.014,2155.495,1954.976,0.01712512,-0.01260101,-0.008855543,-0.58459997177124,-0.141234889626503,0.325534671545029,-0.505870408491346,-0.2176619043907,0.313157880805522,0
