t,x_s1,x_s2,x_s3,x_s_d1,x_s_d2,x_s_d3,propellers_rpms1,propellers_rpms2,propellers_rpms3,propellers_rpms4,rollRad,pitchRad,yawRad,v_s1,v_s2,v_s3,v_s_d1,v_s_d2,v_s_d3,insideCount
0,-0.0599999986588955,2.94000005722046,1.17999994754791,-0.0599999986588955,2.94000005722046,1.17999994754791,0,0,0,0,0,0,0,0,0,0,-1.06581410364015E-15,4.44089209850063E-16,4.44089209850063E-16,0
0.0199966430664063,-0.0599999986588955,2.94000005722046,1.1771354675293,-0.0600018680476204,2.93999925287472,1.18000110478858,0,0,0,0,0.0163538,-0.002474609,-2.024222E-05,3.71994488546079E-08,3.50004931704007E-08,-0.143225952982903,-0.000279892991557604,-0.000120430134961378,0.000173267094926113,5
0.0399932861328125,-0.0599999986588955,2.94000005722046,1.17048275470734,-0.060014863945674,2.93999366110285,1.18000914986856,0,0,0,0,0.03270752,-0.004950816,-5.430172E-05,3.62924410524101E-08,3.44428769949445E-08,-0.332637369632721,-0.00111059898697896,-0.000477859717552347,0.000687513678106196,6
0.05999755859375,-0.0600004345178604,2.94013261795044,1.16416549682617,-0.0600498857373401,2.93997859220429,1.18003083002592,3185.361,2835.76,1501.145,2767.674,0.03128035,-0.00494336,-0.01646952,-2.17782926483778E-05,0.00662220921367407,-0.31586217880249,-0.00247936261166862,-0.00106680046642749,0.00153484356504269,6
0.0799942016601563,-0.0599162206053734,2.94038772583008,1.15857720375061,-0.0601175240668593,2.93994948932069,1.18007270137395,3065.929,3067.303,2154.865,2023.989,0.01897429,-0.004311125,-0.04351499,0.00421072775498033,0.0127501115202904,-0.2794169485569,-0.00437186567523228,-0.00188109166426407,0.00270639311381153,6
0.0999984741210938,-0.0596375614404678,2.94068765640259,1.15374851226807,-0.0602281887669101,2.93990187339187,1.18014120809498,2640.121,3831.772,2620.392,1134.827,-0.005854693,-0.002888465,-0.07014447,0.0139328986406326,0.0149977020919323,-0.241436719894409,-0.00677637982016689,-0.00291568692648091,0.00419490191241918,6
0.1199951171875,-0.0590849108994007,2.94089889526367,1.1495703458786,-0.0603918861403606,2.93983143898525,1.18024254456713,2092.261,4101.941,3169.373,755.9158,-0.04012105,-0.0004506069,-0.08993495,0.0276325680315495,0.0105609558522701,-0.20891135931015,-0.00967801353495435,-0.00416417885169243,0.00599115140585487,5
0.139999389648438,-0.0582315027713776,2.94085621833801,1.14596676826477,-0.0606185767455666,2.93973390035084,1.18038287685052,1510.117,4074.804,3735.915,702.0496,-0.07649344,0.002388688,-0.09949676,0.0426703952252865,-0.00213104952126741,-0.180176272988319,-0.0130660253322238,-0.00562194567796536,0.00808849210174802,4
0.159996032714844,-0.0570994839072227,2.94039487838745,1.14297819137573,-0.0609176604100223,2.93960521300545,1.18056802388615,1135.361,3846.93,4069.755,879.9122,-0.1062793,0.004335398,-0.09869941,0.056600995361805,-0.0230698212981224,-0.149431228637695,-0.0169249902365933,-0.00728235046931681,0.0104773752055438,4
0.180000305175781,-0.055737778544426,2.93938803672791,1.14071130752563,-0.0612986871007165,2.9394412678651,1.18080389755851,1100.783,3565.349,4010.014,1148.996,-0.1236287,0.004492145,-0.0899994,0.0680852681398392,-0.0503411442041397,-0.113343693315983,-0.0212451141043368,-0.00914117907931815,0.0131517376757159,3
0.199996948242188,-0.0541965402662754,2.9377772808075,1.13924872875214,-0.0617704296168641,2.93923829023936,1.18109592864822,1373.561,3339.615,3594.706,1386.258,-0.1278749,0.003022845,-0.07724925,0.0770618617534637,-0.0805374011397362,-0.0731296092271805,-0.0260104776919234,-0.0111915819022102,0.0161017247421801,3
0.219993591308594,-0.0525143146514893,2.93557620048523,1.1385840177536,-0.0623418263269037,2.93899243419801,1.18144965043113,1790.609,3212.98,3017.025,1527.113,-0.1229752,0.0008614947,-0.06425995,0.0841113850474358,-0.11005163192749,-0.0332336761057377,-0.0312101301935526,-0.0134288471121871,0.0193205573344865,3
0.239997863769531,-0.0507196746766567,2.93284702301025,1.13860702514648,-0.0630217183703222,2.93869989564571,1.18187053599376,2159.216,3168.403,2517.347,1558.607,-0.1149633,-0.0009875001,-0.05362168,0.0897320806980133,-0.136453628540039,0.00114985555410385,-0.0368338920540454,-0.0158485947310391,0.02280193382306,3
0.259994506835938,-0.0488373674452305,2.92966485023499,1.13913786411285,-0.0638179029240226,2.93835731967507,1.18236341216003,2352.19,3159.188,2273.718,1495.627,-0.1090501,-0.001904693,-0.04623727,0.0941153168678284,-0.159108072519302,0.0265439543873072,-0.0428651747123285,-0.0184436871643672,0.0265355850983733,3
0.279998779296875,-0.0468918532133102,2.92608761787415,1.13999605178833,-0.0647390625194898,2.93796097043536,1.18293365383054,2352.37,3152.289,2324.368,1363.694,-0.1078149,-0.001744903,-0.04152188,0.0972757413983345,-0.178861275315285,0.0429088436067104,-0.0492963837173861,-0.0212108567320638,0.030516809833474,3
0.299995422363281,-0.0449088476598263,2.92214369773865,1.14106202125549,-0.0657923226682404,2.93750778201804,1.18358567203635,2229.52,3143.9,2572.569,1194.525,-0.1110874,-0.000737163,-0.03798733,0.0991503819823265,-0.19719135761261,0.0533014573156834,-0.0561105313314725,-0.0241427940851591,0.0347350918094591,3
0.319999694824219,-0.0429170206189156,2.91783547401428,1.14229381084442,-0.0669860785243584,2.93699414222283,1.18432466377777,2073.72,3132.818,2873.454,1032.394,-0.1169325,0.0006862606,-0.0339798,0.0995913371443748,-0.215405538678169,0.0615923814475536,-0.0633008373176985,-0.0272365818771378,0.0391862337367069,3
0.339996337890625,-0.0409490391612053,2.91315102577209,1.14370727539063,-0.068326768706371,2.93641728069206,1.18515461486636,1955.508,3107.101,3109.103,921.812,-0.1228426,0.002069473,-0.02837651,0.0983993709087372,-0.23422472178936,0.070672295987606,-0.0708499516420146,-0.0304847548730522,0.0438594951176439,3
0.359992980957031,-0.0390402674674988,2.90807723999023,1.14534318447113,-0.0698219320097035,2.93577395369266,1.18608019217563,1904.355,3065.963,3222.551,880.5267,-0.1267095,0.003092757,-0.02087013,0.0954384282231331,-0.253692060709,0.0817950069904327,-0.0787487928009798,-0.0338834055556794,0.0487492540690281,3
0.379997253417969,-0.0372257977724075,2.90261030197144,1.14724326133728,-0.0714791088463715,2.935060916796,1.18710606357981,1923.777,3020.895,3207.16,896.4279,-0.1274163,0.003642234,-0.01188515,0.0907233059406281,-0.273342698812485,0.0950036123394966,-0.0869889214763108,-0.0374289027221294,0.0538502862508218,3
0.399993896484375,-0.035537376999855,2.89676117897034,1.14943146705627,-0.0733036822025899,2.9342758538535,1.18823556140379,1991.671,2989.384,3098.482,938.8708,-0.125037,0.003790334,-0.002209358,0.084421344101429,-0.292451530694962,0.109409525990486,-0.0955525119207663,-0.0411135764513579,0.0591515566763244,3
0.419998168945313,-0.0340020693838596,2.89055466651917,1.1519056558609,-0.0753034649285836,2.93341540321397,1.18947352217404,2071.98,2974.576,2953.617,986.6735,-0.1205022,0.003707247,0.007338947,0.0767653286457062,-0.310323536396027,0.123710289597511,-0.104434660908044,-0.0449353170220673,0.0646500300148815,3
0.439994812011719,-0.0326426327228546,2.88402462005615,1.15464162826538,-0.0774831213880516,2.93247755793201,1.19082283335389,2136.774,2972.606,2824.86,1023.447,-0.1150741,0.003563457,0.01614794,0.0679716095328331,-0.326507806777954,0.136801302433014,-0.11361726969793,-0.0488863370519643,0.070334502284139,4
0.459999084472656,-0.0314784534275532,2.87720775604248,1.15760123729706,-0.0798502821969742,2.93145903476675,1.19228821865812,2167.981,2978.056,2749.331,1038.608,-0.1098698,0.003474481,0.02394571,0.0582092627882957,-0.3408482670784,0.147981688380241,-0.123096124252221,-0.0529648233581361,0.0762023647937057,4
0.479995727539063,-0.030526814982295,2.87013864517212,1.16074764728546,-0.0824088828700873,2.93035814037613,1.19387211435783,2168.502,2983.613,2732.067,1033.587,-0.1055389,0.003481375,0.03074375,0.0475818179547787,-0.35345932841301,0.157322362065315,-0.132852887402757,-0.0571628859694044,0.0822422659629699,4
0.5,-0.0298036355525255,2.86284708976746,1.16405165195465,-0.085166398670376,2.92917165836334,1.1955791479969,2146.466,2990.155,2763.604,1008.046,-0.1022734,0.003568675,0.03679855,0.0361592099070549,-0.36457958817482,0.165198788046837,-0.142884000065179,-0.0614789935111996,0.0884520025491718,4
0.519996643066406,-0.0293243732303381,2.85535717010498,1.16749906539917,-0.0881260274065667,2.92789821280061,1.19741129917127,2116.927,2991.807,2816.35,979.1841,-0.09983605,0.003685966,0.04240688,0.0239630993455648,-0.374495685100555,0.172367870807648,-0.153170920546857,-0.0659051680111775,0.0948200963613094,4
0.539993286132813,-0.0291040260344744,2.84768867492676,1.17108523845673,-0.091293865515634,2.92653518056143,1.19937234186584,2088.9,2992.714,2871.824,949.5135,-0.09783282,0.003776708,0.04786232,0.0110170133411884,-0.383421838283539,0.179305970668793,-0.163706645289342,-0.0704383960337938,0.101342211863077,4
0.55999755859375,-0.0291575379669666,2.8398585319519,1.17481589317322,-0.094676112580471,2.92507989413848,1.20146611391775,2070.445,2988.016,2908.402,936.2123,-0.09578005,0.003795776,0.05329278,-0.00267529860138893,-0.39150482416153,0.186531230807304,-0.17448465888317,-0.0750758741803766,0.108014315705644,5
0.579994201660156,-0.0294989310204983,2.8318829536438,1.17869830131531,-0.0982748462459366,2.92353145957921,1.20369390148813,2064.696,2986.585,2921.809,929.6946,-0.09338907,0.00371627,0.05873941,-0.0170696061104536,-0.398781090974808,0.194120720028877,-0.185486174984119,-0.0798095192118365,0.114824778247021,5
0.599998474121094,-0.0301411189138889,2.8237783908844,1.18273901939392,-0.102097262171133,2.92188678079254,1.20606015903275,2066.083,2984.16,2912.742,938.911,-0.09050061,0.003537688,0.06411414,-0.0321096405386925,-0.405231446027756,0.202036798000336,-0.196709126405959,-0.0846384416756885,0.121772319800455,5
0.6199951171875,-0.0310954265296459,2.81556224822998,1.18694198131561,-0.106144683970236,2.92014528826426,1.20856570593183,2074.97,2986.402,2886.313,952.7567,-0.08717165,0.003271741,0.06928793,-0.0477152429521084,-0.410806655883789,0.210145711898804,-0.208134604141382,-0.0895545055543457,0.128845234789665,5
0.639999389648438,-0.032371062785387,2.80725312232971,1.19130432605743,-0.110424235525481,2.91830391678686,1.21121495220784,2082.588,2992.182,2856.272,967.4262,-0.08360249,0.002940238,0.07415163,-0.0637818276882172,-0.415454596281052,0.218119919300079,-0.219761081350814,-0.0945570538913933,0.136042578028218,5
0.659996032714844,-0.0339756347239017,2.79886960983276,1.1958224773407,-0.114936482147704,2.9163624231229,1.21400824781511,2088.022,2998.404,2825.59,985.062,-0.0799971,0.002566594,0.07859444,-0.0802286565303802,-0.419170558452606,0.225908473134041,-0.231569557951997,-0.0996379114822372,0.143352587560098,5
0.680000305175781,-0.0359145887196064,2.79043030738831,1.20048654079437,-0.119688496929273,2.91431776391831,1.21694997133476,2087.842,3008.331,2808.14,991.5381,-0.07661594,0.002167567,0.08261561,-0.0969479531049728,-0.421967267990112,0.233201175928116,-0.243559016194652,-0.104796640417365,0.150774633349401,6
0.699996948242188,-0.0381925143301487,2.78195190429688,1.20529103279114,-0.124680083855354,2.91217002351282,1.22004000142426,2083.064,3013.736,2795.84,1003.497,-0.07353573,0.001759424,0.08618705,-0.113896325230598,-0.423922747373581,0.240224495530128,-0.255710395848158,-0.11002503961202,0.158296916205407,6
0.719993591308594,-0.0408121831715107,2.77344989776611,1.2102255821228,-0.129916240141956,2.90991705174396,1.22328143159838,2075.437,3023.18,2799.801,998.145,-0.07089495,0.001343443,0.08941209,-0.130983203649521,-0.425105333328247,0.246730417013168,-0.268018433064612,-0.115320844179508,0.165916177555513,6
0.739997863769531,-0.0437763594090939,2.76493716239929,1.21528887748718,-0.135402141159277,2.90755662179454,1.22667746565781,2064.921,3024.323,2802.492,1006.867,-0.06856787,0.0009296524,0.09229163,-0.148209616541862,-0.425631195306778,0.25316309928894,-0.280478211503383,-0.120681938755799,0.173629373950669,6
0.759994506835938,-0.0470863990485668,2.75642561912537,1.22047483921051,-0.14113644597991,2.90508931062815,1.2302272735046,2058.918,3032.485,2813.287,995.5228,-0.06660885,0.0005061614,0.09495034,-0.165502041578293,-0.425574451684952,0.259298205375671,-0.293070637251543,-0.126100107763583,0.181424685349205,6
0.779998779296875,-0.0507438145577908,2.74792504310608,1.22578430175781,-0.147126184485884,2.90251209348295,1.23393520697061,2048.78,3030.926,2818.396,1004.666,-0.06482347,8.402998E-05,0.09737344,-0.18287006020546,-0.425032526254654,0.265475392341614,-0.305795832832518,-0.131575403921268,0.189302187598958,6
0.799995422363281,-0.0547490380704403,2.7394437789917,1.23121547698975,-0.153369252164744,2.89982587587186,1.23779996326238,2046.831,3036.476,2823.098,998.3934,-0.06322823,-0.0003467436,0.09962603,-0.200261443853378,-0.424060195684433,0.271561115980148,-0.318634718604462,-0.13709961779199,0.197250069492735,6
0.819999694824219,-0.0591023303568363,2.73098945617676,1.23676896095276,-0.159872691993147,2.89702762739878,1.24182590231796,2041.915,3036.604,2822.36,1006.169,-0.06171929,-0.0007781757,0.1016844,-0.217664808034897,-0.422717660665512,0.277676612138748,-0.331587821991737,-0.142672976311719,0.205268657531342,6
0.839996337890625,-0.0638031512498856,2.72256851196289,1.24244427680969,-0.166633637018892,2.89411858163313,1.24601124935738,2042.609,3041.026,2818.416,1006.956,-0.06032752,-0.001211738,0.103557,-0.235040947794914,-0.421044677495956,0.283764779567719,-0.344636106234817,-0.148287288494656,0.213346167053785,6
0.859992980957031,-0.0688502043485641,2.71418690681458,1.24823915958405,-0.173656429312624,2.89109687030325,1.25035869232919,2040.59,3043.642,2814.724,1011.879,-0.05906252,-0.00164104,0.1052349,-0.252352714538574,-0.41908010840416,0.289745271205902,-0.357775446040398,-0.153940779342338,0.221480044306994,6
0.879997253417969,-0.0742418020963669,2.70584964752197,1.25415301322937,-0.180945630646592,2.88796053060595,1.25487105518773,2040.31,3046.643,2808.465,1017.516,-0.05793814,-0.002059689,0.1066989,-0.269579201936722,-0.4168661236763,0.295692414045334,-0.371001963495383,-0.159631780297098,0.229667888678032,6
0.899993896484375,-0.0799752771854401,2.69756078720093,1.26018261909485,-0.18849723509595,2.8847112861788,1.25954585807468,2040.784,3051.812,2805.188,1017.108,-0.05703745,-0.002467152,0.1079709,-0.286675125360489,-0.414441496133804,0.301478892564774,-0.384296738353309,-0.165352150505452,0.237897987633041,7
0.919998168945313,-0.0860476940870285,2.68932366371155,1.26632487773895,-0.196318384305134,2.8813460641717,1.26438752200817,2037.212,3053.525,2805.047,1021.455,-0.05635302,-0.002854376,0.10905,-0.303619295358658,-0.411854863166809,0.307114213705063,-0.397661187980262,-0.171102499820431,0.246171218589148,7
0.939994812011719,-0.0924556404352188,2.68114042282104,1.27257859706879,-0.204404317663683,2.87786691294234,1.26939309994354,2036.811,3056.671,2804.791,1021.787,-0.05589975,-0.003219229,0.1099497,-0.320399016141891,-0.409156382083893,0.312687933444977,-0.4110765036434,-0.176874735369747,0.254475938044738,7
0.959999084472656,-0.0991951823234558,2.67301273345947,1.27893936634064,-0.212762239776093,2.87427073255068,1.27456705187416,2034.218,3059.295,2811.483,1017.853,-0.05570108,-0.003560646,0.1107155,-0.336977034807205,-0.406390070915222,0.318040132522583,-0.424544411524882,-0.18266959988136,0.262813214588797,7
0.979995727539063,-0.106262803077698,2.66494035720825,1.28540945053101,-0.22138664033507,2.87055989392801,1.27990596665734,2032.822,3059.298,2811.777,1022.766,-0.05567072,-0.003872236,0.1113261,-0.35338169336319,-0.40361350774765,0.323503702878952,-0.438046240701377,-0.188479059778567,0.271171490030365,7
1,-0.113653749227524,2.65692329406738,1.29198253154755,-0.230284798736574,2.86673126495361,1.28541435058594,2032.713,3063.322,2823.556,1010.177,-0.05589496,-0.004163586,0.11187,-0.369547039270401,-0.400854557752609,0.328652858734131,-0.451584000205995,-0.194303979492187,0.279552008056641,7
1.01999664306641,-0.121364757418633,2.64895987510681,1.29866528511047,-0.239450461003889,2.86278753653895,1.29108833215045,2030.813,3059.898,2820.363,1023.546,-0.05617938,-0.004417652,0.1122657,-0.38555109500885,-0.398173779249191,0.334137260913849,-0.465139182559269,-0.200136395770846,0.2879433116562,7
1.03999328613281,-0.129390314221382,2.64104843139648,1.30544805526733,-0.248887339851819,2.85872711120656,1.2969302096982,2034.577,3066.82,2836.25,1000.152,-0.05673226,-0.004658934,0.1126572,-0.401278436183929,-0.39557358622551,0.339136093854904,-0.478708875293167,-0.205975055460915,0.29634359787259,7
1.05999755859375,-0.137727692723274,2.63318610191345,1.31234216690063,-0.258599401509697,2.85454828239877,1.30294243851408,2030.617,3059.072,2827.929,1026.11,-0.05722441,-0.00485228,0.1128828,-0.416867762804031,-0.393119871616364,0.344708502292633,-0.492290296490434,-0.211818761581115,0.30475114456651,7
1.07999420166016,-0.146370619535446,2.62537026405334,1.31933498382568,-0.268579290074434,2.85025421515517,1.30912046494367,2041.026,3071.187,2845.463,989.2992,-0.05803987,-0.005044559,0.1131535,-0.432148277759552,-0.390789419412613,0.349641710519791,-0.50586523043438,-0.217659676417445,0.313154675341593,7
1.09999847412109,-0.155316680669785,2.6175971031189,1.32644009590149,-0.278834517009062,2.84584167750307,1.31546893894041,2032.727,3059.302,2834.901,1026.836,-0.0587275,-0.005179316,0.1132456,-0.447302609682083,-0.38865652680397,0.355257779359818,-0.519436284009554,-0.223498921639497,0.321555803983559,7
1.1199951171875,-0.164559215307236,2.60986351966858,1.33364224433899,-0.289357002179081,2.84131414609862,1.32198285851614,2046.549,3073.864,2856.168,980.7661,-0.05976986,-0.0053178,0.1134167,-0.462125837802887,-0.386678397655487,0.360105514526367,-0.532985466132485,-0.229328756186667,0.329943393154705,8
1.13999938964844,-0.174096122384071,2.60216474533081,1.34095847606659,-0.300154365346813,2.83666834237095,1.3286669406667,2036.799,3059.638,2842.752,1025.991,-0.06062473,-0.005391303,0.1133969,-0.476845353841782,-0.384939581155777,0.365811258554459,-0.546515580872639,-0.235150386571708,0.338319178707607,8
1.15999603271484,-0.183920249342918,2.5944972038269,1.34836959838867,-0.311217811600473,2.8319080505249,1.33551574092274,2053.396,3077.03,2869.776,968.7231,-0.06188707,-0.005477057,0.113506,-0.491206556558609,-0.383376270532608,0.37055429816246,-0.560008885098767,-0.240956178420931,0.346672176798798,8
1.17999267578125,-0.194030344486237,2.58685541152954,1.35589790344238,-0.322550701230474,2.8270318247214,1.34253133946411,2040.936,3058.938,2851.976,1026.127,-0.06286765,-0.005489307,0.1134015,-0.50550377368927,-0.38209143280983,0.376415133476257,-0.573463232144024,-0.246745208083563,0.355001058539242,8
1.19999694824219,-0.204418420791626,2.57923555374146,1.36351788043976,-0.334156660511822,2.8220381046756,1.34971598112778,2060.762,3080.043,2888.149,952.623,-0.0643212,-0.005524994,0.1134956,-0.519404292106628,-0.380987554788589,0.380997657775879,-0.58687652428584,-0.252516572968185,0.36330452533874,8
1.21999359130859,-0.215084761381149,2.57163143157959,1.37126243114471,-0.346025842163694,2.81693112739735,1.35706356997782,2046.727,3057.159,2857.938,1030.49,-0.06534172,-0.005474926,0.1133173,-0.533320546150208,-0.380204230546951,0.387229323387146,-0.600231432569387,-0.258262816909651,0.371571849748761,8
1.23999786376953,-0.226019844412804,2.56403970718384,1.37909197807312,-0.358166167196084,2.81170748469733,1.36457900949675,2071.241,3085.948,2911.141,926.4524,-0.06701206,-0.005473329,0.1134619,-0.546752572059631,-0.379581332206726,0.391477674245834,-0.613531154887641,-0.263985315871967,0.379805011417393,8
1.25999450683594,-0.237226605415344,2.55645298957825,1.38705730438232,-0.3705671011502,2.80637170925886,1.37225577835275,2048.696,3050.637,2861.469,1047.29,-0.06794789,-0.005355084,0.1132027,-0.560338020324707,-0.37933161854744,0.39826899766922,-0.626758665639206,-0.269676744214496,0.387993470686331,8
1.27999877929688,-0.248692631721497,2.54886913299561,1.39509797096252,-0.383236695417198,2.80092033679326,1.3800988607405,2086.6,3095.262,2938.506,888.111,-0.06984033,-0.00532792,0.1134509,-0.57330197095871,-0.379187792539597,0.402032166719437,-0.639917282339435,-0.275338529371412,0.396139281255613,8
1.29999542236328,-0.260425001382828,2.54127931594849,1.40329074859619,-0.396163740917024,2.79535819025452,1.38810131770546,2048.98,3041.047,2859.297,1075.832,-0.0705727,-0.00513777,0.1130922,-0.586617052555084,-0.379485458135605,0.409636795520782,-0.652990303744023,-0.280963485263868,0.404232104259424,8
1.31999969482422,-0.272406965494156,2.53368353843689,1.41154360771179,-0.409356423791328,2.7896817473746,1.39626821685929,2106.104,3108.868,2971.7,835.4308,-0.07273519,-0.005102084,0.1135053,-0.599098205566406,-0.379793852567673,0.412641525268555,-0.665981146317813,-0.286553081901244,0.412274054652251,8
1.33999633789063,-0.28465136885643,2.5260705947876,1.41997170448303,-0.422802873722428,2.78389611561957,1.40459220990988,2045.441,3026.512,2848.737,1122.813,-0.07311975,-0.004831507,0.1130014,-0.612219631671906,-0.380643576383591,0.421407669782639,-0.678873453515705,-0.29210028151913,0.420255006953505,8
1.35999298095703,-0.297134965658188,2.51844358444214,1.42843627929688,-0.436506138147829,2.77799998376221,1.41307518336622,2131.203,3128.857,3014.089,760.9449,-0.07565721,-0.004808071,0.113658,-0.624181628227234,-0.38135302066803,0.423229426145554,-0.691665859866827,-0.297604496593558,0.428174115871672,9
1.37999725341797,-0.309879094362259,2.51078844070435,1.43710887432098,-0.450469530727146,2.77199192602736,1.42171918854144,2034.613,3004.123,2827.748,1196.758,-0.07549902,-0.004441088,0.1129356,-0.637206733226776,-0.382755994796753,0.433632016181946,-0.704356955827446,-0.303065120637236,0.436030508832034,9
1.39999389648438,-0.322851002216339,2.50311255455017,1.44578421115875,-0.464680216184654,2.76587746507559,1.43051627978847,2165.777,3158.579,3066.747,655.8408,-0.07856751,-0.004457599,0.1139326,-0.648597776889801,-0.383795380592346,0.433764070272446,-0.716930938559026,-0.308475354130225,0.443814403124744,9
1.41999816894531,-0.336083889007568,2.49539732933044,1.45471274852753,-0.47914673136562,2.75965292774086,1.43947174182117,2015.066,2972.86,2790.957,1305.518,-0.07765777,-0.003974502,0.1128954,-0.661645233631134,-0.385758131742477,0.446426123380661,-0.729391385793766,-0.313836736470737,0.451528013536465,9
1.43999481201172,-0.34953111410141,2.48765683174133,1.46359252929688,-0.493855616658466,2.75332410531803,1.44857724249882,2207.663,3198.917,3139.743,510.3843,-0.08148793,-0.004063984,0.1143758,-0.672363638877869,-0.387029647827148,0.443986773490906,-0.7417228873516,-0.319142637088802,0.459161800431646,9
1.45999908447266,-0.363243639469147,2.47986531257629,1.47279262542725,-0.508815552717244,2.74688726276417,1.45783815555978,1982.767,2927.031,2728.752,1469.384,-0.07945328,-0.003424825,0.1128529,-0.685624480247498,-0.38958153128624,0.460005015134811,-0.753929052770513,-0.324394609067776,0.466717998286247,9
1.47999572753906,-0.377153635025024,2.47204637527466,1.48186588287354,-0.524012471663969,2.74034845309416,1.46724577231745,2265.685,3259.521,3241.654,296.1017,-0.08443925,-0.003639476,0.1150467,-0.695498645305634,-0.390947848558426,0.453664243221283,-0.765994882555672,-0.329586198544069,0.474187321698441,9
1.5,-0.391338586807251,2.46416330337524,1.49135947227478,-0.539455198877605,2.73370387899399,1.4768055561018,1927.914,2858.521,2626.922,1721.415,-0.08072521,-0.002777144,0.1127795,-0.709249675273895,-0.394153863191605,0.474677830934525,-0.777924000354858,-0.334718964672088,0.481572013878822,9
1.51999664306641,-0.405699610710144,2.45625400543213,1.50061547756195,-0.555129074991064,2.72695984797977,1.48650843206629,2330.574,3363.585,3370.073,0,-0.08733571,-0.003121757,0.1160644,-0.71805077791214,-0.39545926451683,0.462799817323685,-0.789701834723693,-0.339786637766398,0.488863054409188,9
1.53999328613281,-0.420352160930634,2.44826602935791,1.51042902469635,-0.571036956668503,2.72011513090874,1.49635616862212,1849.388,2753.615,2472.868,2089.118,-0.08125252,-0.001897236,0.1127254,-0.732624888420105,-0.399397283792496,0.490678071975708,-0.801327600455846,-0.344788879974649,0.496059957209413,9
1.55999755859375,-0.435169845819473,2.44024538993835,1.51999723911285,-0.587181951496087,2.71316839067337,1.50635068951315,2096.59,3749.019,3221.711,0,-0.08746407,-0.00104822,0.1180684,-0.740886509418488,-0.401032030582428,0.478413641452789,-0.812800388649436,-0.349725300221754,0.503162159625937,9
1.57999420166016,-0.450272053480148,2.43214726448059,1.53007423877716,-0.603548545866849,2.70612630234534,1.51648239107766,1964.76,2548.975,2419.12,2235.797,-0.08087967,0.001210142,0.1143565,-0.755111813545227,-0.404901564121246,0.503849864006042,-0.824106301004481,-0.354589918457504,0.510161057949003,9
1.59999847412109,-0.465533316135406,2.42402219772339,1.53987741470337,-0.620145926473056,2.69898491314762,1.52675696031579,2202.592,3647.048,3231.839,0,-0.08704329,0.002816579,0.1182704,-0.763061821460724,-0.406259477138519,0.490158140659332,-0.835248923368005,-0.359384277571697,0.517058871988737,9
1.6199951171875,-0.481069505214691,2.41582798957825,1.55016672611237,-0.636958033083316,2.69175113334911,1.53716445517924,2061.699,2522.565,2484.02,2115.857,-0.08137235,0.005482911,0.1131731,-0.776807844638824,-0.409711301326752,0.514466941356659,-0.846214826007804,-0.364102599125749,0.523847288101157,9
1.63999938964844,-0.496758967638016,2.40760731697083,1.56022381782532,-0.653994195024907,2.68442094880091,1.54771065096602,2171.001,3713.37,3213.151,0,-0.08812772,0.007610077,0.1161977,-0.784475088119507,-0.411037594079971,0.50285416841507,-0.857007552155828,-0.368746407673381,0.530528499715628,9
1.65999603271484,-0.512698352336884,2.39932203292847,1.57067799568176,-0.671237824488362,2.67700149677403,1.55838527903188,2131.177,2518.788,2650.183,1883.163,-0.08481422,0.01037251,0.1111319,-0.796971559524536,-0.414268553256989,0.522709727287292,-0.867614155697522,-0.373310132863173,0.537094492570531,9
1.67999267578125,-0.528785169124603,2.39100575447083,1.58092701435089,-0.688691692550512,2.66949158495151,1.56919005480539,2247.215,3538.023,3327.604,0,-0.09211288,0.01229442,0.1129252,-0.804342567920685,-0.415810316801071,0.512450695037842,-0.878034183119987,-0.377793579561193,0.543544985919778,9
1.69999694824219,-0.545105218887329,2.38261747360229,1.59154629707336,-0.706358800111611,2.66188992212981,1.58012683598675,2128.753,2592.507,2820.87,1646.864,-0.09010859,0.0146031,0.1083302,-0.816003084182739,-0.419409543275833,0.530965566635132,-0.888267004546665,-0.382196476749158,0.549879589839776,9
1.71999359130859,-0.561569154262543,2.37418484687805,1.60200953483582,-0.72422180503422,2.6542039701462,1.59118488696678,2245.142,3485.657,3393.062,0,-0.09709193,0.01603711,0.1103588,-0.823197722434998,-0.421633571386337,0.523163557052612,-0.898300426012065,-0.386513577704374,0.556090755685004,9
1.73999786376953,-0.578254997730255,2.36566615104675,1.61282682418823,-0.742290383213093,2.64642956573347,1.60237019758524,2113.52,2642.744,2911.253,1522.009,-0.09511639,0.0177734,0.1070315,-0.834288597106934,-0.425935715436935,0.540867328643799,-0.908137821269591,-0.39074633405868,0.562180571969536,9
1.75999450683594,-0.595081746578217,2.35709071159363,1.62350142002106,-0.760546715064628,2.63857437616062,1.61367173667103,2299.644,3381.346,3448.867,0,-0.1011607,0.01846829,0.1095423,-0.841337919235229,-0.428768783807755,0.533729255199432,-0.917767514700581,-0.394889722119545,0.568141810929231,9
1.77999877929688,-0.612130522727966,2.34841537475586,1.63456404209137,-0.779000609654483,2.63063418086074,1.62509557650306,2080.539,2692.533,2886.995,1536.336,-0.09780672,0.01959672,0.1070437,-0.852443516254425,-0.433769941329956,0.553133428096771,-0.927192788821983,-0.398945154262308,0.57397650459845,9
1.79999542236328,-0.629316449165344,2.33967614173889,1.64548337459564,-0.797633790944145,2.62261684350262,1.63663040334288,2297.947,3418.945,3414.65,0,-0.1028428,0.01976541,0.1105918,-0.859297513961792,-0.436958640813828,0.545964241027832,-0.936402499096495,-0.402907835303912,0.579677753977713,9
1.81999969482422,-0.646726667881012,2.33083057403564,1.65681385993958,-0.816456197270346,2.61451808789761,1.64828236949435,2059.96,2693.115,2793.71,1654.915,-0.09798568,0.02058628,0.1085782,-0.870506882667542,-0.442261844873428,0.566525876522064,-0.945399824400851,-0.406779133026206,0.585247526943151,9
1.83999633789063,-0.664268434047699,2.32192420959473,1.6679722070694,-0.835449117627072,2.60634596486888,1.66003989195343,2311.453,3448.927,3372.477,0,-0.1024715,0.02048861,0.1126949,-0.877089202404022,-0.445326924324036,0.557917654514313,-0.954174163352093,-0.410554485950274,0.590679260733698,9
1.85999298095703,-0.682038068771362,2.31291437149048,1.67956531047821,-0.854615270215496,2.5980993048504,1.67190465341613,2045.546,2677.479,2696.721,1791.109,-0.09648845,0.0212538,0.1104817,-0.888485014438629,-0.450491577386856,0.579652965068817,-0.962725359910172,-0.414233826936439,0.595972858753131,9
1.87999725341797,-0.69993382692337,2.30385112762451,1.69096064567566,-0.873957566090845,2.58977685529642,1.6838784559643,2283.571,3529.852,3322.482,0,-0.1008768,0.02123883,0.1149434,-0.894789278507233,-0.453160613775253,0.569768190383911,-0.971053025860989,-0.417816988947023,0.601128080678429,9
1.89999389648438,-0.718057751655579,2.29469394683838,1.70279121398926,-0.893456683142228,2.58138692997148,1.69594933829086,2053.281,2640.564,2641.726,1882.6,-0.09453902,0.02217531,0.1123344,-0.906195044517517,-0.457843691110611,0.591525733470917,-0.979147395688901,-0.421299770153459,0.606138881190213,9
1.91999816894531,-0.73630279302597,2.28549480438232,1.71440351009369,-0.913122862707269,2.57292512231409,1.70812364027167,2268.908,3564.991,3306.87,0,-0.09910688,0.02237954,0.1166449,-0.91225802898407,-0.459974318742752,0.580612659454346,-0.987011339258123,-0.424683405378145,0.611007036871143,9
1.93999481201172,-0.754773616790771,2.27621388435364,1.72644197940826,-0.932936403420974,2.56439990927123,1.72038916582329,2068.497,2611.98,2641.998,1901.716,-0.09290278,0.0235112,0.1135517,-0.923532843589783,-0.464045256376266,0.601924180984497,-0.994635661494588,-0.427963938237592,0.615726855532351,9
1.95999908447266,-0.773361802101135,2.26690030097961,1.73825991153717,-0.952907658613767,2.55580683609405,1.73275232415044,2254.318,3583.406,3307.882,0,-0.09762243,0.02393011,0.1175393,-0.92941153049469,-0.465682417154312,0.590899586677551,-1.00202309041976,-0.431142542523221,0.620300025949072,9
1.97999572753906,-0.792169094085693,2.25751709938049,1.75048458576202,-0.973016570682103,2.54715453300902,1.74520069864106,2089.949,2598.112,2678.425,1858.729,-0.09184497,0.02516796,0.1141798,-0.940364420413971,-0.46916252374649,0.61123138666153,-1.00916501115878,-0.434215511495054,0.624721215103391,9
1.99999237060547,-0.811090171337128,2.24810934066772,1.76249301433563,-0.993265847141347,2.5384418350479,1.75773596537614,2260.22,3558.476,3329,0,-0.09661043,0.02563323,0.1177422,-0.946054935455322,-0.470386266708374,0.600422322750092,-1.01606141646104,-0.437182842033357,0.628990418506833,9
2.01999664306641,-0.83022266626358,2.23864126205444,1.77489328384399,-1.01365835337184,2.52966750931758,1.77035989816261,2099.93,2605.503,2721.538,1795.434,-0.09115468,0.02681576,0.1142939,-0.956624627113342,-0.473398685455322,0.620015501976013,-1.02271203275434,-0.440044416427654,0.633107466805174,9
2.03999328613281,-0.849464476108551,2.22915482521057,1.78708600997925,-1.03417354141348,2.52084039703127,1.78305977683431,2266.652,3535.162,3343.573,0,-0.09582107,0.02717121,0.1176162,-0.962092220783234,-0.474316745996475,0.609638392925262,-1.02910913225408,-0.442796909628122,0.637067576131623,9
2.05999755859375,-0.868909299373627,2.21961522102356,1.79965877532959,-1.05482201812353,2.5119559343546,1.79584216754118,2098.632,2621.133,2747.854,1747.624,-0.09049102,0.0281902,0.1142769,-0.972246170043945,-0.476977467536926,0.628636956214905,-1.03525504859546,-0.445441325732794,0.640872191117535,9
2.07999420166016,-0.888457715511322,2.21006274223328,1.81202352046967,-1.07558293843174,2.50302309033894,1.80869416619175,2275.651,3505.928,3356.966,0,-0.09497418,0.028322,0.1175142,-0.97741287946701,-0.477621734142303,0.618238151073456,-1.0411426556922,-0.447974598585819,0.644516900376035,9
2.09999847412109,-0.908202469348907,2.20046257972717,1.82476937770844,-1.09646699912883,2.4940372624541,1.82162239460902,2084.776,2637.413,2743.529,1740.987,-0.08940658,0.02913792,0.1142777,-0.987237930297852,-0.480004757642746,0.637294709682465,-1.04677411523768,-0.450397658303471,0.648003042098304,9
2.1199951171875,-0.928043127059937,2.1908552646637,1.83730053901672,-1.11745308225396,2.48500753716864,1.83461377976925,2268.597,3509.317,3350.024,0,-0.0936671,0.02906975,0.1176682,-0.992036938667297,-0.480370581150055,0.626559615135193,-1.0521429102862,-0.45270770082608,0.651326581984514,9
2.13999938964844,-0.948074340820313,2.18120622634888,1.85021567344666,-1.138551967509,2.47592927627801,1.8476749948214,2069.074,2639.035,2713.846,1774.348,-0.08767606,0.02974897,0.1144853,-1.00156044960022,-0.482449233531952,0.645754396915436,-1.05725102347782,-0.454905579228273,0.654488747383304,8
2.15999603271484,-0.968193113803864,2.17155694961548,1.86290085315704,-1.15974228854654,2.4668116731246,1.86079281297862,2261.877,3518.749,3334.568,0,-0.09176188,0.02955192,0.1180068,-1.00594019889832,-0.482459753751755,0.634260356426239,-1.06209255378819,-0.456988754464129,0.657485885279498,8
2.17999267578125,-0.988496601581573,2.16187381744385,1.87597417831421,-1.18102676265167,2.45765355853653,1.8739689163698,2055.555,2631.743,2672.954,1825.221,-0.08533248,0.03017443,0.1147015,-1.01517593860626,-0.484149247407913,0.653664648532867,-1.06666760390386,-0.458957270716794,0.660318059240953,8
2.19999694824219,-1.00887835025787,2.15219926834106,1.88880002498627,-1.20240821395574,2.44845371736898,1.88720505326679,2245.198,3543.142,3312.925,0,-0.08934107,0.02995507,0.1183022,-1.01909911632538,-0.483734339475632,0.641290247440338,-1.07097597819164,-0.460811043810786,0.662985148161421,7
2.21999359130859,-1.0294383764267,2.14250016212463,1.90201497077942,-1.22386495005255,2.43922148325834,1.90048779503681,2050.292,2616.452,2632.649,1874.033,-0.08263522,0.03059993,0.1147529,-1.02799689769745,-0.48495090007782,0.660746157169342,-1.07501271071614,-0.462547937042828,0.665484077890325,7
2.23999786376953,-1.05006682872772,2.13281869888306,1.91496419906616,-1.24540792547886,2.42995214277345,1.91382392305993,2226.569,3566.566,3293.305,0,-0.08671093,0.03043541,0.1183149,-1.03143036365509,-0.484072476625443,0.647462725639343,-1.07877930973132,-0.464168599372462,0.667815782108711,5
2.25999450683594,-1.07086479663849,2.12312340736389,1.92829656600952,-1.26701526177039,2.4206551096063,1.92719989352455,2047.023,2596.745,2609.346,1906.728,-0.07993212,0.03114632,0.1144613,-1.03989481925964,-0.484770059585571,0.666621267795563,-1.08227143928024,-0.465671165158559,0.669977576652695,5
2.27999877929688,-1.09172165393829,2.11345458030701,1.94135057926178,-1.28869796983554,2.41132564607061,1.9406225227075,2211.93,3579.7,3279.681,0,-0.08411381,0.03105928,0.1178527,-1.04283809661865,-0.483441203832626,0.652703106403351,-1.08549040888332,-0.467056197851165,0.67197027217779,2
2.29999542236328,-1.11273682117462,2.10378170013428,1.95477604866028,-1.31043401044317,2.40197323503182,1.95407816727483,2047.611,2582.495,2604.133,1910.011,-0.07746337,0.03181392,0.1137352,-1.05076086521149,-0.483630448579788,0.671271741390228,-1.08843251702753,-0.468322104792631,0.6737915772711,1
2.31999969482422,-1.13380086421967,2.09414386749268,1.96791470050812,-1.33223444283894,2.39259311800549,1.96757367342642,2203.359,3576.696,3275.273,0,-0.08176117,0.03175518,0.1168848,-1.05320227146149,-0.481901794672012,0.65693062543869,-1.09109887036509,-0.469469362144493,0.675442177003072,0
2.33999633789063,-1.1550110578537,2.08451080322266,1.98141241073608,-1.35407709248145,2.38319483607731,1.98109531406483,2045.089,2577.17,2608.655,1896,-0.07530141,0.03249114,0.1125899,-1.0605171918869,-0.481654226779938,0.674885034561157,-1.09348640563071,-0.470496651869278,0.67692017506657,0
2.35999298095703,-1.17625975608826,2.07491874694824,1.9946174621582,-1.37596470003558,2.37377721001573,1.99464478579218,2196.02,3567.376,3274.508,0,-0.07967272,0.03239185,0.1155476,-1.06243765354156,-0.479602128267288,0.660251140594482,-1.09559527181965,-0.471404038075479,0.678225663696753,0
2.37999725341797,-1.19764220714569,2.06533861160278,2.00817036628723,-1.39790005743958,2.36433903852774,2.00822381695123,2035.951,2576.554,2613.798,1881.661,-0.07332375,0.03305387,0.1111849,-1.06911492347717,-0.479006230831146,0.677644550800323,-1.09742530100382,-0.472191448508328,0.679358538938131,0
2.39999389648438,-1.2190523147583,2.05580472946167,2.0214262008667,-1.41986083522252,2.35488992936084,2.02181858453579,2194.235,3554.234,3270.65,0,-0.07769453,0.03284834,0.1140135,-1.07050740718842,-0.476695477962494,0.662790358066559,-1.09897439291323,-0.472857979480329,0.680317500623536,0
2.41999816894531,-1.24058330059052,2.04628825187683,2.03502106666565,-1.44185817738692,2.34542508756209,2.03543598721428,2022.265,2580.58,2610.398,1874.714,-0.0713658,0.03339222,0.109652,-1.07654774188995,-0.475819885730743,0.679740190505981,-1.10024313330221,-0.473403883025206,0.681102911362803,0
2.43999481201172,-1.26213085651398,2.03682231903076,2.04831004142761,-1.46386968334064,2.3359541514805,2.04906215795307,2190.853,3541.202,3266.901,0,-0.07570408,0.03304178,0.1124295,-1.07738411426544,-0.473281294107437,0.664451062679291,-1.10123006676374,-0.473828532921971,0.681713870189648,0
2.45999908447266,-1.28378760814667,2.02737927436829,2.061936378479,-1.48590651627916,2.32647231790489,2.06270400730194,2003.854,2583.892,2592.196,1888.176,-0.06922195,0.03346228,0.1080554,-1.08283972740173,-0.472169995307922,0.681318819522858,-1.10193556692257,-0.474132089930926,0.682150608395601,0
2.47999572753906,-1.3054496049881,2.017991065979,2.07524561882019,-1.50794623031618,2.31698924467309,2.07634764018804,2179.169,3544.999,3253.475,0,-0.07351337,0.03299514,0.1108948,-1.08310174942017,-0.469415247440338,0.665463984012604,-1.10235882472314,-0.474314205938057,0.682412625136718,0
2.49999237060547,-1.32720947265625,2.00862979888916,2.08889126777649,-1.52999158792198,2.30750374317131,2.08999476671204,1985.796,2578.886,2563.105,1920.165,-0.06679741,0.03333659,0.1064751,-1.08799088001251,-0.468064904212952,0.682283401489258,-1.10250000048238,-0.474374949923262,0.68250001965682,0
2.51999664306641,-1.34896290302277,1.99932837486267,2.10220456123352,-1.55204535801192,2.29801462201262,2.10364710096447,2166.875,3550.79,3238.178,0,-0.07105527,0.03280082,0.1093561,-1.08766555786133,-0.465069532394409,0.665659248828888,-1.10235893238473,-0.47431425226183,0.68241269178437,0
2.53999328613281,-1.37080299854279,1.99005913734436,2.11585640907288,-1.57408507527774,2.28853154739156,2.11729073584934,1972.448,2569.762,2526.502,1959.525,-0.06409696,0.03310738,0.104786,-1.09200930595398,-0.463453203439713,0.682588577270508,-1.10193578218388,-0.474132182551855,0.682150741652607,0
2.55999755859375,-1.39262473583221,1.98085522651672,2.12915992736816,-1.59612191359838,2.27904971150017,2.13093258853001,2147.591,3569.393,3216.73,0,-0.06840169,0.0325714,0.1077037,-1.09108531475067,-0.460202515125275,0.6651731133461,-1.10123038958312,-0.473828671822132,0.681714070030222,0
2.57999420166016,-1.41452157497406,1.97168946266174,2.14279794692993,-1.61813342708139,2.26957877217893,2.14455876392979,1961.07,2552.859,2497.552,1996.375,-0.06131289,0.03289632,0.1029431,-1.09483468532562,-0.45828977227211,0.681899070739746,-1.10024356351463,-0.47340406813359,0.681103177684783,0
2.59999847412109,-1.43638801574707,1.96259391307831,2.15607404708862,-1.64013077892511,2.26011392621545,2.15817617260023,2135.51,3576.979,3199.64,0,-0.06569912,0.03238812,0.1057652,-1.09332251548767,-0.454777270555496,0.663801491260529,-1.09897493039424,-0.472858210743393,0.680317833349887,0
2.6199951171875,-1.45831644535065,1.9535425901413,2.16967725753784,-1.66209156852628,2.2506648119635,2.17177094750084,1953.329,2540.258,2480.936,2012.638,-0.05863482,0.03272714,0.1007994,-1.09642457962036,-0.45256319642067,0.680157482624054,-1.09742594550583,-0.472191725819537,0.679358937915576,0
2.63999938964844,-1.4802029132843,1.94456648826599,2.18290877342224,-1.68402693989188,2.24122663446822,2.18534998730279,2124.81,3578.404,3187.579,0,-0.06313609,0.03223209,0.1034735,-1.09432816505432,-0.448816210031509,0.661573588848114,-1.09559602313537,-0.471404361345641,0.67822612879697,0
2.65999603271484,-1.50213754177094,1.93563950061798,2.19645762443542,-1.70591456353497,2.23180900148401,2.19889946898997,1944.488,2532.933,2474.477,2013.858,-0.0561943,0.03255462,0.09836616,-1.09673583507538,-0.446341037750244,0.677446484565735,-1.09348726343002,-0.470497020956359,0.676920706085208,0
2.67999267578125,-1.52401876449585,1.92679131031036,2.20962738990784,-1.72775723139253,2.2224107117184,2.21242112090437,2117.193,3570.569,3181.571,0,-0.06079677,0.03202813,0.1008943,-1.09405708312988,-0.442408710718155,0.658487021923065,-1.09109983431736,-0.469469776906228,0.675442773735451,0
2.69999694824219,-1.54593396186829,1.91799676418304,2.22310590744019,-1.74955768413056,2.21303058593937,2.22591663964878,1930.75,2530.556,2472.471,2010.178,-0.05394286,0.03229289,0.09572518,-1.09575927257538,-0.439734041690826,0.673921942710876,-1.08843358680109,-0.468322565086308,0.673792239511893,0
2.71999359130859,-1.56778419017792,1.90928328037262,2.23620080947876,-1.77129374718429,2.20367816524265,2.23937229811132,2113.691,3560.207,3173.738,0,-0.05858635,0.03168594,0.09815422,-1.09251415729523,-0.435666859149933,0.654740750789642,-1.08549158402443,-0.467056703481556,0.671970999646117,0
2.73999786376953,-1.58965468406677,1.90062630176544,2.24959635734558,-1.79297647980783,2.19434869114016,2.25279494249708,1914.227,2532.823,2466.814,2007.813,-0.05177718,0.03185511,0.09300131,-1.09351718425751,-0.432844221591949,0.669780433177948,-1.08227271937422,-0.465671715947234,0.669978369091845,0
2.75999450683594,-1.61144864559174,1.89205300807953,2.2626006603241,-1.81458384274179,2.18505164650952,2.26617092945464,2111.065,3544.973,3169.369,0,-0.05642386,0.03112613,0.09538003,-1.08970499038696,-0.428668320178986,0.650212824344635,-1.07878069424208,-0.464169195088763,0.667816639186824,0
2.77999877929688,-1.63325011730194,1.88353848457336,2.27590537071228,-1.83612684690458,2.17578229366013,2.27950707526701,1893.721,2536.327,2449.551,2020.526,-0.04949858,0.03118385,0.09023683,-1.09006834030151,-0.425732344388962,0.665231585502625,-1.07501419914593,-0.462548577472581,0.665484999299265,0
2.79999542236328,-1.65496397018433,1.87510907649994,2.28880953788757,-1.85758361379882,2.16655004629821,2.2927898361021,2100.175,3546.254,3156.069,0,-0.05412236,0.03035094,0.09268524,-1.08569478988647,-0.421457201242447,0.645207703113556,-1.07097756992209,-0.460811728687929,0.662986133518392,0
2.81999206542969,-1.67667293548584,1.86674094200134,2.30201387405396,-1.87895695992541,2.1573536925621,2.30602095550813,1873.604,2532.385,2422.759,2049.691,-0.0469968,0.03033113,0.08754198,-1.08544957637787,-0.418401181697845,0.660223007202148,-1.06667099276523,-0.458958728849171,0.660320157107579,0
2.83999633789063,-1.69828355312347,1.8584611415863,2.31480479240417,-1.90024960698239,2.14819206138118,2.31920211834584,2090.847,3546.779,3141.759,0,-0.05159235,0.0294273,0.09003791,-1.0805242061615,-0.414001047611237,0.639550268650055,-1.06209435025759,-0.456989527434725,0.657486997379635,0
2.85999298095703,-1.71987748146057,1.85024523735046,2.32789969444275,-1.92143996495749,2.13907444233456,2.33231995936916,1857.781,2525.6,2388.2,2085.908,-0.04424043,0.0293615,0.084798,-1.07970654964447,-0.410793244838715,0.654745519161224,-1.0572529212638,-0.454906395792563,0.654489922203231,0
2.87999725341797,-1.74136233329773,1.84212017059326,2.34056782722473,-1.94253888918396,2.12999616467562,2.34538119854648,2074.389,3560.811,3120.917,0,-0.04887646,0.0284449,0.08735026,-1.07423448562622,-0.406246185302734,0.633400976657867,-1.05214490868305,-0.452708560680416,0.651327819087361,0
2.89999389648438,-1.7628185749054,1.83406317234039,2.35353755950928,-1.96352501326936,2.1209664217661,2.35837260906308,1843.294,2511.694,2359.576,2121.535,-0.04138925,0.02838233,0.081983,-1.07282173633575,-0.402853637933731,0.648489952087402,-1.04677621342161,-0.450398561093403,0.648004340974112,0
2.91999816894531,-1.78415513038635,1.82610034942627,2.36606860160828,-1.98440911693069,2.11198057539494,2.37130086407726,2064.894,3564.596,3104.043,0,-0.04609399,0.02747851,0.08447292,-1.06682229042053,-0.398145139217377,0.626548588275909,-1.04114485287423,-0.447975543971863,0.644518260536375,0
2.93999481201172,-1.80545115470886,1.81820893287659,2.37889695167542,-2.00517008215741,2.10304771205211,2.38415289053452,1831.781,2501.92,2340.818,2140.239,-0.03860039,0.02741878,0.07895868,-1.06478798389435,-0.394556879997253,0.641411960124969,-1.03525734386973,-0.445442313325187,0.640873612001643,0
2.95999908447266,-1.82661640644073,1.81041502952576,2.391277551651,-2.02581860575671,2.0941632292003,2.39693531026807,2055.375,3564.711,3091.279,0,-0.04340686,0.02652096,0.08134852,-1.05827057361603,-0.389702141284943,0.619031012058258,-1.02911152474823,-0.442797939051516,0.637069057199471,0
2.97999572753906,-1.84772801399231,1.80269622802734,2.40394926071167,-2.04633384260397,2.08533609591429,2.40963521915279,1819.358,2496.325,2330.089,2147.274,-0.03598836,0.02644469,0.07573999,-1.05559015274048,-0.385945051908493,0.63358336687088,-1.02271452148052,-0.440045487257004,0.633109007445237,0
2.99999237060547,-1.86869966983795,1.79507660865784,2.41616630554199,-2.0667186476113,2.07656508380516,2.42225438451524,2048.443,3557.431,3083.403,0,-0.04088911,0.02552083,0.07803234,-1.04856443405151,-0.380977988243103,0.610849738121033,-1.01606658442979,-0.437185065665935,0.628993617725676,0
3.01999664306641,-1.88960444927216,1.78753471374512,2.4286687374115,-2.08697572864857,2.06784902775215,2.4347944826559,1802.635,2494.549,2323.14,2150.862,-0.03351641,0.02539942,0.07239328,-1.04523921012878,-0.377094835042953,0.625124096870422,-1.00916768936771,-0.434216663853534,0.624722873042298,0
3.03999328613281,-1.91035878658295,1.78009378910065,2.44071197509766,-2.10708469520508,2.05919670122237,2.4472428908773,2045.13,3547.934,3074.114,0,-0.03846031,0.02441301,0.07462247,-1.03772616386414,-0.372047901153564,0.602166712284088,-1.00202586176059,-0.431143734953757,0.620301741541063,0
3.05999755859375,-1.93103420734406,1.77273225784302,2.45303606987,-2.12705600675913,2.05060360379452,2.45960608409476,1784.38,2496.628,2312.847,2155.218,-0.03110146,0.02421745,0.06901123,-1.03377175331116,-0.368070244789124,0.61620819568634,-0.994638524886308,-0.427965170275055,0.615728628108227,0
3.07999420166016,-1.95154988765717,1.76547336578369,2.46489357948303,-2.14686960564145,2.04207836572333,2.47187164565552,2042.232,3534.678,3067.777,0,-0.03606453,0.02313865,0.07121452,-1.02578282356262,-0.362959027290344,0.592879235744476,-0.987014293508169,-0.424684676509408,0.611008865692653,0
3.09999847412109,-1.97197484970093,1.75829482078552,2.47703337669373,-2.16653584520328,2.033616532251,2.4840459847772,1763.344,2499.061,2293.598,2171.618,-0.02859489,0.02285689,0.06561966,-1.02124810218811,-0.358903586864471,0.606984198093414,-0.979150439632689,-0.421301079877433,0.606140765536421,0
3.1199951171875,-1.9922308921814,1.75122046470642,2.48869800567627,-2.18603502400946,2.02522658035469,2.49611690533293,2032.847,3534.656,3054.213,0,-0.03355743,0.02170192,0.06788715,-1.01280033588409,-0.353727608919144,0.583236157894135,-0.971056158224178,-0.417818336715394,0.601130019760458,0
3.13999938964844,-2.01238536834717,1.74422883987427,2.50064587593079,-2.20537738341953,2.01690410346351,2.50809074721212,1743.46,2495.363,2267.452,2199.77,-0.02592214,0.02136096,0.0622979,-1.00771617889404,-0.34958016872406,0.597396969795227,-0.962728579444533,-0.414235212212131,0.595974851798267,0
3.15999603271484,-2.03236198425293,1.73734247684479,2.51210808753967,-2.22454360124808,2.00865741537402,2.51995554906156,2026.399,3533.068,3039.215,0,-0.03089107,0.02015406,0.06459527,-0.998832046985626,-0.344317406415939,0.573106467723846,-0.95417746870157,-0.410555908149813,0.590681306902481,0
3.17999267578125,-2.05222630500793,1.73054146766663,2.52385497093201,-2.24353658854737,2.00048526354177,2.53171311296128,1725.545,2489.943,2239.472,2229.945,-0.02310026,0.01977606,0.0589478,-0.993219971656799,-0.340048968791962,0.587348818778992,-0.945403214201559,-0.406780591562751,0.585249625391267,0
3.19999694824219,-2.07190465927124,1.72384786605835,2.53510522842407,-2.2623590635174,1.99238647840124,2.54336512160655,2016.162,3536.564,3023.081,0,-0.028107,0.01855102,0.06125714,-0.983914434909821,-0.334681123495102,0.562509894371033,-0.936405971974636,-0.402909329586355,0.579679903854719,0
3.21999359130859,-2.09145998954773,1.71724247932434,2.5466411113739,-2.28099231507127,1.9843691108104,2.55489999194326,1711.663,2482.755,2212.225,2257.198,-0.02022884,0.01815788,0.05551996,-0.977778017520905,-0.330272495746613,0.576799154281616,-0.927196343299057,-0.398946683654493,0.573978704989081,0
3.23999786376953,-2.11082148551941,1.71074652671814,2.55766940116882,-2.29944628156995,1.97642888457015,2.56632387629027,2005.272,3539.744,3008.094,0,-0.02533039,0.01693786,0.05781186,-0.968062460422516,-0.324796587228775,0.551413476467133,-0.917771149318993,-0.394891285994308,0.568144060931169,0
3.25999450683594,-2.13004946708679,1.70434141159058,2.56898164749146,-2.31770268688992,1.96857366338589,2.57762546085652,1696.508,2474.544,2192.393,2279.316,-0.01742986,0.01654577,0.0519853,-0.961394488811493,-0.320251137018204,0.565612256526947,-0.90814153446928,-0.390747931744771,0.562182870617026,0
3.27999877929688,-2.14907503128052,1.69804787635803,2.57977795600891,-2.33577134012187,1.96079922667992,2.58881081793642,1997.08,3538.144,2995.805,0,-0.02262196,0.01533459,0.05422199,-0.951286613941193,-0.31468066573143,0.53981214761734,-0.898304216251578,-0.386515208538549,0.556093102023818,0
3.29999542236328,-2.16795682907104,1.69184756278992,2.59085512161255,-2.35363442159312,1.95311324175956,2.5998689163037,1682.509,2469.932,2178.238,2290.984,-0.01475604,0.01493381,0.04833798,-0.944081008434296,-0.310016274452209,0.553858458995819,-0.888270870184445,-0.382198140025101,0.549881982853707,0
3.31999206542969,-2.18662881851196,1.68576002120972,2.60140943527222,-2.37129490830989,1.94551442770222,2.61080159886703,1991.311,3531.055,2986.878,0,-0.02003549,0.01371125,0.05051113,-0.933594822883606,-0.304374039173126,0.527711987495422,-0.878042061913513,-0.37779696958594,0.54354986326829,0
3.33999633789063,-2.20514583587646,1.67976760864258,2.6122419834137,-2.38875555478454,1.93800159931817,2.62161057080077,1665.594,2468.595,2166.76,2299.708,-0.01219195,0.01328261,0.04460987,-0.925857722759247,-0.299619317054749,0.541629910469055,-0.867618167158097,-0.373311858882592,0.53709697585572,0
3.35999298095703,-2.22344636917114,1.67388916015625,2.62254691123962,-2.40599926516969,1.93058211247293,2.63228524896102,1988.286,3522.853,2976.503,0,-0.01753478,0.01202492,0.04674025,-0.915012419223785,-0.293927222490311,0.515242278575897,-0.857011633930453,-0.36874816394697,0.530531026528563,0
3.37999725341797,-2.24158143997192,1.6681067943573,2.63312768936157,-2.42303550945299,1.9232518924954,2.64283149572124,1647.43,2470.099,2153.758,2308.287,-0.009711483,0.01154989,0.040865,-0.906758546829224,-0.289104521274567,0.529034793376923,-0.846218976345105,-0.364104384899943,0.523849857357654,0
3.39999389648438,-2.25949287414551,1.66243934631348,2.6431736946106,-2.43984769972619,1.91601807669906,2.65323904237604,1985.958,3510.617,2969.405,0,-0.01510705,0.01023573,0.0429716,-0.895572543144226,-0.283377826213837,0.502297580242157,-0.835253140422974,-0.35938609205264,0.51706148254665,0
3.41999816894531,-2.27722930908203,1.65686941146851,2.65349745750427,-2.45644516534361,1.90887665092339,2.66351366424015,1627.812,2472.328,2135.444,2323.633,-0.007226754,0.009702306,0.03711688,-0.886836409568787,-0.278501987457275,0.516183853149414,-0.824110582941664,-0.354591760855451,0.510163708672097,0
3.43999481201172,-2.29473614692688,1.65141439437866,2.66327905654907,-2.4728118459714,1.90183452548138,2.67364541920187,1978.972,3507.591,2957.649,0,-0.01266546,0.008340929,0.03926668,-0.87533164024353,-0.272744536399841,0.489080905914307,-0.812804733542555,-0.349727169707881,0.503164849321754,0
3.45999908447266,-2.31205892562866,1.64605808258057,2.67334008216858,-2.48895692832918,1.89488774758421,2.68363999427827,1608.932,2470.304,2113.216,2346.498,-0.00469462,0.007765667,0.03343345,-0.866143345832825,-0.267812013626099,0.503046333789825,-0.801332006385299,-0.344790775723006,0.496062684689628,0
3.47999572753906,-2.32914590835571,1.64081788063049,2.68285012245178,-2.50486489870395,1.88804299234919,2.69348778574196,1974.521,3502.618,2945.524,0,-0.01017487,0.006371899,0.03560403,-0.854348242282867,-0.262015610933304,0.475502729415894,-0.789706299681989,-0.339788558913217,0.488865818431069,0
3.49999237060547,-2.34604048728943,1.63567757606506,2.6926417350769,-2.52053886467493,1.8812989226718,2.70319071733255,1591.832,2467.505,2089.773,2370.158,-0.002117213,0.005767375,0.02975272,-0.844732522964478,-0.257013589143753,0.489582866430283,-0.777928522316836,-0.334720910345999,0.481574813188698,0
3.51999664306641,-2.36269378662109,1.63065409660339,2.70187377929688,-2.53598168290031,1.87465430941181,2.7127505574575,1967.58,3501.212,2932.688,0,-0.007657653,0.004362552,0.03193631,-0.832667350769043,-0.251171261072159,0.461598247289658,-0.765999459475408,-0.329588167864767,0.474190155029786,0
3.53999328613281,-2.37914657592773,1.62573206424713,2.7113893032074,-2.55117869390181,1.86811546013321,2.72215823120146,1577.699,2463.685,2066.728,2391.825,0.0004413415,0.003743458,0.02604935,-0.822638213634491,-0.246093347668648,0.475778043270111,-0.753933682518821,-0.324396601119134,0.466720864320997,0
3.55999755859375,-2.39535307884216,1.62092804908752,2.72033643722534,-2.56613872308604,1.86167857751006,2.73141920191151,1960.316,3499.758,2920.655,0,-0.005200088,0.002343814,0.02823025,-0.810320913791656,-0.240208551287651,0.447356253862381,-0.741727567798258,-0.319144650954242,0.459164697851087,0
3.57999420166016,-2.4113507270813,1.61622667312622,2.729567527771,-2.58084770246059,1.8553497146065,2.74052476083022,1562.399,2459.394,2048.566,2410.583,0.002899292,0.001722482,0.02231162,-0.799887597560883,-0.235065266489983,0.461551934480667,-0.729396114728537,-0.313838771199258,0.451530940972359,0
3.59999847412109,-2.42709755897522,1.61164367198944,2.73822331428528,-2.59531431270705,1.84912513636775,2.74948028171299,1954.938,3495.545,2910.274,0,-0.00284106,0.0003327879,0.02446999,-0.787337422370911,-0.229152619838715,0.432790338993073,-0.716935713767317,-0.308477408768949,0.443817359206151,0
3.6199951171875,-2.44262766838074,1.60716450214386,2.74716258049011,-2.60952509409627,1.84301063413925,2.75827743234631,1547.777,2457.572,2034.337,2422.617,0.005219435,-0.0002929477,0.01854557,-0.776509046554565,-0.223963007330894,0.446960061788559,-0.704361775018033,-0.303067194200314,0.436033492140578,0
3.63999176025391,-2.45790243148804,1.6028037071228,2.75552082061768,-2.62348330645344,1.83700480530926,2.76691823071727,1951.562,3487.385,2902.453,0,-0.0006173207,-0.001684183,0.02067656,-0.763744950294495,-0.218042984604836,0.417908400297165,-0.691675581599108,-0.297608679583365,0.428180134087064,0
3.65999603271484,-2.47295331954956,1.59854698181152,2.76416254043579,-2.63719194552437,1.83110636089208,2.77540453133521,1531.56,2458.173,2021.864,2432.561,0.007410907,-0.002325472,0.01477409,-0.752537727355957,-0.212831720709801,0.432084143161774,-0.678878353700696,-0.292102389931838,0.420258040401444,0
3.67999267578125,-2.4877450466156,1.59440886974335,2.77222657203674,-2.65063849381582,1.82532068681534,2.78372858527554,1933.429,3491.251,2877.465,20.83717,0.001625296,-0.003670369,0.01693626,-0.739587068557739,-0.20691941678524,0.403202444314957,-0.665986083416798,-0.286555206197011,0.41227711095171,0
3.69999694824219,-2.50230550765991,1.59037494659424,2.78056311607361,-2.66383127580226,1.81964420129024,2.79189554578451,1525.081,2457.327,2014.688,2427.569,0.009510893,-0.004294081,0.01113491,-0.728018343448639,-0.201682657003403,0.416827797889709,-0.65299527533123,-0.280965624398954,0.404235181908735,0
3.71999359130859,-2.51660394668579,1.58645951747894,2.78833365440369,-2.6767584210412,1.81408201183655,2.79989806449274,1911.624,3481.358,2841.523,71.7026,0.003964542,-0.00553831,0.01319607,-0.714921355247498,-0.195780158042908,0.388532519340515,-0.639922285921447,-0.275340682272968,0.396142378711232,0
3.73999786376953,-2.53066396713257,1.58264946937561,2.79635524749756,-2.68942811570037,1.808630596175,2.80774120902801,1530.935,2464.432,2018.853,2390.303,0.01152571,-0.00612101,0.007511367,-0.702999353408813,-0.190499976277351,0.401073843240738,-0.626763698705669,-0.269678909802388,0.38799658639423,0
3.75999450683594,-2.54445910453796,1.57895708084106,2.80383133888245,-2.70182915057228,1.80329477731443,2.81541804035694,1890.391,3459.209,2799.93,141.8099,0.006292156,-0.007244864,0.009318729,-0.689770519733429,-0.184610664844513,0.373807549476624,-0.613536214864365,-0.263987493038594,0.379808143784027,0
3.77999877929688,-2.55800914764404,1.57537126541138,2.81152725219727,-2.7139695770734,1.79807109095524,2.82293354268985,1541.383,2484.132,2036.826,2321.495,0.01329449,-0.007786551,0.003806846,-0.677487671375275,-0.179297089576721,0.384801059961319,-0.60023651686137,-0.258265004538452,0.371574997167698,0
3.79999542236328,-2.57129168510437,1.57190203666687,2.81870675086975,-2.72583886061506,1.79296406983666,2.83028119461452,1865.567,3426.537,2756.225,229.9022,0.008420038,-0.008790562,0.005286615,-0.664125025272369,-0.173453614115715,0.358979046344757,-0.586881630238189,-0.252518769916838,0.363307686166475,0
3.81999206542969,-2.58432102203369,1.56853914260864,2.82606840133667,-2.73744054699573,1.78797218830065,2.83746319114912,1552.183,2514.989,2066.992,2228.655,0.01470154,-0.009301356,5.754296E-05,-0.651484727859497,-0.168153196573257,0.368085771799088,-0.573473482003301,-0.246749618311662,0.355007403690404,0
3.83999633789063,-2.59708094596863,1.56529092788696,2.83294939994812,-2.74877791451009,1.78309403578861,2.84448156171422,1837.263,3384.07,2711.817,333.5432,0.01027497,-0.01019671,0.00120595,-0.637991368770599,-0.162407115101814,0.344048142433167,-0.560014026276881,-0.240958390526246,0.346675359432959,0
3.85999298095703,-2.6095814704895,1.56214737892151,2.83997201919556,-2.75984146370944,1.77833369964791,2.85133042569855,1564.196,2553.801,2102.688,2121.241,0.01579139,-0.01069046,-0.003632019,-0.625024378299713,-0.157172426581383,0.351125627756119,-0.546520735526767,-0.235152604475377,0.338322369684062,0
3.87999725341797,-2.62180972099304,1.55911636352539,2.84655356407166,-2.77063893010371,1.77368785150474,2.85801457175126,1808.347,3334.86,2665.545,447.5974,0.0119081,-0.0114942,-0.002792591,-0.611416876316071,-0.151566401124001,0.329073280096054,-0.532990631455729,-0.229330978680956,0.329946590735853,0
3.89999389648438,-2.63377332687378,1.55618751049042,2.85323524475098,-2.78116151864576,1.76916027562219,2.86452855531919,1576.224,2596.707,2138.662,2009.896,0.01669814,-0.01197996,-0.007175621,-0.59817636013031,-0.146431118249893,0.334080100059509,-0.519441457145543,-0.223501147495394,0.321559006401168,0
3.91999816894531,-2.64546322822571,1.55336785316467,2.85951709747314,-2.79141684911929,1.7647476934202,2.87087709341145,1782.126,3282.148,2616.808,565.8691,0.01342687,-0.01270754,-0.006635532,-0.584480166435242,-0.140983864665031,0.314097672700882,-0.505870408491346,-0.2176619043907,0.313157880805522,0
