t,x_s1,x_s2,x_s3,x_s_d1,x_s_d2,x_s_d3,propellers_rpms1,propellers_rpms2,propellers_rpms3,propellers_rpms4,rollRad,pitchRad,yawRad,v_s1,v_s2,v_s3,v_s_d1,v_s_d2,v_s_d3,insideCount
0,-0.0599999986588955,2.94000005722046,1.17999994754791,-0.0599999986588955,2.94000005722046,1.17999994754791,0,0,0,0,0,45.0048027038574,0,0,0,0,-1.06581410364015E-15,4.44089209850063E-16,-7.105427357601E-16,0
0.02001953125,-0.0599999986588955,2.94000005722046,1.17705690860748,-0.0600018744611685,2.93999925011514,1.18000109344625,0,0,0,0,0.937003672122955,44.8630027770996,-0.00115976633969694,3.71994488546079E-08,3.50004931704007E-08,-0.147149950265884,-0.000280531511337879,-0.000120704872184653,0.000171372322667033,5
0.040008544921875,-0.0599999986588955,2.94000005722046,1.17018985748291,-0.060014880898484,2.93999365380853,1.18000903887584,0,0,0,0,1.87400352954865,44.7211418151855,-0.00311126722954214,3.70364325874561E-08,3.5142885934647E-08,-0.343349903821945,-0.00111143977225461,-0.000478221483967637,0.000678961213193342,6
0.05999755859375,-0.0599062293767929,2.94009447097778,1.16346490383148,-0.0600498857373401,2.93997859220429,1.18003042278566,3197.055,2848.577,1517.557,2782.436,1.40377748012543,44.7413711547852,0.0287760011851788,0.00468848180025816,0.00471865246072412,-0.336246997117996,-0.00247936261166862,-0.00106680046642749,0.00151460392977639,6
0.08001708984375,-0.0597377717494965,2.94026732444763,1.15723729133606,-0.0601176241590912,2.9399494462538,1.18007180313047,2865.695,2651.763,2344.598,2562.151,0.340079486370087,44.8158378601074,0.0996070802211761,0.00842283293604851,0.00864462181925774,-0.311380505561829,-0.00437432711648753,-0.0018821507536715,0.0026722081754323,6
0.100006103515625,-0.0595562346279621,2.94046425819397,1.15151965618134,-0.0602282404704493,2.93990185114529,1.18013937690895,2240.613,2528.421,3137.222,2508.336,359.322052001953,44.919059753418,0.178504914045334,0.00907692406326532,0.00984971318393946,-0.285880416631699,-0.00677739276378709,-0.00291612276782231,0.00414020348026766,5
0.1199951171875,-0.059424240142107,2.94063234329224,1.14656901359558,-0.0603918861403606,2.93983143898525,1.18023934549506,2123.469,2454.617,3351.948,2464.742,358.750274658203,44.9998588562012,0.253258764743805,0.00659974943846464,0.00840045046061277,-0.247534602880478,-0.00967801353495435,-0.00416417885169243,0.00591214744607921,5
0.1400146484375,-0.0593827106058598,2.94074034690857,1.14257049560547,-0.0606187761383957,2.93973381455767,1.18037794905431,2312.11,2456.558,3069.346,2463.374,358.636383056641,45.032657623291,0.326257407665253,0.00207654712721705,0.00540162343531847,-0.199924275279045,-0.0130687916036232,-0.00562313592726786,0.00798352085618068,5
0.160003662109375,-0.059442937374115,2.94078588485718,1.13952445983887,-0.0609177895434042,2.93960515744296,1.18056061167741,2537.177,2487.052,2634.917,2491.605,358.757019042969,45.0249633789063,0.398278146982193,-0.00301136495545506,0.00228246464394033,-0.152299135923386,-0.0169265510445065,-0.00728302204135792,0.0103401658994673,5
0.17999267578125,-0.0595995113253593,2.94078207015991,1.13730907440186,-0.0612985250199726,2.93944133760391,1.18079319703879,2665.876,2505.781,2303.06,2513.553,358.864135742188,44.9985656738281,0.467363446950912,-0.00782861188054085,-0.000194068066775799,-0.110769867897034,-0.0212433804254414,-0.00914043312572283,0.0129772496054864,5
0.20001220703125,-0.0598469376564026,2.94074034690857,1.13576078414917,-0.0617708265342762,2.93923811945689,1.18108171866376,2653.398,2500.033,2183.604,2508.563,358.817047119141,44.974422454834,0.532779395580292,-0.012371295131743,-0.00208823569118977,-0.0774130672216415,-0.0260142813927851,-0.0111932185284278,0.0158917185579952,5
0.220001220703125,-0.0601887404918671,2.94066286087036,1.13474559783936,-0.0623420644491781,2.93899233174064,1.18143067899198,2541.169,2470.922,2244.888,2478.566,358.612457275391,44.9636497497559,0.594670712947845,-0.0170900784432888,-0.00387869682163,-0.050760991871357,-0.03121219533433,-0.0134297356845702,0.0190670430730375,5
0.240020751953125,-0.0606378614902496,2.94054222106934,1.13419342041016,-0.0630225615075555,2.93869953286731,1.181846384026,2411.124,2429.375,2374.619,2437.757,358.334533691406,44.9659233093262,0.652658641338348,-0.022456044331193,-0.00602870061993599,-0.0276098698377609,-0.0368405636651345,-0.0158514653389075,0.0225053254573701,5
0.260009765625,-0.0612121187150478,2.9403669834137,1.13409090042114,-0.0638185570309634,2.93835703823113,1.18233264526998,2330.409,2392.376,2461.891,2398.173,358.076019287109,44.9738502502441,0.708000123500824,-0.0287128370255232,-0.00876633264124393,-0.0051244180649519,-0.0428699302682246,-0.0184457333472145,0.0261885714287875,4
0.279998779296875,-0.0619285590946674,2.94012594223022,1.13444066047668,-0.0647390625194898,2.93796097043536,1.18289496770872,2304.892,2364.663,2470.817,2371.143,357.886596679688,44.9803428649902,0.760625422000885,-0.035822045058012,-0.0120541080832481,0.0174890942871571,-0.0492963837173861,-0.0212108567320638,0.0301143915580518,4
0.300018310546875,-0.0628000497817993,2.93981194496155,1.13523614406586,-0.0657936070281142,2.93750722939386,1.18353917249319,2317.234,2348.177,2416.193,2353.384,357.764892578125,44.9818344116211,0.811218917369843,-0.0435744635760784,-0.0157054755836725,0.039775725454092,-0.0561185469977389,-0.0241462430024218,0.0342819446482607,4
0.32000732421875,-0.0638348534703255,2.93942141532898,1.13644969463348,-0.0669865614821475,2.93699393441958,1.18426792975347,2335.977,2337.042,2341.522,2341.186,357.678527832031,44.9788017272949,0.860223829746246,-0.0517402961850166,-0.0195244029164314,0.0606788992881775,-0.0633036493784043,-0.0272377918282996,0.0386712115712976,4
0.339996337890625,-0.0650384724140167,2.9389533996582,1.1380363702774,-0.068326768706371,2.93641728069206,1.18508664143323,2336.995,2324.316,2287.353,2330.582,357.594207763672,44.9741554260254,0.906621396541595,-0.0601808577775955,-0.0234035812318325,0.0793338418006897,-0.0708499516420146,-0.0304847548730522,0.0432811298664125,4
0.360015869140625,-0.0664159879088402,2.93840646743774,1.13995087146759,-0.0698237345322385,2.93577317811757,1.18600111449656,2322.041,2310.487,2262.104,2315.894,357.494567871094,44.9703216552734,0.950678884983063,-0.0688757821917534,-0.027342289686203,0.0957255437970161,-0.0787580297418618,-0.0338873799532906,0.048112051374484,4
0.3800048828125,-0.0679733082652092,2.93777871131897,1.14215469360352,-0.0714797725314022,2.93506063123087,1.18701276226829,2296.738,2295.018,2259.644,2298.996,357.379699707031,44.9684944152832,0.992952764034271,-0.077865868806839,-0.0313907340168953,0.110190242528915,-0.0869921272359981,-0.0374302820709642,0.0531421330430943,4
0.399993896484375,-0.0697172582149506,2.93706679344177,1.14461743831635,-0.0733036822025899,2.9342758538535,1.18812696022487,2267.53,2277.245,2269.349,2283.492,357.261291503906,44.9687614440918,1.03246402740479,-0.0871976688504219,-0.0355981886386871,0.123138792812824,-0.0955525119207663,-0.0411135764513579,0.0583715384648505,4
0.420013427734375,-0.0716551542282104,2.93626689910889,1.14732050895691,-0.0753050585276311,2.93341471753282,1.18934956979097,2248.696,2262.778,2271.57,2267.628,357.151947021484,44.9699440002441,1.0698618888855,-0.096894733607769,-0.0399901047348976,0.135156527161598,-0.104441553474511,-0.0449382827008623,0.0638017152392751,4
0.44000244140625,-0.0737938210368156,2.93537592887878,1.15024888515472,-0.077483988232608,2.93247718495301,1.19068064394622,2239.301,2251.291,2262.048,2254.418,357.056823730469,44.9709815979004,1.10593259334564,-0.106933332979679,-0.0445505417883396,0.146419063210487,-0.113620829717891,-0.048887868829098,0.0694091918565748,4
0.46002197265625,-0.0761390998959541,2.93439102172852,1.15338456630707,-0.0798530997696509,2.93145782244394,1.19212789721494,2231.001,2239.751,2249.664,2245.558,356.975372314453,44.9717025756836,1.13954019546509,-0.117263898253441,-0.0492419078946114,0.156782269477844,-0.123107133063502,-0.0529695601420796,0.0752042265395641,4
0.480010986328125,-0.0786961168050766,2.93331027030945,1.15671265125275,-0.0824109101018722,2.93035726811493,1.19369042363305,2229.266,2232.547,2231.27,2235.496,356.902923583984,44.9718360900879,1.17192125320435,-0.127850607037544,-0.0540382713079453,0.166405841708183,-0.132860437136906,-0.0571661344090936,0.0811623678006979,4
0.5,-0.0814691483974457,2.93213200569153,1.16021335124969,-0.085166398670376,2.92917165836334,1.195373708601,2220.923,2223.4,2220.836,2228.991,356.835021972656,44.9720458984375,1.20191156864166,-0.138652190566063,-0.0589131191372871,0.175038039684296,-0.142884000065179,-0.0614789935111996,0.0872856059789651,5
0.52001953125,-0.0844623893499374,2.93085479736328,1.16387188434601,-0.0881295333471192,2.92789670429234,1.19718384133622,2214.772,2216.667,2212.176,2220.686,356.769805908203,44.9723854064941,1.23017907142639,-0.149661973118782,-0.0638660043478012,0.182927414774895,-0.153182839569029,-0.0659102964334391,0.0935770063216458,5
0.540008544921875,-0.0876798257231712,2.92947697639465,1.16767501831055,-0.0912963635428427,2.92653410573011,1.19911840848537,2208.942,2210.873,2205.307,2213.033,356.705963134766,44.9729080200195,1.25751423835754,-0.160871893167496,-0.0688959658145905,0.190159112215042,-0.163714777034477,-0.0704418948965508,0.100010802571645,5
0.55999755859375,-0.0911252647638321,2.92799687385559,1.17160856723785,-0.094676112580471,2.92507989413848,1.20118304443252,2198.303,2202.863,2205.825,2208.294,356.645233154297,44.9739799499512,1.28249859809875,-0.172271519899368,-0.0739997923374176,0.196679934859276,-0.17448465888317,-0.0750758741803766,0.106589955332319,5
0.58001708984375,-0.0948025733232498,2.9264132976532,1.17566514015198,-0.0982790918331175,2.92352963282165,1.20338404823457,2193.65,2198.11,2202.76,2201.736,356.58984375,44.9751663208008,1.30592811107635,-0.183865383267403,-0.0791836678981781,0.202831074595451,-0.185498893714783,-0.0798149917263209,0.113318379517207,5
0.600006103515625,-0.0987153351306915,2.92472457885742,1.17983829975128,-0.102098762959148,2.92188613504538,1.20571742572067,2191.938,2194.808,2196.474,2196.419,356.539215087891,44.9762077331543,1.32867825031281,-0.195638179779053,-0.0844389349222183,0.208660766482353,-0.196713446836865,-0.0846403006364086,0.120169175019836,5
0.6199951171875,-0.102866649627686,2.92292952537537,1.1841185092926,-0.106144683970236,2.92014528826426,1.208189015731,2185.449,2189.216,2195.955,2194.449,356.493438720703,44.9774703979492,1.34918105602264,-0.207566320896149,-0.0897511541843414,0.214010298252106,-0.208134604141382,-0.0895545055543457,0.127146181793521,5
0.6400146484375,-0.107259623706341,2.92102718353271,1.18850195407867,-0.110427588881679,2.91830247393137,1.21080537550798,2184.564,2187.013,2191.717,2190.279,356.452697753906,44.9785995483398,1.36829602718353,-0.219648689031601,-0.0951210185885429,0.219169482588768,-0.21977002223474,-0.0945609009039674,0.134254077139634,5
0.660003662109375,-0.111897006630898,2.91901636123657,1.19298470020294,-0.114938248900541,2.91636166293851,1.21356086732604,2185.244,2185.967,2185.72,2187.005,356.414794921875,44.9795303344727,1.38697957992554,-0.231868952512741,-0.100539423525333,0.224137157201767,-0.231574097577923,-0.0996398647564507,0.141465002567821,5
0.67999267578125,-0.116781145334244,2.9168963432312,1.19755923748016,-0.119686638739014,2.91431856344567,1.2164615845812,2179.463,2181.875,2187.687,2186.942,356.379638671875,44.9807586669922,1.40348148345947,-0.24420727789402,-0.105995342135429,0.228728696703911,-0.243554411173546,-0.104794659005432,0.14878358919428,5
0.70001220703125,-0.121914580464363,2.91466641426086,1.20222473144531,-0.124683985757554,2.91216834463331,1.21951438589277,2179.386,2181.175,2186.111,2184.131,356.34814453125,44.9819412231445,1.41872310638428,-0.256671398878098,-0.111496098339558,0.233273819088936,-0.255719729227087,-0.11002905550423,0.156215192157144,5
0.720001220703125,-0.127299562096596,2.91232562065125,1.20698022842407,-0.129918284978346,2.90991617190799,1.22271193760712,2181.082,2181.561,2182.263,2182.089,356.318878173828,44.9829483032227,1.43375134468079,-0.269249200820923,-0.117035754024982,0.237775251269341,-0.268023157655716,-0.11532287703907,0.163731164592979,5
0.740020751953125,-0.132937997579575,2.90987348556519,1.21182072162628,-0.135408560960145,2.90755385953358,1.22606586153034,2176.104,2178.492,2186.211,2183.456,356.292297363281,44.9842491149902,1.44664001464844,-0.281921535730362,-0.122603684663773,0.24202686548233,-0.280492548100696,-0.120688107393104,0.171348520634816,5
0.760009765625,-0.138832032680511,2.90730929374695,1.21674942970276,-0.141140917956636,2.9050873864615,1.22956766896782,2180.035,2180.374,2182.644,2180.921,356.268463134766,44.985279083252,1.45931220054626,-0.29470220208168,-0.128209754824638,0.246437460184097,-0.293080296154222,-0.126104263719567,0.179038179492781,5
0.779998779296875,-0.144983261823654,2.90463256835938,1.22176253795624,-0.147126184485884,2.90251209348295,1.2332239748923,2175.831,2178.129,2186.875,2182.956,356.247619628906,44.9865608215332,1.46990644931793,-0.307561635971069,-0.133837953209877,0.250658005475998,-0.305795832832518,-0.131575403921268,0.186805902427515,5
0.800018310546875,-0.151393443346024,2.90184259414673,1.22686314582825,-0.153376545303595,2.89982273783796,1.23704222278088,2178.284,2179.448,2185.994,2181.885,356.230560302734,44.987678527832,1.4794704914093,-0.320509254932404,-0.139495715498924,0.255032181739807,-0.318649478366155,-0.137105968505107,0.194657993906831,5
0.82000732421875,-0.158064052462578,2.89893913269043,1.23205351829529,-0.159875221826383,2.89702653888221,1.24101216285881,2182.296,2181.779,2182.363,2181.443,356.215118408203,44.9884910583496,1.48919725418091,-0.333530396223068,-0.145174935460091,0.259516954421997,-0.331592781842754,-0.14267511039705,0.202564856024417,5
0.839996337890625,-0.164996132254601,2.8959219455719,1.23733055591583,-0.166633637018892,2.89411858163313,1.24514077323692,2178.272,2179.777,2187.723,2184.678,356.201477050781,44.9896125793457,1.49681127071381,-0.346604317426682,-0.150863781571388,0.263849645853043,-0.344636106234817,-0.148287288494656,0.210532819358465,5
0.860015869140625,-0.17219103872776,2.89279055595398,1.24269843101501,-0.173664618315387,2.89109334680413,1.24943588999465,2180.986,2181.742,2187.995,2184.075,356.190826416016,44.9906120300293,1.50343668460846,-0.359745115041733,-0.15657339990139,0.268395394086838,-0.357790534090669,-0.153947271308859,0.218568654064807,5
0.8800048828125,-0.179649844765663,2.88954448699951,1.24816060066223,-0.180948461186242,2.88795931270381,1.25388547594233,2185.355,2184.666,2185.218,2184.015,356.181304931641,44.9913291931152,1.5103588104248,-0.372940182685852,-0.162297680974007,0.27311047911644,-0.371007022483504,-0.159633957038354,0.226642400584755,5
0.899993896484375,-0.187373235821724,2.88618397712708,1.25371479988098,-0.18849723509595,2.8847112861788,1.25849690412748,2181.249,2182.941,2191.679,2187.758,356.173553466797,44.992374420166,1.51520144939423,-0.38616868853569,-0.168024882674217,0.277710914611816,-0.384296738353309,-0.165352150505452,0.234760880627692,5
0.920013427734375,-0.195362150669098,2.88270854949951,1.25936639308929,-0.196324452211266,2.88134345332121,1.26327842892191,2184.577,2185.305,2192.122,2187.491,356.1689453125,44.9932708740234,1.51912069320679,-0.399446547031403,-0.173766881227493,0.282582253217697,-0.397671404529394,-0.171106895716105,0.242931255487113,5
0.94000244140625,-0.203617334365845,2.87911820411682,1.2651195526123,-0.204407453948074,2.87786556348678,1.26821620855017,2189.61,2188.705,2189.074,2187.691,356.165435791016,44.9938468933105,1.52349436283112,-0.41275954246521,-0.179516315460205,0.287660717964172,-0.411081631631503,-0.176876941799768,0.251123353961324,5
0.96002197265625,-0.212139055132866,2.875412940979,1.27097225189209,-0.21277195700315,2.87426655149935,1.27332595294102,2185.55,2187.005,2195.765,2191.934,356.163452148438,44.9947509765625,1.5257408618927,-0.426085203886032,-0.185260415077209,0.292633056640625,-0.424559845004915,-0.182676240476657,0.259356984187769,5
0.980010986328125,-0.220927953720093,2.87159276008606,1.2769318819046,-0.221393324468958,2.87055701793193,1.27859261179209,2192.319,2191.368,2192.615,2190.634,356.163024902344,44.9952812194824,1.52832472324371,-0.439446628093719,-0.191014438867569,0.297984451055527,-0.438056556301695,-0.188483498293199,0.267601914506946,5
1,-0.229984134435654,2.86765766143799,1.28299641609192,-0.230284798736574,2.86673126495361,1.28402427467346,2188.169,2189.942,2199.39,2194.759,356.164520263672,44.9961242675781,1.52883076667786,-0.452808618545532,-0.19675999879837,0.303229779005051,-0.451584000205995,-0.194303979492187,0.275865618896484,5
1.02001953125,-0.239307910203934,2.86360740661621,1.2891720533371,-0.239461107372567,2.86278295570393,1.28962993842572,2192.163,2192.756,2199.336,2194.538,356.169219970703,44.9967727661133,1.52858853340149,-0.466188549995422,-0.202509105205536,0.308782398700714,-0.465154707681581,-0.200143075797255,0.284155752326605,5
1.04000854492188,-0.248899340629578,2.85944223403931,1.29546320438385,-0.248894644448595,2.85872396824263,1.29539273901802,2197.763,2196.443,2195.567,2194.847,356.174621582031,44.9970512390137,1.52905297279358,-0.479570806026459,-0.208253234624863,0.314555495977402,-0.47871923339115,-0.205979512261105,0.292442109412331,5
1.05999755859375,-0.258757948875427,2.85516262054443,1.30186712741852,-0.258599401509697,2.85454828239877,1.3013212236669,2193.113,2194.447,2202.697,2199.426,356.181091308594,44.9977035522461,1.52736556529999,-0.492931932210922,-0.213978856801987,0.320195704698563,-0.492290296490434,-0.211818761581115,0.30073246008742,5
1.08001708984375,-0.268883794546127,2.85076856613159,1.30838990211487,-0.268590868588476,2.85024923324404,1.30742485499156,2196.744,2197.152,2203.025,2199.003,356.190155029297,44.9982070922852,1.52489686012268,-0.506292581558228,-0.219700932502747,0.326137334108353,-0.505880764601332,-0.21766636033551,0.309034664981295,5
1.10000610351563,-0.279276549816132,2.84626030921936,1.31503582000732,-0.278838480013141,2.84583997233313,1.31368496090006,2202.074,2200.77,2199.455,2199.038,356.199676513672,44.9983749389648,1.52319121360779,-0.51963859796524,-0.225412458181381,0.332295358181,-0.519441457145546,-0.223501147495394,0.317318680446121,5
1.1199951171875,-0.28993546962738,2.8416383266449,1.32180190086365,-0.289357002179081,2.84131414609862,1.32011056195293,2196.815,2198.447,2207.035,2203.532,356.210357666016,44.9989471435547,1.51928603649139,-0.532946467399597,-0.231100112199783,0.338302731513977,-0.532985466132485,-0.229328756186667,0.32559250418615,5
1.1400146484375,-0.30086025595665,2.83690285682678,1.3286942243576,-0.300162704591434,2.83666475422696,1.32671159693698,2200.443,2201.058,2207.105,2202.813,356.223937988281,44.9993553161621,1.5146416425705,-0.546237826347351,-0.236779242753983,0.344614088535309,-0.54652589017629,-0.235154822377061,0.33386413794036,5
1.16000366210938,-0.31205016374588,2.83205413818359,1.33571684360504,-0.311222084148811,2.83190621216671,1.33346759933036,2205.927,2204.584,2202.863,2202.637,356.238037109375,44.9993896484375,1.5108540058136,-0.559496998786926,-0.242441639304161,0.351133644580841,-0.560014026276883,-0.240958390526247,0.342103829805999,6
1.17999267578125,-0.32350417971611,2.82709264755249,1.34286630153656,-0.322550701230474,2.8270318247214,1.34038807472597,2200.26,2201.931,2210.272,2207.081,356.253295898438,44.9998435974121,1.504838347435,-0.572699248790741,-0.24807308614254,0.357470273971558,-0.573463232144024,-0.246745208083563,0.350319739799517,6
1.20001220703125,-0.335221469402313,2.82201886177063,1.35014820098877,-0.334165615614823,2.82203425154496,1.3474834446762,2203.773,2204.387,2209.96,2206.046,356.271392822266,45.0001373291016,1.49812543392181,-0.585866868495941,-0.25368931889534,0.364094704389572,-0.586886736182789,-0.252520966862155,0.358519948947149,6
1.22000122070313,-0.34720116853714,2.81683325767517,1.35756635665894,-0.346030421585499,2.81692915700008,1.35473146949704,2209.188,2207.763,2205.214,2205.556,356.289855957031,45.0000457763672,1.49238049983978,-0.598984241485596,-0.259282112121582,0.370907574892044,-0.600236516861372,-0.258265004538453,0.366675121644476,6
1.24002075195313,-0.359441667795181,2.81153655052185,1.36511635780334,-0.358180209983518,2.8117014424782,1.36215358563568,2202.864,2204.625,2212.722,2209.932,356.309326171875,45.0004043579102,1.48433828353882,-0.612026393413544,-0.26483690738678,0.377499282360077,-0.613546334788502,-0.263991847359231,0.374805881720547,6
1.260009765625,-0.371942132711411,2.80612897872925,1.37280583381653,-0.37057666480527,2.80636759428526,1.36972638644343,2210.176,2208.941,2207.654,2207.166,356.329956054688,45.0003471374512,1.47708213329315,-0.625023722648621,-0.270373225212097,0.384472370147705,-0.626768731761373,-0.26968107538565,0.382883237699838,6
1.27999877929688,-0.384700864553452,2.80061149597168,1.38062989711761,-0.383236695417198,2.80092033679326,1.37746020158837,2203.58,2205.948,2214.928,2211.091,356.352355957031,45.0007095336914,1.46760249137878,-0.6379354596138,-0.275869518518448,0.391204178333282,-0.639917282339435,-0.275338529371412,0.39091548206889,6
1.30001831054688,-0.397716552019119,2.7949845790863,1.38859403133392,-0.396178686849666,2.79535175943725,1.38536626219868,2207.29,2208.081,2213.396,2209.523,356.378112792969,45.0008583068848,1.45752048492432,-0.650784194469452,-0.281340599060059,0.398207396268845,-0.653005218467598,-0.280969902652754,0.398910698016369,6
1.32000732421875,-0.410987555980682,2.78924894332886,1.39670121669769,-0.409361504843077,2.78967956113998,1.39341943999703,2212.798,2211.171,2207.282,2208.56,356.404144287109,45.0005683898926,1.4485809803009,-0.663551867008209,-0.286776155233383,0.405357599258423,-0.6659860834168,-0.286555206197011,0.406840505851434,6
1.33999633789063,-0.424511849880219,2.78340578079224,1.40494549274445,-0.422802873722428,2.78389611561957,1.401630562497,2205.555,2207.32,2214.524,2212.749,356.430938720703,45.0007781982422,1.43729197978973,-0.676213026046753,-0.292160987854004,0.412215143442154,-0.678873453515705,-0.29210028151913,0.41471319914141,6
1.36001586914063,-0.438287675380707,2.7774555683136,1.41333162784576,-0.4365219692899,2.77799317206405,1.41001134389691,2208.497,2209.108,2213.403,2210.732,356.460388183594,45.0008316040039,1.42531847953796,-0.688792943954468,-0.297513097524643,0.419308513402939,-0.691680442442074,-0.297610771068296,0.422536788827408,6
1.3800048828125,-0.452313184738159,2.77139902114868,1.42186212539673,-0.450474904562636,2.77198961381608,1.41853497432376,2213.392,2211.966,2207.611,2209.206,356.489837646484,45.0005226135254,1.41454720497131,-0.701276123523712,-0.302824467420578,0.426526814699173,-0.704361775018035,-0.303067194200314,0.43028361700977,6
1.39999389648438,-0.466585963964462,2.76523733139038,1.43053066730499,-0.464680216184654,2.76587746507559,1.42721277752413,2205.36,2207.625,2215.271,2213.152,356.520294189453,45.0007286071777,1.4013831615448,-0.713638424873352,-0.308080643415451,0.433425605297089,-0.716930938559026,-0.308475354130225,0.437961922879032,6
1.42001342773438,-0.481104016304016,2.75897145271301,1.43934178352356,-0.479157861067077,2.75964813894125,1.43605694486361,2208.215,2209.188,2213.798,2210.714,356.553833007813,45.0007820129395,1.38757705688477,-0.725904762744904,-0.313299298286438,0.440553784370422,-0.729400843645231,-0.313840805920001,0.445579593307164,6
1.44000244140625,-0.495865166187286,2.75260210037231,1.44829761981964,-0.493861275572861,2.75332167044526,1.44503903134294,2213.267,2211.817,2207.18,2208.929,356.587615966797,45.0004005432129,1.37503039836884,-0.738058388233185,-0.318471103906631,0.447792083024979,-0.741727567798258,-0.319144650954242,0.453109796737511,6
1.46002197265625,-0.510866641998291,2.74613046646118,1.45739102363586,-0.50883280894277,2.74687983789241,1.45418490745244,2204.833,2207.125,2214.495,2212.774,356.622436523438,45.0005645751953,1.36003875732422,-0.750073969364166,-0.323580622673035,0.454673111438751,-0.753942941956197,-0.324400585196357,0.460571978193441,6
1.48001098632813,-0.526106297969818,2.73955750465393,1.46662867069244,-0.524024159888143,2.74034342397783,1.46346506668862,2212.107,2210.834,2207.538,2208.413,356.658325195313,45.0002593994141,1.34610891342163,-0.761983454227448,-0.32864847779274,0.461883187294006,-0.766004036374583,-0.329590137176618,0.467939912563966,6
1.5,-0.541581273078918,2.73288440704346,1.47600305080414,-0.539455198877605,2.73370387899399,1.47289164761066,2203.456,2206.323,2214.561,2211.836,356.695983886719,45.0004539489746,1.3297952413559,-0.773745656013489,-0.333651900291443,0.468717932701111,-0.777924000354858,-0.334718964672088,0.475221632552146,6
1.52001953125,-0.557288944721222,2.72611236572266,1.48551821708679,-0.555147149984933,2.72695207081487,1.48247761567406,2206.58,2207.634,2211.743,2208.891,356.737152099609,45.0004119873047,1.31295764446259,-0.785383820533752,-0.338606745004654,0.475757509469986,-0.789715229532175,-0.33979240117828,0.482424710458066,6
1.54000854492188,-0.573226511478424,2.71924233436584,1.49517548084259,-0.571049184024557,2.72010986981902,1.49219192012252,2211.737,2209.983,2203.846,2206.697,356.778350830078,44.9999122619629,1.29755079746246,-0.796879649162292,-0.343502014875412,0.482864201068878,-0.801336412291853,-0.344792671461508,0.489523909660973,6
1.55999755859375,-0.589390695095062,2.71227598190308,1.50496637821198,-0.587181951496087,2.71316839067337,1.50204717602401,2202.404,2204.665,2211.009,2210.409,356.820159912109,45,1.27965772151947,-0.808209240436554,-0.348322480916977,0.489547222852707,-0.812800388649436,-0.349725300221754,0.496527073925997,6
1.58001708984375,-0.605778574943542,2.70521426200867,1.51489448547363,-0.603567408310176,2.70611818636293,1.51205679590172,2204.749,2205.643,2208.797,2207.074,356.86474609375,44.9999237060547,1.26116216182709,-0.819398403167725,-0.353087067604065,0.496404498815536,-0.824119146742882,-0.35459544561987,0.503441526619546,6
1.60000610351563,-0.622387170791626,2.69805860519409,1.52496075630188,-0.620152298932711,2.69898217125626,1.52218824678091,2209.281,2207.801,2201.429,2204.363,356.909118652344,44.9994430541992,1.24415743350983,-0.830431640148163,-0.357787370681763,0.503312528133392,-0.835253140422976,-0.35938609205264,0.510243109616171,5
1.6199951171875,-0.639212965965271,2.69081044197083,1.53515636920929,-0.636958033083316,2.69175113334911,1.53245460752521,2199.327,2202.051,2208.978,2207.949,356.954406738281,44.999584197998,1.22460043430328,-0.841286957263947,-0.362408995628357,0.509782254695892,-0.846214826007804,-0.364102599125749,0.516939432286212,5
1.6400146484375,-0.656252682209015,2.68347096443176,1.54548490047455,-0.654007271984653,2.68441532215046,1.54286972152191,2201.677,2202.899,2206.463,2204.26,357.002899169922,44.9995460510254,1.2044723033905,-0.851988673210144,-0.366970062255859,0.516424417495728,-0.857015715678588,-0.368749920209162,0.523537527241534,5
1.66000366210938,-0.673503160476685,2.67604184150696,1.55594706535339,-0.671244443874359,2.67699864863716,1.55339964084857,2206.432,2204.947,2198.376,2201.325,357.051422119141,44.9990501403809,1.18591475486755,-0.862520158290863,-0.371460944414139,0.523108243942261,-0.867618167158098,-0.373311858882592,0.530014399402375,5
1.67999267578125,-0.690960347652435,2.66852450370789,1.56653356552124,-0.688691692550512,2.66949158495151,1.56405789280588,2196.226,2198.923,2205.581,2204.934,357.100891113281,44.9991683959961,1.16475856304169,-0.872859299182892,-0.375866681337357,0.52932596206665,-0.878034183119987,-0.377793579561193,0.536377381014768,5
1.70001220703125,-0.70862090587616,2.66092038154602,1.57724761962891,-0.706372354049449,2.66188409024902,1.5748587330143,2198.564,2199.704,2202.674,2200.948,357.153442382813,44.9991035461426,1.14308094978333,-0.883029341697693,-0.380204856395721,0.535699963569641,-0.888274735793774,-0.382199803288802,0.542633174842512,5
1.72000122070313,-0.726481258869171,2.65323114395142,1.58808958530426,-0.724228658537036,2.6542010212754,1.58576687078363,2203.228,2201.571,2194.311,2197.832,357.205749511719,44.9985694885254,1.12302339076996,-0.893014371395111,-0.384466290473938,0.542096495628357,-0.898304216251578,-0.386515208538549,0.548760027947228,5
1.74002075195313,-0.744536995887756,2.64545845985413,1.59904956817627,-0.742311168965756,2.64642062220478,1.59681319423253,2192.497,2195.313,2201.672,2201.352,357.258850097656,44.9987030029297,1.10035490989685,-0.902794063091278,-0.388636827468872,0.548001170158386,-0.908148960779607,-0.390751127078638,0.554774028755192,5
1.760009765625,-0.762784957885742,2.63760375976563,1.61013329029083,-0.760560719141003,2.63856835059778,1.60796155965597,2199.881,2198.468,2193.101,2195.305,357.312774658203,44.9983062744141,1.07906258106232,-0.912397742271423,-0.392737030982971,0.554189205169678,-0.91777478390713,-0.394892849856044,0.560654293895788,4
1.77999877929688,-0.781220734119415,2.62966895103455,1.62133085727692,-0.779000609654483,2.63063418086074,1.61922620102184,2189.041,2192.59,2200.171,2198.414,357.368438720703,44.9985046386719,1.05525517463684,-0.921789824962616,-0.39674586057663,0.559877336025238,-0.927192788821983,-0.398945154262308,0.566407606133204,4
1.80001831054688,-0.79984050989151,2.62165546417236,1.63264524936676,-0.797655223615693,2.62260762162281,1.63062201359123,2191.889,2193.194,2196.168,2194.167,357.427764892578,44.9984474182129,1.03104519844055,-0.930990397930145,-0.400678157806396,0.565720617771149,-0.936412917636689,-0.402912318110697,0.572040038948834,4
1.82000732421875,-0.818640172481537,2.61356496810913,1.64407646656036,-0.816463410111527,2.61451498441355,1.64211164122557,2196.907,2194.951,2186.692,2190.84,357.486785888672,44.9978713989258,1.00861489772797,-0.939982116222382,-0.404522776603699,0.571562170982361,-0.94540321420156,-0.406780591562751,0.577532070829503,3
1.83999633789063,-0.837615191936493,2.60539960861206,1.65561378002167,-0.835449117627072,2.60634596486888,1.6537097136807,2185.657,2188.391,2193.809,2194.398,357.546234130859,44.9979782104492,0.983588874340057,-0.948746919631958,-0.40826615691185,0.576868176460266,-0.954174163352093,-0.410554485950274,0.582890106797601,3
1.86001586914063,-0.856761276721954,2.59716105461121,1.66725981235504,-0.854637305360818,2.59808982374295,1.66543147814148,2187.712,2188.747,2190.654,2189.899,357.6083984375,44.9978904724121,0.958078742027283,-0.957306504249573,-0.411926120519638,0.58230060338974,-0.962735018414262,-0.414237982720922,0.588119799565572,0
1.8800048828125,-0.876074254512787,2.5888512134552,1.67901432514191,-0.873964974649439,2.58977366760063,1.67723844970756,2192.156,2190.369,2181.949,2186.185,357.669891357422,44.997371673584,0.934374153614044,-0.965647161006927,-0.415494650602341,0.587725222110748,-0.971056158224177,-0.417818336715394,0.593203054026622,0
1.89999389648438,-0.895549297332764,2.58047199249268,1.6908665895462,-0.893456683142228,2.58138692997148,1.6891456302637,2180.377,2183.564,2189.592,2189.674,357.732055664063,44.9975547790527,0.908031702041626,-0.973753750324249,-0.41895991563797,0.592612385749817,-0.979147395688901,-0.421299770153459,0.598145864732551,0
1.92001342773438,-0.915182173252106,2.57202529907227,1.7028192281723,-0.913137923350175,2.5729186421402,1.70116859278703,2182.517,2183.896,2186.304,2184.919,357.797332763672,44.9975318908691,0.881259858608246,-0.981645524501801,-0.422338396310806,0.597633123397827,-0.987017247723777,-0.424685947625853,0.602953434534038,0
1.94000244140625,-0.934968292713165,2.56351280212402,1.71487212181091,-0.932943991899774,2.5643966441608,1.71326781099638,2187.243,2185.426,2177.083,2181.15,357.862243652344,44.9970169067383,0.856334090232849,-0.989307940006256,-0.425621002912521,0.602645874023438,-0.994638524886308,-0.427965170275055,0.607609153824943,0
1.96002197265625,-0.954902946949005,2.55493688583374,1.7270143032074,-0.952930593197372,2.55579696798345,1.72547731384432,2175.395,2178.619,2184.389,2184.645,357.927856445313,44.9971961975098,0.828808486461639,-0.99672657251358,-0.428795695304871,0.607107222080231,-1.00203140433628,-0.431146119769234,0.61212534851732,0
1.98001098632813,-0.974981248378754,2.54629921913147,1.7392510175705,-0.973031969359004,2.54714790738853,1.73775693086567,2183.162,2181.423,2174.967,2177.873,357.994018554688,44.9968032836914,0.802821099758148,-1.00392365455627,-0.431879937648773,0.611834108829498,-1.00917036754089,-0.434217816196637,0.616486429737696,0
2,-0.995198845863342,2.537602186203,1.75157117843628,-0.993273599084619,2.53843849960327,1.75012222660065,2171.341,2175.185,2181.899,2180.911,358.061767578125,44.9970588684082,0.774365723133087,-1.01087272167206,-0.434856295585632,0.616007745265961,-1.01606400046349,-0.437183953857422,0.620697642517089,0
2.02001953125,-1.01555049419403,2.52884745597839,1.76397740840912,-1.01368176147806,2.52965743746343,1.7625892545437,2174.127,2175.371,2177.481,2176.196,358.132934570313,44.9970207214355,0.745567977428436,-1.01758790016174,-0.437737226486206,0.620310425758362,-1.0227194988233,-0.440047628868552,0.624763382608097,0
2.04000854492188,-1.03603160381317,2.52003717422485,1.77646911144257,-1.03418924440916,2.52083364047092,1.77511695585335,2179.233,2176.971,2167.384,2172.252,358.203369140625,44.9964447021484,0.718803644180298,-1.02405440807343,-0.440512835979462,0.62458461523056,-1.02911391720548,-0.442798968459032,0.628669633014835,0
2.05999755859375,-1.05663681030273,2.51117372512817,1.78903460502625,-1.05482201812353,2.5119559343546,1.78772119534738,2166.942,2169.927,2174.628,2175.962,358.273956298828,44.9965896606445,0.689438760280609,-1.03026211261749,-0.443172693252563,0.628275573253632,-1.03525504859546,-0.445441325732794,0.632421154350513,0
2.08001708984375,-1.07736146450043,2.50225901603699,1.80167615413666,-1.07560676837143,2.50301283698163,1.80041827493419,2169.007,2170.053,2171.171,2170.913,358.347045898438,44.9965629577637,0.659712910652161,-1.03622615337372,-0.445732146501541,0.632076323032379,-1.0411492471255,-0.447977434695423,0.636021828255355,0
2.10000610351563,-1.09820020198822,2.49329543113708,1.81439304351807,-1.09647498538954,2.49403382618922,1.81316634306845,2173.489,2171.423,2162.051,2166.788,358.419097900391,44.9960556030273,0.631980359554291,-1.04193532466888,-0.448184132575989,0.635846018791199,-1.04677621342161,-0.450398561093403,0.639459254158576,0
2.1199951171875,-1.11914777755737,2.48428511619568,1.82717394828796,-1.11745308225396,2.48500753716864,1.82598153508617,2160.922,2164.346,2169.676,2170.379,358.491668701172,44.9963073730469,0.601650714874268,-1.04738235473633,-0.450519979000092,0.639044106006622,-1.0521429102862,-0.45270770082608,0.642737685527497,0
2.1400146484375,-1.1401994228363,2.4752299785614,1.84002113342285,-1.13856809990831,2.47592233495728,1.83888036987787,2163.149,2164.465,2166.078,2165.208,358.567077636719,44.9963226318359,0.571009814739227,-1.05257904529572,-0.452753096818924,0.642360627651215,-1.05725481901126,-0.454907212340279,0.645860470797878,0
2.16000366210938,-1.1613495349884,2.46613240242004,1.85293412208557,-1.15975039167652,2.46680818657414,1.85182030137592,2167.933,2165.832,2156.531,2161.051,358.641723632813,44.9958267211914,0.542423844337463,-1.05751371383667,-0.454875618219376,0.645648062229156,-1.0620943502576,-0.456989527434725,0.648816864916866,0
2.17999267578125,-1.18259310722351,2.4569947719574,1.86590123176575,-1.18102676265167,2.45765355853653,1.86481770439342,2155.416,2158.8,2163.804,2164.724,358.716827392578,44.9960670471191,0.51129138469696,-1.062180519104,-0.456878960132599,0.648357212543488,-1.06666760390386,-0.458957270716794,0.65161059420515,0
2.20001220703125,-1.20392489433289,2.44781923294067,1.87892472743988,-1.20242455577657,2.44844668594002,1.87788928230744,2157.731,2158.835,2160.028,2159.58,358.794586181641,44.9960784912109,0.479845434427261,-1.0665887594223,-0.458775341510773,0.651176512241364,-1.07097916161324,-0.460812413548163,0.654244457529281,0
2.22000122070313,-1.2253395318985,2.43860816955566,1.89200389385223,-1.22387315175433,2.43921795429519,1.89099189489151,2162.545,2160.197,2150.432,2155.335,358.871276855469,44.9955673217773,0.450486212968826,-1.07072794437408,-0.460557579994202,0.653960168361664,-1.07501419914593,-0.462548577472581,0.656709398992482,0
2.24002075195313,-1.24683129787445,2.42936372756958,1.90512704849243,-1.24543261682529,2.42994151877688,1.90416223567455,2149.752,2153.122,2157.866,2159.085,358.9482421875,44.9958267211914,0.418564975261688,-1.07459509372711,-0.462218761444092,0.656157732009888,-1.07878346314438,-0.464170386470068,0.659011983550929,0
2.260009765625,-1.26839542388916,2.42008829116821,1.91829919815063,-1.26703177594152,2.42064800401982,1.91735682493042,2157.869,2155.811,2148.279,2151.549,359.025207519531,44.9954795837402,0.388475030660629,-1.07820010185242,-0.463771522045135,0.65860778093338,-1.08227399942825,-0.465672266718726,0.661144297698006,0
2.27999877929688,-1.29002594947815,2.41078424453735,1.93150877952576,-1.28869796983554,2.41132564607061,1.93059236468599,2145.18,2149.285,2155.327,2154.979,359.103546142578,44.9958229064941,0.355941236019135,-1.08153283596039,-0.465205103158951,0.660478830337524,-1.08549040888332,-0.467056197851165,0.663109152043028,0
2.30001831054688,-1.31171786785126,2.40145373344421,1.94475817680359,-1.31045892272318,2.4019625159737,1.94388579123207,2148.269,2149.462,2150.619,2149.718,359.184997558594,44.9958381652832,0.323302686214447,-1.08459639549255,-0.466527491807938,0.662471413612366,-1.08843572622736,-0.468323485621664,0.66490840044773,0
2.32000732421875,-1.33346557617188,2.39209914207458,1.95804643630981,-1.33224276726637,2.39258953623693,1.95719320193332,2153.482,2150.741,2140.357,2145.623,359.265167236328,44.9952926635742,0.292857438325882,-1.08738017082214,-0.467730134725571,0.664415597915649,-1.09109983431736,-0.469469776906228,0.666535862507326,0
2.33999633789063,-1.35526311397552,2.38272309303284,1.97136163711548,-1.35407709248145,2.38319483607731,1.97053145048929,2140.639,2143.741,2147.479,2149.526,359.345245361328,44.9955215454102,0.259931355714798,-1.08988571166992,-0.468807876110077,0.665760397911072,-1.09348640563071,-0.470496651869278,0.667993781680938,0
2.36001586914063,-1.37710547447205,2.37332773208618,1.98470568656921,-1.3759897762471,2.37376642042246,1.98391756706104,2142.927,2143.758,2143.861,2144.157,359.427307128906,44.9955406188965,0.226837977766991,-1.09211683273315,-0.469771146774292,0.667202651500702,-1.09559752564474,-0.471405007833448,0.669283431954129,0
2.3800048828125,-1.39898693561554,2.36391544342041,1.9980776309967,-1.39790843013262,2.36433543599182,1.99730733068585,2147.472,2144.925,2134.746,2139.843,359.507781982422,44.9950637817383,0.195920541882515,-1.09406661987305,-0.47061476111412,0.668597280979156,-1.09742594550583,-0.472191725819537,0.67040038511534,0
2.39999389648438,-1.42090177536011,2.35448884963989,2.01146578788757,-1.41986083522252,2.35488992936084,2.01071771239474,2134.356,2137.953,2142.36,2143.66,359.588439941406,44.9953765869141,0.162558004260063,-1.09573972225189,-0.471335381269455,0.669409930706024,-1.09897439291323,-0.472857979480329,0.671346307473475,0
2.42001342773438,-1.44284439086914,2.34504985809326,2.02487254142761,-1.44187496577138,2.34541786398928,2.02416580122331,2136.825,2137.925,2138.699,2138.285,359.671508789063,44.9954566955566,0.129043892025948,-1.09713637828827,-0.471941232681274,0.670332908630371,-1.1002439936861,-0.473404253224357,0.672121886773894,0
2.44000244140625,-1.46480941772461,2.33560156822205,2.0382969379425,-1.46387808506052,2.33595053645515,2.03760716344514,2141.731,2139.202,2129.205,2133.9,359.753265380859,44.9949913024902,0.0977972075343132,-1.09824919700623,-0.472426414489746,0.671215176582336,-1.10123038958312,-0.473828671822132,0.672724460634977,0
2.46002197265625,-1.4867912530899,2.32614588737488,2.05172729492188,-1.48593173759011,2.32646146587939,2.051079395635,2128.888,2132.219,2136.311,2137.959,359.835174560547,44.9952926635742,0.064094640314579,-1.09908473491669,-0.472787618637085,0.671516954898834,-1.10193621258339,-0.474132367740737,0.673155636891692,0
2.48001098632813,-1.50878381729126,2.31668519973755,2.0651683807373,-1.5079630509786,2.31698200721197,2.06453798119217,2137.205,2134.719,2126.847,2130.28,359.916656494141,44.9949684143066,0.0322895310819149,-1.09964060783386,-0.47303232550621,0.672056019306183,-1.10235904000526,-0.474314298567936,0.673413935565619,0
2.5,-1.53078234195709,2.30722212791443,2.078608751297,-1.52999999932945,2.30750012397766,2.0780000090599,2124.518,2128.639,2133.552,2133.71,-0.000809340213891119,44.9953346252441,-0.00168323388788849,-1.09992051124573,-0.473155975341797,0.672024369239807,-1.10250000050292,-0.474374949932098,0.673500046133994,0
2.52001953125,-1.55278086662292,2.29775881767273,2.09205079078674,-1.55207058900185,2.29800376582252,2.09148258788601,2127.613,2128.53,2129.04,2128.617,0.0843301713466644,44.9953727722168,359.964294433594,-1.09991836547852,-0.473162055015564,0.672098815441132,-1.10235860927677,-0.474314113237503,0.673413672440311,0
2.54000854492188,-1.57477343082428,2.28829789161682,2.10549330711365,-1.57410188948011,2.28852431271001,2.10494116555652,2132.859,2129.773,2119.092,2124.374,0.167789399623871,44.9948539733887,359.932586669922,-1.09962773323059,-0.473044246435165,0.672120809555054,-1.10193535162022,-0.474131997292339,0.673155110942729,0
2.55999755859375,-1.59675455093384,2.27884197235107,2.11892437934875,-1.59612191359838,2.27904971150017,2.11839285467467,2120.043,2123.097,2125.966,2128.402,0.250831544399261,44.9951095581055,359.898620605469,-1.09905993938446,-0.472801864147186,0.67155659198761,-1.10123038958312,-0.473828671822132,0.672724460634977,0
2.58001708984375,-1.61871886253357,2.2693932056427,2.1323459148407,-1.6181586096433,2.26956793682606,2.13185472841265,2122.402,2122.982,2122.526,2123.115,0.335443168878555,44.9951705932617,359.864593505859,-1.09820926189423,-0.472440838813782,0.671079397201538,-1.10024227275454,-0.473403512755585,0.67212083548366,0
2.60000610351563,-1.64066028594971,2.25995397567749,2.14575695991516,-1.64013916343638,2.26011031859448,2.14528230572506,2126.942,2124.065,2113.778,2118.779,0.418110013008118,44.9947280883789,359.832824707031,-1.09707224369049,-0.471957713365555,0.670550882816315,-1.09897439291323,-0.472857979480329,0.671346307473476,0
2.6199951171875,-1.66257357597351,2.25052690505981,2.15914607048035,-1.66209156852628,2.2506648119635,2.15869268743396,2114.006,2117.536,2121.033,2122.663,0.500679492950439,44.9950790405273,359.798858642578,-1.09566295146942,-0.471353381872177,0.669459640979767,-1.09742594550583,-0.472191725819537,0.67040038511534,0
2.6400146484375,-1.68445301055908,2.24111413955688,2.17251539230347,-1.68404365734903,2.24121944141343,2.17210287594018,2116.554,2117.378,2117.548,2117.437,0.585220396518707,44.9951858520508,359.764892578125,-1.09397220611572,-0.470631659030914,0.66846764087677,-1.09559452046326,-0.471403714787811,0.669281596135657,0
2.66000366210938,-1.70629286766052,2.23171854019165,2.18586397171021,-1.70592290617745,2.23180541187802,2.18546856763052,2121.425,2118.516,2108.499,2113.126,0.668053328990936,44.9947509765625,359.733184814453,-1.09199631214142,-0.46978822350502,0.66743129491806,-1.09348640563071,-0.470496651869278,0.667993781680938,0
2.67999267578125,-1.72808802127838,2.22234201431274,2.19918084144592,-1.72775723139253,2.2224107117184,2.19880681618649,2108.863,2112.067,2115.218,2117.19,0.750730276107788,44.9950752258301,359.699310302734,-1.08975100517273,-0.468824356794357,0.665838479995728,-1.09109983431736,-0.469469776906228,0.666535862507326,0
2.70001220703125,-1.74983239173889,2.21298718452454,2.21246743202209,-1.74957429229274,2.21302343991116,2.21213451824191,2111.387,2112.027,2111.729,2111.944,0.835093080997467,44.9951553344727,359.665466308594,-1.08722460269928,-0.467742711305618,0.664332807064056,-1.08843144721369,-0.468321644481621,0.664905786465049,0
2.72000122070313,-1.77152073383331,2.20365643501282,2.22572302818298,-1.77130202882336,2.20367460188472,2.22540765343382,2116.254,2113.107,2102.836,2107.684,0.917462944984436,44.9947242736816,359.633941650391,-1.08441472053528,-0.466539978981018,0.662781000137329,-1.08549040888332,-0.467056197851165,0.663109152043028,0
2.74002075195313,-1.79314756393433,2.19435214996338,2.23893666267395,-1.79300125102058,2.19433803277934,2.23866336966442,2103.611,2106.82,2109.666,2111.732,0.999498426914215,44.995059967041,359.600311279297,-1.0813399553299,-0.465218812227249,0.6606764793396,-1.08226887897249,-0.465670063529659,0.661141169691481,0
2.760009765625,-1.8147075176239,2.18507647514343,2.25211238861084,-1.81460030360772,2.18504456385877,2.25185789384333,2111.81,2108.888,2101.006,2104.297,1.08058738708496,44.9947853088379,359.568664550781,-1.07798433303833,-0.463780045509338,0.658789217472076,-1.07877792518082,-0.464168003639063,0.659008600495412,0
2.77999877929688,-1.83619475364685,2.17583203315735,2.26523971557617,-1.83612684690458,2.17578229366013,2.2650081232283,2099.487,2103.374,2107.329,2107.878,1.16235101222992,44.9951858520508,359.535064697266,-1.0743682384491,-0.462226986885071,0.656368255615234,-1.07501419914593,-0.462548577472581,0.656709398992482,0
2.80001831054688,-1.85760426521301,2.16662096977234,2.27832055091858,-1.85760812647542,2.16653949917827,2.27813070170937,2102.844,2103.371,2103.002,2102.818,1.24608707427979,44.9952583312988,359.501708984375,-1.07047414779663,-0.460557848215103,0.654047310352325,-1.07097279461286,-0.460809674005774,0.654240568028104,0
2.82000732421875,-1.87893009185791,2.15744566917419,2.29135394096375,-1.87897323600723,2.1573466894188,2.29118231372639,2107.842,2104.335,2093.904,2098.907,1.32769012451172,44.9947891235352,359.470672607422,-1.06630098819733,-0.458768635988235,0.65166711807251,-1.06666760390385,-0.458957270716794,0.65161059420515,0
2.83999633789063,-1.90016770362854,2.14830851554871,2.30432891845703,-1.90024960698239,2.14819206138118,2.30417971674389,2095.694,2098.436,2100.179,2102.892,1.40851318836212,44.9950714111328,359.437744140625,-1.06187069416046,-0.456863731145859,0.648746311664581,-1.06209435025759,-0.456989527434725,0.648816864916866,0
2.86001586914063,-1.92131102085114,2.13921165466309,2.31724691390991,-1.9214641634913,2.13906403038149,2.31713935826856,2098.04,2098.2,2097.152,2097.979,1.49027645587921,44.9951515197754,359.404907226563,-1.05716705322266,-0.454843759536743,0.64589786529541,-1.05724722779031,-0.454903946049977,0.645855833439456,0
2.8800048828125,-1.94235467910767,2.13015747070313,2.33010697364807,-1.94254691640495,2.12999271078668,2.33001848303364,2102.487,2099.229,2089.188,2093.78,1.5696873664856,44.9947662353516,359.374359130859,-1.05219101905823,-0.452707558870316,0.643001019954681,-1.0521429102862,-0.45270770082608,0.642737685527497,0
2.89999389648438,-1.96329426765442,2.12114834785461,2.34289884567261,-1.96352501326936,2.1209664217661,2.34283367505136,2090.342,2093.438,2095.754,2097.711,1.6485995054245,44.9951248168945,359.342041015625,-1.04696643352509,-0.450460612773895,0.639589965343475,-1.04677621342161,-0.450398561093403,0.639459254158576,0
2.92001342773438,-1.98412346839905,2.11218643188477,2.35562419891357,-1.98442500350686,2.11197373984504,2.35560115294953,2092.873,2093.192,2092.695,2092.898,1.72878015041351,44.9952545166016,359.309814453125,-1.04147458076477,-0.448101788759232,0.636263191699982,-1.04114045847258,-0.4479736531836,0.636016459404434,0
2.94000244140625,-2.00483775138855,2.10327386856079,2.36828207969666,-2.00517798053537,2.10304431360073,2.36827882277243,2097.57,2094.26,2084.553,2088.79,1.80680978298187,44.9948844909668,359.279937744141,-1.03571605682373,-0.445629239082336,0.632894933223724,-1.03525504859546,-0.445441325732794,0.632421154350513,0
2.96002197265625,-2.02543210983276,2.0944128036499,2.38086247444153,-2.02584216016808,2.09415309439512,2.38090224765189,2085.813,2088.661,2090.675,2092.789,1.8842955827713,44.9952125549316,359.248291015625,-1.02971613407135,-0.443048715591431,0.629022181034088,-1.02910434715508,-0.442794850733705,0.628663786820389,0
2.98001098632813,-2.04590106010437,2.08560562133789,2.39336919784546,-2.04634944795115,2.08532938136936,2.39342982974865,2093.655,2090.44,2082.801,2085.846,1.96046257019043,44.9949798583984,359.218597412109,-1.02345061302185,-0.440356701612473,0.62534236907959,-1.02270954399162,-0.440043345582586,0.624757301356766,0
3,-2.06624007225037,2.07685446739197,2.40579271316528,-2.06672639957428,2.07656174835205,2.40587779151916,2082.356,2085.633,2088.368,2089.322,2.03683662414551,44.995361328125,359.187347412109,-1.01694965362549,-0.43756115436554,0.621180534362793,-1.01606400046349,-0.437183953857422,0.620697642517089,0
3.02001953125,-2.08644390106201,2.06816124916077,2.41813468933105,-2.08699882657197,2.06783908936099,2.41826190082706,2085.476,2085.533,2084.596,2084.744,2.11448121070862,44.9954414367676,359.156433105469,-1.01019024848938,-0.434657394886017,0.617100596427917,-1.0091596546337,-0.434213206731958,0.616479885389866,0
3.04000854492188,-2.10650753974915,2.05952835083008,2.43039393424988,-2.10709998486405,2.05919012250926,2.43054138475531,2090.143,2086.452,2076.521,2081.041,2.18967795372009,44.9950370788574,359.127777099609,-1.0031750202179,-0.431643605232239,0.612966179847717,-1.00202031904361,-0.431141350077486,0.612118576685011,0
3.05999755859375,-2.12642621994019,2.05095791816711,2.44256091117859,-2.12705600675913,2.05060360379452,2.44273220712343,2078.97,2081.231,2082.198,2084.937,2.2638087272644,44.9953269958496,359.097595214844,-0.995931625366211,-0.42852720618248,0.608347296714783,-0.994638524886308,-0.427965170275055,0.607609153824944,0
3.08001708984375,-2.14619469642639,2.04245185852051,2.45463681221008,-2.14689219650438,2.04206864550612,2.45484982590117,2081.376,2081.094,2079.464,2080.358,2.33829998970032,44.9954223632813,359.067718505859,-0.988438546657562,-0.425305664539337,0.603794634342194,-0.987005430654711,-0.424680863071165,0.602946215670947,0
3.10000610351563,-2.16580867767334,2.03401231765747,2.46662068367004,-2.16654331551667,2.03361331798384,2.46685438785611,2085.435,2081.944,2072.488,2076.623,2.41015768051147,44.9950981140137,359.040069580078,-0.980700075626373,-0.421979397535324,0.599194467067719,-0.979147395688901,-0.421299770153459,0.598145864732551,0
3.1199951171875,-2.18526363372803,2.02564120292664,2.47850346565247,-2.18603502400946,2.02522658035469,2.47876156841225,2074.387,2076.904,2078.377,2080.41,2.48119235038757,44.9954490661621,359.010986328125,-0.972744882106781,-0.418556481599808,0.594139158725739,-0.971056158224178,-0.417818336715394,0.593203054026623,0
3.1400146484375,-2.20455479621887,2.01734066009521,2.49028658866882,-2.20539207344272,2.01689778275692,2.49058648785022,2076.895,2076.786,2075.689,2075.964,2.55287790298462,44.9955863952637,358.982208251953,-0.964549601078033,-0.415033221244812,0.589160263538361,-0.962722140342815,-0.41423244164655,0.588111932552684,0
3.16000366210938,-2.22367715835571,2.00911235809326,2.50196933746338,-2.22455088103183,2.00865428308644,2.50229030443911,2081.098,2077.574,2068.681,2072.454,2.62217688560486,44.9952812194824,358.955627441406,-0.956118524074554,-0.411409318447113,0.584141492843628,-0.954174163352092,-0.410554485950274,0.582890106797601,0
3.17999267578125,-2.24262666702271,2.00095820426941,2.51354312896729,-2.24353658854737,2.00048526354177,2.51388837689424,2070.724,2072.987,2073.953,2076.012,2.69058871269226,44.9955940246582,358.927764892578,-0.947480380535126,-0.407692909240723,0.578686892986298,-0.945403214201559,-0.406780591562751,0.577532070829503,0
3.20001220703125,-2.26139879226685,1.99288082122803,2.52500915527344,-2.26237335188561,1.99238033051557,2.52539546167567,2073.228,2072.844,2071.256,2071.821,2.75931549072266,44.9957008361816,358.900329589844,-0.938611924648285,-0.403879672288895,0.573299288749695,-0.93639902618694,-0.402906341007952,0.572031552878955,0
3.22000122070313,-2.27998924255371,1.98488140106201,2.53636646270752,-2.28099938900442,1.98436606709459,2.53677381709797,2077.28,2073.483,2064.582,2068.564,2.82538199424744,44.9953918457031,358.874969482422,-0.929518401622772,-0.399969935417175,0.567869961261749,-0.927192788821982,-0.398945154262308,0.566407606133204,0
3.24002075195313,-2.29839372634888,1.97696197032928,2.54760694503784,-2.29946728755973,1.97641984627959,2.54805556813954,2067.102,2069.147,2069.864,2072.012,2.89035367965698,44.9957160949707,358.848419189453,-0.920229554176331,-0.395972967147827,0.562020063400269,-0.917760245372928,-0.394886594330938,0.560645412532115,0
3.260009765625,-2.31660795211792,1.96912407875061,2.55873346328735,-2.31771654397337,1.96856770107001,2.5592037541086,2073.967,2070.539,2063.518,2066.054,2.95351028442383,44.9955635070801,358.823760986328,-0.910717010498047,-0.391882181167603,0.556332051753998,-0.908134108040216,-0.390744736359816,0.55476495544847,0
3.27999877929688,-2.33462810516357,1.96137022972107,2.56973838806152,-2.33577134012187,1.96079922667992,2.57023314733618,2064.331,2066.781,2068.23,2069.188,3.01632213592529,44.9959259033203,358.798095703125,-0.901017487049103,-0.387709408998489,0.550249636173248,-0.898304216251578,-0.386515208538549,0.548760027947228,0
3.30001831054688,-2.35245037078857,1.9537011384964,2.58062314987183,-2.35365475236716,1.95310449399547,2.58115784481168,2067.315,2066.616,2065.083,2065.431,3.07953286170959,44.9960250854492,358.772918701172,-0.891105771064758,-0.383447706699371,0.544241368770599,-0.88825927318574,-0.382193150160541,0.542623728976554,0
3.32000732421875,-2.37006998062134,1.9461190700531,2.59138679504395,-2.37130830610839,1.94550866300381,2.59194212531393,2071.157,2067.433,2058.701,2062.368,3.14006114006042,44.9957237243652,358.749877929688,-0.880988538265228,-0.379097700119019,0.538184523582458,-0.878034183119985,-0.377793579561194,0.536377381014769,0
3.33999633789063,-2.38748407363892,1.93862581253052,2.60202169418335,-2.38875555478454,1.93800159931817,2.60260037727124,2062.079,2063.435,2063.221,2065.71,3.1991171836853,44.9959831237793,358.725921630859,-0.870695292949677,-0.374668419361115,0.531744360923767,-0.867618167158097,-0.373311858882592,0.530014399402376,0
3.36001586914063,-2.40468788146973,1.93122267723083,2.61252880096436,-2.40601888046917,1.93057367255756,2.6131462735431,2064.211,2063.225,2061.121,2062.127,3.25773787498474,44.9960899353027,358.702392578125,-0.860203981399536,-0.370155572891235,0.52535742521286,-0.856999388527103,-0.368742895092007,0.523527553239473,0
3.3800048828125,-2.42167854309082,1.9239114522934,2.62290740013123,-2.42304196557559,1.92324911460621,2.6235454105946,2067.664,2064.033,2055.65,2059.019,3.31347417831421,44.9958610534668,358.680999755859,-0.849521458148956,-0.365561217069626,0.518936038017273,-0.846214826007803,-0.364102599125748,0.516939432286212,0
3.39999389648438,-2.43845200538635,1.91669344902039,2.63315057754517,-2.43984769972619,1.91601807669906,2.63381177133889,2058.684,2060.148,2060.423,2062.36,3.36789011955261,44.9961776733398,358.65869140625,-0.838678061962128,-0.360894978046417,0.512157559394836,-0.835253140422974,-0.35938609205264,0.510243109616171,0
3.42001342773438,-2.45500493049622,1.90957045555115,2.64325952529907,-2.45645774020782,1.90887124031063,2.64395858587455,2060.987,2060.193,2058.341,2058.713,3.4220564365387,44.9963111877441,358.636993408203,-0.827650547027588,-0.356151938438416,0.505446672439575,-0.824102019042908,-0.354588076049064,0.503431063574906,0
3.44000244140625,-2.47133374214172,1.90254366397858,2.65323376655579,-2.47281804716281,1.90183185728196,2.6539528420958,2064.435,2060.781,2052.989,2056.056,3.47353267669678,44.9960899353027,358.617309570313,-0.816446602344513,-0.351333498954773,0.498707383871078,-0.812800388649434,-0.349725300221754,0.496527073925997,0
3.45999145507813,-2.48743557929993,1.89561486244202,2.66306638717651,-2.48895081463434,1.8948903781363,2.66380809799729,2056.212,2057.369,2057.198,2059.102,3.52360486984253,44.9963798522949,358.596893310547,-0.805095493793488,-0.346449166536331,0.491635739803314,-0.80133641229185,-0.344792671461508,0.489523909660973,0
3.48001098632813,-2.50330686569214,1.8887847661972,2.67275881767273,-2.50487694859767,1.88803780761656,2.67353712471306,2058.455,2057.271,2055.181,2055.894,3.57312059402466,44.9964981079102,358.577056884766,-0.793575465679169,-0.341493844985962,0.484624594449997,-0.789697369743255,-0.339784716610052,0.482413800191712,0
3.5,-2.51894497871399,1.88205552101135,2.68231058120728,-2.5205447997813,1.88129636896134,2.68310837050915,2061.619,2058.036,2050.307,2053.24,3.61979699134827,44.9962997436523,358.559265136719,-0.781894564628601,-0.336469918489456,0.477584719657898,-0.777924000354857,-0.334718964672089,0.475221632552147,0
3.52001953125,-2.53434634208679,1.87542808055878,2.69171524047852,-2.53599921507943,1.87464676580493,2.69254923165338,2053.912,2054.668,2054.338,2056.343,3.66489934921265,44.9965782165527,358.540771484375,-0.770081639289856,-0.331386566162109,0.470238357782364,-0.765985728654519,-0.329582259876133,0.467928728663466,0
3.54000854492188,-2.54950881004333,1.86890316009521,2.7009756565094,-2.55119019794619,1.86811051026429,2.70182916603607,2059.459,2055.897,2049.629,2051.677,3.70773887634277,44.9964904785156,358.524078369141,-0.758111536502838,-0.32623752951622,0.463022172451019,-0.753924423002452,-0.324392617007921,0.460560665253582,0
3.55999755859375,-2.56442928314209,1.86248207092285,2.71008586883545,-2.56613872308604,1.86167857751006,2.71096098677687,2052.031,2053.25,2053.378,2054.331,3.74953174591064,44.9968070983887,358.506927490234,-0.746020376682281,-0.321035414934158,0.455516666173935,-0.741727567798258,-0.319144650954242,0.45310979673751,0
3.58001708984375,-2.57910490036011,1.8561669588089,2.71904754638672,-2.58086439685043,1.85534253147694,2.71995667108993,2054.542,2053.346,2051.179,2051.424,3.79080748558044,44.9969024658203,358.490600585938,-0.733786821365356,-0.315773874521255,0.448079943656921,-0.729381927869994,-0.313832666990361,0.445568037955247,0
3.60000610351563,-2.5935332775116,1.84995794296265,2.72785997390747,-2.59531978247425,1.84912278287974,2.72878724059568,2057.857,2053.807,2046.381,2049.455,3.8291380405426,44.9967079162598,358.476104736328,-0.721419632434845,-0.310454666614532,0.440623879432678,-0.716930938559024,-0.308475354130224,0.437961922879033,0
3.6199951171875,-2.60771226882935,1.8438560962677,2.73651766777039,-2.60952509409627,1.84301063413925,2.73746504379605,2050.954,2051.228,2049.967,2052.082,3.86546802520752,44.9969367980957,358.461273193359,-0.708947122097015,-0.3050876557827,0.432890325784683,-0.704361775018033,-0.303067194200314,0.43028361700977,0
3.6400146484375,-2.62163925170898,1.83786284923553,2.74502182006836,-2.62349913748426,1.83699799365897,2.74600156884113,2052.778,2051.262,2048.644,2049.446,3.90055847167969,44.9970550537109,358.447204589844,-0.696351230144501,-0.299668997526169,0.425211995840073,-0.691660998977508,-0.297602405088683,0.422524911118315,0
3.66000366210938,-2.6353120803833,1.8319787979126,2.75337219238281,-2.63719712493647,1.83110413233575,2.75436945562281,2055.469,2051.804,2044.906,2047.483,3.93263936042786,44.9969291687012,358.434967041016,-0.683641016483307,-0.294201552867889,0.417523324489594,-0.678873453515702,-0.29210028151913,0.414713199141411,0
3.67999267578125,-2.64872884750366,1.82620477676392,2.76156425476074,-2.65063849381582,1.82532068681534,2.76258057812278,2049.157,2049.397,2048.415,2049.974,3.96286225318909,44.997200012207,358.422485351563,-0.670843243598938,-0.288694798946381,0.409597367048264,-0.665986083416798,-0.286555206197011,0.406840505851433,0
3.70001220703125,-2.66188740730286,1.8205418586731,2.76959896087646,-2.66384123964357,1.81963991412768,2.77064592952416,2051.022,2049.517,2047.14,2047.575,3.9919331073761,44.9973335266113,358.410858154297,-0.657941401004791,-0.283144861459732,0.401734501123428,-0.65298533214413,-0.280961346123326,0.398898549771683,0
