t,x_s1,x_s2,x_s3,x_s_d1,x_s_d2,x_s_d3,propellers_rpms1,propellers_rpms2,propellers_rpms3,propellers_rpms4,rollRad,pitchRad,yawRad,v_s1,v_s2,v_s3,v_s_d1,v_s_d2,v_s_d3,insideCount
0,-0.0599999986588955,2.94000005722046,1.17999994754791,-0.0599999986588955,2.94000005722046,1.17999994754791,0,0,0,0,0,45.0048027038574,0,0,0,0,-1.06581410364015E-15,4.44089209850063E-16,-7.105427357601E-16,0
0.019989013671875,-0.0599999986588955,2.94000005722046,1.17705690860748,-0.0600018659130177,2.93999925379318,1.18000108822432,0,0,0,0,0.937003672122955,44.8630027770996,-0.00115976633969694,3.71994488546079E-08,3.50004931704007E-08,-0.147149950265884,-0.000279680311988734,-0.000120338624884473,0.000170852338267345,5
0.040008544921875,-0.0599999986588955,2.94000005722046,1.17018985748291,-0.060014880898484,2.93999365380853,1.18000903887584,0,0,0,0,1.87400352954865,44.7211418151855,-0.00311126722954214,3.70364325874561E-08,3.5142885934647E-08,-0.343349903821945,-0.00111143977225461,-0.000478221483967637,0.000678961213193342,6
0.05999755859375,-0.0599062219262123,2.94009447097778,1.16346526145935,-0.0600498857373401,2.93997859220429,1.18003042278566,3197.771,2848.928,1516.765,2782.162,1.40346252918243,44.741325378418,0.0290413368493319,0.0046889022924006,0.00471907574683428,-0.336228758096695,-0.00247936261166862,-0.00106680046642749,0.00151460392977639,6
0.079986572265625,-0.0597377978265285,2.94026732444763,1.15723741054535,-0.0601174907153006,2.93994950367094,1.18007172161174,2865.126,2651.488,2344.996,2562.505,0.339350700378418,44.815845489502,0.0998695567250252,0.00842118635773659,0.00864443555474281,-0.311391800642014,-0.00437104534358026,-0.00188073869847162,0.0026702033915743,6
0.100006103515625,-0.0595563463866711,2.94046425819397,1.15151929855347,-0.0602282404704493,2.93990185114529,1.18013937690895,2239.701,2528.041,3138.323,2508.551,359.321472167969,44.9191513061523,0.178510576486588,0.00907254219055176,0.00984819047152996,-0.285907328128815,-0.00677739276378709,-0.00291612276782231,0.00414020348026766,5
0.1199951171875,-0.0594244822859764,2.94063210487366,1.14656901359558,-0.0603918861403606,2.93983143898525,1.18023934549506,2124.44,2455.036,3351.265,2464.171,358.749908447266,44.9998779296875,0.253433853387833,0.00659324321895838,0.008397008292377,-0.247517332434654,-0.00967801353495435,-0.00416417885169243,0.00591214744607921,5
0.139984130859375,-0.0593831054866314,2.94074010848999,1.14257049560547,-0.0606183773949454,2.93973398612584,1.18037770546816,2311.774,2456.427,3069.449,2463.653,358.636108398438,45.0326805114746,0.326424688100815,0.00206880643963814,0.00539796240627766,-0.19992707669735,-0.0130632593357409,-0.00562075554695178,0.00798014128006072,5
0.160003662109375,-0.0594435073435307,2.9407856464386,1.13952422142029,-0.0609177895434042,2.93960515744296,1.18056061167741,2536.524,2486.665,2635.61,2491.924,358.757110595703,45.0250129699707,0.398135364055634,-0.00302010914310813,0.00227865506894886,-0.152316197752953,-0.0169265510445065,-0.00728302204135792,0.0103401658994673,5
0.17999267578125,-0.059600256383419,2.94078159332275,1.13730943202972,-0.0612985250199726,2.93944133760391,1.18079319703879,2667.235,2506.403,2301.805,2512.912,358.864379882813,44.9985237121582,0.467453360557556,-0.00783753953874111,-0.000198418507352471,-0.110740087926388,-0.0212433804254414,-0.00914043312572283,0.0129772496054864,5
0.199981689453125,-0.0598478391766548,2.94073987007141,1.13576102256775,-0.0617700327574899,2.93923846099686,1.18108123375791,2652.942,2499.872,2183.712,2508.921,358.817047119141,44.9744071960449,0.532877624034882,-0.0123791415244341,-0.00209134351462126,-0.0774182230234146,-0.0260066742439309,-0.011189945384795,0.0158870714694674,5
0.220001220703125,-0.0601897947490215,2.94066214561462,1.13474524021149,-0.0623420644491781,2.93899233174064,1.18143067899198,2540.209,2470.409,2245.982,2478.916,358.612640380859,44.9637107849121,0.59440678358078,-0.0170977562665939,-0.00388137437403202,-0.0507894828915596,-0.03121219533433,-0.0134297356845702,0.0190670430730375,5
0.239990234375,-0.0606390722095966,2.9405415058136,1.13419365882874,-0.0630214373585105,2.93870001655724,1.18184569730089,2412.621,2430.166,2373.306,2436.922,358.334777832031,44.965877532959,0.65273243188858,-0.0224638562649488,-0.00603215303272009,-0.0275796707719564,-0.0368316683029241,-0.015847637913056,0.0224998914194052,5
0.259979248046875,-0.0612134411931038,2.94036602973938,1.13409054279327,-0.0638172488896441,2.93835760108779,1.18233184614686,2328.942,2391.631,2463.067,2398.999,358.076385498047,44.9738960266113,0.707733929157257,-0.0287184026092291,-0.00876814685761929,-0.00515626929700375,-0.0428604193878216,-0.0184416410810803,0.0261827613803636,4
0.279998779296875,-0.0619299821555614,2.94012498855591,1.13444042205811,-0.0647390625194898,2.93796097043536,1.18289496770872,2305.526,2364.985,2470.454,2370.648,357.887329101563,44.980354309082,0.760373055934906,-0.03582713752985,-0.0120562603697181,0.017495034262538,-0.0492963837173861,-0.0212108567320638,0.0301143915580518,4
0.29998779296875,-0.0628015398979187,2.93981075286865,1.13523662090302,-0.0657918945890516,2.93750796620855,1.18353812639089,2318.509,2348.755,2414.679,2353.016,357.765228271484,44.9817428588867,0.811385750770569,-0.0435778461396694,-0.0157068222761154,0.0398076400160789,-0.0561078595514081,-0.0241416444928383,0.0342754158540715,4
0.32000732421875,-0.0638363435864449,2.93942022323608,1.13644921779633,-0.0669865614821475,2.93699393441958,1.18426792975347,2333.944,2336.069,2343.33,2342.156,357.678741455078,44.9788589477539,0.85997074842453,-0.0517400912940502,-0.0195230301469564,0.0606291368603706,-0.0633036493784043,-0.0272377918282996,0.0386712115712976,4
0.339996337890625,-0.0650399923324585,2.93895220756531,1.13803648948669,-0.068326768706371,2.93641728069206,1.18508664143323,2338.821,2325.203,2285.892,2329.576,357.594268798828,44.9741096496582,0.906767606735229,-0.0601826198399067,-0.0234037190675735,0.0793650448322296,-0.0708499516420146,-0.0304847548730522,0.0432811298664125,4
0.3599853515625,-0.066417507827282,2.93840527534485,1.13995063304901,-0.0698213312158394,2.93577421219747,1.18599964634808,2321.159,2310.075,2262.675,2316.462,357.494262695313,44.9703330993652,0.95079892873764,-0.0688756853342056,-0.0273409448564053,0.0957063809037209,-0.0787457139191101,-0.0338820807988248,0.0481045278305496,4
0.3800048828125,-0.0679748207330704,2.93777751922607,1.14215350151062,-0.0714797725314022,2.93506063123087,1.18701276226829,2295.199,2294.251,2261.523,2299.442,357.3798828125,44.968620300293,0.992525100708008,-0.0778657197952271,-0.0313893295824528,0.110141381621361,-0.0869921272359981,-0.0374302820709642,0.0531421330430943,4
0.399993896484375,-0.0697188302874565,2.93706560134888,1.14461731910706,-0.0733036822025899,2.9342758538535,1.18812696022487,2270.027,2278.516,2267.061,2282.266,357.261749267578,44.9687042236328,1.03256928920746,-0.0872004702687263,-0.035599410533905,0.123191684484482,-0.0955525119207663,-0.0411135764513579,0.0583715384648505,4
0.41998291015625,-0.0716567039489746,2.93626594543457,1.14732027053833,-0.075301871434707,2.93341608884986,1.18934762284564,2247.943,2262.342,2271.747,2268.381,357.151977539063,44.9699211120605,1.06998217105865,-0.096893735229969,-0.0399885699152946,0.135146781802177,-0.104427768518458,-0.0449323514193797,0.0637932942247324,4
0.44000244140625,-0.0737953186035156,2.93537497520447,1.15024757385254,-0.077483988232608,2.93247718495301,1.19068064394622,2237.637,2250.382,2263.979,2255.022,357.057250976563,44.971076965332,1.10541784763336,-0.106930583715439,-0.044547725468874,0.14636804163456,-0.113620829717891,-0.048887868829098,0.0694091918565748,4
0.459991455078125,-0.0761406049132347,2.9343900680542,1.15338432788849,-0.0798493430620752,2.93145943885026,1.1921256023009,2233.732,2241.252,2247.12,2244.134,356.975860595703,44.971622467041,1.13965547084808,-0.117264203727245,-0.0492418520152569,0.156840458512306,-0.123092454730403,-0.0529632444654124,0.0751952597749251,4
0.47998046875,-0.0786974802613258,2.93330931663513,1.15671122074127,-0.082406855753501,2.93035901258777,1.1936879468949,2226.646,2231.197,2233.473,2236.888,356.903472900391,44.9719200134277,1.17147731781006,-0.127843990921974,-0.0540339723229408,0.166346237063408,-0.132845337826091,-0.057159637597476,0.0811531438673414,4
0.5,-0.0814704149961472,2.93213105201721,1.16021227836609,-0.085166398670376,2.92917165836334,1.195373708601,2222.091,2223.968,2220.109,2228.192,356.836090087891,44.9720458984375,1.20150434970856,-0.138646960258484,-0.0589102804660797,0.175050839781761,-0.142884000065179,-0.0614789935111996,0.0872856059789651,5
0.519989013671875,-0.0844635218381882,2.93085384368896,1.16387188434601,-0.0881248588203387,2.92789871561062,1.19718098574075,2216.806,2217.718,2209.65,2220.081,356.770172119141,44.9722290039063,1.23052024841309,-0.149655237793922,-0.0638625100255013,0.18298077583313,-0.153166947611899,-0.0659034585682559,0.0935672981730243,5
0.540008544921875,-0.0876806676387787,2.92947602272034,1.16767334938049,-0.0912963635428427,2.92653410573011,1.19911840848537,2205.606,2209.109,2208.424,2214.651,356.706024169922,44.9729957580566,1.25713694095612,-0.16085746884346,-0.0688873156905174,0.19007433950901,-0.163714777034477,-0.0704418948965508,0.100010802571645,5
0.55999755859375,-0.0911259427666664,2.92799615859985,1.17160797119141,-0.094676112580471,2.92507989413848,1.20118304443252,2201.203,2204.442,2203.441,2206.636,356.64501953125,44.9738960266113,1.28280925750732,-0.172263726592064,-0.0739954262971878,0.196731775999069,-0.17448465888317,-0.0750758741803766,0.106589955332319,5
0.579986572265625,-0.0948030203580856,2.92641258239746,1.17566394805908,-0.0982734311149,2.92353206847056,1.20338059019015,2192.215,2197.359,2203.766,2202.674,356.588989257813,44.9751625061035,1.30618953704834,-0.183854043483734,-0.0791769102215767,0.202799379825592,-0.185481935470438,-0.0798076950675377,0.113308019990364,5
0.600006103515625,-0.0987155586481094,2.92472386360168,1.17983567714691,-0.102098762959148,2.92188613504538,1.20571742572067,2189.555,2193.604,2199.479,2197.056,356.539215087891,44.976390838623,1.32809948921204,-0.195627003908157,-0.0844326168298721,0.208584249019623,-0.196713446836865,-0.0846403006364086,0.120169175019836,5
0.6199951171875,-0.10286682844162,2.92292881011963,1.18411755561829,-0.106144683970236,2.92014528826426,1.208189015731,2189.303,2191.273,2192.318,2192.585,356.493896484375,44.9773635864258,1.3494633436203,-0.207563370466232,-0.0897505804896355,0.214096024632454,-0.208134604141382,-0.0895545055543457,0.127146181793521,5
0.639984130859375,-0.10725960880518,2.92102646827698,1.18850064277649,-0.110420882305709,2.91830535958365,1.21080127856538,2183.408,2186.273,2192.026,2191.464,356.452514648438,44.9785461425781,1.36859726905823,-0.21963931620121,-0.0951159968972206,0.219155386090279,-0.219752140575416,-0.0945532069255159,0.134243153512991,5
0.660003662109375,-0.111896753311157,2.91901588439941,1.19298183917999,-0.114938248900541,2.91636166293851,1.21356086732604,2182.783,2184.63,2188.644,2187.838,356.415222167969,44.9796600341797,1.38636517524719,-0.231857031583786,-0.100532531738281,0.224061965942383,-0.231574097577923,-0.0996398647564507,0.141465002567821,5
0.67999267578125,-0.116780802607536,2.91689610481262,1.19755828380585,-0.119686638739014,2.91431856344567,1.2164615845812,2183.563,2184.106,2183.756,2184.951,356.380157470703,44.9806060791016,1.40378272533417,-0.244203060865402,-0.105993427336216,0.228820621967316,-0.243554411173546,-0.104794659005432,0.14878358919428,5
0.699981689453125,-0.121913999319077,2.91466641426086,1.20222330093384,-0.124676182095571,2.91217170233105,1.21950961875744,2177.869,2180.325,2186.804,2185.373,356.34765625,44.981876373291,1.41902422904968,-0.256659477949142,-0.111489035189152,0.233249574899673,-0.25570106256044,-0.110021023759057,0.156203788981777,5
0.720001220703125,-0.127298697829247,2.91232585906982,1.20697700977325,-0.129918284978346,2.90991617190799,1.22271193760712,2178.215,2180.056,2185.787,2182.936,356.318969726563,44.9831047058105,1.43303859233856,-0.269235193729401,-0.117027327418327,0.237685784697533,-0.268023157655716,-0.11532287703907,0.163731164592979,5
0.739990234375,-0.132937043905258,2.90987372398376,1.21181952953339,-0.135400001298574,2.90755754251682,1.22606063256665,2180.475,2180.932,2182.106,2181.237,356.292602539063,44.9841117858887,1.44693744182587,-0.28191739320755,-0.122601956129074,0.242123961448669,-0.280473432677602,-0.12067988256057,0.171336843321139,5
0.759979248046875,-0.13883076608181,2.90730977058411,1.21674644947052,-0.141131974150567,2.90509123473139,1.22956220533626,2175.901,2178.158,2186.232,2183.079,356.268951416016,44.9853935241699,1.45871591567993,-0.294685900211334,-0.128201201558113,0.246343791484833,-0.293060978423328,-0.126095951839638,0.179026378592425,5
0.779998779296875,-0.144981771707535,2.90463304519653,1.22176015377045,-0.147126184485884,2.90251209348295,1.2332239748923,2177.822,2179.08,2185.492,2181.743,356.2490234375,44.9865493774414,1.46936500072479,-0.307550430297852,-0.133833065629005,0.25068673491478,-0.305795832832518,-0.131575403921268,0.186805902427515,5
0.79998779296875,-0.151391699910164,2.90184330940247,1.2268625497818,-0.153366821193532,2.89982692185086,1.23703628247379,2181.383,2181.133,2182.015,2180.979,356.230926513672,44.9874305725098,1.48009729385376,-0.320496886968613,-0.139490246772766,0.255118697881699,-0.318629798715703,-0.137097500901303,0.194645971915464,5
0.82000732421875,-0.158061787486076,2.89894008636475,1.23205029964447,-0.159875221826383,2.89702653888221,1.24101216285881,2177.282,2178.988,2187.131,2183.912,356.214904785156,44.9886093139648,1.48870694637299,-0.33350470662117,-0.145160913467407,0.259389340877533,-0.331592781842754,-0.14267511039705,0.202564856024417,5
0.839996337890625,-0.164993613958359,2.89592289924622,1.23732888698578,-0.166633637018892,2.89411858163313,1.24514077323692,2182.603,2182.217,2184.086,2182.221,356.200866699219,44.9894752502441,1.49733555316925,-0.346591621637344,-0.15085743367672,0.26393073797226,-0.344636106234817,-0.148287288494656,0.210532819358465,5
0.8599853515625,-0.17218816280365,2.89279174804688,1.24269580841064,-0.173653699721778,2.89109804476993,1.2494292199962,2178.668,2180.633,2189.756,2185.379,356.189208984375,44.9906234741211,1.50391805171967,-0.359726577997208,-0.156563565135002,0.268343895673752,-0.357770416714212,-0.153938615363784,0.218556364673454,5
0.8800048828125,-0.179646611213684,2.88954591751099,1.24815583229065,-0.180948461186242,2.88795931270381,1.25388547594233,2181.978,2182.807,2189.609,2184.98,356.180969238281,44.9916000366211,1.50958383083344,-0.372923076152802,-0.162288933992386,0.273000866174698,-0.371007022483504,-0.159633957038354,0.226642400584755,5
0.899993896484375,-0.1873699426651,2.88618540763855,1.25371265411377,-0.18849723509595,2.8847112861788,1.25849690412748,2186.845,2185.969,2186.31,2185.111,356.173980712891,44.9922485351563,1.51563763618469,-0.386166244745255,-0.16802567243576,0.277839541435242,-0.384296738353309,-0.165352150505452,0.234760880627692,5
0.91998291015625,-0.195358604192734,2.88271021842957,1.25936388969421,-0.196312316554895,2.88134867495511,1.2632710154388,2182.885,2184.257,2192.623,2189.139,356.16845703125,44.9932060241699,1.5195848941803,-0.399434328079224,-0.173761337995529,0.282562494277954,-0.397650971463704,-0.171098103938772,0.242918773246135,5
0.94000244140625,-0.203613504767418,2.87912011146545,1.2651150226593,-0.204407453948074,2.87786556348678,1.26821620855017,2186.238,2186.788,2193.129,2188.878,356.165771484375,44.9940338134766,1.52264785766602,-0.412744164466858,-0.17950838804245,0.287558019161224,-0.411081631631503,-0.176876941799768,0.251123353961324,5
0.959991455078125,-0.212135151028633,2.87541484832764,1.27097034454346,-0.212759000778906,2.87427212620069,1.27331803818581,2191.24,2190.205,2190.236,2189.144,356.163940429688,44.9945487976074,1.52618610858917,-0.426082283258438,-0.185260325670242,0.292763888835907,-0.424539267042903,-0.182667386354485,0.259344413431889,5
0.97998046875,-0.220923662185669,2.87159466743469,1.27692759037018,-0.221379956358585,2.87056276985637,1.27858444542207,2186.953,2188.513,2197.293,2193.38,356.163543701172,44.9954261779785,1.52762091159821,-0.439426779747009,-0.191004887223244,0.297862529754639,-0.438035925118965,-0.188474621271639,0.267589311239359,5
1,-0.229979574680328,2.86765956878662,1.28299283981323,-0.230284798736574,2.86673126495361,1.28402427467346,2190.576,2191.198,2197.805,2193.147,356.166076660156,44.9961318969727,1.52823376655579,-0.45279598236084,-0.196755304932594,0.303262621164322,-0.451584000205995,-0.194303979492187,0.275865618896484,5
1.01998901367188,-0.239303082227707,2.86360955238342,1.28917062282562,-0.239446912293295,2.86278906344998,1.2896212668733,2195.966,2194.794,2194.486,2193.445,356.169464111328,44.9964942932129,1.52944672107697,-0.466175377368927,-0.202504053711891,0.308888345956802,-0.46513400752272,-0.200134169097193,0.284143106922576,5
1.04000854492188,-0.248893901705742,2.85944485664368,1.29545855522156,-0.248894644448595,2.85872396824263,1.29539273901802,2191.455,2192.922,2201.635,2197.918,356.174133300781,44.9972229003906,1.52850151062012,-0.479541480541229,-0.208237871527672,0.314394623041153,-0.47871923339115,-0.205979512261105,0.292442109412331,5
1.05999755859375,-0.258752286434174,2.85516548156738,1.30186450481415,-0.258599401509697,2.85454828239877,1.3013212236669,2198.581,2197.478,2198.091,2196.395,356.180206298828,44.9975547790527,1.52804434299469,-0.492919921875,-0.213973507285118,0.32029989361763,-0.492290296490434,-0.211818761581115,0.30073246008742,5
1.07998657226563,-0.268877744674683,2.85077166557312,1.30838596820831,-0.268575430648764,2.85025587575821,1.30741542419509,2193.875,2195.769,2205.188,2200.634,356.188110351563,44.9982414245605,1.52548694610596,-0.506273448467255,-0.219691425561905,0.326075196266174,-0.50586005237609,-0.217657448443621,0.309022012206103,5
1.10000610351563,-0.279270172119141,2.84626364707947,1.3150292634964,-0.278838480013141,2.84583997233313,1.31368496090006,2197.943,2198.548,2204.83,2200.17,356.199188232422,44.9987144470215,1.52225017547607,-0.519621431827545,-0.225404620170593,0.332162380218506,-0.519441457145546,-0.223501147495394,0.317318680446121,5
1.1199951171875,-0.289929121732712,2.841641664505,1.32179844379425,-0.289357002179081,2.84131414609862,1.32011056195293,2203.671,2202.159,2200.451,2200.297,356.210815429688,44.9987945556641,1.51983511447906,-0.532947480678558,-0.231103986501694,0.33846178650856,-0.532985466132485,-0.229328756186667,0.32559250418615,5
1.13998413085938,-0.300853669643402,2.83690619468689,1.32869029045105,-0.300146026259498,2.83667193044725,1.32670140840426,2198.356,2199.749,2207.741,2204.857,356.223327636719,44.9992866516113,1.51521074771881,-0.546227097511292,-0.236775502562523,0.344590753316879,-0.546505271550557,-0.235145950758426,0.333851542343647,5
1.16000366210938,-0.312043339014053,2.8320574760437,1.3357105255127,-0.311222084148811,2.83190621216671,1.33346759933036,2201.844,2202.318,2207.772,2204.03,356.238464355469,44.9996337890625,1.50986540317535,-0.559482753276825,-0.242435246706009,0.351010859012604,-0.560014026276883,-0.240958390526247,0.342103829805999,6
1.17999267578125,-0.323497295379639,2.8270959854126,1.34286308288574,-0.322550701230474,2.8270318247214,1.34038807472597,2207.13,2205.779,2203.616,2203.714,356.253875732422,44.9996185302734,1.50542449951172,-0.572699904441833,-0.248075932264328,0.35762944817543,-0.573463232144024,-0.246745208083563,0.350319739799517,6
1.19998168945313,-0.335214406251907,2.82202219963074,1.35014414787292,-0.334147705564643,2.8220419577392,1.34747250370603,2201.145,2202.917,2211.262,2208.122,356.270355224609,45.0000534057617,1.49873208999634,-0.585854530334473,-0.253683775663376,0.364054501056671,-0.586866312357874,-0.25251217906087,0.358507472351216,6
1.22000122070313,-0.347193777561188,2.81683659553528,1.35755944252014,-0.346030421585499,2.81692915700008,1.35473146949704,2204.563,2205.291,2210.95,2206.944,356.289825439453,45.0003280639648,1.49134421348572,-0.598969399929047,-0.259274780750275,0.370765775442123,-0.600236516861372,-0.258265004538453,0.366675121644476,6
1.239990234375,-0.359434306621552,2.81153988838196,1.36511266231537,-0.358161486344149,2.81170949873715,1.36214214765657,2209.982,2208.605,2206.016,2206.338,356.309692382813,45.0002136230469,1.48495042324066,-0.612028658390045,-0.264840543270111,0.377661883831024,-0.613526094901141,-0.263983138701136,0.374793517489195,6
1.25997924804688,-0.371934473514557,2.80613255500793,1.37279915809631,-0.370557537648727,2.80637582416637,1.36971470196197,2203.552,2205.324,2213.397,2210.689,356.330657958984,45.000545501709,1.47623515129089,-0.625006854534149,-0.270366042852402,0.384326428174973,-0.626748599474006,-0.269672413024826,0.382870939199643,6
1.27999877929688,-0.384692996740341,2.80061531066895,1.38062429428101,-0.383236695417198,2.80092033679326,1.37746020158837,2206.841,2207.519,2212.625,2209.131,356.354522705078,45.0007171630859,1.46684205532074,-0.637927353382111,-0.275868058204651,0.391256511211395,-0.639917282339435,-0.275338529371412,0.39091548206889,6
1.29998779296875,-0.397708475589752,2.79498863220215,1.38859117031097,-0.396158759015336,2.79536033382764,1.38535408859565,2212.104,2210.64,2207.212,2208.168,356.378601074219,45.0004959106445,1.45853006839752,-0.65077418088913,-0.281337976455688,0.398345738649368,-0.652985332144132,-0.280961346123326,0.398898549771684,6
1.32000732421875,-0.41097891330719,2.78925347328186,1.39669442176819,-0.409361504843077,2.78967956113998,1.39341943999703,2204.961,2206.926,2214.719,2212.334,356.403656005859,45.0007705688477,1.44787609577179,-0.663522183895111,-0.286760985851288,0.405162870883942,-0.6659860834168,-0.286555206197011,0.406840505851434,6
1.33999633789063,-0.424502998590469,2.78341031074524,1.40494132041931,-0.422802873722428,2.78389611561957,1.401630562497,2212.236,2210.999,2208.981,2208.99,356.429840087891,45.0005950927734,1.43810832500458,-0.676203012466431,-0.292157381772995,0.412343114614487,-0.678873453515705,-0.29210028151913,0.41471319914141,6
1.3599853515625,-0.438278496265411,2.7774600982666,1.41332590579987,-0.436500861174643,2.77800225429635,1.40999844927868,2204.851,2207.425,2216.197,2212.717,356.457824707031,45.0008811950684,1.42605197429657,-0.68877512216568,-0.297504931688309,0.419231921434402,-0.69166099897751,-0.297602405088682,0.422524911118315,6
1.3800048828125,-0.45230370759964,2.77140378952026,1.4218533039093,-0.450474904562636,2.77198961381608,1.41853497432376,2208.35,2209.275,2214.154,2210.602,356.4892578125,45.0009422302246,1.41344273090363,-0.701261579990387,-0.302818894386292,0.426368206739426,-0.704361775018035,-0.303067194200314,0.43028361700977,6
1.39999389648438,-0.466576606035233,2.76524209976196,1.43052577972412,-0.464680216184654,2.76587746507559,1.42721277752413,2213.751,2212.044,2207.301,2209.217,356.520874023438,45.0005531311035,1.40206921100616,-0.71364414691925,-0.308088481426239,0.433621436357498,-0.716930938559026,-0.308475354130225,0.437961922879032,6
1.41998291015625,-0.481094568967819,2.75897622108459,1.43933641910553,-0.479135601808478,2.75965771647838,1.43604334702988,2205.7,2207.623,2214.503,2213.213,356.553192138672,45.0006942749023,1.38827550411224,-0.725897490978241,-0.313298314809799,0.440530121326447,-0.729381927869995,-0.313832666990362,0.445568037955247,6
1.44000244140625,-0.495855450630188,2.7526068687439,1.44828939437866,-0.493861275572861,2.75332167044526,1.44503903134294,2208.383,2209.135,2212.965,2210.643,356.588226318359,45.0006866455078,1.3738477230072,-0.738047361373901,-0.31846696138382,0.447649836540222,-0.741727567798258,-0.319144650954242,0.453109796737511,6
1.45999145507813,-0.510856986045837,2.74613523483276,1.45738673210144,-0.508809800712713,2.74688973769103,1.45417085208374,2213.122,2211.698,2206.559,2208.666,356.623168945313,45.0002899169922,1.36073696613312,-0.750078320503235,-0.323586255311966,0.454865306615829,-0.753924423002454,-0.324392617007921,0.460560665253582,6
1.47998046875,-0.526096343994141,2.73956251144409,1.46662104129791,-0.524000783579472,2.74035348215039,1.46345078646643,2204.359,2206.763,2214.148,2212.485,356.659088134766,45.0004539489746,1.34515082836151,-0.761966586112976,-0.328641593456268,0.461714833974838,-0.76598572865452,-0.329582259876133,0.467928728663466,6
1.5,-0.541571021080017,2.73288941383362,1.47599649429321,-0.539455198877605,2.73370387899399,1.47289164761066,2206.991,2208.059,2212.256,2209.534,356.698150634766,45.0004539489746,1.32894384860992,-0.773737192153931,-0.333650857210159,0.468770086765289,-0.777924000354858,-0.334718964672088,0.475221632552146,6
1.51998901367188,-0.557278454303741,2.72611737251282,1.48551464080811,-0.555123050061237,2.72696244033876,1.48246289340675,2211.872,2210.482,2205.089,2207.253,356.737426757813,45.0000114440918,1.31414139270782,-0.785373270511627,-0.338604718446732,0.475906759500504,-0.789697369743256,-0.339784716610053,0.482413800191712,6
1.54000854492188,-0.573215484619141,2.71924757957458,1.49516749382019,-0.571049184024557,2.72010986981902,1.49219192012252,2202.774,2205.207,2212.32,2211.021,356.777679443359,45.0001525878906,1.29682385921478,-0.796850562095642,-0.343487590551376,0.482643932104111,-0.801336412291853,-0.344792671461508,0.489523909660973,6
1.55999755859375,-0.589379549026489,2.71228122711182,1.50496137142181,-0.587181951496087,2.71316839067337,1.50204717602401,2210.044,2208.726,2204.79,2206.127,356.818939208984,44.9997940063477,1.2806431055069,-0.808200478553772,-0.348320305347443,0.489692449569702,-0.812800388649436,-0.349725300221754,0.496527073925997,6
1.57998657226563,-0.60576719045639,2.70521950721741,1.51488780975342,-0.603542258451077,2.7061290076447,1.51204143224525,2200.716,2203.762,2211.767,2209.396,356.861999511719,44.9999771118164,1.26202702522278,-0.819382786750793,-0.353080272674561,0.496323704719543,-0.82410201904291,-0.354588076049064,0.503431063574906,6
1.60000610351563,-0.622375547885895,2.69806385040283,1.52495062351227,-0.620152298932711,2.69898217125626,1.52218824678091,2203.691,2204.864,2208.557,2205.977,356.908599853516,44.9999122619629,1.24294865131378,-0.830420196056366,-0.357783198356628,0.503140449523926,-0.835253140422976,-0.35938609205264,0.510243109616171,5
1.6199951171875,-0.639201462268829,2.69081544876099,1.53515064716339,-0.636958033083316,2.69175113334911,1.53245460752521,2208.769,2206.957,2200.127,2203.442,356.955139160156,44.9993743896484,1.22539758682251,-0.841294765472412,-0.362418055534363,0.510000467300415,-0.846214826007804,-0.364102599125749,0.516939432286212,5
1.63998413085938,-0.656241178512573,2.68347597122192,1.5454785823822,-0.653981118189727,2.68442657539777,1.54285374457671,2198.785,2201.189,2207.281,2207.071,357.002227783203,44.9994468688965,1.20530200004578,-0.851983726024628,-0.36696982383728,0.516397893428802,-0.856999388527105,-0.368742895092007,0.523527553239473,5
1.66000366210938,-0.673491418361664,2.67604684829712,1.55593764781952,-0.671244443874359,2.67699864863716,1.55339964084857,2200.987,2201.975,2204.751,2203.306,357.052124023438,44.9993743896484,1.184645652771,-0.862512290477753,-0.371457427740097,0.522952258586884,-0.867618167158098,-0.373311858882592,0.530014399402375,5
1.67999267578125,-0.690948665142059,2.66852951049805,1.56652843952179,-0.688691692550512,2.66949158495151,1.56405789280588,2205.482,2203.894,2196.896,2200.291,357.101684570313,44.9988594055176,1.16555094718933,-0.872865378856659,-0.375872522592545,0.529537379741669,-0.878034183119987,-0.377793579561193,0.536377381014768,5
1.69998168945313,-0.708609104156494,2.66092538833618,1.57724142074585,-0.706345246291743,2.66189575395985,1.57484217330813,2194.927,2197.809,2204.444,2203.763,357.152099609375,44.9990005493164,1.14388036727905,-0.883022248744965,-0.380201131105423,0.535649120807648,-0.88825927318574,-0.382193150160541,0.542623728976553,5
1.72000122070313,-0.726469218730927,2.65323615074158,1.58807981014252,-0.724228658537036,2.6542010212754,1.58576687078363,2197.148,2198.47,2201.669,2199.704,357.205749511719,44.9989585876465,1.12169206142426,-0.893006384372711,-0.384461164474487,0.54191792011261,-0.898304216251578,-0.386515208538549,0.548760027947228,5
1.739990234375,-0.744525253772736,2.64546322822571,1.59904408454895,-0.74228345468553,2.64643254688532,1.59679626401121,2201.878,2200.283,2193.165,2196.522,357.259307861328,44.9984550476074,1.10113370418549,-0.902801632881165,-0.388643026351929,0.54821115732193,-0.908134108040217,-0.390744736359816,0.554764955448471,5
1.75997924804688,-0.762773036956787,2.63760852813721,1.61012423038483,-0.760532711099173,2.63858040167573,1.60794444998027,2191.115,2194.012,2200.392,2200.002,357.313751220703,44.9985733032227,1.07798635959625,-0.912387549877167,-0.392732322216034,0.554007351398468,-0.917760245372929,-0.394886594330938,0.560645412532115,4
1.77999877929688,-0.781208753585815,2.62967371940613,1.62132322788239,-0.779000609654483,2.63063418086074,1.61922620102184,2193.395,2194.546,2197.221,2195.777,357.371276855469,44.9985122680664,1.05432260036469,-0.921786248683929,-0.396746337413788,0.559948027133942,-0.927192788821983,-0.398945154262308,0.566407606133204,4
1.79998779296875,-0.799828410148621,2.62166023254395,1.63264119625092,-0.797626646773287,2.62261991743975,1.63060455644414,2198.064,2196.286,2188.468,2192.374,357.428436279297,44.9979782104492,1.03235185146332,-0.930982172489166,-0.400675863027573,0.565895855426788,-0.936399026186941,-0.402906341007953,0.572031552878955,4
1.82000732421875,-0.818627536296844,2.61356997489929,1.64406764507294,-0.816463410111527,2.61451498441355,1.64211164122557,2186.813,2189.805,2195.873,2195.818,357.486328125,44.9981117248535,1.00778317451477,-0.939957022666931,-0.404507756233215,0.571323990821838,-0.94540321420156,-0.406780591562751,0.577532070829503,3
1.83999633789063,-0.837602317333221,2.6054048538208,1.65560817718506,-0.835449117627072,2.60634596486888,1.6537097136807,2194.263,2192.804,2187.025,2189.458,357.544921875,44.9977264404297,0.984667479991913,-0.948738217353821,-0.408261775970459,0.577027261257172,-0.954174163352093,-0.410554485950274,0.582890106797601,3
1.8599853515625,-0.856748104095459,2.59716653823853,1.66725242137909,-0.854607925216182,2.59810246519841,1.66541353026959,2183.044,2186.687,2194.03,2192.568,357.605285644531,44.9979515075684,0.959014475345612,-0.957293152809143,-0.41191777586937,0.582209765911102,-0.962722140342816,-0.41423244164655,0.588111932552683,0
1.8800048828125,-0.876060903072357,2.58885669708252,1.67900311946869,-0.873964974649439,2.58977366760063,1.67723844970756,2185.854,2187.2,2189.826,2188.035,357.669219970703,44.9979019165039,0.933016121387482,-0.965639889240265,-0.415490001440048,0.587536156177521,-0.971056158224177,-0.417818336715394,0.593203054026622,0
1.89999389648438,-0.895536184310913,2.58047723770142,1.69086003303528,-0.893456683142228,2.58138692997148,1.6891456302637,2190.87,2188.817,2180.089,2184.515,357.732727050781,44.9973182678223,0.908877730369568,-0.973761916160583,-0.418967545032501,0.592848241329193,-0.979147395688901,-0.421299770153459,0.598145864732551,0
1.91998291015625,-0.915169060230255,2.57203054428101,1.70281207561493,-0.91310780215452,2.5729316024492,1.70115019221864,2179.227,2182.054,2187.214,2188.094,357.796600341797,44.9974327087402,0.882131159305573,-0.981643736362457,-0.422337889671326,0.597605228424072,-0.98700543065471,-0.424680863071164,0.602946215670947,0
1.94000244140625,-0.934955179691315,2.56351828575134,1.71486175060272,-0.932943991899774,2.5643966441608,1.71326781099638,2181.296,2182.303,2183.872,2183.373,357.863067626953,44.9973678588867,0.854935586452484,-0.989305019378662,-0.425618022680283,0.602481126785278,-0.994638524886308,-0.427965170275055,0.607609153824943,0
1.95999145507813,-0.95488977432251,2.55494236946106,1.72700846195221,-0.952900013794853,2.55581012544606,1.7254586333645,2185.716,2183.815,2174.986,2179.484,357.928741455078,44.9968452453613,0.829606831073761,-0.996732771396637,-0.428800225257874,0.607337355613708,-1.00202031904361,-0.431141350077486,0.612118576685011,0
1.97998046875,-0.974968135356903,2.54630494117737,1.73924124240875,-0.973001172086935,2.54716115859433,1.73773811729275,2173.578,2176.906,2182.657,2182.95,357.995025634766,44.9970550537109,0.801670789718628,-1.00391447544098,-0.431873857975006,0.611640095710754,-1.0091596546337,-0.434213206731958,0.616479885389866,0
2,-0.995185494422913,2.5376079082489,1.75156259536743,-0.993273599084619,2.53843849960327,1.75012222660065,2175.712,2177.088,2179.262,2178.06,358.064361572266,44.9970550537109,0.773326694965363,-1.01086711883545,-0.434854388237,0.616069853305817,-1.01606400046349,-0.437183953857422,0.620697642517089,0
2.01998901367188,-1.01553690433502,2.52885317802429,1.76397228240967,-1.01365055070775,2.52967086658596,1.76257018837116,2180.489,2178.584,2169.843,2174.084,358.133148193359,44.9965438842773,0.746922135353088,-1.01757705211639,-0.437733113765717,0.620483994483948,-1.02270954399163,-0.440043345582587,0.624757301356767,0
2.04000854492188,-1.03601765632629,2.52004313468933,1.77645897865295,-1.03418924440916,2.52083364047092,1.77511695585335,2168.35,2171.652,2177.134,2177.638,358.202606201172,44.9967384338379,0.717938661575317,-1.02403271198273,-0.440499037504196,0.624333202838898,-1.02911391720548,-0.442798968459032,0.628669633014835,0
2.05999755859375,-1.05662274360657,2.51117968559265,1.78902781009674,-1.05482201812353,2.5119559343546,1.78772119534738,2176.221,2174.368,2167.579,2170.664,358.272491455078,44.9963531494141,0.690556049346924,-1.03025305271149,-0.443168371915817,0.628442525863647,-1.03525504859546,-0.445441325732794,0.632421154350513,0
2.07998657226563,-1.07734704017639,2.50226521492004,1.80166757106781,-1.07557499515204,2.50302650811029,1.80039886517028,2164.098,2168.018,2174.538,2173.782,358.343872070313,44.9966201782227,0.660692572593689,-1.03621590137482,-0.445725470781326,0.631986916065216,-1.04114045847258,-0.4479736531836,0.636016459404434,0
2.10000610351563,-1.09818577766418,2.49330163002014,1.81438076496124,-1.09647498538954,2.49403382618922,1.81316634306845,2166.982,2168.23,2169.967,2168.833,358.418579101563,44.9966011047363,0.630580961704254,-1.04193246364594,-0.448181599378586,0.635657429695129,-1.04677621342161,-0.450398561093403,0.639459254158576,0
2.1199951171875,-1.11913371086121,2.48429107666016,1.82716655731201,-1.11745308225396,2.48500753716864,1.82598153508617,2172.08,2169.653,2159.799,2164.885,358.492401123047,44.9960327148438,0.602521300315857,-1.04738926887512,-0.450527250766754,0.639290452003479,-1.0521429102862,-0.45270770082608,0.642737685527497,0
2.13998413085938,-1.14018511772156,2.47523593902588,1.84001314640045,-1.13853583516761,2.47593621757383,1.83886065985125,2159.558,2162.615,2167.047,2168.59,358.566284179688,44.9962158203125,0.571890711784363,-1.052579164505,-0.45275342464447,0.642332136631012,-1.05724722779031,-0.454903946049977,0.645855833439456,0
2.16000366210938,-1.16133522987366,2.46613836288452,1.85292279720306,-1.15975039167652,2.46680818657414,1.85182030137592,2161.698,2162.733,2163.497,2163.375,358.642547607422,44.9961929321289,0.540991187095642,-1.0575145483017,-0.454874277114868,0.645480334758759,-1.0620943502576,-0.456989527434725,0.648816864916866,0
2.17999267578125,-1.18257892131805,2.45700073242188,1.86589467525482,-1.18102676265167,2.45765355853653,1.86481770439342,2166.212,2164,2154.305,2159.205,358.717590332031,44.9956970214844,0.512150645256042,-1.0621851682663,-0.456883132457733,0.64859139919281,-1.06666760390386,-0.458957270716794,0.65161059420515,0
2.19998168945313,-1.20391082763672,2.44782519340515,1.87891709804535,-1.20239187218348,2.44846074877705,1.87786931641044,2153.376,2156.86,2161.994,2162.902,358.793060302734,44.9959678649902,0.480713307857513,-1.06658720970154,-0.45877280831337,0.651122689247131,-1.07097279461286,-0.460809674005774,0.654240568028104,0
2.22000122070313,-1.22532534599304,2.43861413002014,1.89199244976044,-1.22387315175433,2.43921795429519,1.89099189489151,2155.628,2156.939,2158.399,2157.617,358.871337890625,44.9960098266602,0.448991656303406,-1.07072937488556,-0.46055543422699,0.653769671916962,-1.07501419914593,-0.462548577472581,0.656709398992482,0
2.239990234375,-1.24681735038757,2.42936968803406,1.90512013435364,-1.24539969505118,2.42995568409656,1.90414212427648,2160.589,2158.297,2148.684,2153.345,358.948638916016,44.9955177307129,0.419395208358765,-1.0746009349823,-0.462223529815674,0.656387448310852,-1.07877792518082,-0.464168003639063,0.659008600495412,0
2.25997924804688,-1.26838135719299,2.42009449005127,1.91828846931458,-1.26699874763832,2.42066221517598,1.91733664845539,2147.825,2151.243,2155.989,2157.14,359.026336669922,44.9957847595215,0.387266993522644,-1.07819938659668,-0.463770002126694,0.658418118953705,-1.08226887897249,-0.465670063529659,0.661141169691481,0
2.27999877929688,-1.29001200199127,2.41079020500183,1.93149960041046,-1.28869796983554,2.41132564607061,1.93059236468599,2150.24,2151.261,2152.163,2151.888,359.106536865234,44.9958038330078,0.354875087738037,-1.08153092861176,-0.465205788612366,0.660557746887207,-1.08549040888332,-0.467056197851165,0.663109152043028,0
2.29998779296875,-1.31170380115509,2.40145969390869,1.94475269317627,-1.31042570636616,2.40197680804417,1.9438654998779,2155.008,2152.639,2142.646,2147.521,359.185516357422,44.9953155517578,0.324677079916,-1.08458614349365,-0.46652415394783,0.662655472755432,-1.08843144721369,-0.468321644481621,0.664905786465049,0
2.32000732421875,-1.33345115184784,2.39210534095764,1.95803606510162,-1.33224276726637,2.39258953623693,1.95719320193332,2142.145,2145.53,2150.015,2151.406,359.264678955078,44.9955940246582,0.291958063840866,-1.0873658657074,-0.467719614505768,0.664167940616608,-1.09109983431736,-0.469469776906228,0.666535862507326,0
2.33999633789063,-1.3552485704422,2.38272929191589,1.9713546037674,-1.35407709248145,2.38319483607731,1.97053145048929,2150.36,2148.091,2140.441,2143.844,359.343719482422,44.9952430725098,0.261060118675232,-1.0898756980896,-0.468802988529205,0.665928483009338,-1.09348640563071,-0.470496651869278,0.667993781680938,0
2.3599853515625,-1.37709093093872,2.37333393096924,1.98469686508179,-1.37595634130987,2.37378080654189,1.98389714217962,2137.61,2141.764,2147.396,2147.218,359.424011230469,44.9955978393555,0.227825731039047,-1.09211027622223,-0.469765901565552,0.667110502719879,-1.09559452046326,-0.471403714787811,0.669281596135657,0
2.3800048828125,-1.39897227287292,2.36392164230347,1.99806499481201,-1.39790843013262,2.36433543599182,1.99730733068585,2140.65,2141.8,2142.802,2142.022,359.507263183594,44.9956321716309,0.194499999284744,-1.094069480896,-0.470614701509476,0.668407440185547,-1.09742594550583,-0.472191725819537,0.67040038511534,0
2.39999389648438,-1.4208869934082,2.35449481010437,2.01145815849304,-1.41986083522252,2.35488992936084,2.01071771239474,2145.988,2143.103,2132.527,2137.812,359.589111328125,44.9950904846191,0.163439095020294,-1.09574413299561,-0.471341699361801,0.669657707214355,-1.09897439291323,-0.472857979480329,0.671346307473475,0
2.41998291015625,-1.44282972812653,2.34505605697632,2.02486443519592,-1.4418413890156,2.34543231112926,2.02414528970716,2133.086,2136.194,2139.57,2141.788,359.670715332031,44.9953269958496,0.12998303771019,-1.09713935852051,-0.471942991018295,0.670308828353882,-1.10024227275454,-0.473403512755585,0.67212083548366,0
2.44000244140625,-1.46479487419128,2.33560752868652,2.03828549385071,-1.46387808506052,2.33595053645515,2.03760716344514,2135.354,2136.083,2136.051,2136.499,359.754180908203,44.995361328125,0.0963501483201981,-1.09825563430786,-0.472427576780319,0.671052217483521,-1.10123038958312,-0.473828671822132,0.672724460634977,0
2.45999145507813,-1.48677670955658,2.32615160942078,2.05172038078308,-1.48589810917879,2.32647593524532,2.05105885256329,2139.944,2137.29,2127.016,2132.078,359.835906982422,44.9948997497559,0.0649446174502373,-1.09908711910248,-0.47279092669487,0.671747922897339,-1.10193535162022,-0.474131997292339,0.673155110942729,0
2.47998046875,-1.50876951217651,2.31669092178345,2.06515765190125,-1.50792940965705,2.3169964821328,2.06451743023379,2126.833,2130.437,2134.528,2135.95,359.917755126953,44.9952239990234,0.0311826579272747,-1.09964191913605,-0.473031163215637,0.67186576128006,-1.10235860927677,-0.474314113237503,0.673413672440311,0
2.5,-1.53076779842377,2.30722784996033,2.07859945297241,-1.52999999932945,2.30750012397766,2.0780000090599,2129.358,2130.376,2130.891,2130.591,0.00185440259519964,44.9953079223633,-0.00267103617079556,-1.09991693496704,-0.473154991865158,0.672090709209442,-1.10250000050292,-0.474374949932098,0.673500046133994,0
2.51998901367188,-1.55276584625244,2.29776477813721,2.09204483032227,-1.5520369476803,2.29801824074336,2.09146203692764,2134.281,2131.525,2121.506,2126.295,0.0844676345586777,44.9948501586914,359.965698242188,-1.0999059677124,-0.47315701842308,0.67227303981781,-1.10235904000526,-0.474314298567936,0.67341393556562,0
2.54000854492188,-1.57475829124451,2.28830409049988,2.10548233985901,-1.57410188948011,2.28852431271001,2.10494116555652,2121.435,2124.837,2128.544,2130.245,0.16711463034153,44.9951667785645,359.931793212891,-1.09961903095245,-0.473035722970963,0.671879708766937,-1.10193535162022,-0.474131997292339,0.673155110942729,0
2.55999755859375,-1.59673929214478,2.27884817123413,2.11891674995422,-1.59612191359838,2.27904971150017,2.11839285467467,2129.788,2127.142,2119.227,2122.676,0.249214634299278,44.9948539733887,359.899749755859,-1.09904968738556,-0.472796380519867,0.671719014644623,-1.10123038958312,-0.473828671822132,0.672724460634977,0
2.57998657226563,-1.61870336532593,2.26939940452576,2.13233661651611,-1.61812503288753,2.26958238396605,2.1318342168965,2117.138,2121.168,2125.841,2126.191,0.332235604524612,44.9952278137207,359.865600585938,-1.09820663928986,-0.472437053918839,0.670994400978088,-1.1002439936861,-0.473404253224357,0.672121886773894,0
2.60000610351563,-1.64064490795135,2.25996017456055,2.14574408531189,-1.64013916343638,2.26011031859448,2.14528230572506,2120.317,2121.191,2121.357,2120.974,0.417689949274063,44.9952774047852,359.831512451172,-1.09708034992218,-0.471959501504898,0.670374035835266,-1.09897439291323,-0.472857979480329,0.671346307473476,0
2.6199951171875,-1.66255819797516,2.25053310394287,2.15913796424866,-1.66209156852628,2.2506648119635,2.15869268743396,2125.533,2122.284,2111.592,2116.868,0.501305818557739,44.9947776794434,359.799743652344,-1.09566593170166,-0.471358120441437,0.66969895362854,-1.09742594550583,-0.472191725819537,0.67040038511534,0
2.63998413085938,-1.68443775177002,2.24112033843994,2.17250680923462,-1.6840102224118,2.24123382753286,2.17208245105877,2112.791,2115.761,2118.367,2120.945,0.584397375583649,44.9950408935547,359.765777587891,-1.09397804737091,-0.470633685588837,0.668446242809296,-1.09559752564474,-0.471405007833448,0.669283431954129,0
2.66000366210938,-1.70627784729004,2.23172450065613,2.18585228919983,-1.70592290617745,2.23180541187802,2.18546856763052,2115.136,2115.697,2115.06,2115.637,0.668912649154663,44.9951057434082,359.731811523438,-1.09200763702393,-0.469790756702423,0.667276799678802,-1.09348640563071,-0.470496651869278,0.667993781680938,0
2.67999267578125,-1.72807288169861,2.22234797477722,2.19917345046997,-1.72775723139253,2.2224107117184,2.19880681618649,2119.742,2116.717,2106.431,2111.357,0.751364886760712,44.9946823120117,359.700134277344,-1.08975255489349,-0.468826323747635,0.666058540344238,-1.09109983431736,-0.469469776906228,0.666535862507326,0
2.69998168945313,-1.7498174905777,2.21299314498901,2.21245908737183,-1.74954107593572,2.21303773198162,2.21211422688774,2106.93,2110.326,2113.531,2115.332,0.833602786064148,44.9950408935547,359.666320800781,-1.0872300863266,-0.467742741107941,0.664286613464355,-1.08843572622736,-0.468323485621663,0.66490840044773,0
2.72000122070313,-1.7715060710907,2.20366239547729,2.22571134567261,-1.77130202882336,2.20367460188472,2.22540765343382,2109.495,2110.212,2110.144,2110.117,0.917616307735443,44.9951438903809,359.632568359375,-1.08442771434784,-0.466542273759842,0.662610054016113,-1.08549040888332,-0.467056197851165,0.663109152043028,0
2.739990234375,-1.79313290119171,2.19435787200928,2.23892903327942,-1.79296822271738,2.1943522439355,2.23864319318939,2114.335,2111.259,2101.316,2105.908,0.999781668186188,44.9947280883789,359.60107421875,-1.08134317398071,-0.465221464633942,0.660889029502869,-1.08227399942825,-0.465672266718727,0.661144297698006,0
2.75997924804688,-1.81469285488129,2.18508195877075,2.2521014213562,-1.81456738183361,2.18505872917844,2.25183778244526,2101.883,2105.139,2107.94,2109.862,1.08170330524445,44.995059967041,359.567565917969,-1.07799518108368,-0.463782995939255,0.658622562885284,-1.07878346314437,-0.464170386470068,0.659011983550929,0
2.77999877929688,-1.83618021011353,2.17583751678467,2.26523017883301,-1.83612684690458,2.17578229366013,2.2650081232283,2104.511,2105.004,2104.494,2104.775,1.16513383388519,44.9951515197754,359.5341796875,-1.0743693113327,-0.462227940559387,0.656442999839783,-1.07501419914593,-0.462548577472581,0.656709398992482,0
2.79998779296875,-1.85758936405182,2.16662645339966,2.2783145904541,-1.85757544288233,2.1665535620153,2.27811073581237,2109.307,2105.956,2095.852,2100.684,1.24644339084625,44.9947242736816,359.503021240234,-1.07046449184418,-0.460553467273712,0.65421587228775,-1.07097916161324,-0.460812413548163,0.654244457529281,0
2.82000732421875,-1.87891530990601,2.15745139122009,2.29134368896484,-1.87897323600723,2.1573466894188,2.29118231372639,2096.922,2100.036,2102.465,2104.586,1.3272899389267,44.995059967041,359.469909667969,-1.06630182266235,-0.458763837814331,0.651451230049133,-1.06666760390385,-0.458957270716794,0.65161059420515,0
2.83999633789063,-1.90015280246735,2.1483142375946,2.30432152748108,-1.90024960698239,2.14819206138118,2.30417971674389,2104.996,2101.926,2094.1,2097.366,1.40701937675476,44.9948043823242,359.438751220703,-1.0618622303009,-0.45685812830925,0.648894965648651,-1.06209435025759,-0.456989527434725,0.648816864916866,0
2.8599853515625,-1.92129623889923,2.13921713829041,2.31723785400391,-1.92143189875059,2.13907791299805,2.31711964824194,2092.905,2096.659,2100.266,2100.913,1.4872829914093,44.9952087402344,359.405792236328,-1.05717015266418,-0.454841673374176,0.645820498466492,-1.05725481901126,-0.454907212340279,0.645860470797877,0
2.8800048828125,-1.94234037399292,2.13016319274902,2.33009457588196,-1.94254691640495,2.12999271078668,2.33001848303364,2096.174,2096.688,2096.164,2095.926,1.56934607028961,44.995288848877,359.373138427734,-1.05220544338226,-0.452711373567581,0.642841100692749,-1.0521429102862,-0.45270770082608,0.642737685527497,0
2.89999389648438,-1.96327972412109,2.12115359306335,2.34289073944092,-1.96352501326936,2.1209664217661,2.34283367505136,2101.256,2097.502,2087.235,2092.197,1.64916324615479,44.9948272705078,359.342742919922,-1.04696846008301,-0.450463771820068,0.639808654785156,-1.04677621342161,-0.450398561093403,0.639459254158576,0
2.91998291015625,-1.98410928249359,2.11219167709351,2.35561561584473,-1.98439323028747,2.1119874109737,2.35558174318562,2089.253,2091.991,2093.406,2096.053,1.72810196876526,44.9951133728027,359.310638427734,-1.04148364067078,-0.448104739189148,0.636247336864471,-1.0411492471255,-0.447977434695422,0.636021828255355,0
2.94000244140625,-2.00482392311096,2.10327911376953,2.36827087402344,-2.00517798053537,2.10304431360073,2.36827882277243,2091.805,2091.683,2090.345,2091.312,1.80774343013763,44.9951972961426,359.278686523438,-1.03573215007782,-0.445633411407471,0.632761478424072,-1.03525504859546,-0.445441325732794,0.632421154350513,0
2.95999145507813,-2.02541851997375,2.09441781044006,2.38085532188416,-2.02581075424974,2.0941666074844,2.38088306226645,2095.986,2092.627,2082.813,2087.31,1.88489663600922,44.9948425292969,359.248992919922,-1.0297167301178,-0.443049281835556,0.629221439361572,-1.02911391720548,-0.442798968459032,0.628669633014836,0
2.97998046875,-2.04588770866394,2.08561086654663,2.39335894584656,-2.04631823718085,2.08534281049189,2.39341076357611,2084.128,2087.152,2089.243,2091.13,1.96148264408112,44.9952011108398,359.217590332031,-1.02346301078796,-0.440359115600586,0.625187158584595,-1.0227194988233,-0.440047628868552,0.624763382608097,0
3,-2.06622648239136,2.07685971260071,2.40578365325928,-2.06672639957428,2.07656174835205,2.40587779151916,2086.897,2086.95,2086.108,2086.405,2.03909993171692,44.9953308105469,359.186431884766,-1.01694989204407,-0.437560439109802,0.62124115228653,-1.01606400046349,-0.437183953857422,0.620697642517089,0
3.01998901367188,-2.08643007278442,2.06816673278809,2.418128490448,-2.0869680292999,2.06785234056679,2.41824308725414,2091.257,2087.918,2078.459,2082.539,2.11444520950317,44.9949798583984,359.157562255859,-1.01017999649048,-0.434652179479599,0.617246091365814,-1.00917036754089,-0.434217816196637,0.616486429737696,0
3.04000854492188,-2.10649394989014,2.0595338344574,2.43038392066956,-2.10709998486405,2.05919012250926,2.43054138475531,2079.981,2082.605,2084.296,2086.439,2.18913102149963,44.9953155517578,359.127075195313,-1.00318002700806,-0.431640952825546,0.612772226333618,-1.00202031904361,-0.431141350077486,0.612118576685011,0
3.05999755859375,-2.12641215324402,2.05096340179443,2.44255352020264,-2.12705600675913,2.05060360379452,2.44273220712343,2087.551,2084.264,2076.842,2079.753,2.26237726211548,44.9951057434082,359.098480224609,-0.995923936367035,-0.428522199392319,0.608480393886566,-0.994638524886308,-0.427965170275055,0.607609153824944,0
3.07998657226563,-2.14618134498596,2.04245710372925,2.45462822914124,-2.14686207530873,2.04208160581513,2.45483142533277,2076.793,2079.823,2082.059,2083.063,2.33565473556519,44.9954719543457,359.068542480469,-0.988444030284882,-0.425305247306824,0.603732228279114,-0.987017247723776,-0.424685947625853,0.602953434534038,0
3.10000610351563,-2.16579532623291,2.03401732444763,2.46660923957825,-2.16654331551667,2.03361331798384,2.46685438785611,2079.687,2079.658,2078.604,2078.761,2.40997433662415,44.9955711364746,359.038970947266,-0.980716824531555,-0.42198458313942,0.599056482315063,-0.979147395688901,-0.421299770153459,0.598145864732551,0
3.1199951171875,-2.1852502822876,2.0256462097168,2.47849583625793,-2.18603502400946,2.02522658035469,2.47876156841225,2084.4,2080.566,2070.795,2075.141,2.48173546791077,44.9951820373535,359.011657714844,-0.972745418548584,-0.418558865785599,0.594335436820984,-0.971056158224178,-0.417818336715394,0.593203054026623,0
3.13998413085938,-2.20454168319702,2.01734590530396,2.49027872085571,-2.20536269329809,2.01691042421237,2.49056853997833,2073.585,2075.574,2076.263,2079.056,2.55228161811829,44.9954643249512,358.982940673828,-0.964559435844421,-0.41503643989563,0.589149057865143,-0.962735018414262,-0.414237982720922,0.588119799565572,0
3.16000366210938,-2.22366404533386,2.00911736488342,2.50195932388306,-2.22455088103183,2.00865428308644,2.50229030443911,2075.947,2075.432,2073.717,2074.683,2.62296676635742,44.9955749511719,358.954498291016,-0.956135988235474,-0.411414176225662,0.584027051925659,-0.954174163352092,-0.410554485950274,0.582890106797601,0
3.17999267578125,-2.24261355400085,2.00096344947815,2.51353645324707,-2.24353658854737,2.00048526354177,2.51388837689424,2079.78,2076.444,2067.211,2070.93,2.69097685813904,44.9952735900879,358.928405761719,-0.947480320930481,-0.407693088054657,0.578859210014343,-0.945403214201559,-0.406780591562751,0.577532070829503,0
3.19998168945313,-2.26138591766357,1.99288558959961,2.52500176429749,-2.26234477504321,1.99239262633251,2.52537800452858,2069.365,2071.559,2072.715,2074.755,2.75805187225342,44.9956207275391,358.900970458984,-0.938621997833252,-0.403881549835205,0.573265433311462,-0.936412917636688,-0.402912318110697,0.572040038948834,0
3.22000122070313,-2.27997660636902,1.98488640785217,2.53635668754578,-2.28099938900442,1.98436606709459,2.53677381709797,2071.789,2071.509,2070.194,2070.504,2.82553315162659,44.9957618713379,358.873931884766,-0.929537415504456,-0.399975150823593,0.567742764949799,-0.927192788821982,-0.398945154262308,0.566407606133204,0
3.239990234375,-2.29838156700134,1.97696661949158,2.54760026931763,-2.2994392795179,1.97643189735754,2.54803845846384,2075.891,2072.155,2063.554,2067.275,2.89050006866455,44.9954719543457,358.848999023438,-0.920231521129608,-0.395974189043045,0.56218433380127,-0.917774783907129,-0.394892849856044,0.560654293895788,0
3.25997924804688,-2.31659626960754,1.96912908554077,2.55872440338135,-2.31768882969315,1.96857962575054,2.55918682388728,2065.879,2067.976,2068.685,2070.656,2.95445585250854,44.995792388916,358.822906494141,-0.910734176635742,-0.391887784004211,0.556211948394775,-0.908148960779607,-0.390751127078637,0.554774028755191,0
3.27999877929688,-2.3346164226532,1.96137499809265,2.56973052024841,-2.33577134012187,1.96079922667992,2.57023314733618,2068.534,2067.791,2066.026,2066.717,3.01847553253174,44.9958953857422,358.797271728516,-0.901021122932434,-0.387710779905319,0.550311267375946,-0.898304216251578,-0.386515208538549,0.548760027947228,0
3.29998779296875,-2.35243844985962,1.95370602607727,2.58061790466309,-2.35362764460945,1.95311615770631,2.58114128510551,2072.25,2068.6,2059.886,2063.508,3.07974982261658,44.9956245422363,358.773803710938,-0.891099154949188,-0.383444458246231,0.544366776943207,-0.888274735793772,-0.382199803288803,0.542633174842512,0
3.32000732421875,-2.37005853652954,1.94612395763397,2.59137845039368,-2.37130830610839,1.94550866300381,2.59194212531393,2062.689,2064.439,2064.866,2066.958,3.13980555534363,44.9959335327148,358.749298095703,-0.880998253822327,-0.379098057746887,0.538032293319702,-0.878034183119985,-0.377793579561194,0.536377381014769,0
3.33999633789063,-2.38747262954712,1.9386305809021,2.60201549530029,-2.38875555478454,1.93800159931817,2.60260037727124,2069.179,2065.715,2059.011,2061.388,3.19795393943787,44.9957962036133,358.726593017578,-0.870690226554871,-0.374664753675461,0.531850337982178,-0.867618167158097,-0.373311858882592,0.530014399402376,0
3.3599853515625,-2.40467667579651,1.93122744560242,2.61252164840698,-2.40599272667425,1.93058492580486,2.6131302965979,2060.232,2062.251,2063.361,2064.401,3.25557732582092,44.996150970459,358.703002929688,-0.860211968421936,-0.370156764984131,0.525305151939392,-0.857015715678588,-0.368749920209162,0.523537527241535,0
3.3800048828125,-2.4216673374176,1.92391633987427,2.62289834022522,-2.42304196557559,1.92324911460621,2.6235454105946,2063.089,2062.313,2060.445,2060.718,3.31331634521484,44.9962387084961,358.680084228516,-0.84953898191452,-0.365567326545715,0.518829941749573,-0.846214826007803,-0.364102599125748,0.516939432286212,0
3.39999389648438,-2.43844079971313,1.91669845581055,2.63314461708069,-2.43984769972619,1.91601807669906,2.63381177133889,2066.831,2062.884,2054.456,2058.08,3.36823773384094,44.9959487915039,358.6591796875,-0.838678777217865,-0.360897213220596,0.512313485145569,-0.835253140422974,-0.35938609205264,0.510243109616171,0
3.41998291015625,-2.454993724823,1.90957546234131,2.64325332641602,-2.45643259034873,1.90888206159239,2.64394322221809,2058.207,2059.306,2058.813,2061.223,3.42152142524719,44.9962005615234,358.637512207031,-0.827661216259003,-0.356156259775162,0.505438804626465,-0.824119146742881,-0.354595445619869,0.503441526619546,0
3.44000244140625,-2.47132301330566,1.90254855155945,2.6532256603241,-2.47281804716281,1.90183185728196,2.6539528420958,2060.328,2059.232,2056.897,2057.784,3.47413659095764,44.9963111877441,358.616424560547,-0.816464424133301,-0.351339936256409,0.498620182275772,-0.812800388649434,-0.349725300221754,0.496527073925997,0
3.45999145507813,-2.48742485046387,1.8956196308136,2.66306114196777,-2.48895081463434,1.8948903781363,2.66380809799729,2063.404,2059.831,2052.043,2055.135,3.52388119697571,44.9961204528809,358.597320556641,-0.805096566677094,-0.346450597047806,0.491768926382065,-0.80133641229185,-0.344792671461508,0.489523909660973,0
3.47998046875,-2.50329685211182,1.88878965377808,2.67275309562683,-2.50485284867397,1.88804817714046,2.67352240244575,2055.365,2056.428,2056.295,2058.129,3.57217788696289,44.9964218139648,358.577545166016,-0.793586492538452,-0.341497749090195,0.484600275754929,-0.789715229532172,-0.33979240117828,0.482424710458066,0
3.5,-2.51893520355225,1.88206005096436,2.68230295181274,-2.5205447997813,1.88129636896134,2.68310837050915,2057.406,2056.404,2054.508,2054.949,3.6199836730957,44.9965667724609,358.558349609375,-0.781913220882416,-0.336476713418961,0.477491110563278,-0.777924000354857,-0.334718964672089,0.475221632552147,0
3.51998901367188,-2.53433680534363,1.87543201446533,2.69171023368835,-2.53597583877076,1.87465682397749,2.69253495143119,2060.704,2057.095,2049.618,2052.4,3.66505360603333,44.9963760375977,358.541168212891,-0.770084083080292,-0.331389248371124,0.470362484455109,-0.766004036374581,-0.329590137176618,0.467939912563966,0
3.54000854492188,-2.54949903488159,1.86890721321106,2.70096898078918,-2.55119019794619,1.86811051026429,2.70182916603607,2053.236,2054.033,2053.454,2055.277,3.70854210853577,44.9966506958008,358.523468017578,-0.758127927780151,-0.326244682073593,0.462934672832489,-0.753924423002452,-0.324392617007921,0.460560665253582,0
3.55999755859375,-2.56441974639893,1.86248636245728,2.71008157730103,-2.56613872308604,1.86167857751006,2.71096098677687,2058.688,2055.011,2048.831,2050.974,3.74971890449524,44.9965591430664,358.507476806641,-0.746020376682281,-0.321036517620087,0.455633163452148,-0.741727567798258,-0.319144650954242,0.45310979673751,0
3.57998657226563,-2.57909536361694,1.85617089271545,2.71904253959656,-2.58084213759183,1.85535210901407,2.7199430732562,2051.466,2052.462,2052.476,2053.572,3.78974938392639,44.9968719482422,358.491027832031,-0.733797132968903,-0.315777331590652,0.448050290346146,-0.72940084364523,-0.31384080592,0.445579593307163,0
3.60000610351563,-2.59352445602417,1.84996175765991,2.72785329818726,-2.59531978247425,1.84912278287974,2.72878724059568,2054.016,2052.635,2050.281,2050.665,3.82909631729126,44.9969711303711,358.475402832031,-0.721437156200409,-0.310461163520813,0.440536856651306,-0.716930938559024,-0.308475354130224,0.437961922879033,0
3.6199951171875,-2.60770344734192,1.84385979175568,2.73651313781738,-2.60952509409627,1.84301063413925,2.73746504379605,2056.899,2053.11,2045.932,2048.801,3.86552429199219,44.9967803955078,358.461608886719,-0.708950281143188,-0.305090367794037,0.432997345924377,-0.704361775018033,-0.303067194200314,0.43028361700977,0
3.63998413085938,-2.62163066864014,1.83786630630493,2.74501705169678,-2.623478029369,1.83700707589127,2.7459886742229,2050.442,2050.648,2049.311,2051.265,3.89997959136963,44.9970207214355,358.447570800781,-0.696362972259521,-0.299674153327942,0.425200283527374,-0.691680442442073,-0.297610771068296,0.422536788827407,0
3.66000366210938,-2.63530349731445,1.83198225498199,2.75336623191833,-2.63719712493647,1.83110413233575,2.75436945562281,2052.277,2050.618,2047.958,2048.824,3.9331259727478,44.9971351623535,358.434295654297,-0.683658719062805,-0.294208765029907,0.417457312345505,-0.678873453515702,-0.29210028151913,0.414713199141411,0
3.67999267578125,-2.64872074127197,1.8262083530426,2.7615602016449,-2.65063849381582,1.82532068681534,2.76258057812278,2054.88,2051.226,2044.349,2046.888,3.96322250366211,44.9970169067383,358.4228515625,-0.670846521854401,-0.288697391748428,0.409703850746155,-0.665986083416798,-0.286555206197011,0.406840505851433,0
3.69998168945313,-2.66187953948975,1.82054543495178,2.76959466934204,-2.66382131180924,1.81964848851807,2.77063375592113,2048.665,2048.801,2047.87,2049.45,3.99143028259277,44.9972915649414,358.4111328125,-0.657952964305878,-0.283149302005768,0.401720017194748,-0.653005218467595,-0.280969902652754,0.398910698016369,0
