t,x_s1,x_s2,x_s3,x_s_d1,x_s_d2,x_s_d3,propellers_rpms1,propellers_rpms2,propellers_rpms3,propellers_rpms4,rollRad,pitchRad,yawRad,v_s1,v_s2,v_s3,v_s_d1,v_s_d2,v_s_d3,insideCount
0,-0.0599999986588955,2.94000005722046,1.17999994754791,-0.0599999986588955,2.94000005722046,1.17999994754791,0,0,0,0,0,45.0048027038574,0,0,0,0,-1.06581410364015E-15,4.44089209850063E-16,-7.105427357601E-16,0
0.02001953125,-0.0599999986588955,2.94000005722046,1.17705690860748,-0.0600018744611685,2.93999925011514,1.18000109344625,0,0,0,0,0.937003672122955,44.8630027770996,-0.00115976633969694,3.71994488546079E-08,3.50004931704007E-08,-0.147149950265884,-0.000280531511337879,-0.000120704872184653,0.000171372322667033,5
0.040008544921875,-0.0599999986588955,2.94000005722046,1.17018985748291,-0.060014880898484,2.93999365380853,1.18000903887584,0,0,0,0,1.87400352954865,44.7211418151855,-0.00311126722954214,3.70364325874561E-08,3.5142885934647E-08,-0.343349903821945,-0.00111143977225461,-0.000478221483967637,0.000678961213193342,6
0.05999755859375,-0.0599062293767929,2.94009447097778,1.16346490383148,-0.0600498857373401,2.93997859220429,1.18003042278566,3197.055,2848.577,1517.557,2782.436,1.40377748012543,44.7413711547852,0.0287760011851788,0.00468848180025816,0.00471865246072412,-0.336246997117996,-0.00247936261166862,-0.00106680046642749,0.00151460392977639,6
0.08001708984375,-0.0597377717494965,2.94026732444763,1.15723729133606,-0.0601176241590912,2.9399494462538,1.18007180313047,2865.695,2651.763,2344.598,2562.151,0.340079486370087,44.8158378601074,0.0996070802211761,0.00842283293604851,0.00864462181925774,-0.311380505561829,-0.00437432711648753,-0.0018821507536715,0.0026722081754323,6
0.100006103515625,-0.0595562346279621,2.94046425819397,1.15151965618134,-0.0602282404704493,2.93990185114529,1.18013937690895,2240.613,2528.421,3137.222,2508.336,359.322052001953,44.919059753418,0.178504914045334,0.00907692406326532,0.00984971318393946,-0.285880416631699,-0.00677739276378709,-0.00291612276782231,0.00414020348026766,5
0.1199951171875,-0.059424240142107,2.94063234329224,1.14656901359558,-0.0603918861403606,2.93983143898525,1.18023934549506,2123.469,2454.617,3351.948,2464.742,358.750274658203,44.9998588562012,0.253258764743805,0.00659974943846464,0.00840045046061277,-0.247534602880478,-0.00967801353495435,-0.00416417885169243,0.00591214744607921,5
0.1400146484375,-0.0593827106058598,2.94074034690857,1.14257049560547,-0.0606187761383957,2.93973381455767,1.18037794905431,2312.11,2456.558,3069.346,2463.374,358.636383056641,45.032657623291,0.326257407665253,0.00207654712721705,0.00540162343531847,-0.199924275279045,-0.0130687916036232,-0.00562313592726786,0.00798352085618068,5
0.160003662109375,-0.059442937374115,2.94078588485718,1.13952445983887,-0.0609177895434042,2.93960515744296,1.18056061167741,2537.177,2487.052,2634.917,2491.605,358.757019042969,45.0249633789063,0.398278146982193,-0.00301136495545506,0.00228246464394033,-0.152299135923386,-0.0169265510445065,-0.00728302204135792,0.0103401658994673,5
0.180023193359375,-0.0595995113253593,2.94078207015991,1.13730907440186,-0.061299173422313,2.9394410586145,1.18079359313766,2665.876,2505.781,2303.06,2513.553,358.864135742188,44.9985656738281,0.467363446950912,-0.00782861188054085,-0.000194068066775799,-0.110769867897034,-0.0212503155312517,-0.00914341710800856,0.0129814861534057,5
0.20001220703125,-0.0598469451069832,2.94074034690857,1.13576126098633,-0.0617708265342762,2.93923811945689,1.18108171866376,2654.167,2500.396,2182.797,2508.284,358.816711425781,44.9743766784668,0.53305459022522,-0.0123716834932566,-0.00208839774131775,-0.077393427491188,-0.0260142813927851,-0.0111932185284278,0.0158917185579952,5
0.220001220703125,-0.0601887665688992,2.94066286087036,1.13474535942078,-0.0623420644491781,2.93899233174064,1.18143067899198,2539.645,2470.204,2246.324,2479.271,358.612091064453,44.9637107849121,0.594610154628754,-0.017091004177928,-0.00387852778658271,-0.0507953837513924,-0.03121219533433,-0.0134297356845702,0.0190670430730375,5
0.240020751953125,-0.0606379397213459,2.94054222106934,1.13419330120087,-0.0630225615075555,2.93869953286731,1.181846384026,2411.625,2429.629,2374.497,2437.295,358.334564208984,44.965950012207,0.65257203578949,-0.0224587507545948,-0.00603008316829801,-0.02760442905128,-0.0368405636651345,-0.0158514653389075,0.0225053254573701,5
0.260009765625,-0.061212245374918,2.94036674499512,1.13409101963043,-0.0638185570309634,2.93835703823113,1.18233264526998,2330.645,2392.493,2461.547,2398.137,358.076263427734,44.9738540649414,0.707952857017517,-0.0287153739482164,-0.00876791495829821,-0.00511444732546806,-0.0428699302682246,-0.0184457333472145,0.0261885714287875,4
0.279998779296875,-0.0619287192821503,2.94012570381165,1.13444089889526,-0.0647390625194898,2.93796097043536,1.18289496770872,2305.008,2364.709,2470.57,2371.175,357.886901855469,44.9803352355957,0.760622978210449,-0.0358236692845821,-0.0120551101863384,0.0174957066774368,-0.0492963837173861,-0.0212108567320638,0.0301143915580518,4
0.300018310546875,-0.062800221145153,2.93981170654297,1.13523650169373,-0.0657936070281142,2.93750722939386,1.18353917249319,2317.288,2348.147,2416.067,2353.449,357.765075683594,44.9818229675293,0.811219274997711,-0.0435751974582672,-0.015705643221736,0.0397787466645241,-0.0561185469977389,-0.0241462430024218,0.0342819446482607,4
0.32000732421875,-0.0638350248336792,2.9394211769104,1.13645005226135,-0.0669865614821475,2.93699393441958,1.18426792975347,2335.931,2337.032,2341.552,2341.193,357.678558349609,44.9787940979004,0.860219895839691,-0.0517403595149517,-0.0195241216570139,0.0606779642403126,-0.0633036493784043,-0.0272377918282996,0.0386712115712976,4
0.339996337890625,-0.0650386363267899,2.93895316123962,1.13803672790527,-0.068326768706371,2.93641728069206,1.18508664143323,2336.909,2324.313,2287.465,2330.56,357.594146728516,44.9741668701172,0.906621098518372,-0.060180738568306,-0.0234031062573195,0.0793310254812241,-0.0708499516420146,-0.0304847548730522,0.0432811298664125,4
0.360015869140625,-0.0664161518216133,2.93840622901917,1.13995122909546,-0.0698237345322385,2.93577317811757,1.18600111449656,2321.987,2310.462,2262.201,2315.885,357.494506835938,44.9703369140625,0.950675785541534,-0.0688758194446564,-0.0273419748991728,0.0957232639193535,-0.0787580297418618,-0.0338873799532906,0.048112051374484,4
0.3800048828125,-0.0679734721779823,2.93777847290039,1.14215505123138,-0.0714797725314022,2.93506063123087,1.18701276226829,2296.717,2295.012,2259.689,2298.984,357.379669189453,44.9685096740723,0.992949306964874,-0.0778661370277405,-0.0313905775547028,0.11018929630518,-0.0869921272359981,-0.0374302820709642,0.0531421330430943,4
0.4000244140625,-0.0697174295783043,2.93706655502319,1.14461779594421,-0.0733065984369745,2.93427459907931,1.18812874170695,2267.549,2277.241,2269.332,2283.493,357.261291503906,44.9687728881836,1.03245890140533,-0.0871980786323547,-0.0355980880558491,0.123139202594757,-0.0955658248284375,-0.0411193046236092,0.058379671112403,4
0.420013427734375,-0.0716553628444672,2.93626666069031,1.1473217010498,-0.0753050585276311,2.93341471753282,1.18934956979097,2250.134,2263.486,2269.992,2267.137,357.151397705078,44.9698524475098,1.07037115097046,-0.0968968123197556,-0.0399907492101192,0.13519461452961,-0.104441553474511,-0.0449382827008623,0.0638017152392751,4
0.44000244140625,-0.0737940222024918,2.93537569046021,1.15024876594543,-0.077483988232608,2.93247718495301,1.19068064394622,2236.529,2249.898,2264.747,2255.682,357.056182861328,44.9710845947266,1.10580790042877,-0.106933183968067,-0.0445490591228008,0.146353930234909,-0.113620829717891,-0.048887868829098,0.0694091918565748,4
0.46002197265625,-0.076139397919178,2.93439078330994,1.15338468551636,-0.0798530997696509,2.93145782244394,1.19212789721494,2231.936,2240.277,2249.367,2244.711,356.975463867188,44.9717597961426,1.13938045501709,-0.117268860340118,-0.049244150519371,0.156793355941772,-0.123107133063502,-0.0529695601420796,0.0752042265395641,4
0.480010986328125,-0.0786965042352676,2.93331003189087,1.1567131280899,-0.0824109101018722,2.93035726811493,1.19369042363305,2229.644,2232.75,2230.683,2235.446,356.903411865234,44.9718437194824,1.17183482646942,-0.127855315804482,-0.0540408119559288,0.166422307491302,-0.132860437136906,-0.0571661344090936,0.0811623678006979,4
0.5,-0.0814696103334427,2.93213176727295,1.16021418571472,-0.085166398670376,2.92917165836334,1.195373708601,2221.195,2223.431,2220.333,2229.103,356.835540771484,44.9720153808594,1.20186257362366,-0.138655230402946,-0.0589144751429558,0.175050616264343,-0.142884000065179,-0.0614789935111996,0.0872856059789651,5
0.52001953125,-0.0844628736376762,2.9308545589447,1.16387283802032,-0.0881295333471192,2.92789670429234,1.19718384133622,2214.837,2216.673,2211.968,2220.75,356.770111083984,44.9723472595215,1.23014080524445,-0.149663150310516,-0.0638659745454788,0.182931587100029,-0.153182839569029,-0.0659102964334391,0.0935770063216458,5
0.540008544921875,-0.08768031001091,2.92947673797607,1.16767597198486,-0.0912963635428427,2.92653410573011,1.19911840848537,2208.832,2210.863,2205.393,2213.034,356.706024169922,44.9728965759277,1.25748038291931,-0.16087181866169,-0.0688950791954994,0.190155833959579,-0.163714777034477,-0.0704418948965508,0.100010802571645,5
0.55999755859375,-0.0911257266998291,2.92799687385559,1.17160940170288,-0.094676112580471,2.92507989413848,1.20118304443252,2198.15,2202.831,2206.04,2208.266,356.645111083984,44.9739837646484,1.28246855735779,-0.172271072864532,-0.0739987641572952,0.196673735976219,-0.17448465888317,-0.0750758741803766,0.106589955332319,5
0.58001708984375,-0.0948030352592468,2.9264132976532,1.175665974617,-0.0982790918331175,2.92352963282165,1.20338404823457,2193.577,2198.052,2202.908,2201.736,356.589721679688,44.9751777648926,1.30587720870972,-0.183865204453468,-0.0791830793023109,0.202826872467995,-0.185498893714783,-0.0798149917263209,0.113318379517207,5
0.600006103515625,-0.0987157896161079,2.92472457885742,1.17983913421631,-0.102098762959148,2.92188613504538,1.20571742572067,2191.886,2194.829,2196.567,2196.365,356.539154052734,44.9762229919434,1.32863938808441,-0.195638298988342,-0.0844389274716377,0.208658039569855,-0.196713446836865,-0.0846403006364086,0.120169175019836,5
0.6199951171875,-0.102867126464844,2.92292952537537,1.18411934375763,-0.106144683970236,2.92014528826426,1.208189015731,2185.474,2189.214,2195.937,2194.446,356.493469238281,44.9774742126465,1.34915506839752,-0.207566693425179,-0.0897514522075653,0.214010134339333,-0.208134604141382,-0.0895545055543457,0.127146181793521,5
0.6400146484375,-0.10726010799408,2.92102718353271,1.1885027885437,-0.110427588881679,2.91830247393137,1.21080537550798,2184.616,2187.005,2191.639,2190.302,356.452789306641,44.9785995483398,1.36826944351196,-0.219649016857147,-0.0951214283704758,0.21917051076889,-0.21977002223474,-0.0945609009039674,0.134254077139634,5
0.660003662109375,-0.111897483468056,2.91901636123657,1.19298553466797,-0.114938248900541,2.91636166293851,1.21356086732604,2185.282,2185.981,2185.648,2187.008,356.414886474609,44.9795265197754,1.38695895671844,-0.231868952512741,-0.100539766252041,0.22413769364357,-0.231574097577923,-0.0996398647564507,0.141465002567821,5
0.680023193359375,-0.116781622171402,2.9168963432312,1.19756007194519,-0.119694071710854,2.91431536524554,1.21646612526771,2179.475,2181.884,2187.65,2186.944,356.379699707031,44.9807548522949,1.4034675359726,-0.244206890463829,-0.105995498597622,0.228728115558624,-0.243572831403349,-0.104802584715715,0.148794841825225,5
0.70001220703125,-0.121915102005005,2.91466641426086,1.20222675800323,-0.124683985757554,2.91216834463331,1.21951438589277,2181.681,2182.371,2183.529,2183.351,356.34716796875,44.9817924499512,1.41957008838654,-0.256674617528915,-0.111497782170773,0.233334720134735,-0.255719729227087,-0.11002905550423,0.156215192157144,5
0.720001220703125,-0.127300038933754,2.91232585906982,1.20697999000549,-0.129918284978346,2.90991617190799,1.22271193760712,2176.492,2179.154,2186.916,2184.109,356.317718505859,44.9831123352051,1.43353772163391,-0.26924604177475,-0.117033056914806,0.23766216635704,-0.268023157655716,-0.11532287703907,0.163731164592979,5
0.740020751953125,-0.132938608527184,2.90987372398376,1.21182084083557,-0.135408560960145,2.90755385953358,1.22606586153034,2177.652,2179.386,2185.682,2182.097,356.292327880859,44.9843215942383,1.44635510444641,-0.281929135322571,-0.122607998549938,0.242045372724533,-0.280492548100696,-0.120688107393104,0.171348520634816,5
0.760009765625,-0.138832792639732,2.90730953216553,1.2167501449585,-0.141140917956636,2.9050873864615,1.22956766896782,2180.602,2180.72,2181.731,2180.826,356.269195556641,44.985279083252,1.45914387702942,-0.294709444046021,-0.128214836120605,0.246462568640709,-0.293080296154222,-0.126104263719567,0.179038179492781,5
0.779998779296875,-0.144984111189842,2.90463280677795,1.22176373004913,-0.147126184485884,2.90251209348295,1.2332239748923,2176.309,2178.201,2186.019,2183.125,356.248474121094,44.9865036010742,1.46981191635132,-0.307566314935684,-0.13384148478508,0.250678867101669,-0.305795832832518,-0.131575403921268,0.186805902427515,5
0.800018310546875,-0.151394337415695,2.90184283256531,1.22686457633972,-0.153376545303595,2.89982273783796,1.23704222278088,2178.412,2179.467,2185.615,2181.998,356.231048583984,44.9876098632813,1.47940623760223,-0.320510685443878,-0.139496937394142,0.255039483308792,-0.318649478366155,-0.137105968505107,0.194657993906831,5
0.82000732421875,-0.158064916729927,2.89893937110901,1.23205482959747,-0.159875221826383,2.89702653888221,1.24101216285881,2182.142,2181.751,2182.469,2181.463,356.215209960938,44.9884452819824,1.48914074897766,-0.333529591560364,-0.14517468214035,0.259511888027191,-0.331592781842754,-0.14267511039705,0.202564856024417,5
0.839996337890625,-0.164996966719627,2.89592218399048,1.23733162879944,-0.166633637018892,2.89411858163313,1.24514077323692,2178.021,2179.731,2188.073,2184.631,356.201293945313,44.9896011352539,1.49676203727722,-0.346602827310562,-0.150863394141197,0.263839185237885,-0.344636106234817,-0.148287288494656,0.210532819358465,5
0.860015869140625,-0.172191843390465,2.89279079437256,1.24269938468933,-0.173664618315387,2.89109334680413,1.24943588999465,2180.799,2181.693,2188.318,2184.024,356.190582275391,44.9906234741211,1.50339663028717,-0.359744071960449,-0.156573578715324,0.268386244773865,-0.357790534090669,-0.153947271308859,0.218568654064807,5
0.8800048828125,-0.179650649428368,2.88954472541809,1.24816155433655,-0.180948461186242,2.88795931270381,1.25388547594233,2185.316,2184.63,2185.342,2183.996,356.181213378906,44.9913444519043,1.51032161712646,-0.372940003871918,-0.162298679351807,0.273106545209885,-0.371007022483504,-0.159633957038354,0.226642400584755,5
0.9000244140625,-0.187374010682106,2.88618421554565,1.2537157535553,-0.188508963212068,2.88470623989808,1.2585040686506,2181.304,2182.937,2191.633,2187.758,356.173614501953,44.9923820495605,1.51516604423523,-0.386168956756592,-0.168026357889175,0.277710974216461,-0.384317079523421,-0.165360902742685,0.234773306731097,5
0.920013427734375,-0.19536304473877,2.88270878791809,1.25936901569366,-0.196324452211266,2.88134345332121,1.26327842892191,2187.664,2186.898,2188.608,2186.493,356.167755126953,44.9930686950684,1.52020716667175,-0.399452120065689,-0.173770695924759,0.282665908336639,-0.397671404529394,-0.171106895716105,0.242931255487113,5
0.94000244140625,-0.20361815392971,2.8791184425354,1.26511931419373,-0.204407453948074,2.87786556348678,1.26821620855017,2183.738,2185.571,2195.009,2190.318,356.1640625,44.9940528869629,1.5232013463974,-0.412755638360977,-0.179513961076736,0.28751665353775,-0.411081631631503,-0.176876941799768,0.251123353961324,5
0.96002197265625,-0.212140068411827,2.87541317939758,1.27097249031067,-0.21277195700315,2.87426655149935,1.27332595294102,2187.586,2188.243,2194.985,2190.143,356.163604736328,44.9948387145996,1.52539670467377,-0.426095306873322,-0.185267075896263,0.292659223079681,-0.424559845004915,-0.182676240476657,0.259356984187769,5
0.980010986328125,-0.220929175615311,2.87159276008606,1.27693283557892,-0.221393324468958,2.87055701793193,1.27859261179209,2193.041,2191.763,2191.436,2190.562,356.164031982422,44.9952697753906,1.52812850475311,-0.439455926418304,-0.191021710634232,0.298016726970673,-0.438056556301695,-0.188483498293199,0.267601914506946,5
1,-0.229985475540161,2.86765742301941,1.28299796581268,-0.230284798736574,2.86673126495361,1.28402427467346,2188.742,2190.048,2198.344,2194.951,356.165649414063,44.9960556030273,1.52874219417572,-0.452814400196075,-0.196764975786209,0.30325523018837,-0.451584000205995,-0.194303979492187,0.275865618896484,5
1.02001953125,-0.239309281110764,2.86360716819763,1.28917384147644,-0.239461107372567,2.86278295570393,1.28962993842572,2192.305,2192.771,2198.89,2194.677,356.169921875,44.9966926574707,1.52855169773102,-0.466190159320831,-0.202511042356491,0.308790981769562,-0.465154707681581,-0.200143075797255,0.284155752326605,5
1.04000854492188,-0.248900651931763,2.85944199562073,1.2954648733139,-0.248894644448595,2.85872396824263,1.29539273901802,2197.582,2196.382,2195.692,2194.895,356.174774169922,44.996997833252,1.52901828289032,-0.479569584131241,-0.20825307071209,0.314549535512924,-0.47871923339115,-0.205979512261105,0.292442109412331,5
1.05999755859375,-0.258759260177612,2.85516238212585,1.30186855792999,-0.258599401509697,2.85454828239877,1.3013212236669,2192.805,2194.389,2203.125,2199.37,356.180877685547,44.9976921081543,1.52733111381531,-0.492929756641388,-0.213978171348572,0.320182949304581,-0.492290296490434,-0.211818761581115,0.30073246008742,5
1.08001708984375,-0.268885046243668,2.85076832771301,1.30839109420776,-0.268590868588476,2.85024923324404,1.30742485499156,2196.508,2197.081,2203.433,2198.943,356.189910888672,44.9982414245605,1.52485978603363,-0.506290912628174,-0.219700917601585,0.326126009225845,-0.505880764601332,-0.21766636033551,0.309034664981295,5
1.10000610351563,-0.279277801513672,2.84626007080078,1.31503689289093,-0.278838480013141,2.84583997233313,1.31368496090006,2202.015,2200.744,2199.628,2198.987,356.199584960938,44.998405456543,1.52316248416901,-0.519637882709503,-0.225413352251053,0.332290261983871,-0.519441457145546,-0.223501147495394,0.317318680446121,5
1.1199951171875,-0.289936721324921,2.84163808822632,1.32180297374725,-0.289357002179081,2.84131414609862,1.32011056195293,2196.884,2198.436,2206.98,2203.538,356.21044921875,44.998966217041,1.51926028728485,-0.532946348190308,-0.23110143840313,0.338303059339523,-0.532985466132485,-0.229328756186667,0.32559250418615,5
1.1400146484375,-0.30086150765419,2.83690237998962,1.32869529724121,-0.300162704591434,2.83666475422696,1.32671159693698,2200.561,2201.071,2206.934,2202.835,356.224151611328,44.9993629455566,1.51461565494537,-0.546237528324127,-0.236780479550362,0.344616681337357,-0.54652589017629,-0.235154822377061,0.33386413794036,5
1.16000366210938,-0.31205141544342,2.83205342292786,1.33571803569794,-0.311222084148811,2.83190621216671,1.33346759933036,2205.983,2204.639,2202.74,2202.619,356.238250732422,44.9993934631348,1.51085770130157,-0.55949604511261,-0.242442458868027,0.35113450884819,-0.560014026276883,-0.240958390526247,0.342103829805999,6
1.18002319335938,-0.323505342006683,2.82709193229675,1.34286737442017,-0.322568202252263,2.82702429452064,1.34039876582708,2200.272,2201.931,2210.223,2207.095,356.253448486328,44.9998435974121,1.50486624240875,-0.572697639465332,-0.248073279857635,0.357468962669373,-0.573483731835696,-0.246754028528194,0.350332262741268,6
1.20001220703125,-0.335222780704498,2.82201814651489,1.3501513004303,-0.334165615614823,2.82203425154496,1.3474834446762,2207.586,2206.342,2205.663,2204.801,356.269836425781,44.9998970031738,1.49956023693085,-0.585871577262878,-0.253691852092743,0.364196240901947,-0.586886736182789,-0.252520966862155,0.358519948947149,6
1.22000122070313,-0.347202330827713,2.81683254241943,1.3575656414032,-0.346030421585499,2.81692915700008,1.35473146949704,2201.595,2203.774,2212.94,2208.873,356.287963867188,45.0003395080566,1.49205029010773,-0.598977744579315,-0.259277045726776,0.370719909667969,-0.600236516861372,-0.258265004538453,0.366675121644476,6
1.24002075195313,-0.359443098306656,2.81153559684753,1.36511623859406,-0.358180209983518,2.8117014424782,1.36215358563568,2205.439,2206.19,2211.805,2207.63,356.309448242188,45.0005569458008,1.48393881320953,-0.612037897109985,-0.264843314886093,0.37753102183342,-0.613546334788502,-0.263991847359231,0.374805881720547,6
1.260009765625,-0.371943771839142,2.80612802505493,1.37280642986298,-0.37057666480527,2.80636759428526,1.36972638644343,2211.05,2209.456,2206.228,2207.044,356.331237792969,45.000358581543,1.47688496112823,-0.625034511089325,-0.270380705595016,0.384512275457382,-0.626768731761373,-0.26968107538565,0.382883237699838,6
1.27999877929688,-0.384702622890472,2.80061054229736,1.3806312084198,-0.383236695417198,2.80092033679326,1.37746020158837,2204.42,2206.036,2213.492,2211.392,356.353820800781,45.0006408691406,1.4675133228302,-0.637942254543304,-0.27587416768074,0.391239851713181,-0.639917282339435,-0.275338529371412,0.39091548206889,6
1.30001831054688,-0.397718369960785,2.79498362541199,1.38859558105469,-0.396178686849666,2.79535175943725,1.38536626219868,2207.522,2208.113,2212.741,2209.718,356.379058837891,45.0007591247559,1.45746564865112,-0.650785624980927,-0.281341195106506,0.398220986127853,-0.653005218467598,-0.280969902652754,0.398910698016369,6
1.32000732421875,-0.410989344120026,2.78924822807312,1.39670264720917,-0.409361504843077,2.78967956113998,1.39341943999703,2212.546,2211.142,2207.448,2208.586,356.404357910156,45.0005111694336,1.44853353500366,-0.663549482822418,-0.286774039268494,0.405350536108017,-0.6659860834168,-0.286555206197011,0.406840505851434,6
1.33999633789063,-0.424513518810272,2.7834050655365,1.40494668483734,-0.422802873722428,2.78389611561957,1.401630562497,2205.166,2207.222,2215.069,2212.705,356.4306640625,45.0007820129395,1.43722689151764,-0.676209509372711,-0.292158305644989,0.412199825048447,-0.678873453515705,-0.29210028151913,0.41471319914141,6
1.36001586914063,-0.438289284706116,2.77745485305786,1.41333258152008,-0.4365219692899,2.77799317206405,1.41001134389691,2208.169,2209.067,2213.954,2210.608,356.460021972656,45.0008773803711,1.42527282238007,-0.688790023326874,-0.297511339187622,0.419294387102127,-0.691680442442074,-0.297610771068296,0.422536788827408,6
1.3800048828125,-0.452314764261246,2.77139830589294,1.42186295986176,-0.450474904562636,2.77198961381608,1.41853497432376,2213.296,2211.907,2207.863,2209.164,356.489654541016,45.000560760498,1.41451489925385,-0.701274573802948,-0.302824020385742,0.426520735025406,-0.704361775018035,-0.303067194200314,0.43028361700977,6
1.4000244140625,-0.466587543487549,2.76523661613464,1.43053150177002,-0.464702095472036,2.76586805102946,1.42722614323938,2205.446,2207.609,2215.212,2213.158,356.520355224609,45.0007591247559,1.40135598182678,-0.71363765001297,-0.308080971240997,0.433427035808563,-0.716950039288891,-0.308483572640673,0.437973591216846,6
1.42001342773438,-0.481105774641037,2.7589704990387,1.43934500217438,-0.479157861067077,2.75964813894125,1.43605694486361,2212.753,2211.464,2208.697,2209.247,356.552154541016,45.0005035400391,1.38917231559753,-0.72591108083725,-0.313302606344223,0.440676808357239,-0.729400843645231,-0.313840805920001,0.445579593307164,6
1.44000244140625,-0.49586683511734,2.752601146698,1.44829666614532,-0.493861275572861,2.75332167044526,1.44503903134294,2204.64,2207.355,2215.771,2212.781,356.585723876953,45.0007171630859,1.37464165687561,-0.738053202629089,-0.318466305732727,0.447584897279739,-0.741727567798258,-0.319144650954242,0.453109796737511,6
1.46002197265625,-0.510868549346924,2.74612951278687,1.45739090442657,-0.50883280894277,2.74687983789241,1.45418490745244,2207.918,2208.882,2213.261,2210.185,356.622741699219,45.0007133483887,1.35956811904907,-0.750087380409241,-0.323587715625763,0.454714834690094,-0.753942941956197,-0.324400585196357,0.460571978193441,6
1.48001098632813,-0.52610844373703,2.73955631256104,1.46662950515747,-0.524024159888143,2.74034342397783,1.46346506668862,2213.134,2211.407,2205.83,2208.314,356.659851074219,45.0002555847168,1.34584331512451,-0.761995315551758,-0.328656077384949,0.461931109428406,-0.766004036374583,-0.329590137176618,0.467939912563966,6
1.5,-0.541583478450775,2.73288321495056,1.4760046005249,-0.539455198877605,2.73370387899399,1.47289164761066,2204.295,2206.468,2213.055,2212.108,356.697601318359,45.0003623962402,1.32967615127563,-0.773752331733704,-0.3336561024189,0.468755781650543,-0.777924000354858,-0.334718964672088,0.475221632552146,6
1.52001953125,-0.557291150093079,2.72611117362976,1.48552000522614,-0.555147149984933,2.72695207081487,1.48247761567406,2206.8,2207.639,2211.094,2209.104,356.738128662109,45.0003089904785,1.31289327144623,-0.785384714603424,-0.338606536388397,0.475771188735962,-0.789715229532175,-0.33979240117828,0.482424710458066,6
1.54000854492188,-0.573228716850281,2.71924114227295,1.49517714977264,-0.571049184024557,2.72010986981902,1.49219192012252,2211.417,2209.922,2204.098,2206.732,356.778503417969,44.9998626708984,1.29749524593353,-0.796876668930054,-0.343499034643173,0.482855230569839,-0.801336412291853,-0.344792671461508,0.489523909660973,6
1.55999755859375,-0.589392840862274,2.71227478981018,1.50496768951416,-0.587181951496087,2.71316839067337,1.50204717602401,2201.922,2204.569,2211.683,2210.331,356.819854736328,45,1.27960276603699,-0.808205187320709,-0.348319113254547,0.48952904343605,-0.812800388649436,-0.349725300221754,0.496527073925997,6
1.58001708984375,-0.605780720710754,2.70521306991577,1.51489543914795,-0.603567408310176,2.70611818636293,1.51205679590172,2204.424,2205.564,2209.369,2206.975,356.864379882813,44.9999694824219,1.26111793518066,-0.819395244121552,-0.353084743022919,0.496390163898468,-0.824119146742882,-0.35459544561987,0.503441526619546,6
1.60000610351563,-0.622389316558838,2.6980574131012,1.52496159076691,-0.620152298932711,2.69898217125626,1.52218824678091,2209.21,2207.74,2201.651,2204.328,356.908996582031,44.9994850158691,1.24411487579346,-0.83042985200882,-0.357786297798157,0.503307461738586,-0.835253140422976,-0.35938609205264,0.510243109616171,5
1.6199951171875,-0.639215052127838,2.69080924987793,1.53515732288361,-0.636958033083316,2.69175113334911,1.53245460752521,2199.45,2202.05,2208.866,2207.95,356.954559326172,44.9996070861816,1.22455990314484,-0.841285884380341,-0.362408578395844,0.509785056114197,-0.846214826007804,-0.364102599125749,0.516939432286212,5
1.6400146484375,-0.656254768371582,2.68346977233887,1.54548597335815,-0.654007271984653,2.68441532215046,1.54286972152191,2201.855,2202.939,2206.198,2204.278,357.003204345703,44.9995460510254,1.20444202423096,-0.851987302303314,-0.366969436407089,0.516430079936981,-0.857015715678588,-0.368749920209162,0.523537527241534,5
1.66000366210938,-0.673505127429962,2.67604064941406,1.55594825744629,-0.671244443874359,2.67699864863716,1.55339964084857,2206.543,2204.966,2198.166,2201.362,357.051727294922,44.9990310668945,1.18588757514954,-0.862517893314362,-0.371459633111954,0.523111760616302,-0.867618167158098,-0.373311858882592,0.530014399402375,5
1.68002319335938,-0.690962255001068,2.66852331161499,1.56653475761414,-0.688718488267733,2.66948005550297,1.56407426189139,2196.25,2198.951,2205.495,2204.932,357.10107421875,44.9991493225098,1.16474568843842,-0.872856080532074,-0.375864565372467,0.529325842857361,-0.87804994059578,-0.377800359562815,0.53638700701084,5
1.70001220703125,-0.708622872829437,2.66091918945313,1.57725131511688,-0.706372354049449,2.66188409024902,1.5748587330143,2203.532,2202.18,2197.251,2199.203,357.151275634766,44.9987602233887,1.14490115642548,-0.883032202720642,-0.380205124616623,0.53582900762558,-0.888274735793774,-0.382199803288802,0.542633174842512,5
1.72000122070313,-0.726483047008514,2.65322995185852,1.58808839321136,-0.724228658537036,2.6542010212754,1.58576687078363,2193.132,2196.562,2204.265,2202.302,357.203308105469,44.9989585876465,1.12257647514343,-0.893008947372437,-0.384459644556046,0.541855573654175,-0.898304216251578,-0.386515208538549,0.548760027947228,5
1.74002075195313,-0.744539141654968,2.64545702934265,1.5990492105484,-0.742311168965756,2.64642062220478,1.59681319423253,2195.984,2197.268,2200.471,2198.297,357.258972167969,44.9988899230957,1.09982514381409,-0.902807474136353,-0.388643234968185,0.548043847084045,-0.908148960779607,-0.390751127078638,0.554774028755192,5
1.760009765625,-0.762787342071533,2.63760209083557,1.61013400554657,-0.760560719141003,2.63856835059778,1.60796155965597,2201.012,2199.111,2191.251,2195.172,357.314422607422,44.9983100891113,1.07878124713898,-0.912410080432892,-0.392744690179825,0.554242134094238,-0.91777478390713,-0.394892849856044,0.560654293895788,4
1.77999877929688,-0.781223356723785,2.62966704368591,1.62133252620697,-0.779000609654483,2.63063418086074,1.61922620102184,2190.12,2192.732,2198.342,2198.75,357.370361328125,44.9984016418457,1.05513644218445,-0.921796977519989,-0.396749883890152,0.559923768043518,-0.927192788821983,-0.398945154262308,0.566407606133204,4
1.80001831054688,-0.79984313249588,2.62165355682373,1.63264727592468,-0.797655223615693,2.62260762162281,1.63062201359123,2192.184,2193.211,2195.349,2194.423,357.428985595703,44.9983253479004,1.03098201751709,-0.930991232395172,-0.40067720413208,0.565738260746002,-0.936412917636689,-0.402912318110697,0.572040038948834,4
1.82000732421875,-0.818642795085907,2.61356329917908,1.644078373909,-0.816463410111527,2.61451498441355,1.64211164122557,2196.623,2194.899,2186.864,2190.89,357.487091064453,44.9977874755859,1.00856077671051,-0.93997859954834,-0.404518455266953,0.571554481983185,-0.94540321420156,-0.406780591562751,0.577532070829503,3
1.83999633789063,-0.837617516517639,2.60539817810059,1.65561532974243,-0.835449117627072,2.60634596486888,1.6537097136807,2185.146,2188.266,2194.5,2194.353,357.545928955078,44.9979591369629,0.983509361743927,-0.948742032051086,-0.408261030912399,0.576848864555359,-0.954174163352093,-0.410554485950274,0.582890106797601,3
1.86001586914063,-0.856763541698456,2.59715962409973,1.66726100444794,-0.854637305360818,2.59808982374295,1.66543147814148,2187.338,2188.694,2191.293,2189.76,357.60791015625,44.9979400634766,0.95801192522049,-0.957302391529083,-0.411922067403793,0.582284092903137,-0.962735018414262,-0.414237982720922,0.588119799565572,0
1.8800048828125,-0.876076400279999,2.58884978294373,1.67901527881622,-0.873964974649439,2.58977366760063,1.67723844970756,2191.974,2190.309,2182.315,2186.123,357.669616699219,44.9974174499512,0.934323370456696,-0.965644478797913,-0.415492057800293,0.587716341018677,-0.971056158224177,-0.417818336715394,0.593203054026622,0
1.9000244140625,-0.895551562309265,2.5804705619812,1.69086754322052,-0.893486564535158,2.58137407284289,1.68916388434035,2180.482,2183.551,2189.538,2189.665,357.732116699219,44.9975738525391,0.907996296882629,-0.973752021789551,-0.418958306312561,0.592613756656647,-0.979159571260204,-0.421305008961645,0.598153302599065,0
1.92001342773438,-0.915184438228607,2.57202386856079,1.70282316207886,-0.913137923350175,2.5729186421402,1.70116859278703,2188.117,2186.487,2180.287,2183.025,357.795227050781,44.9971771240234,0.883170068264008,-0.981649219989777,-0.422339171171188,0.59777820110321,-0.987017247723777,-0.424685947625853,0.602953434534038,0
1.94000244140625,-0.934970617294312,2.56351161003113,1.7148711681366,-0.932943991899774,2.5643966441608,1.71326781099638,2176.569,2180.289,2187.199,2186.085,357.859985351563,44.9974136352539,0.855844557285309,-0.989306807518005,-0.42561599612236,0.602401673793793,-0.994638524886308,-0.427965170275055,0.607609153824943,0
1.96002197265625,-0.954905450344086,2.55493545532227,1.7270143032074,-0.952930593197372,2.55579696798345,1.72547731384432,2179.315,2180.621,2182.89,2181.421,357.92822265625,44.997371673584,0.828188180923462,-0.996740698814392,-0.428801983594894,0.607157766819,-1.00203140433628,-0.431146119769234,0.61212534851732,0
1.98001098632813,-0.974984228610992,2.54629778862,1.7392520904541,-0.973031969359004,2.54714790738853,1.73775693086567,2184.353,2182.199,2172.967,2177.656,357.995819091797,44.9967918395996,0.802491903305054,-1.00393557548523,-0.43188688158989,0.611890554428101,-1.00917036754089,-0.434217816196637,0.616486429737696,0
2,-0.995201766490936,2.53760051727295,1.75157308578491,-0.993273599084619,2.53843849960327,1.75012222660065,2172.357,2175.225,2180.13,2181.33,358.063690185547,44.9969329833984,0.774163126945496,-1.01087892055511,-0.434859395027161,0.616052389144897,-1.01606400046349,-0.437183953857422,0.620697642517089,0
2.02001953125,-1.01555347442627,2.52884578704834,1.76397955417633,-1.01368176147806,2.52965743746343,1.7625892545437,2174.365,2175.471,2176.757,2176.335,358.134063720703,44.9968910217285,0.745471179485321,-1.01758778095245,-0.437735736370087,0.62032562494278,-1.0227194988233,-0.440047628868552,0.624763382608097,0
2.04000854492188,-1.03603446483612,2.5200355052948,1.7764710187912,-1.03418924440916,2.52083364047092,1.77511695585335,2178.858,2176.856,2167.687,2172.335,358.203552246094,44.9963760375977,0.718725919723511,-1.02405035495758,-0.440508395433426,0.624573826789856,-1.02911391720548,-0.442798968459032,0.628669633014835,0
2.05999755859375,-1.05663955211639,2.51117205619812,1.78903615474701,-1.05482201812353,2.5119559343546,1.78772119534738,2166.404,2169.827,2175.38,2175.874,358.273590087891,44.9965972900391,0.689374923706055,-1.03025698661804,-0.443167865276337,0.628255009651184,-1.03525504859546,-0.445441325732794,0.632421154350513,0
2.08001708984375,-1.0773640871048,2.50225758552551,1.80167734622955,-1.07560676837143,2.50301283698163,1.80041827493419,2168.623,2169.959,2171.826,2170.814,358.346588134766,44.9966163635254,0.659665048122406,-1.03622186183929,-0.44572839140892,0.632059752941132,-1.0411492471255,-0.447977434695423,0.636021828255355,0
2.10000610351563,-1.09820258617401,2.49329400062561,1.81439411640167,-1.09647498538954,2.49403382618922,1.81316634306845,2173.433,2171.334,2162.273,2166.774,358.418914794922,44.9961128234863,0.63191819190979,-1.04193234443665,-0.448181748390198,0.635840773582458,-1.04677621342161,-0.450398561093403,0.639459254158576,0
2.1199951171875,-1.11915016174316,2.4842836856842,1.82717502117157,-1.11745308225396,2.48500753716864,1.82598153508617,2161.037,2164.398,2169.568,2170.33,358.491760253906,44.9963417053223,0.60161828994751,-1.04737985134125,-0.45051833987236,0.639046669006348,-1.0521429102862,-0.45270770082608,0.642737685527497,0
2.1400146484375,-1.14020180702209,2.47522854804993,1.84002232551575,-1.13856809990831,2.47592233495728,1.83888036987787,2163.314,2164.462,2165.834,2165.262,358.567352294922,44.996337890625,0.570982933044434,-1.05257630348206,-0.452751398086548,0.642365753650665,-1.05725481901126,-0.454907212340279,0.645860470797878,0
2.16000366210938,-1.16135203838348,2.46613097190857,1.85293531417847,-1.15975039167652,2.46680818657414,1.85182030137592,2168.054,2165.853,2156.316,2161.082,358.641998291016,44.9958229064941,0.542397975921631,-1.05751013755798,-0.454873323440552,0.645651578903198,-1.0620943502576,-0.456989527434725,0.648816864916866,0
2.18002319335938,-1.18259561061859,2.45699334144592,1.86590242385864,-1.18105931486702,2.45763955222766,1.86483759003381,2155.434,2158.801,2163.725,2164.75,358.717010498047,44.9960556030273,0.511255502700806,-1.06217610836029,-0.456876009702682,0.648356854915619,-1.0666743814704,-0.458960186914335,0.65161473451479,0
2.20001220703125,-1.20392727851868,2.4478178024292,1.87892878055573,-1.20242455577657,2.44844668594002,1.87788928230744,2163.463,2161.437,2154.143,2157.414,358.792144775391,44.9957008361816,0.481844067573547,-1.06658697128296,-0.458773374557495,0.651316463947296,-1.07097916161324,-0.460812413548163,0.654244457529281,0
2.22000122070313,-1.22534191608429,2.43860673904419,1.89200282096863,-1.22387315175433,2.43921795429519,1.89099189489151,2150.933,2155.014,2161.155,2160.67,358.868682861328,44.996021270752,0.450002908706665,-1.07072865962982,-0.460553199052811,0.653700351715088,-1.07501419914593,-0.462548577472581,0.656709398992482,0
2.24002075195313,-1.24683392047882,2.42936229705811,1.90512692928314,-1.24543261682529,2.42994151877688,1.90416223567455,2153.892,2155.122,2156.532,2155.556,358.948425292969,44.9960250854492,0.417982697486877,-1.07460701465607,-0.462224423885345,0.65620493888855,-1.07878346314438,-0.464170386470068,0.659011983550929,0
2.260009765625,-1.26839828491211,2.42008662223816,1.91830027103424,-1.26703177594152,2.42064800401982,1.91735682493042,2159.154,2156.508,2146.199,2151.417,359.027008056641,44.9954681396484,0.388147860765457,-1.07821035385132,-0.46377819776535,0.658666908740997,-1.08227399942825,-0.465672266718726,0.661144297698006,0
2.27999877929688,-1.29002904891968,2.4107825756073,1.93151080608368,-1.28869796983554,2.41132564607061,1.93059236468599,2146.308,2149.433,2153.417,2155.309,359.105560302734,44.9956817626953,0.355790674686432,-1.08153772354126,-0.46520808339119,0.660527050495148,-1.08549040888332,-0.467056197851165,0.663109152043028,0
2.30001831054688,-1.3117208480835,2.40145206451416,1.94476056098938,-1.31045892272318,2.4019625159737,1.94388579123207,2148.577,2149.431,2149.788,2150.007,359.186218261719,44.9956932067871,0.323191165924072,-1.08459556102753,-0.466525703668594,0.662488698959351,-1.08843572622736,-0.468323485621664,0.66490840044773,0
2.32000732421875,-1.33346843719482,2.39209747314453,1.95804870128632,-1.33224276726637,2.39258953623693,1.95719320193332,2153.15,2150.728,2140.583,2145.624,359.265411376953,44.9952049255371,0.292778521776199,-1.08737564086914,-0.467725455760956,0.664405822753906,-1.09109983431736,-0.469469776906228,0.666535862507326,0
2.33999633789063,-1.35526597499847,2.38272142410278,1.97136342525482,-1.35407709248145,2.38319483607731,1.97053145048929,2140.049,2143.642,2148.261,2149.449,359.344848632813,44.9955101013184,0.259875595569611,-1.0898802280426,-0.468802779912949,0.665738224983215,-1.09348640563071,-0.470496651869278,0.667993781680938,0
2.36001586914063,-1.37710809707642,2.37332630157471,1.98470711708069,-1.3759897762471,2.37376642042246,1.98391756706104,2142.481,2143.637,2144.586,2144.083,359.426818847656,44.9955787658691,0.226785063743591,-1.09211218357086,-0.469767183065414,0.667183697223663,-1.09559752564474,-0.471405007833448,0.669283431954129,0
2.3800048828125,-1.39898943901062,2.36391377449036,1.99807894229889,-1.39790843013262,2.36433543599182,1.99730733068585,2147.417,2144.869,2134.984,2139.789,359.507537841797,44.9951019287109,0.195869833230972,-1.09406304359436,-0.470612198114395,0.668591141700745,-1.09742594550583,-0.472191725819537,0.67040038511534,0
2.4000244140625,-1.4209041595459,2.35448718070984,2.01146721839905,-1.41989437329222,2.3548754988664,2.01073820027817,2134.421,2138.006,2142.306,2143.609,359.588500976563,44.9953994750977,0.162555173039436,-1.09573674201965,-0.471333503723145,0.669410765171051,-1.09897654259203,-0.472858904427064,0.671347620678712,0
2.42001342773438,-1.44284689426422,2.34504842758179,2.02487683296204,-1.44187496577138,2.34541786398928,2.02416580122331,2142.901,2140.378,2132.601,2136.114,359.669219970703,44.9950637817383,0.131066128611565,-1.09713423252106,-0.47193968296051,0.67047905921936,-1.1002439936861,-0.473404253224357,0.672121886773894,0
2.44000244140625,-1.46481204032898,2.33559989929199,2.03829622268677,-1.46387808506052,2.33595053645515,2.03760716344514,2130.103,2134.19,2139.432,2139.543,359.751037597656,44.995418548584,0.0972865000367165,-1.09825527667999,-0.472424477338791,0.67096734046936,-1.10123038958312,-0.473828671822132,0.672724460634977,0
2.46002197265625,-1.48679399490356,2.32614398002625,2.05172753334045,-1.48593173759011,2.32646146587939,2.051079395635,2133.221,2134.252,2134.837,2134.28,359.835601806641,44.9954490661621,0.063495971262455,-1.09909617900848,-0.472792953252792,0.671566724777222,-1.10193621258339,-0.474132367740737,0.673155636891692,0
2.48001098632813,-1.50878703594208,2.31668329238892,2.06516981124878,-1.5079630509786,2.31698200721197,2.06453798119217,2138.467,2135.464,2124.774,2130.102,359.918548583984,44.9949226379395,0.0319967120885849,-1.09964954853058,-0.473037987947464,0.67211389541626,-1.10235904000526,-0.474314298567936,0.673413935565619,0
2.5,-1.53078544139862,2.30721998214722,2.07861113548279,-1.52999999932945,2.30750012397766,2.0780000090599,2125.575,2128.627,2131.764,2134.151,0.00115330761764199,44.995174407959,-0.00186284445226192,-1.0999242067337,-0.473157733678818,0.672068655490875,-1.10250000050292,-0.474374949932098,0.673500046133994,0
2.52001953125,-1.55278372764587,2.29775714874268,2.09205341339111,-1.55207058900185,2.29800376582252,2.09148258788601,2127.858,2128.623,2128.331,2128.74,0.0854759812355042,44.9952201843262,359.964233398438,-1.09991693496704,-0.473159462213516,0.67211252450943,-1.10235860927677,-0.474314113237503,0.673413672440311,0
2.54000854492188,-1.57477617263794,2.28829646110535,2.10549569129944,-1.57410188948011,2.28852431271001,2.10494116555652,2132.556,2129.624,2119.326,2124.488,0.167939454317093,44.9947700500488,359.932495117188,-1.09962332248688,-0.473039150238037,0.672110438346863,-1.10193535162022,-0.474131997292339,0.673155110942729,0
2.55999755859375,-1.59675741195679,2.2788405418396,2.11892628669739,-1.59612191359838,2.27904971150017,2.11839285467467,2119.415,2123.028,2126.774,2128.309,0.25036609172821,44.9951171875,359.898529052734,-1.0990549325943,-0.472796589136124,0.671533405780792,-1.10123038958312,-0.473828671822132,0.672724460634977,0
2.58001708984375,-1.61872148513794,2.26939177513123,2.13234758377075,-1.6181586096433,2.26956793682606,2.13185472841265,2121.93,2122.89,2123.27,2123.02,0.334925830364227,44.9952125549316,359.864501953125,-1.09820508956909,-0.472436845302582,0.671059668064117,-1.10024227275454,-0.473403512755585,0.67212083548366,0
2.60000610351563,-1.64066290855408,2.25995254516602,2.14575839042664,-1.64013916343638,2.26011031859448,2.14528230572506,2126.893,2124.058,2114.009,2118.677,0.417890846729279,44.9947700500488,359.832763671875,-1.09706902503967,-0.471955150365829,0.670544683933258,-1.09897439291323,-0.472857979480329,0.671346307473476,0
2.6199951171875,-1.66257607936859,2.25052547454834,2.1591477394104,-1.66209156852628,2.2506648119635,2.15869268743396,2114.131,2117.5,2120.91,2122.708,0.500805735588074,44.9950866699219,359.798828125,-1.09566009044647,-0.471351474523544,0.669461905956268,-1.09742594550583,-0.472191725819537,0.67040038511534,0
2.6400146484375,-1.68445527553558,2.24111318588257,2.1725172996521,-1.68404365734903,2.24121944141343,2.17210287594018,2116.784,2117.415,2117.231,2117.453,0.585537970066071,44.9951629638672,359.764831542969,-1.09396886825562,-0.47062948346138,0.668473541736603,-1.09559452046326,-0.471403714787811,0.669281596135657,0
2.66000366210938,-1.70629525184631,2.23171758651733,2.18586611747742,-1.70592290617745,2.23180541187802,2.18546856763052,2121.652,2118.495,2108.161,2113.204,0.668322920799255,44.9947204589844,359.733123779297,-1.09199213981628,-0.469785422086716,0.667436361312866,-1.09348640563071,-0.470496651869278,0.667993781680938,0
2.68002319335938,-1.7280900478363,2.22234106063843,2.19918274879456,-1.72779052905813,2.22239638466312,2.1988271572108,2108.769,2112.113,2115.22,2117.181,0.750844478607178,44.995044708252,359.699249267578,-1.08974611759186,-0.468821108341217,0.665834486484528,-1.09109597826566,-0.469468117754907,0.666533506905514,0
2.70001220703125,-1.74983441829681,2.21298623085022,2.2124719619751,-1.74957429229274,2.21302343991116,2.21213451824191,2117.058,2114.318,2106.365,2109.594,0.832556128501892,44.9947662353516,359.667388916016,-1.0872175693512,-0.467738687992096,0.664458155632019,-1.08843144721369,-0.468321644481621,0.664905786465049,0
2.72000122070313,-1.77152299880981,2.2036554813385,2.2257227897644,-1.77130202882336,2.20367460188472,2.22540765343382,2104.618,2108.538,2112.778,2113.276,0.915042400360107,44.9951667785645,359.633514404297,-1.08442378044128,-0.466539680957794,0.662538409233093,-1.08549040888332,-0.467056197851165,0.663109152043028,0
2.74002075195313,-1.79314982891083,2.19435095787048,2.23893713951111,-1.79300125102058,2.19433803277934,2.23866336966442,2107.877,2108.508,2108.433,2108.193,0.999685049057007,44.9952392578125,359.599761962891,-1.08134925365448,-0.465223491191864,0.660718739032745,-1.08226887897249,-0.465670063529659,0.661141169691481,0
2.760009765625,-1.81470990180969,2.18507528305054,2.25211405754089,-1.81460030360772,2.18504456385877,2.25185789384333,2113.052,2109.651,2099.021,2104.067,1.08229124546051,44.9947509765625,359.568359375,-1.07799160480499,-0.46378555893898,0.65884393453598,-1.07877792518082,-0.464168003639063,0.659008600495412,0
2.77999877929688,-1.83619725704193,2.17583036422729,2.26524233818054,-1.83612684690458,2.17578229366013,2.2650081232283,2100.607,2103.4,2105.517,2108.257,1.16420686244965,44.9950294494629,359.534942626953,-1.07437086105347,-0.462229192256927,0.656412303447723,-1.07501419914593,-0.462548577472581,0.656709398992482,0
2.80001831054688,-1.85760641098022,2.16661977767944,2.27832341194153,-1.85760812647542,2.16653949917827,2.27813070170937,2103.05,2103.424,2102.324,2102.986,1.24720704555511,44.9951095581055,359.501678466797,-1.07047259807587,-0.460556179285049,0.654059410095215,-1.07097279461286,-0.460809674005774,0.654240568028104,0
2.82000732421875,-1.8789324760437,2.15744400024414,2.29135656356812,-1.87897323600723,2.1573466894188,2.29118231372639,2107.658,2104.195,2094.029,2099.009,1.32785701751709,44.994701385498,359.470611572266,-1.06629705429077,-0.458764553070068,0.651658415794373,-1.06666760390385,-0.458957270716794,0.65161059420515,0
2.83999633789063,-1.90016961097717,2.14830708503723,2.30433106422424,-1.90024960698239,2.14819206138118,2.30417971674389,2094.938,2098.413,2101.063,2102.794,1.40811491012573,44.9950790405273,359.437713623047,-1.06186652183533,-0.456859558820724,0.64872020483017,-1.06209435025759,-0.456989527434725,0.648816864916866,0
2.86001586914063,-1.92131304740906,2.13921022415161,2.31724882125854,-1.9214641634913,2.13906403038149,2.31713935826856,2097.81,2098.107,2097.678,2097.872,1.48980283737183,44.9951934814453,359.404907226563,-1.05716347694397,-0.454840540885925,0.645882248878479,-1.05724722779031,-0.454903946049977,0.645855833439456,0
2.8800048828125,-1.94235694408417,2.13015580177307,2.33010864257813,-1.94254691640495,2.12999271078668,2.33001848303364,2102.286,2099.144,2089.499,2093.805,1.56945872306824,44.9948120117188,359.374359130859,-1.05218839645386,-0.452705353498459,0.642991542816162,-1.0521429102862,-0.45270770082608,0.642737685527497,0
2.9000244140625,-1.96329617500305,2.12114691734314,2.34290051460266,-1.96355695821617,2.12095267674793,2.34285318972087,2090.42,2093.449,2095.71,2097.689,1.6487193107605,44.9951438903809,359.342010498047,-1.04696404933929,-0.450458914041519,0.639589250087738,-1.04676782045836,-0.450394949835786,0.639454127028293,0
2.92001342773438,-1.98412549495697,2.11218500137329,2.35562825202942,-1.98442500350686,2.11197373984504,2.35560115294953,2098.553,2095.208,2087.397,2090.703,1.72672295570374,44.9948883056641,359.311584472656,-1.04146814346313,-0.448098361492157,0.636388182640076,-1.04114045847258,-0.4479736531836,0.636016459404434,0
2.94000244140625,-2.00483989715576,2.10327243804932,2.36828184127808,-2.00517798053537,2.10304431360073,2.36827882277243,2086.804,2090.298,2093.252,2094.156,1.80499613285065,44.9952735900879,359.279510498047,-1.03572881221771,-0.44563090801239,0.632682621479034,-1.03525504859546,-0.445441325732794,0.632421154350513,0
2.96002197265625,-2.02543449401855,2.09441137313843,2.38086318969727,-2.02584216016808,2.09415309439512,2.38090224765189,2089.977,2090.211,2089.371,2089.415,1.88470923900604,44.995361328125,359.247772216797,-1.02972424030304,-0.443052381277084,0.629064321517944,-1.02910434715508,-0.442794850733705,0.628663786820389,0
2.98001098632813,-2.04590368270874,2.08560395240784,2.39337086677551,-2.04634944795115,2.08532938136936,2.39342982974865,2094.71,2091.053,2081.049,2085.718,1.9620658159256,44.9949493408203,359.218292236328,-1.02345633506775,-0.440360575914383,0.625389873981476,-1.02270954399162,-0.440043345582586,0.624757301356766,0
3,-2.06624269485474,2.07685279846191,2.40579509735107,-2.06672639957428,2.07656174835205,2.40587779151916,2083.224,2085.715,2086.923,2089.566,2.03847575187683,44.9952354431152,359.187194824219,-1.01695132255554,-0.437562167644501,0.621214985847473,-1.01606400046349,-0.437183953857422,0.620697642517089,0
3.02001953125,-2.0864462852478,2.06815981864929,2.41813731193542,-2.08699882657197,2.06783908936099,2.41826190082706,2085.699,2085.495,2084.025,2084.931,2.11542272567749,44.9953308105469,359.156311035156,-1.01018857955933,-0.434655219316483,0.617110133171082,-1.0091596546337,-0.434213206731958,0.616479885389866,0
3.04000854492188,-2.10650968551636,2.0595269203186,2.43039631843567,-2.10709998486405,2.05919012250926,2.43054138475531,2089.86,2086.384,2076.753,2081.077,2.18979597091675,44.9949798583984,359.127716064453,-1.00317168235779,-0.431639730930328,0.612955212593079,-1.00202031904361,-0.431141350077486,0.612118576685011,0
3.05999755859375,-2.12642812728882,2.05095648765564,2.44256281852722,-2.12705600675913,2.05060360379452,2.44273220712343,2078.445,2081.193,2082.865,2084.855,2.26343846321106,44.9953384399414,359.097564697266,-0.995928227901459,-0.428523331880569,0.60832679271698,-0.994638524886308,-0.427965170275055,0.607609153824944,0
3.08001708984375,-2.1461968421936,2.04245042800903,2.45463848114014,-2.14689219650438,2.04206864550612,2.45484982590117,2081.037,2081.018,2080.012,2080.299,2.33788275718689,44.9954681396484,359.067687988281,-0.988435804843903,-0.425302714109421,0.603778660297394,-0.987005430654711,-0.424680863071165,0.602946215670947,0
3.10000610351563,-2.16581106185913,2.034010887146,2.46662211418152,-2.16654331551667,2.03361331798384,2.46685438785611,2085.293,2081.846,2072.748,2076.659,2.40999531745911,44.9951438903809,359.0400390625,-0.980697989463806,-0.421977311372757,0.599186480045319,-0.979147395688901,-0.421299770153459,0.598145864732551,0
3.1199951171875,-2.18526601791382,2.02563953399658,2.47850489616394,-2.18603502400946,2.02522658035469,2.47876156841225,2074.516,2076.909,2078.273,2080.4,2.4813437461853,44.9954681396484,359.010894775391,-0.972742676734924,-0.418554782867432,0.594139993190765,-0.971056158224178,-0.417818336715394,0.593203054026623,0
3.1400146484375,-2.2045567035675,2.01733922958374,2.49028825759888,-2.20539207344272,2.01689778275692,2.49058648785022,2077.086,2076.891,2075.429,2075.905,2.55321550369263,44.9955787658691,358.982177734375,-0.964546740055084,-0.415031284093857,0.589164137840271,-0.962722140342815,-0.41423244164655,0.588111932552684,0
3.16000366210938,-2.22367906570435,2.00911092758179,2.50197124481201,-2.22455088103183,2.00865428308644,2.50229030443911,2081.359,2077.578,2068.346,2072.483,2.62246942520142,44.995246887207,358.955627441406,-0.956114768981934,-0.411406606435776,0.584146022796631,-0.954174163352092,-0.410554485950274,0.582890106797601,0
3.18002319335938,-2.24262881278992,2.00095748901367,2.51354479789734,-2.24356543975693,2.00047284967231,2.51390600164794,2070.652,2072.962,2073.931,2076.083,2.69072246551514,44.9955787658691,358.927734375,-0.947476327419281,-0.407689720392227,0.578683078289032,-0.945389654806993,-0.406774757334075,0.577523787606953,0
3.20001220703125,-2.26140069961548,1.992879986763,2.52501273155212,-2.26237335188561,1.99238033051557,2.52539546167567,2077.818,2074.293,2067.224,2069.988,2.75725531578064,44.9954109191895,358.901702880859,-0.938603043556213,-0.40387424826622,0.573391675949097,-0.93639902618694,-0.402906341007952,0.572031552878955,0
3.22000122070313,-2.27999138832092,1.98488068580627,2.53636646270752,-2.28099938900442,1.98436606709459,2.53677381709797,2067.765,2070.493,2072.129,2073.024,2.82356262207031,44.9957809448242,358.874572753906,-0.92953085899353,-0.399971753358841,0.567684829235077,-0.927192788821982,-0.398945154262308,0.566407606133204,0
3.24002075195313,-2.29839611053467,1.97696089744568,2.547607421875,-2.29946728755973,1.97641984627959,2.54805556813954,2070.684,2070.272,2068.932,2069.142,2.89050269126892,44.9958724975586,358.847930908203,-0.920234858989716,-0.395975470542908,0.562051057815552,-0.917760245372928,-0.394886594330938,0.560645412532115,0
3.260009765625,-2.31661081314087,1.96912324428558,2.55873489379883,-2.31771654397337,1.96856770107001,2.5592037541086,2074.849,2071.113,2062.072,2065.891,2.954829454422,44.995548248291,358.823486328125,-0.910720348358154,-0.391885310411453,0.55637127161026,-0.908134108040216,-0.390744736359816,0.55476495544847,0
3.27999877929688,-2.33463096618652,1.96136927604675,2.56974053382874,-2.33577134012187,1.96079922667992,2.57023314733618,2065.233,2066.706,2066.854,2069.529,3.0177800655365,44.9958152770996,358.797882080078,-0.901017427444458,-0.387710183858871,0.550282180309296,-0.898304216251578,-0.386515208538549,0.548760027947228,0
3.30001831054688,-2.35245299339294,1.95370030403137,2.58062553405762,-2.35365475236716,1.95310449399547,2.58115784481168,2067.552,2066.72,2064.504,2065.483,3.0804226398468,44.995906829834,358.772796630859,-0.891103029251099,-0.383446037769318,0.544251024723053,-0.88825927318574,-0.382193150160541,0.542623728976554,0
3.32000732421875,-2.37007284164429,1.94611835479736,2.59138894081116,-2.37130830610839,1.94550866300381,2.59194212531393,2070.947,2067.386,2058.846,2062.401,3.14022421836853,44.9956665039063,358.749786376953,-0.880984365940094,-0.37909460067749,0.538175523281097,-0.878034183119985,-0.377793579561194,0.536377381014769,0
3.33999633789063,-2.38748669624329,1.93862497806549,2.6020233631134,-2.38875555478454,1.93800159931817,2.60260037727124,2061.589,2063.304,2063.816,2065.751,3.19883322715759,44.9959983825684,358.725799560547,-0.870691120624542,-0.374665349721909,0.531725347042084,-0.867618167158097,-0.373311858882592,0.530014399402376,0
3.36001586914063,-2.40469026565552,1.93122220039368,2.61253023147583,-2.40601888046917,1.93057367255756,2.6131462735431,2063.92,2063.262,2061.602,2061.97,3.25739622116089,44.9961433410645,358.702331542969,-0.860199928283691,-0.370153427124023,0.525342702865601,-0.856999388527103,-0.368742895092007,0.523527553239473,0
3.3800048828125,-2.42168116569519,1.92391061782837,2.6229088306427,-2.42304196557559,1.92324911460621,2.6235454105946,2067.648,2063.939,2055.784,2059.048,3.31328845024109,44.9958953857422,358.680938720703,-0.849517583847046,-0.365559786558151,0.518930554389954,-0.846214826007803,-0.364102599125748,0.516939432286212,0
3.39999389648438,-2.43845462799072,1.91669297218323,2.63315200805664,-2.43984769972619,1.91601807669906,2.63381177133889,2058.613,2060.178,2060.472,2062.36,3.36795115470886,44.9962043762207,358.658630371094,-0.838674306869507,-0.360894173383713,0.512154281139374,-0.835253140422974,-0.35938609205264,0.510243109616171,0
3.42001342773438,-2.45500755310059,1.9095698595047,2.64326095581055,-2.45645774020782,1.90887124031063,2.64395858587455,2061.255,2060.136,2058.078,2058.763,3.42226624488831,44.9963150024414,358.636901855469,-0.827646195888519,-0.356150895357132,0.505450546741486,-0.824102019042908,-0.354588076049064,0.503431063574906,0
3.44000244140625,-2.47133636474609,1.90254330635071,2.65323519706726,-2.47281804716281,1.90183185728196,2.6539528420958,2064.491,2060.871,2052.839,2056.023,3.47375130653381,44.9960899353027,358.617248535156,-0.816441774368286,-0.351332277059555,0.498707711696625,-0.812800388649434,-0.349725300221754,0.496527073925997,0
3.46002197265625,-2.4874382019043,1.89561438560486,2.66306781768799,-2.48897526921199,1.89487985601472,2.66382303691717,2056.286,2057.335,2057.095,2059.145,3.52373290061951,44.9963798522949,358.596832275391,-0.805090129375458,-0.346447616815567,0.491634428501129,-0.801318788528228,-0.344785088448372,0.489513143578788,0
3.48001098632813,-2.50330924987793,1.88878452777863,2.67276167869568,-2.50487694859767,1.88803780761656,2.67353712471306,2061.981,2058.486,2052.152,2054.3,3.57155585289001,44.996280670166,358.578155517578,-0.793565392494202,-0.341490358114243,0.484693229198456,-0.789697369743255,-0.339784716610052,0.482413800191712,0
3.5,-2.51894760131836,1.88205504417419,2.68231058120728,-2.5205447997813,1.88129636896134,2.68310837050915,2054.266,2055.654,2055.952,2056.958,3.61846017837524,44.9965972900391,358.558959960938,-0.781903564929962,-0.336472988128662,0.477445781230927,-0.777924000354857,-0.334718964672089,0.475221632552147,0
3.52001953125,-2.53434920310974,1.87542724609375,2.69171571731567,-2.53599921507943,1.87464676580493,2.69254923165338,2056.668,2055.569,2053.68,2054.022,3.66504788398743,44.9967041015625,358.540435791016,-0.770082950592041,-0.331389218568802,0.470260202884674,-0.765985728654519,-0.329582259876133,0.467928728663466,0
3.54000854492188,-2.54951119422913,1.86890244483948,2.70097684860229,-2.55119019794619,1.86811051026429,2.70182916603607,2060.147,2056.308,2048.532,2051.566,3.70878005027771,44.9964790344238,358.523895263672,-0.758111178874969,-0.326240539550781,0.463051527738571,-0.753924423002452,-0.324392617007921,0.460560665253582,0
3.55999755859375,-2.56443166732788,1.86248159408569,2.71008777618408,-2.56613872308604,1.86167857751006,2.71096098677687,2052.839,2053.29,2052.231,2054.474,3.75062990188599,44.9967155456543,358.506866455078,-0.746017336845398,-0.321036458015442,0.45554330945015,-0.741727567798258,-0.319144650954242,0.45310979673751,0
3.58001708984375,-2.57910704612732,1.85616612434387,2.71904945373535,-2.58086439685043,1.85534253147694,2.71995667108993,2054.659,2053.245,2050.771,2051.661,3.79140949249268,44.9968338012695,358.490539550781,-0.733782410621643,-0.315773069858551,0.448085874319077,-0.729381927869994,-0.313832666990361,0.445568037955247,0
3.60000610351563,-2.59353590011597,1.84995698928833,2.72786164283752,-2.59531978247425,1.84912278287974,2.72878724059568,2057.573,2053.9,2046.617,2049.355,3.82918858528137,44.9966735839844,358.476104736328,-0.721414685249329,-0.310452967882156,0.440613597631454,-0.716930938559024,-0.308475354130224,0.437961922879033,0
3.6199951171875,-2.60771417617798,1.84385550022125,2.73651909828186,-2.60952509409627,1.84301063413925,2.73746504379605,2050.546,2051.046,2050.483,2052.184,3.86525011062622,44.9969673156738,358.461242675781,-0.708942472934723,-0.305085957050323,0.432874232530594,-0.704361775018033,-0.303067194200314,0.43028361700977,0
3.6400146484375,-2.62164115905762,1.83786189556122,2.74502325057983,-2.62349913748426,1.83699799365897,2.74600156884113,2052.783,2051.303,2048.819,2049.283,3.90029883384705,44.9970932006836,358.447204589844,-0.696346402168274,-0.299667596817017,0.425205081701279,-0.691660998977508,-0.297602405088683,0.422524911118315,0
3.66000366210938,-2.63531422615051,1.83197796344757,2.75337362289429,-2.63719712493647,1.83110413233575,2.75436945562281,2055.24,2051.814,2045.129,2047.492,3.93251395225525,44.9969673156738,358.434997558594,-0.683636844158173,-0.29420080780983,0.41751566529274,-0.678873453515702,-0.29210028151913,0.414713199141411,0
3.68002319335938,-2.64873075485229,1.82620406150818,2.76156544685364,-2.65065881779682,1.8253119419741,2.76259299372562,2049.247,2049.281,2048.366,2050.067,3.9629271030426,44.9972267150879,358.422485351563,-0.670839011669159,-0.288694053888321,0.409596353769302,-0.665966334939126,-0.286546708978778,0.406828441814594,0
3.70001220703125,-2.66188955307007,1.82054138183594,2.76960134506226,-2.66384123964357,1.81963991412768,2.77064592952416,2053.921,2050.442,2044.642,2046.332,3.99088644981384,44.9971733093262,358.411682128906,-0.657932996749878,-0.283142298460007,0.401791661977768,-0.65298533214413,-0.280961346123326,0.398898549771683,0
