t,x_s1,x_s2,x_s3,x_s_d1,x_s_d2,x_s_d3,propellers_rpms1,propellers_rpms2,propellers_rpms3,propellers_rpms4,rollRad,pitchRad,yawRad,v_s1,v_s2,v_s3,v_s_d1,v_s_d2,v_s_d3,insideCount
0,-0.0599999986588955,2.94000005722046,1.17999994754791,-0.0599999986588955,2.94000005722046,1.17999994754791,0,0,0,0,0,45.0048027038574,0,0,0,0,-1.06581410364015E-15,4.44089209850063E-16,-7.105427357601E-16,0
0.019989013671875,-0.0599999986588955,2.94000005722046,1.17705690860748,-0.0600018659130177,2.93999925379318,1.18000108822432,0,0,0,0,0.937003672122955,44.8630027770996,-0.00115976633969694,3.71994488546079E-08,3.50004931704007E-08,-0.147149950265884,-0.000279680311988734,-0.000120338624884473,0.000170852338267345,5
0.040008544921875,-0.0599999986588955,2.94000005722046,1.17018985748291,-0.060014880898484,2.93999365380853,1.18000903887584,0,0,0,0,1.87400352954865,44.7211418151855,-0.00311126722954214,3.70364325874561E-08,3.5142885934647E-08,-0.343349903821945,-0.00111143977225461,-0.000478221483967637,0.000678961213193342,6
0.05999755859375,-0.0599062219262123,2.94009447097778,1.16346526145935,-0.0600498857373401,2.93997859220429,1.18003042278566,3197.771,2848.928,1516.765,2782.162,1.40346252918243,44.741325378418,0.0290413368493319,0.0046889022924006,0.00471907574683428,-0.336228758096695,-0.00247936261166862,-0.00106680046642749,0.00151460392977639,6
0.079986572265625,-0.0597377978265285,2.94026732444763,1.15723741054535,-0.0601174907153006,2.93994950367094,1.18007172161174,2865.126,2651.488,2344.996,2562.505,0.339350700378418,44.815845489502,0.0998695567250252,0.00842118635773659,0.00864443555474281,-0.311391800642014,-0.00437104534358026,-0.00188073869847162,0.0026702033915743,6
0.100006103515625,-0.0595563463866711,2.94046425819397,1.15151929855347,-0.0602282404704493,2.93990185114529,1.18013937690895,2239.701,2528.041,3138.323,2508.551,359.321472167969,44.9191513061523,0.178510576486588,0.00907254219055176,0.00984819047152996,-0.285907328128815,-0.00677739276378709,-0.00291612276782231,0.00414020348026766,5
0.1199951171875,-0.0594244822859764,2.94063210487366,1.14656901359558,-0.0603918861403606,2.93983143898525,1.18023934549506,2124.44,2455.036,3351.265,2464.171,358.749908447266,44.9998779296875,0.253433853387833,0.00659324321895838,0.008397008292377,-0.247517332434654,-0.00967801353495435,-0.00416417885169243,0.00591214744607921,5
0.139984130859375,-0.0593831054866314,2.94074010848999,1.14257049560547,-0.0606183773949454,2.93973398612584,1.18037770546816,2311.774,2456.427,3069.449,2463.653,358.636108398438,45.0326805114746,0.326424688100815,0.00206880643963814,0.00539796240627766,-0.19992707669735,-0.0130632593357409,-0.00562075554695178,0.00798014128006072,5
0.160003662109375,-0.0594435073435307,2.9407856464386,1.13952422142029,-0.0609177895434042,2.93960515744296,1.18056061167741,2536.524,2486.665,2635.61,2491.924,358.757110595703,45.0250129699707,0.398135364055634,-0.00302010914310813,0.00227865506894886,-0.152316197752953,-0.0169265510445065,-0.00728302204135792,0.0103401658994673,5
0.17999267578125,-0.059600256383419,2.94078159332275,1.13730943202972,-0.0612985250199726,2.93944133760391,1.18079319703879,2667.235,2506.403,2301.805,2512.912,358.864379882813,44.9985237121582,0.467453360557556,-0.00783753953874111,-0.000198418507352471,-0.110740087926388,-0.0212433804254414,-0.00914043312572283,0.0129772496054864,5
0.199981689453125,-0.0598478391766548,2.94073987007141,1.13576102256775,-0.0617700327574899,2.93923846099686,1.18108123375791,2652.942,2499.872,2183.712,2508.921,358.817047119141,44.9744071960449,0.532877624034882,-0.0123791415244341,-0.00209134351462126,-0.0774182230234146,-0.0260066742439309,-0.011189945384795,0.0158870714694674,5
0.220001220703125,-0.0601897947490215,2.94066214561462,1.13474524021149,-0.0623420644491781,2.93899233174064,1.18143067899198,2540.209,2470.409,2245.982,2478.916,358.612640380859,44.9637107849121,0.59440678358078,-0.0170977562665939,-0.00388137437403202,-0.0507894828915596,-0.03121219533433,-0.0134297356845702,0.0190670430730375,5
0.239990234375,-0.0606390722095966,2.9405415058136,1.13419365882874,-0.0630214373585105,2.93870001655724,1.18184569730089,2412.621,2430.166,2373.306,2436.922,358.334777832031,44.965877532959,0.65273243188858,-0.0224638562649488,-0.00603215303272009,-0.0275796707719564,-0.0368316683029241,-0.015847637913056,0.0224998914194052,5
0.259979248046875,-0.0612134411931038,2.94036602973938,1.13409054279327,-0.0638172488896441,2.93835760108779,1.18233184614686,2328.942,2391.631,2463.067,2398.999,358.076385498047,44.9738960266113,0.707733929157257,-0.0287184026092291,-0.00876814685761929,-0.00515626929700375,-0.0428604193878216,-0.0184416410810803,0.0261827613803636,4
0.279998779296875,-0.0619299821555614,2.94012498855591,1.13444042205811,-0.0647390625194898,2.93796097043536,1.18289496770872,2305.526,2364.985,2470.454,2370.648,357.887329101563,44.980354309082,0.760373055934906,-0.03582713752985,-0.0120562603697181,0.017495034262538,-0.0492963837173861,-0.0212108567320638,0.0301143915580518,4
0.29998779296875,-0.0628015398979187,2.93981075286865,1.13523662090302,-0.0657918945890516,2.93750796620855,1.18353812639089,2318.509,2348.755,2414.679,2353.016,357.765228271484,44.9817428588867,0.811385750770569,-0.0435778461396694,-0.0157068222761154,0.0398076400160789,-0.0561078595514081,-0.0241416444928383,0.0342754158540715,4
0.32000732421875,-0.0638363435864449,2.93942022323608,1.13644921779633,-0.0669865614821475,2.93699393441958,1.18426792975347,2333.944,2336.069,2343.33,2342.156,357.678741455078,44.9788589477539,0.85997074842453,-0.0517400912940502,-0.0195230301469564,0.0606291368603706,-0.0633036493784043,-0.0272377918282996,0.0386712115712976,4
0.339996337890625,-0.0650399923324585,2.93895220756531,1.13803648948669,-0.068326768706371,2.93641728069206,1.18508664143323,2338.821,2325.203,2285.892,2329.576,357.594268798828,44.9741096496582,0.906767606735229,-0.0601826198399067,-0.0234037190675735,0.0793650448322296,-0.0708499516420146,-0.0304847548730522,0.0432811298664125,4
0.3599853515625,-0.066417507827282,2.93840527534485,1.13995063304901,-0.0698213312158394,2.93577421219747,1.18599964634808,2321.159,2310.075,2262.675,2316.462,357.494262695313,44.9703330993652,0.95079892873764,-0.0688756853342056,-0.0273409448564053,0.0957063809037209,-0.0787457139191101,-0.0338820807988248,0.0481045278305496,4
0.3800048828125,-0.0679748207330704,2.93777751922607,1.14215350151062,-0.0714797725314022,2.93506063123087,1.18701276226829,2295.199,2294.251,2261.523,2299.442,357.3798828125,44.968620300293,0.992525100708008,-0.0778657197952271,-0.0313893295824528,0.110141381621361,-0.0869921272359981,-0.0374302820709642,0.0531421330430943,4
0.399993896484375,-0.0697188302874565,2.93706560134888,1.14461731910706,-0.0733036822025899,2.9342758538535,1.18812696022487,2270.027,2278.516,2267.061,2282.266,357.261749267578,44.9687042236328,1.03256928920746,-0.0872004702687263,-0.035599410533905,0.123191684484482,-0.0955525119207663,-0.0411135764513579,0.0583715384648505,4
0.41998291015625,-0.0716567039489746,2.93626594543457,1.14732027053833,-0.075301871434707,2.93341608884986,1.18934762284564,2247.943,2262.342,2271.747,2268.381,357.151977539063,44.9699211120605,1.06998217105865,-0.096893735229969,-0.0399885699152946,0.135146781802177,-0.104427768518458,-0.0449323514193797,0.0637932942247324,4
0.44000244140625,-0.0737953186035156,2.93537497520447,1.15024757385254,-0.077483988232608,2.93247718495301,1.19068064394622,2237.637,2250.382,2263.979,2255.022,357.057250976563,44.971076965332,1.10541784763336,-0.106930583715439,-0.044547725468874,0.14636804163456,-0.113620829717891,-0.048887868829098,0.0694091918565748,4
0.459991455078125,-0.0761406049132347,2.9343900680542,1.15338432788849,-0.0798493430620752,2.93145943885026,1.1921256023009,2233.732,2241.252,2247.12,2244.134,356.975860595703,44.971622467041,1.13965547084808,-0.117264203727245,-0.0492418520152569,0.156840458512306,-0.123092454730403,-0.0529632444654124,0.0751952597749251,4
0.47998046875,-0.0786974802613258,2.93330931663513,1.15671122074127,-0.082406855753501,2.93035901258777,1.1936879468949,2226.646,2231.197,2233.473,2236.888,356.903472900391,44.9719200134277,1.17147731781006,-0.127843990921974,-0.0540339723229408,0.166346237063408,-0.132845337826091,-0.057159637597476,0.0811531438673414,4
0.5,-0.0814704149961472,2.93213105201721,1.16021227836609,-0.085166398670376,2.92917165836334,1.195373708601,2222.091,2223.968,2220.109,2228.192,356.836090087891,44.9720458984375,1.20150434970856,-0.138646960258484,-0.0589102804660797,0.175050839781761,-0.142884000065179,-0.0614789935111996,0.0872856059789651,5
0.519989013671875,-0.0844635218381882,2.93085384368896,1.16387188434601,-0.0881248588203387,2.92789871561062,1.19718098574075,2216.806,2217.718,2209.65,2220.081,356.770172119141,44.9722290039063,1.23052024841309,-0.149655237793922,-0.0638625100255013,0.18298077583313,-0.153166947611899,-0.0659034585682559,0.0935672981730243,5
0.540008544921875,-0.0876806676387787,2.92947602272034,1.16767334938049,-0.0912963635428427,2.92653410573011,1.19911840848537,2205.606,2209.109,2208.424,2214.651,356.706024169922,44.9729957580566,1.25713694095612,-0.16085746884346,-0.0688873156905174,0.19007433950901,-0.163714777034477,-0.0704418948965508,0.100010802571645,5
0.55999755859375,-0.0911259427666664,2.92799615859985,1.17160797119141,-0.094676112580471,2.92507989413848,1.20118304443252,2201.203,2204.442,2203.441,2206.636,356.64501953125,44.9738960266113,1.28280925750732,-0.172263726592064,-0.0739954262971878,0.196731775999069,-0.17448465888317,-0.0750758741803766,0.106589955332319,5
0.579986572265625,-0.0948030203580856,2.92641258239746,1.17566394805908,-0.0982734311149,2.92353206847056,1.20338059019015,2192.215,2197.359,2203.766,2202.674,356.588989257813,44.9751625061035,1.30618953704834,-0.183854043483734,-0.0791769102215767,0.202799379825592,-0.185481935470438,-0.0798076950675377,0.113308019990364,5
0.600006103515625,-0.0987155586481094,2.92472386360168,1.17983567714691,-0.102098762959148,2.92188613504538,1.20571742572067,2189.555,2193.604,2199.479,2197.056,356.539215087891,44.976390838623,1.32809948921204,-0.195627003908157,-0.0844326168298721,0.208584249019623,-0.196713446836865,-0.0846403006364086,0.120169175019836,5
0.6199951171875,-0.10286682844162,2.92292881011963,1.18411755561829,-0.106144683970236,2.92014528826426,1.208189015731,2189.303,2191.273,2192.318,2192.585,356.493896484375,44.9773635864258,1.3494633436203,-0.207563370466232,-0.0897505804896355,0.214096024632454,-0.208134604141382,-0.0895545055543457,0.127146181793521,5
0.639984130859375,-0.10725960880518,2.92102646827698,1.18850064277649,-0.110420882305709,2.91830535958365,1.21080127856538,2183.408,2186.273,2192.026,2191.464,356.452514648438,44.9785461425781,1.36859726905823,-0.21963931620121,-0.0951159968972206,0.219155386090279,-0.219752140575416,-0.0945532069255159,0.134243153512991,5
0.660003662109375,-0.111896753311157,2.91901588439941,1.19298183917999,-0.114938248900541,2.91636166293851,1.21356086732604,2182.783,2184.63,2188.644,2187.838,356.415222167969,44.9796600341797,1.38636517524719,-0.231857031583786,-0.100532531738281,0.224061965942383,-0.231574097577923,-0.0996398647564507,0.141465002567821,5
0.67999267578125,-0.116780802607536,2.91689610481262,1.19755828380585,-0.119686638739014,2.91431856344567,1.2164615845812,2183.563,2184.106,2183.756,2184.951,356.380157470703,44.9806060791016,1.40378272533417,-0.244203060865402,-0.105993427336216,0.228820621967316,-0.243554411173546,-0.104794659005432,0.14878358919428,5
0.699981689453125,-0.121913999319077,2.91466641426086,1.20222330093384,-0.124676182095571,2.91217170233105,1.21950961875744,2177.869,2180.325,2186.804,2185.373,356.34765625,44.981876373291,1.41902422904968,-0.256659477949142,-0.111489035189152,0.233249574899673,-0.25570106256044,-0.110021023759057,0.156203788981777,5
0.720001220703125,-0.127298697829247,2.91232585906982,1.20697700977325,-0.129918284978346,2.90991617190799,1.22271193760712,2178.215,2180.056,2185.787,2182.936,356.318969726563,44.9831047058105,1.43303859233856,-0.269235193729401,-0.117027327418327,0.237685784697533,-0.268023157655716,-0.11532287703907,0.163731164592979,5
0.739990234375,-0.132937043905258,2.90987372398376,1.21181952953339,-0.135400001298574,2.90755754251682,1.22606063256665,2180.475,2180.932,2182.106,2181.237,356.292602539063,44.9841117858887,1.44693744182587,-0.28191739320755,-0.122601956129074,0.242123961448669,-0.280473432677602,-0.12067988256057,0.171336843321139,5
0.759979248046875,-0.13883076608181,2.90730977058411,1.21674644947052,-0.141131974150567,2.90509123473139,1.22956220533626,2175.901,2178.158,2186.232,2183.079,356.268951416016,44.9853935241699,1.45871591567993,-0.294685900211334,-0.128201201558113,0.246343791484833,-0.293060978423328,-0.126095951839638,0.179026378592425,5
0.779998779296875,-0.144981771707535,2.90463304519653,1.22176015377045,-0.147126184485884,2.90251209348295,1.2332239748923,2177.822,2179.08,2185.492,2181.743,356.2490234375,44.9865493774414,1.46936500072479,-0.307550430297852,-0.133833065629005,0.25068673491478,-0.305795832832518,-0.131575403921268,0.186805902427515,5
0.79998779296875,-0.151391699910164,2.90184330940247,1.2268625497818,-0.153366821193532,2.89982692185086,1.23703628247379,2181.383,2181.133,2182.015,2180.979,356.230926513672,44.9874305725098,1.48009729385376,-0.320496886968613,-0.139490246772766,0.255118697881699,-0.318629798715703,-0.137097500901303,0.194645971915464,5
0.82000732421875,-0.158061787486076,2.89894008636475,1.23205029964447,-0.159875221826383,2.89702653888221,1.24101216285881,2177.282,2178.988,2187.131,2183.912,356.214904785156,44.9886093139648,1.48870694637299,-0.33350470662117,-0.145160913467407,0.259389340877533,-0.331592781842754,-0.14267511039705,0.202564856024417,5
0.839996337890625,-0.164993613958359,2.89592289924622,1.23732888698578,-0.166633637018892,2.89411858163313,1.24514077323692,2182.603,2182.217,2184.086,2182.221,356.200866699219,44.9894752502441,1.49733555316925,-0.346591621637344,-0.15085743367672,0.26393073797226,-0.344636106234817,-0.148287288494656,0.210532819358465,5
0.8599853515625,-0.17218816280365,2.89279174804688,1.24269580841064,-0.173653699721778,2.89109804476993,1.2494292199962,2178.668,2180.633,2189.756,2185.379,356.189208984375,44.9906234741211,1.50391805171967,-0.359726577997208,-0.156563565135002,0.268343895673752,-0.357770416714212,-0.153938615363784,0.218556364673454,5
0.8800048828125,-0.179646611213684,2.88954591751099,1.24815583229065,-0.180948461186242,2.88795931270381,1.25388547594233,2181.978,2182.807,2189.609,2184.98,356.180969238281,44.9916000366211,1.50958383083344,-0.372923076152802,-0.162288933992386,0.273000866174698,-0.371007022483504,-0.159633957038354,0.226642400584755,5
0.899993896484375,-0.1873699426651,2.88618540763855,1.25371265411377,-0.18849723509595,2.8847112861788,1.25849690412748,2186.845,2185.969,2186.31,2185.111,356.173980712891,44.9922485351563,1.51563763618469,-0.386166244745255,-0.16802567243576,0.277839541435242,-0.384296738353309,-0.165352150505452,0.234760880627692,5
0.91998291015625,-0.195358604192734,2.88271021842957,1.25936388969421,-0.196312316554895,2.88134867495511,1.2632710154388,2182.885,2184.257,2192.623,2189.139,356.16845703125,44.9932060241699,1.5195848941803,-0.399434328079224,-0.173761337995529,0.282562494277954,-0.397650971463704,-0.171098103938772,0.242918773246135,5
0.94000244140625,-0.203613504767418,2.87912011146545,1.2651150226593,-0.204407453948074,2.87786556348678,1.26821620855017,2186.238,2186.788,2193.129,2188.878,356.165771484375,44.9940338134766,1.52264785766602,-0.412744164466858,-0.17950838804245,0.287558019161224,-0.411081631631503,-0.176876941799768,0.251123353961324,5
0.959991455078125,-0.212135151028633,2.87541484832764,1.27097034454346,-0.212759000778906,2.87427212620069,1.27331803818581,2191.24,2190.205,2190.236,2189.144,356.163940429688,44.9945487976074,1.52618610858917,-0.426082283258438,-0.185260325670242,0.292763888835907,-0.424539267042903,-0.182667386354485,0.259344413431889,5
0.97998046875,-0.220923662185669,2.87159466743469,1.27692759037018,-0.221379956358585,2.87056276985637,1.27858444542207,2186.953,2188.513,2197.293,2193.38,356.163543701172,44.9954261779785,1.52762091159821,-0.439426779747009,-0.191004887223244,0.297862529754639,-0.438035925118965,-0.188474621271639,0.267589311239359,5
1,-0.229979574680328,2.86765956878662,1.28299283981323,-0.230284798736574,2.86673126495361,1.28402427467346,2190.576,2191.198,2197.805,2193.147,356.166076660156,44.9961318969727,1.52823376655579,-0.45279598236084,-0.196755304932594,0.303262621164322,-0.451584000205995,-0.194303979492187,0.275865618896484,5
1.01998901367188,-0.239303082227707,2.86360955238342,1.28917062282562,-0.239446912293295,2.86278906344998,1.2896212668733,2195.966,2194.794,2194.486,2193.445,356.169464111328,44.9964942932129,1.52944672107697,-0.466175377368927,-0.202504053711891,0.308888345956802,-0.46513400752272,-0.200134169097193,0.284143106922576,5
1.04000854492188,-0.248893901705742,2.85944485664368,1.29545855522156,-0.248894644448595,2.85872396824263,1.29539273901802,2191.455,2192.922,2201.635,2197.918,356.174133300781,44.9972229003906,1.52850151062012,-0.479541480541229,-0.208237871527672,0.314394623041153,-0.47871923339115,-0.205979512261105,0.292442109412331,5
1.05999755859375,-0.258752286434174,2.85516548156738,1.30186450481415,-0.258599401509697,2.85454828239877,1.3013212236669,2198.581,2197.478,2198.091,2196.395,356.180206298828,44.9975547790527,1.52804434299469,-0.492919921875,-0.213973507285118,0.32029989361763,-0.492290296490434,-0.211818761581115,0.30073246008742,5
1.07998657226563,-0.268877744674683,2.85077166557312,1.30838596820831,-0.268575430648764,2.85025587575821,1.30741542419509,2193.875,2195.769,2205.188,2200.634,356.188110351563,44.9982414245605,1.52548694610596,-0.506273448467255,-0.219691425561905,0.326075196266174,-0.50586005237609,-0.217657448443621,0.309022012206103,5
1.10000610351563,-0.279270172119141,2.84626364707947,1.3150292634964,-0.278838480013141,2.84583997233313,1.31368496090006,2197.943,2198.548,2204.83,2200.17,356.199188232422,44.9987144470215,1.52225017547607,-0.519621431827545,-0.225404620170593,0.332162380218506,-0.519441457145546,-0.223501147495394,0.317318680446121,5
1.1199951171875,-0.289929121732712,2.841641664505,1.32179844379425,-0.289357002179081,2.84131414609862,1.32011056195293,2203.671,2202.159,2200.451,2200.297,356.210815429688,44.9987945556641,1.51983511447906,-0.532947480678558,-0.231103986501694,0.33846178650856,-0.532985466132485,-0.229328756186667,0.32559250418615,5
1.13998413085938,-0.300853669643402,2.83690619468689,1.32869029045105,-0.300146026259498,2.83667193044725,1.32670140840426,2198.356,2199.749,2207.741,2204.857,356.223327636719,44.9992866516113,1.51521074771881,-0.546227097511292,-0.236775502562523,0.344590753316879,-0.546505271550557,-0.235145950758426,0.333851542343647,5
1.16000366210938,-0.312043339014053,2.8320574760437,1.3357105255127,-0.311222084148811,2.83190621216671,1.33346759933036,2201.844,2202.318,2207.772,2204.03,356.238464355469,44.9996337890625,1.50986540317535,-0.559482753276825,-0.242435246706009,0.351010859012604,-0.560014026276883,-0.240958390526247,0.342103829805999,6
1.17999267578125,-0.323497295379639,2.8270959854126,1.34286308288574,-0.322550701230474,2.8270318247214,1.34038807472597,2207.13,2205.779,2203.616,2203.714,356.253875732422,44.9996185302734,1.50542449951172,-0.572699904441833,-0.248075932264328,0.35762944817543,-0.573463232144024,-0.246745208083563,0.350319739799517,6
1.19998168945313,-0.335214406251907,2.82202219963074,1.35014414787292,-0.334147705564643,2.8220419577392,1.34747250370603,2201.145,2202.917,2211.262,2208.122,356.270355224609,45.0000534057617,1.49873208999634,-0.585854530334473,-0.253683775663376,0.364054501056671,-0.586866312357874,-0.25251217906087,0.358507472351216,6
1.22000122070313,-0.347193777561188,2.81683659553528,1.35755944252014,-0.346030421585499,2.81692915700008,1.35473146949704,2204.563,2205.291,2210.95,2206.944,356.289825439453,45.0003280639648,1.49134421348572,-0.598969399929047,-0.259274780750275,0.370765775442123,-0.600236516861372,-0.258265004538453,0.366675121644476,6
1.239990234375,-0.359434306621552,2.81153988838196,1.36511266231537,-0.358161486344149,2.81170949873715,1.36214214765657,2209.982,2208.605,2206.016,2206.338,356.309692382813,45.0002136230469,1.48495042324066,-0.612028658390045,-0.264840543270111,0.377661883831024,-0.613526094901141,-0.263983138701136,0.374793517489195,6
1.25997924804688,-0.371934473514557,2.80613255500793,1.37279915809631,-0.370557537648727,2.80637582416637,1.36971470196197,2203.552,2205.324,2213.397,2210.689,356.330657958984,45.000545501709,1.47623515129089,-0.625006854534149,-0.270366042852402,0.384326428174973,-0.626748599474006,-0.269672413024826,0.382870939199643,6
1.27999877929688,-0.384692996740341,2.80061531066895,1.38062429428101,-0.383236695417198,2.80092033679326,1.37746020158837,2206.841,2207.519,2212.625,2209.131,356.354522705078,45.0007171630859,1.46684205532074,-0.637927353382111,-0.275868058204651,0.391256511211395,-0.639917282339435,-0.275338529371412,0.39091548206889,6
1.29998779296875,-0.397708475589752,2.79498863220215,1.38859117031097,-0.396158759015336,2.79536033382764,1.38535408859565,2212.104,2210.64,2207.212,2208.168,356.378601074219,45.0004959106445,1.45853006839752,-0.65077418088913,-0.281337976455688,0.398345738649368,-0.652985332144132,-0.280961346123326,0.398898549771684,6
1.32000732421875,-0.41097891330719,2.78925347328186,1.39669442176819,-0.409361504843077,2.78967956113998,1.39341943999703,2204.961,2206.926,2214.719,2212.334,356.403656005859,45.0007705688477,1.44787609577179,-0.663522183895111,-0.286760985851288,0.405162870883942,-0.6659860834168,-0.286555206197011,0.406840505851434,6
1.33999633789063,-0.424502998590469,2.78341031074524,1.40494132041931,-0.422802873722428,2.78389611561957,1.401630562497,2212.236,2210.999,2208.981,2208.99,356.429840087891,45.0005950927734,1.43810832500458,-0.676203012466431,-0.292157381772995,0.412343114614487,-0.678873453515705,-0.29210028151913,0.41471319914141,6
1.3599853515625,-0.438278496265411,2.7774600982666,1.41332590579987,-0.436500861174643,2.77800225429635,1.40999844927868,2204.851,2207.425,2216.197,2212.717,356.457824707031,45.0008811950684,1.42605197429657,-0.68877512216568,-0.297504931688309,0.419231921434402,-0.69166099897751,-0.297602405088682,0.422524911118315,6
1.3800048828125,-0.45230370759964,2.77140378952026,1.4218533039093,-0.450474904562636,2.77198961381608,1.41853497432376,2208.35,2209.275,2214.154,2210.602,356.4892578125,45.0009422302246,1.41344273090363,-0.701261579990387,-0.302818894386292,0.426368206739426,-0.704361775018035,-0.303067194200314,0.43028361700977,6
1.39999389648438,-0.466576606035233,2.76524209976196,1.43052577972412,-0.464680216184654,2.76587746507559,1.42721277752413,2213.751,2212.044,2207.301,2209.217,356.520874023438,45.0005531311035,1.40206921100616,-0.71364414691925,-0.308088481426239,0.433621436357498,-0.716930938559026,-0.308475354130225,0.437961922879032,6
1.41998291015625,-0.481094568967819,2.75897622108459,1.43933641910553,-0.479135601808478,2.75965771647838,1.43604334702988,2205.7,2207.623,2214.503,2213.213,356.553192138672,45.0006942749023,1.38827550411224,-0.725897490978241,-0.313298314809799,0.440530121326447,-0.729381927869995,-0.313832666990362,0.445568037955247,6
1.44000244140625,-0.495855450630188,2.7526068687439,1.44828939437866,-0.493861275572861,2.75332167044526,1.44503903134294,2208.383,2209.135,2212.965,2210.643,356.588226318359,45.0006866455078,1.3738477230072,-0.738047361373901,-0.31846696138382,0.447649836540222,-0.741727567798258,-0.319144650954242,0.453109796737511,6
1.45999145507813,-0.510856986045837,2.74613523483276,1.45738673210144,-0.508809800712713,2.74688973769103,1.45417085208374,2213.122,2211.698,2206.559,2208.666,356.623168945313,45.0002899169922,1.36073696613312,-0.750078320503235,-0.323586255311966,0.454865306615829,-0.753924423002454,-0.324392617007921,0.460560665253582,6
1.47998046875,-0.526096343994141,2.73956251144409,1.46662104129791,-0.524000783579472,2.74035348215039,1.46345078646643,2204.359,2206.763,2214.148,2212.485,356.659088134766,45.0004539489746,1.34515082836151,-0.761966586112976,-0.328641593456268,0.461714833974838,-0.76598572865452,-0.329582259876133,0.467928728663466,6
1.5,-0.541571021080017,2.73288941383362,1.47599649429321,-0.539455198877605,2.73370387899399,1.47289164761066,2206.991,2208.059,2212.256,2209.534,356.698150634766,45.0004539489746,1.32894384860992,-0.773737192153931,-0.333650857210159,0.468770086765289,-0.777924000354858,-0.334718964672088,0.475221632552146,6
1.51998901367188,-0.557278454303741,2.72611737251282,1.48551464080811,-0.555123050061237,2.72696244033876,1.48246289340675,2211.872,2210.482,2205.089,2207.253,356.737426757813,45.0000114440918,1.31414139270782,-0.785373270511627,-0.338604718446732,0.475906759500504,-0.789697369743256,-0.339784716610053,0.482413800191712,6
1.53997802734375,-0.573215484619141,2.71924757957458,1.49516749382019,-0.571024729446907,2.7201203919406,1.49217698120264,2202.774,2205.207,2212.32,2211.021,356.777679443359,45.0001525878906,1.29682385921478,-0.796850562095642,-0.343487590551376,0.482643932104111,-0.801318788528229,-0.344785088448372,0.489513143578788,6
1.55999755859375,-0.589379370212555,2.71228122711182,1.50495886802673,-0.587181951496087,2.71316839067337,1.50204717602401,2205.327,2206.337,2209.99,2207.752,356.821014404297,45.0001029968262,1.27891147136688,-0.808193445205688,-0.348317325115204,0.489566415548325,-0.812800388649436,-0.349725300221754,0.496527073925997,6
1.57998657226563,-0.605767130851746,2.70521950721741,1.51488983631134,-0.603542258451077,2.7061290076447,1.51204143224525,2210.11,2208.551,2202.409,2205.219,356.864288330078,44.9996147155762,1.26244711875916,-0.819385468959808,-0.353084534406662,0.496547907590866,-0.82410201904291,-0.354588076049064,0.503431063574906,6
1.60000610351563,-0.622375130653381,2.69806408882141,1.52495181560516,-0.620152298932711,2.69898217125626,1.52218824678091,2200.406,2202.975,2209.761,2208.831,356.908477783203,44.9997367858887,1.24344801902771,-0.830403506755829,-0.357774466276169,0.503096461296082,-0.835253140422976,-0.35938609205264,0.510243109616171,5
1.6199951171875,-0.639200747013092,2.69081592559814,1.53515076637268,-0.636958033083316,2.69175113334911,1.53245460752521,2207.677,2206.334,2201.917,2203.569,356.953552246094,44.9993667602539,1.22565746307373,-0.841279149055481,-0.362408190965652,0.509947538375854,-0.846214826007804,-0.364102599125749,0.516939432286212,5
1.63998413085938,-0.656240165233612,2.68347668647766,1.54547774791718,-0.653981118189727,2.68442657539777,1.54285374457671,2197.785,2201.061,2209,2206.741,357.000457763672,44.9995536804199,1.20541071891785,-0.851973116397858,-0.366963416337967,0.516352236270905,-0.856999388527105,-0.368742895092007,0.523527553239473,5
1.66000366210938,-0.673490345478058,2.67604756355286,1.55593645572662,-0.671244443874359,2.67699864863716,1.55339964084857,2200.737,2201.958,2205.496,2203.065,357.050994873047,44.9994888305664,1.18470466136932,-0.862507820129395,-0.371455818414688,0.522934198379517,-0.867618167158098,-0.373311858882592,0.530014399402375,5
1.67999267578125,-0.690947651863098,2.66852998733521,1.56652724742889,-0.688691692550512,2.66949158495151,1.56405789280588,2205.758,2203.951,2196.717,2200.244,357.101440429688,44.9989280700684,1.16560781002045,-0.87286502122879,-0.375873982906342,0.529542744159698,-0.878034183119987,-0.377793579561193,0.536377381014768,5
1.69998168945313,-0.708608090877533,2.66092586517334,1.57724058628082,-0.706345246291743,2.66189575395985,1.57484217330813,2195.404,2197.913,2203.791,2203.826,357.152435302734,44.9990081787109,1.14395344257355,-0.883023142814636,-0.380203306674957,0.535665154457092,-0.88825927318574,-0.382193150160541,0.542623728976553,5
1.72000122070313,-0.72646826505661,2.65323662757874,1.58807921409607,-0.724228658537036,2.6542010212754,1.58576687078363,2197.559,2198.545,2201.001,2199.822,357.206176757813,44.9989242553711,1.12176120281219,-0.893006503582001,-0.384462296962738,0.541932880878448,-0.898304216251578,-0.386515208538549,0.548760027947228,5
1.739990234375,-0.744524121284485,2.64546370506287,1.5990434885025,-0.74228345468553,2.64643254688532,1.59679626401121,2201.986,2200.332,2192.875,2196.591,357.259521484375,44.998405456543,1.10118913650513,-0.902800321578979,-0.38864266872406,0.548215925693512,-0.908134108040217,-0.390744736359816,0.554764955448471,5
1.75997924804688,-0.762771904468536,2.63760900497437,1.61012351512909,-0.760532711099173,2.63858040167573,1.60794444998027,2191.028,2194.049,2200.452,2199.98,357.313629150391,44.9985504150391,1.07805228233337,-0.912385404109955,-0.392731100320816,0.554003775119781,-0.917760245372929,-0.394886594330938,0.560645412532115,4
1.77999877929688,-0.78120756149292,2.62967419624329,1.62132227420807,-0.779000609654483,2.63063418086074,1.61922620102184,2193.19,2194.497,2197.506,2195.775,357.370971679688,44.9985122680664,1.05437767505646,-0.921784281730652,-0.396745085716248,0.559939861297607,-0.927192788821983,-0.398945154262308,0.566407606133204,4
1.79998779296875,-0.79982715845108,2.6216607093811,1.63264012336731,-0.797626646773287,2.62261991743975,1.63060455644414,2197.932,2196.261,2188.719,2192.336,357.428100585938,44.9979934692383,1.03240251541138,-0.93098121881485,-0.400675386190414,0.565889716148376,-0.936399026186941,-0.402906341007953,0.572031552878955,4
1.82000732421875,-0.818626284599304,2.61357045173645,1.64406657218933,-0.816463410111527,2.61451498441355,1.64211164122557,2186.775,2189.797,2195.988,2195.796,357.486114501953,44.9981422424316,1.00783503055573,-0.939957201480865,-0.404507964849472,0.571321964263916,-0.94540321420156,-0.406780591562751,0.577532070829503,3
1.83999633789063,-0.837601006031036,2.60540509223938,1.65560710430145,-0.835449117627072,2.60634596486888,1.6537097136807,2194.317,2192.793,2186.99,2189.476,357.544830322266,44.9977340698242,0.984708368778229,-0.948739230632782,-0.408262401819229,0.577029168605804,-0.954174163352093,-0.410554485950274,0.582890106797601,3
1.8599853515625,-0.856746971607208,2.5971667766571,1.66725134849548,-0.854607925216182,2.59810246519841,1.66541353026959,2183.104,2186.742,2193.948,2192.542,357.605285644531,44.9979476928711,0.959078848361969,-0.957294523715973,-0.411918580532074,0.582212924957275,-0.962722140342816,-0.41423244164655,0.588111932552683,0
1.8800048828125,-0.876059710979462,2.5888569355011,1.67900216579437,-0.873964974649439,2.58977366760063,1.67723844970756,2185.906,2187.156,2189.744,2188.109,357.669281005859,44.9978866577148,0.933054029941559,-0.965641438961029,-0.415490657091141,0.587539374828339,-0.971056158224177,-0.417818336715394,0.593203054026622,0
1.89999389648438,-0.895535051822662,2.58047747612,1.69085919857025,-0.893456683142228,2.58138692997148,1.6891456302637,2190.918,2188.859,2180.016,2184.497,357.732727050781,44.9972991943359,0.908913910388947,-0.973763465881348,-0.418967992067337,0.592851281166077,-0.979147395688901,-0.421299770153459,0.598145864732551,0
1.91998291015625,-0.91516786813736,2.57203078269958,1.70281136035919,-0.91310780215452,2.5729316024492,1.70115019221864,2179.206,2182.046,2187.224,2188.109,357.796569824219,44.9974250793457,0.882156491279602,-0.981645286083221,-0.422338157892227,0.597606301307678,-0.98700543065471,-0.424680863071164,0.602946215670947,0
1.94000244140625,-0.934954047203064,2.56351852416992,1.71486103534698,-0.932943991899774,2.5643966441608,1.71326781099638,2181.279,2182.317,2183.898,2183.355,357.863006591797,44.9973602294922,0.85496324300766,-0.989306688308716,-0.425618231296539,0.60248190164566,-0.994638524886308,-0.427965170275055,0.607609153824943,0
1.95999145507813,-0.954888761043549,2.55494260787964,1.72700774669647,-0.952900013794853,2.55581012544606,1.7254586333645,2185.682,2183.795,2175.035,2179.496,357.928680419922,44.9968376159668,0.829623818397522,-0.99673455953598,-0.428800582885742,0.607337772846222,-1.00202031904361,-0.431141350077486,0.612118576685011,0
1.97998046875,-0.974967062473297,2.54630517959595,1.73924052715302,-0.973001172086935,2.54716115859433,1.73773811729275,2173.561,2176.905,2182.693,2182.941,357.994964599609,44.9970550537109,0.801680207252502,-1.00391638278961,-0.431874305009842,0.611640989780426,-1.0091596546337,-0.434213206731958,0.616479885389866,0
2,-0.995184421539307,2.53760814666748,1.75156199932098,-0.993273599084619,2.53843849960327,1.75012222660065,2175.744,2177.109,2179.234,2178.04,358.064331054688,44.9970550537109,0.773346245288849,-1.01086914539337,-0.434854954481125,0.616072297096252,-1.01606400046349,-0.437183953857422,0.620697642517089,0
2.01998901367188,-1.01553595066071,2.52885341644287,1.76397168636322,-1.01365055070775,2.52967086658596,1.76257018837116,2180.495,2178.578,2169.827,2174.096,358.133148193359,44.9965438842773,0.746943891048431,-1.01757919788361,-0.43773365020752,0.620486080646515,-1.02270954399163,-0.440043345582587,0.624757301356767,0
2.03997802734375,-1.03601658344269,2.52004337310791,1.77645838260651,-1.03415783849082,2.52084715356021,1.77509777046792,2168.34,2171.629,2177.141,2177.663,358.202606201172,44.9967384338379,0.717941284179688,-1.02403485774994,-0.440499573945999,0.624334692955017,-1.02910434715509,-0.442794850733705,0.628663786820389,0
2.05999755859375,-1.05662155151367,2.51117992401123,1.78902447223663,-1.05482201812353,2.5119559343546,1.78772119534738,2170.625,2171.801,2173.427,2172.679,358.274932861328,44.9967231750488,0.688570499420166,-1.03025090694427,-0.44316703081131,0.628302574157715,-1.03525504859546,-0.445441325732794,0.632421154350513,0
2.07998657226563,-1.07734596729279,2.50226545333862,1.80166935920715,-1.07557499515204,2.50302650811029,1.80039886517028,2175.35,2173.233,2163.949,2168.631,358.346435546875,44.9961929321289,0.661180913448334,-1.03621447086334,-0.445727914571762,0.632242500782013,-1.04114045847258,-0.4479736531836,0.636016459404434,0
2.10000610351563,-1.09818434715271,2.4933021068573,1.81438148021698,-1.09647498538954,2.49403382618922,1.81316634306845,2162.917,2166.163,2171.384,2172.282,358.418365478516,44.9964141845703,0.63115656375885,-1.04191720485687,-0.448172867298126,0.635607600212097,-1.04677621342161,-0.450398561093403,0.639459254158576,0
2.1199951171875,-1.11913180351257,2.48429179191589,1.82716608047485,-1.11745308225396,2.48500753716864,1.82598153508617,2170.822,2168.942,2161.869,2165.019,358.490570068359,44.9960517883301,0.602823913097382,-1.04737555980682,-0.450517505407333,0.639230966567993,-1.0521429102862,-0.45270770082608,0.642737685527497,0
2.13998413085938,-1.14018309116364,2.4752368927002,1.84001171588898,-1.13853583516761,2.47593621757383,1.83886065985125,2158.45,2162.521,2168.937,2168.2,358.564270019531,44.9963531494141,0.572047412395477,-1.05257093906403,-0.45274755358696,0.642283499240875,-1.05724722779031,-0.454903946049977,0.645855833439456,0
2.16000366210938,-1.16133332252502,2.46613931655884,1.85292088985443,-1.15975039167652,2.46680818657414,1.85182030137592,2161.381,2162.678,2164.334,2163.168,358.641296386719,44.9963493347168,0.541069447994232,-1.05751240253448,-0.454873293638229,0.645461738109589,-1.0620943502576,-0.456989527434725,0.648816864916866,0
2.17999267578125,-1.18257713317871,2.45700168609619,1.86589288711548,-1.18102676265167,2.45765355853653,1.86481770439342,2166.533,2164.062,2154.088,2159.156,358.717346191406,44.9957733154297,0.512199819087982,-1.06218695640564,-0.456885367631912,0.648599684238434,-1.06666760390386,-0.458957270716794,0.65161059420515,0
2.19998168945313,-1.20390892028809,2.44782614707947,1.87891578674316,-1.20239187218348,2.44846074877705,1.87786931641044,2153.961,2156.973,2161.212,2162.971,358.79345703125,44.9959602355957,0.480752319097519,-1.06659007072449,-0.458775639533997,0.651143610477448,-1.07097279461286,-0.460809674005774,0.654240568028104,0
2.22000122070313,-1.2253235578537,2.43861508369446,1.89199149608612,-1.22387315175433,2.43921795429519,1.89099189489151,2156.093,2157.071,2157.649,2157.69,358.871826171875,44.9959602355957,0.449044823646545,-1.07073128223419,-0.460557222366333,0.653788030147552,-1.07501419914593,-0.462548577472581,0.656709398992482,0
2.239990234375,-1.24681544303894,2.42937064170837,1.90511929988861,-1.24539969505118,2.42995568409656,1.90414212427648,2160.678,2158.326,2148.401,2153.434,358.948852539063,44.9954605102539,0.41943633556366,-1.07460153102875,-0.462223917245865,0.656393349170685,-1.07877792518082,-0.464168003639063,0.659008600495412,0
2.25997924804688,-1.26837944984436,2.42009520530701,1.91828763484955,-1.26699874763832,2.42066221517598,1.91733664845539,2147.712,2151.272,2156.08,2157.115,359.026184082031,44.9957466125488,0.387318015098572,-1.07819938659668,-0.463769674301147,0.658415019512177,-1.08226887897249,-0.465670063529659,0.661141169691481,0
2.27999877929688,-1.29001021385193,2.41079115867615,1.93149864673615,-1.28869796983554,2.41132564607061,1.93059236468599,2149.984,2151.245,2152.501,2151.849,359.106201171875,44.9958038330078,0.354945003986359,-1.08153128623962,-0.465205550193787,0.660549521446228,-1.08549040888332,-0.467056197851165,0.663109152043028,0
2.29998779296875,-1.31170189380646,2.40146064758301,1.94475162029266,-1.31042570636616,2.40197680804417,1.9438654998779,2154.903,2152.521,2142.872,2147.573,359.185180664063,44.9953346252441,0.324693650007248,-1.08458745479584,-0.466524571180344,0.662651062011719,-1.08843144721369,-0.468321644481621,0.664905786465049,0
2.32000732421875,-1.33344924449921,2.39210629463196,1.95803499221802,-1.33224276726637,2.39258953623693,1.95719320193332,2142.122,2145.594,2150.101,2151.315,359.264465332031,44.9955978393555,0.291988492012024,-1.0873681306839,-0.46772089600563,0.664167642593384,-1.09109983431736,-0.469469776906228,0.666535862507326,0
2.33999633789063,-1.35524678230286,2.38273024559021,1.97135365009308,-1.35407709248145,2.38319483607731,1.97053145048929,2150.391,2148.082,2140.418,2143.862,359.343627929688,44.9952545166016,0.261093527078629,-1.08987855911255,-0.468804776668549,0.665931165218353,-1.09348640563071,-0.470496651869278,0.667993781680938,0
2.3599853515625,-1.37708914279938,2.37333488464355,1.98469591140747,-1.37595634130987,2.37378080654189,1.98389714217962,2137.678,2141.756,2147.309,2147.246,359.424011230469,44.9955940246582,0.227846339344978,-1.09211349487305,-0.469767868518829,0.667114734649658,-1.09559452046326,-0.471403714787811,0.669281596135657,0
2.3800048828125,-1.39897060394287,2.36392259597778,1.99806416034698,-1.39790843013262,2.36433543599182,1.99730733068585,2140.714,2141.826,2142.703,2142.023,359.507293701172,44.9956207275391,0.194517910480499,-1.0940728187561,-0.470616668462753,0.668411731719971,-1.09742594550583,-0.472191725819537,0.67040038511534,0
2.39999389648438,-1.42088556289673,2.35449576377869,2.0114574432373,-1.41986083522252,2.35488992936084,2.01071771239474,2145.99,2143.099,2132.498,2137.834,359.589111328125,44.9950790405273,0.163441941142082,-1.09574747085571,-0.471343487501144,0.669660091400146,-1.09897439291323,-0.472857979480329,0.671346307473475,0
2.41998291015625,-1.44282841682434,2.34505653381348,2.02486371994019,-1.4418413890156,2.34543231112926,2.02414528970716,2133.065,2136.177,2139.592,2141.801,359.670684814453,44.9953193664551,0.12995857000351,-1.09714269638062,-0.471944838762283,0.670310080051422,-1.10024227275454,-0.473403512755585,0.67212083548366,0
2.44000244140625,-1.46479344367981,2.33560824394226,2.03828477859497,-1.46387808506052,2.33595053645515,2.03760716344514,2135.282,2136.17,2136.136,2136.403,359.754180908203,44.995361328125,0.0963764265179634,-1.09825897216797,-0.472429513931274,0.671052157878876,-1.10123038958312,-0.473828671822132,0.672724460634977,0
2.45999145507813,-1.48677539825439,2.32615232467651,2.05171990394592,-1.48589810917879,2.32647593524532,2.05105885256329,2140.055,2137.207,2126.928,2132.148,359.8359375,44.9948883056641,0.0649563893675804,-1.09909045696259,-0.472792774438858,0.671752035617828,-1.10193535162022,-0.474131997292339,0.673155110942729,0
2.47998046875,-1.50876832008362,2.31669163703918,2.06515717506409,-1.50792940965705,2.3169964821328,2.06451743023379,2126.791,2130.443,2134.542,2135.958,359.917755126953,44.9952201843262,0.0311780069023371,-1.09964537620544,-0.47303295135498,0.671867191791534,-1.10235860927677,-0.474314113237503,0.673413672440311,0
2.5,-1.53076672554016,2.30722856521606,2.07859897613525,-1.52999999932945,2.30750012397766,2.0780000090599,2129.34,2130.373,2130.916,2130.587,0.00184688519220799,44.9953079223633,-0.00269225449301302,-1.09992039203644,-0.473156839609146,0.672091901302338,-1.10250000050292,-0.474374949932098,0.673500046133994,0
2.51998901367188,-1.55276477336884,2.29776549339294,2.09204435348511,-1.5520369476803,2.29801824074336,2.09146203692764,2134.278,2131.536,2121.515,2126.278,0.084474116563797,44.9948501586914,359.965667724609,-1.0999094247818,-0.473158925771713,0.672274589538574,-1.10235904000526,-0.474314298567936,0.67341393556562,0
2.53997802734375,-1.57475733757019,2.28830480575562,2.10548210144043,-1.57406826106879,2.28853878207593,2.1049206224848,2121.453,2124.85,2128.526,2130.231,0.167130365967751,44.9951667785645,359.931762695313,-1.09962236881256,-0.473037779331207,0.671881973743439,-1.10193621258339,-0.474132367740737,0.673155636891692,0
2.55999755859375,-1.59673833847046,2.27884888648987,2.11891388893127,-1.59612191359838,2.27904971150017,2.11839285467467,2123.964,2124.758,2124.874,2124.959,0.251795679330826,44.995231628418,359.897735595703,-1.09905338287354,-0.472798675298691,0.67158442735672,-1.10123038958312,-0.473828671822132,0.672724460634977,0
2.57998657226563,-1.61870217323303,2.26940011978149,2.13233876228333,-1.61812503288753,2.26958238396605,2.1318342168965,2128.871,2125.946,2115.626,2120.59,0.334701836109161,44.9947776794434,359.866027832031,-1.09819757938385,-0.472437173128128,0.671241223812103,-1.1002439936861,-0.473404253224357,0.672121886773894,0
2.60000610351563,-1.64064347743988,2.25996112823486,2.14574527740479,-1.64013916343638,2.26011031859448,2.14528230572506,2115.976,2119.353,2122.71,2124.571,0.417458176612854,44.9950904846191,359.832061767578,-1.09706807136536,-0.471953332424164,0.670325994491577,-1.09897439291323,-0.472857979480329,0.671346307473476,0
2.6199951171875,-1.6625565290451,2.25053405761719,2.15913796424866,-1.66209156852628,2.2506648119635,2.15869268743396,2124.27,2121.534,2113.633,2117.055,0.499527961015701,44.9947967529297,359.800018310547,-1.09565556049347,-0.471351146697998,0.669639945030212,-1.09742594550583,-0.472191725819537,0.67040038511534,0
2.63998413085938,-1.68443608283997,2.24112129211426,2.1725058555603,-1.6840102224118,2.24123382753286,2.17208245105877,2111.647,2115.704,2120.229,2120.57,0.582475125789642,44.9952049255371,359.765899658203,-1.09397256374359,-0.47063022851944,0.668398022651672,-1.09559752564474,-0.471405007833448,0.669283431954129,0
2.66000366210938,-1.70627617835999,2.23172569274902,2.18585109710693,-1.70592290617745,2.23180541187802,2.18546856763052,2114.844,2115.669,2115.832,2115.431,0.667791068553925,44.9952583312988,359.731903076172,-1.0920068025589,-0.469791382551193,0.667259454727173,-1.09348640563071,-0.470496651869278,0.667993781680938,0
2.67999267578125,-1.72807121276855,2.22234916687012,2.19917249679565,-1.72775723139253,2.2224107117184,2.19880681618649,2120.164,2116.744,2106.094,2111.345,0.751199543476105,44.9947509765625,359.700164794922,-1.08975434303284,-0.468829274177551,0.666069090366364,-1.09109983431736,-0.469469776906228,0.666535862507326,0
2.69998168945313,-1.74981594085693,2.21299433708191,2.21245861053467,-1.74954107593572,2.21303773198162,2.21211422688774,2107.484,2110.461,2112.765,2115.37,0.834002017974854,44.9950218200684,359.666381835938,-1.08723223209381,-0.467745900154114,0.664306104183197,-1.08843572622736,-0.468323485621663,0.66490840044773,0
2.72000122070313,-1.77150440216064,2.20366334915161,2.22571110725403,-1.77130202882336,2.20367460188472,2.22540765343382,2109.882,2110.286,2109.502,2110.21,0.918072402477264,44.9950866699219,359.632598876953,-1.08442902565002,-0.466544419527054,0.662624657154083,-1.08549040888332,-0.467056197851165,0.663109152043028,0
2.739990234375,-1.79313123226166,2.19435882568359,2.23892903327942,-1.79296822271738,2.1943522439355,2.23864319318939,2114.422,2111.367,2101.074,2105.887,0.999975144863129,44.994686126709,359.601135253906,-1.08134365081787,-0.465222537517548,0.660892903804779,-1.08227399942825,-0.465672266718727,0.661144297698006,0
2.75997924804688,-1.81469118595123,2.18508315086365,2.2521014213562,-1.81456738183361,2.18505872917844,2.25183778244526,2101.758,2105.076,2108.052,2109.92,1.0815840959549,44.9950408935547,359.567626953125,-1.07799553871155,-0.463783472776413,0.658617794513702,-1.07878346314437,-0.464170386470068,0.659011983550929,0
2.77999877929688,-1.83617854118347,2.17583847045898,2.26523017883301,-1.83612684690458,2.17578229366013,2.2650081232283,2104.345,2104.94,2104.737,2104.785,1.16482436656952,44.9951553344727,359.5341796875,-1.07437014579773,-0.462228566408157,0.656435787677765,-1.07501419914593,-0.462548577472581,0.656709398992482,0
2.79998779296875,-1.85758769512177,2.16662740707397,2.27831435203552,-1.85757544288233,2.1665535620153,2.27811073581237,2109.11,2106.01,2096.129,2100.584,1.24613726139069,44.9947509765625,359.503051757813,-1.07046616077423,-0.460554748773575,0.654208600521088,-1.07097916161324,-0.460812413548163,0.654244457529281,0
2.82000732421875,-1.87891387939453,2.15745210647583,2.29134345054626,-1.87897323600723,2.1573466894188,2.29118231372639,2096.922,2099.984,2102.539,2104.602,1.32710838317871,44.9950866699219,359.469940185547,-1.06630432605743,-0.458765715360641,0.651449501514435,-1.06666760390385,-0.458957270716794,0.65161059420515,0
2.83999633789063,-1.90015125274658,2.14831495285034,2.3043212890625,-1.90024960698239,2.14819206138118,2.30417971674389,2104.989,2101.925,2094.109,2097.376,1.40699732303619,44.9948234558105,359.438781738281,-1.06186521053314,-0.456860333681107,0.648894965648651,-1.06209435025759,-0.456989527434725,0.648816864916866,0
2.8599853515625,-1.92129456996918,2.13921785354614,2.31723785400391,-1.92143189875059,2.13907791299805,2.31711964824194,2093.071,2096.688,2100.093,2100.895,1.48735189437866,44.9952125549316,359.405822753906,-1.05717301368713,-0.454843789339066,0.645824730396271,-1.05725481901126,-0.454907212340279,0.645860470797877,0
2.8800048828125,-1.94233858585358,2.13016390800476,2.33009481430054,-1.94254691640495,2.12999271078668,2.33001848303364,2096.246,2096.706,2096.039,2095.94,1.56939852237701,44.9952850341797,359.373199462891,-1.05220830440521,-0.452713280916214,0.642843782901764,-1.0521429102862,-0.45270770082608,0.642737685527497,0
2.89999389648438,-1.96327817440033,2.12115454673767,2.3428909778595,-1.96352501326936,2.1209664217661,2.34283367505136,2101.25,2097.499,2087.212,2092.214,1.64914834499359,44.9948234558105,359.342803955078,-1.04697132110596,-0.450465470552444,0.639808595180511,-1.04677621342161,-0.450398561093403,0.639459254158576,0
2.91998291015625,-1.98410785198212,2.11219263076782,2.35561585426331,-1.98439323028747,2.1119874109737,2.35558174318562,2089.208,2091.912,2093.455,2096.124,1.72803008556366,44.9951286315918,359.310638427734,-1.04148662090302,-0.448106408119202,0.636245489120483,-1.0411492471255,-0.447977434695422,0.636021828255355,0
2.94000244140625,-2.00482273101807,2.10327959060669,2.36827111244202,-2.00517798053537,2.10304431360073,2.36827882277243,2091.749,2091.742,2090.419,2091.24,1.80766189098358,44.9952125549316,359.278656005859,-1.03573536872864,-0.445635259151459,0.632759213447571,-1.03525504859546,-0.445441325732794,0.632421154350513,0
2.95999145507813,-2.0254168510437,2.0944185256958,2.38085556030273,-2.02581075424974,2.0941666074844,2.38088306226645,2095.886,2092.671,2082.927,2087.26,1.88488340377808,44.9948616027832,359.248992919922,-1.02972006797791,-0.443051397800446,0.629218459129333,-1.02911391720548,-0.442798968459032,0.628669633014836,0
2.97998046875,-2.04588651657104,2.08561134338379,2.39335942268372,-2.04631823718085,2.08534281049189,2.39341076357611,2084.334,2087.136,2089.075,2091.119,1.96149611473083,44.9952087402344,359.217651367188,-1.02346622943878,-0.440361142158508,0.625190854072571,-1.0227194988233,-0.440047628868552,0.624763382608097,0
3,-2.06622552871704,2.07685995101929,2.40578413009644,-2.06672639957428,2.07656174835205,2.40587779151916,2086.742,2086.889,2086.196,2086.508,2.03913378715515,44.9953460693359,359.186462402344,-1.01695334911346,-0.437562435865402,0.62123841047287,-1.01606400046349,-0.437183953857422,0.620697642517089,0
3.01998901367188,-2.08642888069153,2.06816720962524,2.41812896728516,-2.0869680292999,2.06785234056679,2.41824308725414,2091.289,2087.951,2078.456,2082.484,2.11452317237854,44.9949951171875,359.157562255859,-1.01018333435059,-0.434653997421265,0.617245614528656,-1.00917036754089,-0.434217816196637,0.616486429737696,0
3.03997802734375,-2.10649251937866,2.05953431129456,2.43038439750671,-2.10706940546153,2.05920327997188,2.43052270427549,2080.12,2082.601,2084.165,2086.432,2.18919205665588,44.9953193664551,359.127075195313,-1.00318312644958,-0.4316426217556,0.612774610519409,-1.00203140433628,-0.431146119769234,0.612125348517319,0
3.05999755859375,-2.12641143798828,2.05096387863159,2.44255185127258,-2.12705600675913,2.05060360379452,2.44273220712343,2082.506,2082.53,2081.346,2081.81,2.26458883285522,44.9954299926758,359.096893310547,-0.995931088924408,-0.428525596857071,0.608371019363403,-0.994638524886308,-0.427965170275055,0.607609153824944,0
3.07998657226563,-2.14618015289307,2.04245781898499,2.45463037490845,-2.14686207530873,2.04208160581513,2.45483142533277,2086.83,2083.285,2074.013,2078.165,2.33756542205811,44.9951019287109,359.06884765625,-0.988430380821228,-0.425302177667618,0.603924155235291,-0.987017247723776,-0.424685947625853,0.602953434534038,0
3.10000610351563,-2.16579413414001,2.03401827812195,2.46661067008972,-2.16654331551667,2.03361331798384,2.46685438785611,2075.902,2078.379,2079.661,2081.804,2.40972375869751,44.9954223632813,359.039398193359,-0.980708837509155,-0.421980261802673,0.599016487598419,-0.979147395688901,-0.421299770153459,0.598145864732551,0
3.1199951171875,-2.1852490901947,2.02564692497253,2.47849631309509,-2.18603502400946,2.02522658035469,2.47876156841225,2083.303,2079.94,2072.497,2075.333,2.48027110099792,44.995231628418,359.011871337891,-0.972739517688751,-0.418554335832596,0.594284534454346,-0.971056158224178,-0.417818336715394,0.593203054026623,0
3.13998413085938,-2.20454025268555,2.01734638214111,2.49027848243713,-2.20536269329809,2.01691042421237,2.49056853997833,2072.62,2075.587,2077.78,2078.729,2.55077433586121,44.9956016540527,358.983032226563,-0.96455705165863,-0.415034770965576,0.589108169078827,-0.962735018414262,-0.414237982720922,0.588119799565572,0
3.16000366210938,-2.22366285324097,2.00911784172058,2.5019588470459,-2.22455088103183,2.00865428308644,2.50229030443911,2075.792,2075.473,2074.246,2074.47,2.62215113639832,44.9956970214844,358.954620361328,-0.956136226654053,-0.411415278911591,0.584013700485229,-0.954174163352092,-0.410554485950274,0.582890106797601,0
3.17999267578125,-2.24261260032654,2.00096416473389,2.51353621482849,-2.24353658854737,2.00048526354177,2.51388837689424,2080.097,2076.38,2066.934,2071.026,2.69094491004944,44.9953384399414,358.928466796875,-0.947481870651245,-0.407695382833481,0.578866124153137,-0.945403214201559,-0.406780591562751,0.577532070829503,0
3.19998168945313,-2.26138496398926,1.99288642406464,2.52500176429749,-2.26234477504321,1.99239262633251,2.52537800452858,2069.881,2071.598,2072.05,2074.834,2.75845432281494,44.9956016540527,358.900939941406,-0.938623428344727,-0.403883576393127,0.573280572891235,-0.936412917636688,-0.402912318110697,0.572040038948834,0
3.22000122070313,-2.27997541427612,1.98488700389862,2.53635692596436,-2.28099938900442,1.98436606709459,2.53677381709797,2072.124,2071.647,2069.656,2070.493,2.82592988014221,44.9957122802734,358.873931884766,-0.929538071155548,-0.399976372718811,0.567753195762634,-0.927192788821982,-0.398945154262308,0.566407606133204,0
3.239990234375,-2.29838013648987,1.97696757316589,2.54760050773621,-2.2994392795179,1.97643189735754,2.54803845846384,2075.926,2072.282,2063.397,2067.215,2.89064025878906,44.995433807373,358.849029541016,-0.920231759548187,-0.395974695682526,0.562184691429138,-0.917774783907129,-0.394892849856044,0.560654293895788,0
3.25997924804688,-2.31659483909607,1.96912980079651,2.55872464179993,-2.31768882969315,1.96857962575054,2.55918682388728,2065.824,2067.86,2068.754,2070.752,2.95429730415344,44.9957733154297,358.822937011719,-0.910734474658966,-0.391887933015823,0.556207001209259,-0.908148960779607,-0.390751127078637,0.554774028755191,0
3.27999877929688,-2.3346152305603,1.96137547492981,2.56973075866699,-2.33577134012187,1.96079922667992,2.57023314733618,2068.247,2067.823,2066.353,2066.665,3.01817464828491,44.9959144592285,358.797332763672,-0.901022136211395,-0.387711316347122,0.55030083656311,-0.898304216251578,-0.386515208538549,0.548760027947228,0
3.29998779296875,-2.35243725776672,1.95370674133301,2.58061790466309,-2.35362764460945,1.95311615770631,2.58114128510551,2072.098,2068.543,2060.136,2063.514,3.079514503479,44.9956550598145,358.773864746094,-0.891100823879242,-0.38344544172287,0.544359266757965,-0.888274735793772,-0.382199803288803,0.542633174842512,0
3.32000732421875,-2.37005758285522,1.94612467288971,2.59137845039368,-2.37130830610839,1.94550866300381,2.59194212531393,2062.793,2064.39,2064.833,2066.974,3.13970065116882,44.9959526062012,358.749298095703,-0.881000220775604,-0.379099369049072,0.538032233715057,-0.878034183119985,-0.377793579561194,0.536377381014769,0
3.33999633789063,-2.38747119903564,1.93863141536713,2.60201549530029,-2.38875555478454,1.93800159931817,2.60260037727124,2069.183,2065.745,2058.971,2061.394,3.19796323776245,44.9958000183105,358.726593017578,-0.870692431926727,-0.37466624379158,0.531850397586823,-0.867618167158097,-0.373311858882592,0.530014399402376,0
3.3599853515625,-2.40467572212219,1.93122839927673,2.61252164840698,-2.40599272667425,1.93058492580486,2.6131302965979,2060.422,2062.338,2063.169,2064.314,3.2556004524231,44.9961395263672,358.703033447266,-0.860213935375214,-0.370158195495605,0.525308668613434,-0.857015715678588,-0.368749920209162,0.523537527241535,0
3.3800048828125,-2.42166638374329,1.92391705513,2.62289810180664,-2.42304196557559,1.92324911460621,2.6235454105946,2062.991,2062.2,2060.478,2060.878,3.31331324577332,44.9962387084961,358.680053710938,-0.849541306495667,-0.36556875705719,0.51882791519165,-0.846214826007803,-0.364102599125748,0.516939432286212,0
3.39999389648438,-2.43844032287598,1.91669893264771,2.63314437866211,-2.43984769972619,1.91601807669906,2.63381177133889,2066.829,2062.996,2054.482,2057.956,3.36822080612183,44.9959526062012,358.6591796875,-0.838680922985077,-0.360898792743683,0.512311935424805,-0.835253140422974,-0.35938609205264,0.510243109616171,0
3.41998291015625,-2.45499324798584,1.90957593917847,2.64325308799744,-2.45643259034873,1.90888206159239,2.64394322221809,2058.123,2059.253,2058.903,2061.281,3.42153859138489,44.9962158203125,358.637481689453,-0.827663481235504,-0.356157869100571,0.505436062812805,-0.824119146742881,-0.354595445619869,0.503441526619546,0
3.44000244140625,-2.47132253646851,1.90254890918732,2.65322542190552,-2.47281804716281,1.90183185728196,2.6539528420958,2060.425,2059.239,2056.839,2057.755,3.47418427467346,44.9963188171387,358.616424560547,-0.816466391086578,-0.35134145617485,0.498621225357056,-0.812800388649434,-0.349725300221754,0.496527073925997,0
3.45999145507813,-2.48742485046387,1.89561986923218,2.66306090354919,-2.48895081463434,1.8948903781363,2.66380809799729,2063.406,2059.86,2052.021,2055.123,3.52393293380737,44.9961242675781,358.597320556641,-0.805098474025726,-0.34645202755928,0.491769045591354,-0.80133641229185,-0.344792671461508,0.489523909660973,0
3.47998046875,-2.50329661369324,1.88878977298737,2.67275285720825,-2.50485284867397,1.88804817714046,2.67352240244575,2055.304,2056.365,2056.345,2058.206,3.5722484588623,44.9964256286621,358.577514648438,-0.793588399887085,-0.341499090194702,0.484598815441132,-0.789715229532172,-0.33979240117828,0.482424710458066,0
3.5,-2.51893496513367,1.88206028938293,2.68230271339417,-2.5205447997813,1.88129636896134,2.68310837050915,2057.5,2056.5,2054.443,2054.835,3.62005615234375,44.9965591430664,358.558380126953,-0.78191465139389,-0.336477875709534,0.477492570877075,-0.777924000354857,-0.334718964672089,0.475221632552147,0
3.51998901367188,-2.53433632850647,1.87543249130249,2.69170999526978,-2.53597583877076,1.87465682397749,2.69253495143119,2060.716,2057.034,2049.589,2052.474,3.66509318351746,44.9963722229004,358.541168212891,-0.770085453987122,-0.331390231847763,0.470363050699234,-0.766004036374581,-0.329590137176618,0.467939912563966,0
3.53997802734375,-2.54949903488159,1.86890745162964,2.70096874237061,-2.55116718971613,1.86812041006291,2.70181511066737,2053.272,2054.041,2053.421,2055.268,3.70852541923523,44.9966506958008,358.523468017578,-0.758129239082336,-0.326245605945587,0.462935328483582,-0.753942941956194,-0.324400585196356,0.460571978193441,0
3.55999755859375,-2.56441974639893,1.86248683929443,2.71007990837097,-2.56613872308604,1.86167857751006,2.71096098677687,2055.208,2053.954,2051.792,2052.433,3.75116467475891,44.9967727661133,358.506408691406,-0.746026337146759,-0.321039497852325,0.455562353134155,-0.741727567798258,-0.319144650954242,0.45310979673751,0
3.57998657226563,-2.57909488677979,1.8561714887619,2.71904349327087,-2.58084213759183,1.85535210901407,2.7199430732562,2058.304,2054.557,2047.336,2050.146,3.79093337059021,44.9966125488281,358.4912109375,-0.733784556388855,-0.315774083137512,0.44817379117012,-0.72940084364523,-0.31384080592,0.445579593307163,0
3.60000610351563,-2.59352350234985,1.84996235370636,2.72785377502441,-2.59531978247425,1.84912278287974,2.72878724059568,2051.415,2051.917,2050.936,2052.71,3.82891798019409,44.9968643188477,358.475677490234,-0.721431910991669,-0.310458898544312,0.440512746572495,-0.716930938559024,-0.308475354130224,0.437961922879033,0
3.6199951171875,-2.60770273208618,1.84386038780212,2.73651313781738,-2.60952509409627,1.84301063413925,2.73746504379605,2056.234,2052.759,2046.976,2048.88,3.86456537246704,44.9968109130859,358.461822509766,-0.708946526050568,-0.305088013410568,0.432966858148575,-0.704361775018033,-0.303067194200314,0.43028361700977,0
3.63998413085938,-2.62162971496582,1.83786714076996,2.74501657485962,-2.623478029369,1.83700707589127,2.7459886742229,2049.768,2050.51,2050.302,2051.231,3.89899349212646,44.9971160888672,358.447662353516,-0.696361660957336,-0.29967337846756,0.425174534320831,-0.691680442442073,-0.297610771068296,0.422536788827407,0
3.66000366210938,-2.63530302047729,1.83198297023773,2.7533655166626,-2.63719712493647,1.83110413233575,2.75436945562281,2052.252,2050.656,2048.235,2048.666,3.93255877494812,44.9972114562988,358.434326171875,-0.683658540248871,-0.294209569692612,0.417451232671738,-0.678873453515702,-0.29210028151913,0.414713199141411,0
3.67999267578125,-2.64872026443481,1.82620859146118,2.76155972480774,-2.65063849381582,1.82532068681534,2.76258057812278,2054.953,2051.247,2044.268,2046.914,3.9631609916687,44.9970397949219,358.422821044922,-0.670847117900848,-0.288699209690094,0.409707069396973,-0.665986083416798,-0.286555206197011,0.406840505851433,0
3.69998168945313,-2.66187882423401,1.82054591178894,2.76959443092346,-2.66382131180924,1.81964848851807,2.77063375592113,2048.974,2048.953,2047.495,2049.354,3.99170351028442,44.9972724914551,358.411193847656,-0.657953262329102,-0.283151119947433,0.401729762554169,-0.653005218467595,-0.280969902652754,0.398910698016369,0
