t,x_s1,x_s2,x_s3,x_s_d1,x_s_d2,x_s_d3,propellers_rpms1,propellers_rpms2,propellers_rpms3,propellers_rpms4,rollRad,pitchRad,yawRad,v_s1,v_s2,v_s3,v_s_d1,v_s_d2,v_s_d3,insideCount
0,-0.0599999986588955,2.94000005722046,1.17999994754791,-0.0599999986588955,2.94000005722046,1.17999994754791,0,0,0,0,0,45.0048027038574,0,0,0,0,-1.06581410364015E-15,4.44089209850063E-16,-7.105427357601E-16,0
0.02001953125,-0.0599999986588955,2.94000005722046,1.17705690860748,-0.0600018744611685,2.93999925011514,1.18000109344625,0,0,0,0,0.937003672122955,44.8630027770996,-0.00115976633969694,3.71994488546079E-08,3.50004931704007E-08,-0.147149950265884,-0.000280531511337879,-0.000120704872184653,0.000171372322667033,5
0.040008544921875,-0.0599999986588955,2.94000005722046,1.17018985748291,-0.060014880898484,2.93999365380853,1.18000903887584,0,0,0,0,1.87400352954865,44.7211418151855,-0.00311126722954214,3.70364325874561E-08,3.5142885934647E-08,-0.343349903821945,-0.00111143977225461,-0.000478221483967637,0.000678961213193342,6
0.05999755859375,-0.0599062293767929,2.94009447097778,1.16346490383148,-0.0600498857373401,2.93997859220429,1.18003042278566,3197.055,2848.577,1517.557,2782.436,1.40377748012543,44.7413711547852,0.0287760011851788,0.00468848180025816,0.00471865246072412,-0.336246997117996,-0.00247936261166862,-0.00106680046642749,0.00151460392977639,6
0.08001708984375,-0.0597377717494965,2.94026732444763,1.15723729133606,-0.0601176241590912,2.9399494462538,1.18007180313047,2865.695,2651.763,2344.598,2562.151,0.340079486370087,44.8158378601074,0.0996070802211761,0.00842283293604851,0.00864462181925774,-0.311380505561829,-0.00437432711648753,-0.0018821507536715,0.0026722081754323,6
0.100006103515625,-0.0595562346279621,2.94046425819397,1.15151965618134,-0.0602282404704493,2.93990185114529,1.18013937690895,2240.613,2528.421,3137.222,2508.336,359.322052001953,44.919059753418,0.178504914045334,0.00907692406326532,0.00984971318393946,-0.285880416631699,-0.00677739276378709,-0.00291612276782231,0.00414020348026766,5
0.1199951171875,-0.059424240142107,2.94063234329224,1.14656901359558,-0.0603918861403606,2.93983143898525,1.18023934549506,2123.469,2454.617,3351.948,2464.742,358.750274658203,44.9998588562012,0.253258764743805,0.00659974943846464,0.00840045046061277,-0.247534602880478,-0.00967801353495435,-0.00416417885169243,0.00591214744607921,5
0.1400146484375,-0.0593827106058598,2.94074034690857,1.14257049560547,-0.0606187761383957,2.93973381455767,1.18037794905431,2312.11,2456.558,3069.346,2463.374,358.636383056641,45.032657623291,0.326257407665253,0.00207654712721705,0.00540162343531847,-0.199924275279045,-0.0130687916036232,-0.00562313592726786,0.00798352085618068,5
0.160003662109375,-0.059442937374115,2.94078588485718,1.13952445983887,-0.0609177895434042,2.93960515744296,1.18056061167741,2537.177,2487.052,2634.917,2491.605,358.757019042969,45.0249633789063,0.398278146982193,-0.00301136495545506,0.00228246464394033,-0.152299135923386,-0.0169265510445065,-0.00728302204135792,0.0103401658994673,5
0.180023193359375,-0.0595995113253593,2.94078207015991,1.13730907440186,-0.061299173422313,2.9394410586145,1.18079359313766,2665.876,2505.781,2303.06,2513.553,358.864135742188,44.9985656738281,0.467363446950912,-0.00782861188054085,-0.000194068066775799,-0.110769867897034,-0.0212503155312517,-0.00914341710800856,0.0129814861534057,5
0.20001220703125,-0.0598469451069832,2.94074034690857,1.13576126098633,-0.0617708265342762,2.93923811945689,1.18108171866376,2654.167,2500.396,2182.797,2508.284,358.816711425781,44.9743766784668,0.53305459022522,-0.0123716834932566,-0.00208839774131775,-0.077393427491188,-0.0260142813927851,-0.0111932185284278,0.0158917185579952,5
0.220001220703125,-0.0601887665688992,2.94066286087036,1.13474535942078,-0.0623420644491781,2.93899233174064,1.18143067899198,2539.645,2470.204,2246.324,2479.271,358.612091064453,44.9637107849121,0.594610154628754,-0.017091004177928,-0.00387852778658271,-0.0507953837513924,-0.03121219533433,-0.0134297356845702,0.0190670430730375,5
0.240020751953125,-0.0606379397213459,2.94054222106934,1.13419330120087,-0.0630225615075555,2.93869953286731,1.181846384026,2411.625,2429.629,2374.497,2437.295,358.334564208984,44.965950012207,0.65257203578949,-0.0224587507545948,-0.00603008316829801,-0.02760442905128,-0.0368405636651345,-0.0158514653389075,0.0225053254573701,5
0.260009765625,-0.061212245374918,2.94036674499512,1.13409101963043,-0.0638185570309634,2.93835703823113,1.18233264526998,2330.645,2392.493,2461.547,2398.137,358.076263427734,44.9738540649414,0.707952857017517,-0.0287153739482164,-0.00876791495829821,-0.00511444732546806,-0.0428699302682246,-0.0184457333472145,0.0261885714287875,4
0.279998779296875,-0.0619287192821503,2.94012570381165,1.13444089889526,-0.0647390625194898,2.93796097043536,1.18289496770872,2305.008,2364.709,2470.57,2371.175,357.886901855469,44.9803352355957,0.760622978210449,-0.0358236692845821,-0.0120551101863384,0.0174957066774368,-0.0492963837173861,-0.0212108567320638,0.0301143915580518,4
0.300018310546875,-0.062800221145153,2.93981170654297,1.13523650169373,-0.0657936070281142,2.93750722939386,1.18353917249319,2317.288,2348.147,2416.067,2353.449,357.765075683594,44.9818229675293,0.811219274997711,-0.0435751974582672,-0.015705643221736,0.0397787466645241,-0.0561185469977389,-0.0241462430024218,0.0342819446482607,4
0.32000732421875,-0.0638350248336792,2.9394211769104,1.13645005226135,-0.0669865614821475,2.93699393441958,1.18426792975347,2335.931,2337.032,2341.552,2341.193,357.678558349609,44.9787940979004,0.860219895839691,-0.0517403595149517,-0.0195241216570139,0.0606779642403126,-0.0633036493784043,-0.0272377918282996,0.0386712115712976,4
0.339996337890625,-0.0650386363267899,2.93895316123962,1.13803672790527,-0.068326768706371,2.93641728069206,1.18508664143323,2336.909,2324.313,2287.465,2330.56,357.594146728516,44.9741668701172,0.906621098518372,-0.060180738568306,-0.0234031062573195,0.0793310254812241,-0.0708499516420146,-0.0304847548730522,0.0432811298664125,4
0.360015869140625,-0.0664161518216133,2.93840622901917,1.13995122909546,-0.0698237345322385,2.93577317811757,1.18600111449656,2321.987,2310.462,2262.201,2315.885,357.494506835938,44.9703369140625,0.950675785541534,-0.0688758194446564,-0.0273419748991728,0.0957232639193535,-0.0787580297418618,-0.0338873799532906,0.048112051374484,4
0.3800048828125,-0.0679734721779823,2.93777847290039,1.14215505123138,-0.0714797725314022,2.93506063123087,1.18701276226829,2296.717,2295.012,2259.689,2298.984,357.379669189453,44.9685096740723,0.992949306964874,-0.0778661370277405,-0.0313905775547028,0.11018929630518,-0.0869921272359981,-0.0374302820709642,0.0531421330430943,4
0.4000244140625,-0.0697174295783043,2.93706655502319,1.14461779594421,-0.0733065984369745,2.93427459907931,1.18812874170695,2267.549,2277.241,2269.332,2283.493,357.261291503906,44.9687728881836,1.03245890140533,-0.0871980786323547,-0.0355980880558491,0.123139202594757,-0.0955658248284375,-0.0411193046236092,0.058379671112403,4
0.420013427734375,-0.0716553628444672,2.93626666069031,1.1473217010498,-0.0753050585276311,2.93341471753282,1.18934956979097,2250.134,2263.486,2269.992,2267.137,357.151397705078,44.9698524475098,1.07037115097046,-0.0968968123197556,-0.0399907492101192,0.13519461452961,-0.104441553474511,-0.0449382827008623,0.0638017152392751,4
0.44000244140625,-0.0737940222024918,2.93537569046021,1.15024876594543,-0.077483988232608,2.93247718495301,1.19068064394622,2236.529,2249.898,2264.747,2255.682,357.056182861328,44.9710845947266,1.10580790042877,-0.106933183968067,-0.0445490591228008,0.146353930234909,-0.113620829717891,-0.048887868829098,0.0694091918565748,4
0.46002197265625,-0.076139397919178,2.93439078330994,1.15338468551636,-0.0798530997696509,2.93145782244394,1.19212789721494,2231.936,2240.277,2249.367,2244.711,356.975463867188,44.9717597961426,1.13938045501709,-0.117268860340118,-0.049244150519371,0.156793355941772,-0.123107133063502,-0.0529695601420796,0.0752042265395641,4
0.480010986328125,-0.0786965042352676,2.93331003189087,1.1567131280899,-0.0824109101018722,2.93035726811493,1.19369042363305,2229.644,2232.75,2230.683,2235.446,356.903411865234,44.9718437194824,1.17183482646942,-0.127855315804482,-0.0540408119559288,0.166422307491302,-0.132860437136906,-0.0571661344090936,0.0811623678006979,4
0.5,-0.0814696103334427,2.93213176727295,1.16021418571472,-0.085166398670376,2.92917165836334,1.195373708601,2221.195,2223.431,2220.333,2229.103,356.835540771484,44.9720153808594,1.20186257362366,-0.138655230402946,-0.0589144751429558,0.175050616264343,-0.142884000065179,-0.0614789935111996,0.0872856059789651,5
0.52001953125,-0.0844628736376762,2.9308545589447,1.16387283802032,-0.0881295333471192,2.92789670429234,1.19718384133622,2214.837,2216.673,2211.968,2220.75,356.770111083984,44.9723472595215,1.23014080524445,-0.149663150310516,-0.0638659745454788,0.182931587100029,-0.153182839569029,-0.0659102964334391,0.0935770063216458,5
0.540008544921875,-0.08768031001091,2.92947673797607,1.16767597198486,-0.0912963635428427,2.92653410573011,1.19911840848537,2208.832,2210.863,2205.393,2213.034,356.706024169922,44.9728965759277,1.25748038291931,-0.16087181866169,-0.0688950791954994,0.190155833959579,-0.163714777034477,-0.0704418948965508,0.100010802571645,5
0.55999755859375,-0.0911257266998291,2.92799687385559,1.17160940170288,-0.094676112580471,2.92507989413848,1.20118304443252,2198.15,2202.831,2206.04,2208.266,356.645111083984,44.9739837646484,1.28246855735779,-0.172271072864532,-0.0739987641572952,0.196673735976219,-0.17448465888317,-0.0750758741803766,0.106589955332319,5
0.58001708984375,-0.0948030352592468,2.9264132976532,1.175665974617,-0.0982790918331175,2.92352963282165,1.20338404823457,2193.577,2198.052,2202.908,2201.736,356.589721679688,44.9751777648926,1.30587720870972,-0.183865204453468,-0.0791830793023109,0.202826872467995,-0.185498893714783,-0.0798149917263209,0.113318379517207,5
0.600006103515625,-0.0987157896161079,2.92472457885742,1.17983913421631,-0.102098762959148,2.92188613504538,1.20571742572067,2191.886,2194.829,2196.567,2196.365,356.539154052734,44.9762229919434,1.32863938808441,-0.195638298988342,-0.0844389274716377,0.208658039569855,-0.196713446836865,-0.0846403006364086,0.120169175019836,5
0.6199951171875,-0.102867126464844,2.92292952537537,1.18411934375763,-0.106144683970236,2.92014528826426,1.208189015731,2185.474,2189.214,2195.937,2194.446,356.493469238281,44.9774742126465,1.34915506839752,-0.207566693425179,-0.0897514522075653,0.214010134339333,-0.208134604141382,-0.0895545055543457,0.127146181793521,5
0.6400146484375,-0.10726010799408,2.92102718353271,1.1885027885437,-0.110427588881679,2.91830247393137,1.21080537550798,2184.616,2187.005,2191.639,2190.302,356.452789306641,44.9785995483398,1.36826944351196,-0.219649016857147,-0.0951214283704758,0.21917051076889,-0.21977002223474,-0.0945609009039674,0.134254077139634,5
0.660003662109375,-0.111897483468056,2.91901636123657,1.19298553466797,-0.114938248900541,2.91636166293851,1.21356086732604,2185.282,2185.981,2185.648,2187.008,356.414886474609,44.9795265197754,1.38695895671844,-0.231868952512741,-0.100539766252041,0.22413769364357,-0.231574097577923,-0.0996398647564507,0.141465002567821,5
0.680023193359375,-0.116781622171402,2.9168963432312,1.19756007194519,-0.119694071710854,2.91431536524554,1.21646612526771,2179.475,2181.884,2187.65,2186.944,356.379699707031,44.9807548522949,1.4034675359726,-0.244206890463829,-0.105995498597622,0.228728115558624,-0.243572831403349,-0.104802584715715,0.148794841825225,5
0.70001220703125,-0.121915102005005,2.91466641426086,1.20222675800323,-0.124683985757554,2.91216834463331,1.21951438589277,2181.681,2182.371,2183.529,2183.351,356.34716796875,44.9817924499512,1.41957008838654,-0.256674617528915,-0.111497782170773,0.233334720134735,-0.255719729227087,-0.11002905550423,0.156215192157144,5
0.720001220703125,-0.127300038933754,2.91232585906982,1.20697999000549,-0.129918284978346,2.90991617190799,1.22271193760712,2176.492,2179.154,2186.916,2184.109,356.317718505859,44.9831123352051,1.43353772163391,-0.26924604177475,-0.117033056914806,0.23766216635704,-0.268023157655716,-0.11532287703907,0.163731164592979,5
0.740020751953125,-0.132938608527184,2.90987372398376,1.21182084083557,-0.135408560960145,2.90755385953358,1.22606586153034,2177.652,2179.386,2185.682,2182.097,356.292327880859,44.9843215942383,1.44635510444641,-0.281929135322571,-0.122607998549938,0.242045372724533,-0.280492548100696,-0.120688107393104,0.171348520634816,5
0.760009765625,-0.138832792639732,2.90730953216553,1.2167501449585,-0.141140917956636,2.9050873864615,1.22956766896782,2180.602,2180.72,2181.731,2180.826,356.269195556641,44.985279083252,1.45914387702942,-0.294709444046021,-0.128214836120605,0.246462568640709,-0.293080296154222,-0.126104263719567,0.179038179492781,5
0.779998779296875,-0.144984111189842,2.90463280677795,1.22176373004913,-0.147126184485884,2.90251209348295,1.2332239748923,2176.309,2178.201,2186.019,2183.125,356.248474121094,44.9865036010742,1.46981191635132,-0.307566314935684,-0.13384148478508,0.250678867101669,-0.305795832832518,-0.131575403921268,0.186805902427515,5
0.800018310546875,-0.151394337415695,2.90184283256531,1.22686457633972,-0.153376545303595,2.89982273783796,1.23704222278088,2178.412,2179.467,2185.615,2181.998,356.231048583984,44.9876098632813,1.47940623760223,-0.320510685443878,-0.139496937394142,0.255039483308792,-0.318649478366155,-0.137105968505107,0.194657993906831,5
0.82000732421875,-0.158064916729927,2.89893937110901,1.23205482959747,-0.159875221826383,2.89702653888221,1.24101216285881,2182.142,2181.751,2182.469,2181.463,356.215209960938,44.9884452819824,1.48914074897766,-0.333529591560364,-0.14517468214035,0.259511888027191,-0.331592781842754,-0.14267511039705,0.202564856024417,5
0.839996337890625,-0.164996966719627,2.89592218399048,1.23733162879944,-0.166633637018892,2.89411858163313,1.24514077323692,2178.021,2179.731,2188.073,2184.631,356.201293945313,44.9896011352539,1.49676203727722,-0.346602827310562,-0.150863394141197,0.263839185237885,-0.344636106234817,-0.148287288494656,0.210532819358465,5
0.860015869140625,-0.172191843390465,2.89279079437256,1.24269938468933,-0.173664618315387,2.89109334680413,1.24943588999465,2180.799,2181.693,2188.318,2184.024,356.190582275391,44.9906234741211,1.50339663028717,-0.359744071960449,-0.156573578715324,0.268386244773865,-0.357790534090669,-0.153947271308859,0.218568654064807,5
0.8800048828125,-0.179650649428368,2.88954472541809,1.24816155433655,-0.180948461186242,2.88795931270381,1.25388547594233,2185.316,2184.63,2185.342,2183.996,356.181213378906,44.9913444519043,1.51032161712646,-0.372940003871918,-0.162298679351807,0.273106545209885,-0.371007022483504,-0.159633957038354,0.226642400584755,5
0.899993896484375,-0.187374010682106,2.88618421554565,1.2537157535553,-0.18849723509595,2.8847112861788,1.25849690412748,2181.304,2182.937,2191.633,2187.758,356.173614501953,44.9923820495605,1.51516604423523,-0.386168956756592,-0.168026357889175,0.277710974216461,-0.384296738353309,-0.165352150505452,0.234760880627692,5
0.920013427734375,-0.195362940430641,2.88270878791809,1.2593674659729,-0.196324452211266,2.88134345332121,1.26327842892191,2184.674,2185.326,2191.982,2187.498,356.169067382813,44.9932632446289,1.51909291744232,-0.399446725845337,-0.173768356442451,0.282584130764008,-0.397671404529394,-0.171106895716105,0.242931255487113,5
0.94000244140625,-0.203618139028549,2.8791184425354,1.2651207447052,-0.204407453948074,2.87786556348678,1.26821620855017,2189.671,2188.714,2188.956,2187.713,356.165557861328,44.9938278198242,1.52346873283386,-0.412759214639664,-0.179517552256584,0.287661582231522,-0.411081631631503,-0.176876941799768,0.251123353961324,5
0.96002197265625,-0.212139829993248,2.87541317939758,1.2709733247757,-0.21277195700315,2.87426655149935,1.27332595294102,2185.559,2187.016,2195.722,2191.937,356.163543701172,44.9947280883789,1.52571976184845,-0.426084369421005,-0.185261324048042,0.292631775140762,-0.424559845004915,-0.182676240476657,0.259356984187769,5
0.980010986328125,-0.220928728580475,2.87159276008606,1.27693295478821,-0.221393324468958,2.87055701793193,1.27859261179209,2192.294,2191.363,2192.637,2190.634,356.163024902344,44.9952697753906,1.52830731868744,-0.439445406198502,-0.191015183925629,0.29798150062561,-0.438056556301695,-0.188483498293199,0.267601914506946,5
1,-0.229984849691391,2.86765766143799,1.28299748897552,-0.230284798736574,2.86673126495361,1.28402427467346,2188.105,2189.962,2199.472,2194.72,356.164520263672,44.9961242675781,1.5288405418396,-0.452807188034058,-0.196760684251785,0.303225427865982,-0.451584000205995,-0.194303979492187,0.275865618896484,5
1.02001953125,-0.23930861055851,2.86360740661621,1.2891731262207,-0.239461107372567,2.86278295570393,1.28962993842572,2192.175,2192.717,2199.344,2194.562,356.169219970703,44.9967727661133,1.52860057353973,-0.46618726849556,-0.202509805560112,0.308779954910278,-0.465154707681581,-0.200143075797255,0.284155752326605,5
1.04000854492188,-0.24889999628067,2.85944223403931,1.29546415805817,-0.248894644448595,2.85872396824263,1.29539273901802,2197.761,2196.432,2195.568,2194.855,356.174621582031,44.9970512390137,1.52905786037445,-0.479569494724274,-0.208253875374794,0.314553201198578,-0.47871923339115,-0.205979512261105,0.292442109412331,5
1.05999755859375,-0.25875860452652,2.85516262054443,1.30186808109283,-0.258599401509697,2.85454828239877,1.3013212236669,2193.126,2194.456,2202.68,2199.418,356.181091308594,44.9976959228516,1.52737081050873,-0.492930591106415,-0.213979452848434,0.32019379734993,-0.492290296490434,-0.211818761581115,0.30073246008742,5
1.08001708984375,-0.268884420394897,2.85076856613159,1.3083907365799,-0.268590868588476,2.85024923324404,1.30742485499156,2196.745,2197.15,2203.018,2199.007,356.190185546875,44.9982032775879,1.52490043640137,-0.506291210651398,-0.219701439142227,0.326135128736496,-0.505880764601332,-0.21766636033551,0.309034664981295,5
1.10000610351563,-0.279277145862579,2.84626030921936,1.31503653526306,-0.278838480013141,2.84583997233313,1.31368496090006,2202.075,2200.771,2199.452,2199.037,356.19970703125,44.9983711242676,1.52319443225861,-0.519637107849121,-0.225412860512733,0.332293033599854,-0.519441457145546,-0.223501147495394,0.317318680446121,5
1.1199951171875,-0.289936035871506,2.8416383266449,1.3218024969101,-0.289357002179081,2.84131414609862,1.32011056195293,2196.819,2198.451,2207.031,2203.529,356.210357666016,44.9989471435547,1.519291639328,-0.532944917678833,-0.231100484728813,0.338300466537476,-0.532985466132485,-0.229328756186667,0.32559250418615,5
1.1400146484375,-0.30086076259613,2.8369026184082,1.32869470119476,-0.300162704591434,2.83666475422696,1.32671159693698,2200.438,2201.058,2207.113,2202.813,356.223937988281,44.9993553161621,1.5146507024765,-0.546236217021942,-0.236779540777206,0.344611585140228,-0.54652589017629,-0.235154822377061,0.33386413794036,5
1.16000366210938,-0.312050670385361,2.83205389976501,1.3357173204422,-0.311222084148811,2.83190621216671,1.33346759933036,2205.903,2204.612,2202.896,2202.606,356.238067626953,44.9993934631348,1.51089096069336,-0.559495389461517,-0.24244187772274,0.351130694150925,-0.560014026276883,-0.240958390526247,0.342103829805999,6
1.18002319335938,-0.323504626750946,2.82709240913391,1.34286665916443,-0.322568202252263,2.82702429452064,1.34039876582708,2200.278,2201.886,2210.26,2207.126,356.253326416016,44.9998512268066,1.50486576557159,-0.572697818279266,-0.248073250055313,0.357468485832214,-0.573483731835696,-0.246754028528194,0.350332262741268,6
1.20001220703125,-0.335222065448761,2.82201862335205,1.35015058517456,-0.334165615614823,2.82203425154496,1.3474834446762,2207.585,2206.383,2205.672,2204.764,356.269744873047,44.9998893737793,1.49955940246582,-0.585872173309326,-0.253692179918289,0.36419665813446,-0.586886736182789,-0.252520966862155,0.358519948947149,6
1.22000122070313,-0.347201645374298,2.81683301925659,1.35756504535675,-0.346030421585499,2.81692915700008,1.35473146949704,2201.643,2203.789,2212.884,2208.875,356.287963867188,45.0003280639648,1.49205470085144,-0.598978638648987,-0.259277522563934,0.370721906423569,-0.600236516861372,-0.258265004538453,0.366675121644476,6
1.24002075195313,-0.359442442655563,2.81153607368469,1.36511564254761,-0.358180209983518,2.8117014424782,1.36215358563568,2205.473,2206.19,2211.75,2207.65,356.309448242188,45.000545501709,1.48394048213959,-0.612038910388947,-0.264843791723251,0.37753289937973,-0.613546334788502,-0.263991847359231,0.374805881720547,6
1.260009765625,-0.371943145990372,2.80612850189209,1.37280595302582,-0.37057666480527,2.80636759428526,1.36972638644343,2211.058,2209.46,2206.207,2207.053,356.331237792969,45.0003547668457,1.47688150405884,-0.625035524368286,-0.27038112282753,0.384513378143311,-0.626768731761373,-0.26968107538565,0.382883237699838,6
1.27999877929688,-0.384701997041702,2.80061101913452,1.38063073158264,-0.383236695417198,2.80092033679326,1.37746020158837,2204.416,2206.04,2213.494,2211.391,356.353790283203,45.0006294250488,1.46750664710999,-0.637943267822266,-0.275874584913254,0.391240447759628,-0.639917282339435,-0.275338529371412,0.39091548206889,6
1.30001831054688,-0.39771768450737,2.79498410224915,1.38859510421753,-0.396178686849666,2.79535175943725,1.38536626219868,2207.514,2208.117,2212.757,2209.71,356.378997802734,45.0007591247559,1.45746064186096,-0.650786697864532,-0.281341701745987,0.3982213139534,-0.653005218467598,-0.280969902652754,0.398910698016369,6
1.32000732421875,-0.410988688468933,2.78924870491028,1.39670217037201,-0.409361504843077,2.78967956113998,1.39341943999703,2212.542,2211.147,2207.46,2208.577,356.404327392578,45.0005111694336,1.44853663444519,-0.663550674915314,-0.286774694919586,0.405351102352142,-0.6659860834168,-0.286555206197011,0.406840505851434,6
1.33999633789063,-0.424512922763824,2.78340554237366,1.40494620800018,-0.422802873722428,2.78389611561957,1.401630562497,2205.153,2207.207,2215.09,2212.716,356.430633544922,45.0007820129395,1.43722701072693,-0.676210761070251,-0.292159020900726,0.41220024228096,-0.678873453515705,-0.29210028151913,0.41471319914141,6
1.36001586914063,-0.438288748264313,2.77745532989502,1.41333210468292,-0.4365219692899,2.77799317206405,1.41001134389691,2208.172,2209.063,2213.956,2210.611,356.459991455078,45.0008773803711,1.4252667427063,-0.688791453838348,-0.297512173652649,0.419295310974121,-0.691680442442074,-0.297610771068296,0.422536788827408,6
1.3800048828125,-0.452314257621765,2.7713987827301,1.4218624830246,-0.450474904562636,2.77198961381608,1.41853497432376,2213.296,2211.907,2207.863,2209.165,356.489654541016,45.000560760498,1.41450333595276,-0.701276004314423,-0.302824944257736,0.426521778106689,-0.704361775018035,-0.303067194200314,0.43028361700977,6
1.39999389648438,-0.466587066650391,2.7652370929718,1.43053102493286,-0.464680216184654,2.76587746507559,1.42721277752413,2205.46,2207.621,2215.197,2213.149,356.520355224609,45.0007629394531,1.40134739875793,-0.713639140129089,-0.308081924915314,0.433428466320038,-0.716930938559026,-0.308475354130225,0.437961922879032,6
1.42001342773438,-0.481105118989944,2.75897097587585,1.43934226036072,-0.479157861067077,2.75964813894125,1.43605694486361,2208.379,2209.206,2213.564,2210.746,356.554077148438,45.0007781982422,1.3875447511673,-0.725905358791351,-0.313300609588623,0.440559893846512,-0.729400843645231,-0.313840805920001,0.445579593307164,6
1.44000244140625,-0.495866298675537,2.75260162353516,1.44829821586609,-0.493861275572861,2.75332167044526,1.44503903134294,2213.357,2211.881,2206.996,2208.922,356.587890625,45.0003929138184,1.37503027915955,-0.738058090209961,-0.318471848964691,0.447796225547791,-0.741727567798258,-0.319144650954242,0.453109796737511,6
1.46002197265625,-0.510867714881897,2.74612998962402,1.4573917388916,-0.50883280894277,2.74687983789241,1.45418490745244,2204.885,2207.101,2214.382,2212.829,356.622619628906,45.0005531311035,1.3600367307663,-0.750072836875916,-0.323580592870712,0.454674899578094,-0.753942941956197,-0.324400585196357,0.460571978193441,6
1.48001098632813,-0.526107370853424,2.73955702781677,1.46662938594818,-0.524024159888143,2.74034342397783,1.46346506668862,2212.081,2210.838,2207.543,2208.411,356.658386230469,45.0002479553223,1.34610748291016,-0.761981666088104,-0.328647911548615,0.461881846189499,-0.766004036374583,-0.329590137176618,0.467939912563966,6
1.5,-0.54158228635788,2.7328839302063,1.47600364685059,-0.539455198877605,2.73370387899399,1.47289164761066,2203.382,2206.307,2214.656,2211.828,356.695953369141,45.0004539489746,1.32978940010071,-0.773743510246277,-0.333651214838028,0.468714475631714,-0.777924000354858,-0.334718964672088,0.475221632552146,6
1.52001953125,-0.557289838790894,2.7261118888855,1.48551869392395,-0.555147149984933,2.72695207081487,1.48247761567406,2206.531,2207.636,2211.826,2208.861,356.737121582031,45.000415802002,1.31296241283417,-0.785381734371185,-0.338606119155884,0.475754529237747,-0.789715229532175,-0.33979240117828,0.482424710458066,6
1.54000854492188,-0.57322746515274,2.71924185752869,1.49517595767975,-0.571049184024557,2.72010986981902,1.49219192012252,2211.729,2209.974,2203.876,2206.691,356.778350830078,44.9999160766602,1.29756450653076,-0.79687774181366,-0.343501508235931,0.482862681150436,-0.801336412291853,-0.344792671461508,0.489523909660973,6
1.55999755859375,-0.589391529560089,2.71227550506592,1.50496685504913,-0.587181951496087,2.71316839067337,1.50204717602401,2202.397,2204.64,2211.02,2210.431,356.820190429688,45.0000038146973,1.27966022491455,-0.808207452297211,-0.348322004079819,0.489546179771423,-0.812800388649436,-0.349725300221754,0.496527073925997,6
1.58001708984375,-0.605779588222504,2.70521378517151,1.51489496231079,-0.603567408310176,2.70611818636293,1.51205679590172,2204.787,2205.671,2208.749,2207.054,356.864807128906,44.9999237060547,1.26117396354675,-0.819396615028381,-0.353086471557617,0.496404707431793,-0.824119146742882,-0.35459544561987,0.503441526619546,6
1.60000610351563,-0.622388064861298,2.69805812835693,1.52496123313904,-0.620152298932711,2.69898217125626,1.52218824678091,2209.273,2207.765,2201.422,2204.406,356.9091796875,44.9994430541992,1.24414491653442,-0.83042973279953,-0.357786566019058,0.503311574459076,-0.835253140422976,-0.35938609205264,0.510243109616171,5
1.6199951171875,-0.639213800430298,2.69080996513367,1.53515684604645,-0.636958033083316,2.69175113334911,1.53245460752521,2199.36,2202.095,2208.937,2207.909,356.954437255859,44.9995880126953,1.22459948062897,-0.841284990310669,-0.362408101558685,0.509781956672668,-0.846214826007804,-0.364102599125749,0.516939432286212,5
1.6400146484375,-0.656253457069397,2.6834704875946,1.54548525810242,-0.654007271984653,2.68441532215046,1.54286972152191,2201.667,2202.894,2206.465,2204.268,357.0029296875,44.9995498657227,1.2044769525528,-0.851986587047577,-0.366969048976898,0.516422927379608,-0.857015715678588,-0.368749920209162,0.523537527241534,5
1.66000366210938,-0.673503816127777,2.6760413646698,1.55594742298126,-0.671244443874359,2.67699864863716,1.55339964084857,2206.422,2204.942,2198.393,2201.326,357.051422119141,44.9990577697754,1.18592250347137,-0.862518072128296,-0.371459871530533,0.523106515407562,-0.867618167158098,-0.373311858882592,0.530014399402375,5
1.68002319335938,-0.690960943698883,2.66852402687073,1.56653392314911,-0.688718488267733,2.66948005550297,1.56407426189139,2196.224,2198.927,2205.59,2204.926,357.100891113281,44.9991683959961,1.1647744178772,-0.872857272624969,-0.375865519046783,0.529324471950531,-0.87804994059578,-0.377800359562815,0.53638700701084,5
1.70001220703125,-0.708621621131897,2.66091990470886,1.57725059986115,-0.706372354049449,2.66188409024902,1.5748587330143,2203.582,2202.186,2197.213,2199.204,357.151214599609,44.9987678527832,1.14492666721344,-0.88303405046463,-0.380206555128098,0.535831093788147,-0.888274735793774,-0.382199803288802,0.542633174842512,5
1.72000122070313,-0.726481854915619,2.65323066711426,1.58808779716492,-0.724228658537036,2.6542010212754,1.58576687078363,2193.2,2196.573,2204.17,2202.318,357.203308105469,44.9989585876465,1.12259650230408,-0.893011093139648,-0.38446119427681,0.541858971118927,-0.898304216251578,-0.386515208538549,0.548760027947228,5
1.74002075195313,-0.744538068771362,2.64545774459839,1.59904873371124,-0.742311168965756,2.64642062220478,1.59681319423253,2196.03,2197.279,2200.39,2198.313,357.259002685547,44.9988861083984,1.09983694553375,-0.902809619903564,-0.388644695281982,0.548046767711639,-0.908148960779607,-0.390751127078638,0.554774028755192,5
1.760009765625,-0.762786388397217,2.63760280609131,1.6101336479187,-0.760560719141003,2.63856835059778,1.60796155965597,2201.017,2199.113,2191.225,2195.183,357.314422607422,44.9983062744141,1.0787810087204,-0.912412047386169,-0.39274600148201,0.554243624210358,-0.91777478390713,-0.394892849856044,0.560654293895788,4
1.77999877929688,-0.781222283840179,2.62966775894165,1.6213321685791,-0.779000609654483,2.63063418086074,1.61922620102184,2190.109,2192.737,2198.352,2198.744,357.370330810547,44.9984016418457,1.05512976646423,-0.921798884868622,-0.396751195192337,0.559924364089966,-0.927192788821983,-0.398945154262308,0.566407606133204,4
1.80001831054688,-0.799842178821564,2.62165427207947,1.63264691829681,-0.797655223615693,2.62260762162281,1.63062201359123,2192.185,2193.239,2195.355,2194.391,357.428955078125,44.9983215332031,1.03099405765533,-0.930993139743805,-0.400678545236588,0.565739035606384,-0.936412917636689,-0.402912318110697,0.572040038948834,4
1.82000732421875,-0.818641781806946,2.61356377601624,1.64407801628113,-0.816463410111527,2.61451498441355,1.64211164122557,2196.587,2194.859,2186.909,2190.922,357.487030029297,44.9977951049805,1.00856029987335,-0.939980626106262,-0.404519885778427,0.57155442237854,-0.94540321420156,-0.406780591562751,0.577532070829503,3
1.83999633789063,-0.837616622447968,2.60539841651917,1.65561497211456,-0.835449117627072,2.60634596486888,1.6537097136807,2185.126,2188.313,2194.536,2194.297,357.5458984375,44.997974395752,0.983540415763855,-0.948744177818298,-0.408262699842453,0.576849222183228,-0.954174163352093,-0.410554485950274,0.582890106797601,3
1.86001586914063,-0.856762766838074,2.59715986251831,1.66726064682007,-0.854637305360818,2.59808982374295,1.66543147814148,2187.322,2188.668,2191.318,2189.78,357.607940673828,44.9979476928711,0.95805412530899,-0.957304656505585,-0.411923736333847,0.58228474855423,-0.962735018414262,-0.414237982720922,0.588119799565572,0
1.8800048828125,-0.876075685024261,2.5888500213623,1.67901504039764,-0.873964974649439,2.58977366760063,1.67723844970756,2192.023,2190.27,2182.266,2186.165,357.669677734375,44.997428894043,0.934342265129089,-0.965646803379059,-0.41549363732338,0.587718844413757,-0.971056158224177,-0.417818336715394,0.593203054026622,0
1.89999389648438,-0.895550787448883,2.58047080039978,1.69086730480194,-0.893456683142228,2.58138692997148,1.6891456302637,2180.511,2183.573,2189.491,2189.653,357.732177734375,44.9975852966309,0.90800666809082,-0.973754227161407,-0.418959677219391,0.592616021633148,-0.979147395688901,-0.421299770153459,0.598145864732551,0
1.92001342773438,-0.91518372297287,2.57202410697937,1.70282006263733,-0.913137923350175,2.5729186421402,1.70116859278703,2182.705,2183.914,2186.029,2184.96,357.797668457031,44.9975395202637,0.881231844425201,-0.981645822525024,-0.422337919473648,0.597640097141266,-0.987017247723777,-0.424685947625853,0.602953434534038,0
1.94000244140625,-0.934969842433929,2.56351161003113,1.71487307548523,-0.932943991899774,2.5643966441608,1.71326781099638,2187.385,2185.453,2176.832,2181.186,357.862548828125,44.997013092041,0.8562992811203,-0.989307343959808,-0.425619810819626,0.602651238441467,-0.994638524886308,-0.427965170275055,0.607609153824943,0
1.96002197265625,-0.954904317855835,2.55493569374084,1.72701525688171,-0.952930593197372,2.55579696798345,1.72547731384432,2175.431,2178.65,2184.281,2184.646,357.928070068359,44.9971923828125,0.828779816627502,-0.996724903583527,-0.428793609142303,0.607108414173126,-1.00203140433628,-0.431146119769234,0.61212534851732,0
1.98001098632813,-0.974982678890228,2.54629826545715,1.73925185203552,-0.973031969359004,2.54714790738853,1.73775693086567,2183.137,2181.439,2174.976,2177.853,357.994079589844,44.9968032836914,0.802812516689301,-1.00392127037048,-0.431877374649048,0.611832201480865,-1.00917036754089,-0.434217816196637,0.616486429737696,0
2,-0.995200157165527,2.53760123252869,1.75157189369202,-0.993273599084619,2.53843849960327,1.75012222660065,2171.254,2175.112,2182.007,2180.959,358.061737060547,44.9970664978027,0.774325668811798,-1.0108699798584,-0.43485352396965,0.616003513336182,-1.01606400046349,-0.437183953857422,0.620697642517089,0
2.02001953125,-1.01555180549622,2.52884650230408,1.76397800445557,-1.01368176147806,2.52965743746343,1.7625892545437,2174.061,2175.417,2177.584,2176.123,358.132873535156,44.9970321655273,0.745548069477081,-1.01758515834808,-0.437734693288803,0.620306491851807,-1.0227194988233,-0.440047628868552,0.624763382608097,0
2.04000854492188,-1.03603279590607,2.52003622055054,1.77646958827972,-1.03418924440916,2.52083364047092,1.77511695585335,2179.191,2176.946,2167.455,2172.258,358.203338623047,44.9964599609375,0.718789994716644,-1.02405178546906,-0.440510541200638,0.624581634998322,-1.02911391720548,-0.442798968459032,0.628669633014835,0
2.05999755859375,-1.05663800239563,2.51117277145386,1.7890350818634,-1.05482201812353,2.5119559343546,1.78772119534738,2166.975,2169.934,2174.606,2175.95,358.273986816406,44.9966011047363,0.689439713954926,-1.03025949001312,-0.443170487880707,0.628274857997894,-1.03525504859546,-0.445441325732794,0.632421154350513,0
2.08001708984375,-1.07736253738403,2.50225806236267,1.80167663097382,-1.07560676837143,2.50301283698163,1.80041827493419,2169.035,2170.042,2171.129,2170.937,358.347076416016,44.9965705871582,0.65971314907074,-1.03622353076935,-0.445729851722717,0.632076025009155,-1.0411492471255,-0.447977434695423,0.636021828255355,0
2.10000610351563,-1.09820103645325,2.49329447746277,1.81439352035522,-1.09647498538954,2.49403382618922,1.81316634306845,2173.52,2171.437,2162.003,2166.786,358.419158935547,44.9960594177246,0.631986379623413,-1.04193258285522,-0.448181718587875,0.63584566116333,-1.04677621342161,-0.450398561093403,0.639459254158576,0
2.1199951171875,-1.11914873123169,2.48428416252136,1.82717442512512,-1.11745308225396,2.48500753716864,1.82598153508617,2160.941,2164.369,2169.643,2170.365,358.491668701172,44.9963111877441,0.601677358150482,-1.04737949371338,-0.450517416000366,0.639043211936951,-1.0521429102862,-0.45270770082608,0.642737685527497,0
2.1400146484375,-1.14020025730133,2.47522926330566,1.84002161026001,-1.13856809990831,2.47592233495728,1.83888036987787,2163.098,2164.414,2166.13,2165.256,358.567077636719,44.9963340759277,0.571015179157257,-1.05257618427277,-0.452750504016876,0.642357766628265,-1.05725481901126,-0.454907212340279,0.645860470797878,0
2.16000366210938,-1.16135048866272,2.46613168716431,1.85293459892273,-1.15975039167652,2.46680818657414,1.85182030137592,2167.966,2165.836,2156.513,2161.04,358.641662597656,44.9958305358887,0.542414546012878,-1.05751097202301,-0.454873114824295,0.645646989345551,-1.0620943502576,-0.456989527434725,0.648816864916866,0
2.18002319335938,-1.18259406089783,2.45699405670166,1.86590170860291,-1.18105931486702,2.45763955222766,1.86483759003381,2155.355,2158.807,2163.863,2164.718,358.716766357422,44.9960746765137,0.511271178722382,-1.06217777729034,-0.456876575946808,0.648354351520538,-1.0666743814704,-0.458960186914335,0.65161473451479,0
2.20001220703125,-1.2039258480072,2.44781851768494,1.87892806529999,-1.20242455577657,2.44844668594002,1.87788928230744,2163.509,2161.441,2154.123,2157.407,358.792053222656,44.9957122802734,0.481864839792252,-1.06658935546875,-0.458774566650391,0.651318073272705,-1.07097916161324,-0.460812413548163,0.654244457529281,0
2.22000122070313,-1.2253406047821,2.43860721588135,1.89200210571289,-1.22387315175433,2.43921795429519,1.89099189489151,2150.988,2155.007,2161.079,2160.7,358.868682861328,44.9960250854492,0.450012028217316,-1.07073140144348,-0.460554569959641,0.653703272342682,-1.07501419914593,-0.462548577472581,0.656709398992482,0
2.24002075195313,-1.24683260917664,2.42936301231384,1.9051262140274,-1.24543261682529,2.42994151877688,1.90416223567455,2153.926,2155.16,2156.472,2155.541,358.948486328125,44.9960250854492,0.418002992868423,-1.07460975646973,-0.462225735187531,0.656207382678986,-1.07878346314438,-0.464170386470068,0.659011983550929,0
2.260009765625,-1.26839685440063,2.4200873374939,1.91829967498779,-1.26703177594152,2.42064800401982,1.91735682493042,2159.256,2156.471,2146.08,2151.47,359.027038574219,44.9954643249512,0.388140320777893,-1.07821309566498,-0.463779389858246,0.658670663833618,-1.08227399942825,-0.465672266718726,0.661144297698006,0
2.27999877929688,-1.29002773761749,2.41078305244446,1.93151021003723,-1.28869796983554,2.41132564607061,1.93059236468599,2146.287,2149.491,2153.412,2155.266,359.105529785156,44.9956741333008,0.355798423290253,-1.08154022693634,-0.465209186077118,0.660527944564819,-1.08549040888332,-0.467056197851165,0.663109152043028,0
2.30001831054688,-1.31171953678131,2.40145254135132,1.94475996494293,-1.31045892272318,2.4019625159737,1.94388579123207,2148.494,2149.43,2149.885,2149.999,359.186157226563,44.9956970214844,0.32321685552597,-1.08459806442261,-0.46652689576149,0.66248744726181,-1.08843572622736,-0.468323485621664,0.66490840044773,0
2.32000732421875,-1.33346724510193,2.39209794998169,1.95804810523987,-1.33224276726637,2.39258953623693,1.95719320193332,2153.159,2150.697,2140.606,2145.637,359.265380859375,44.9952125549316,0.292803049087524,-1.0873783826828,-0.467726737260818,0.664406657218933,-1.09109983431736,-0.469469776906228,0.666535862507326,0
2.33999633789063,-1.35526490211487,2.38272190093994,1.97136282920837,-1.35407709248145,2.38319483607731,1.97053145048929,2140.034,2143.619,2148.281,2149.47,359.344818115234,44.9955139160156,0.259880155324936,-1.08988320827484,-0.468804121017456,0.665739238262177,-1.09348640563071,-0.470496651869278,0.667993781680938,0
2.36001586914063,-1.37710702419281,2.37332653999329,1.98470652103424,-1.3759897762471,2.37376642042246,1.98391756706104,2142.49,2143.642,2144.58,2144.079,359.426818847656,44.9955787658691,0.226773142814636,-1.09211528301239,-0.469768553972244,0.667185366153717,-1.09559752564474,-0.471405007833448,0.669283431954129,0
2.3800048828125,-1.3989884853363,2.36391425132751,1.99807834625244,-1.39790843013262,2.36433543599182,1.99730733068585,2147.419,2144.924,2134.977,2139.739,359.507568359375,44.9951019287109,0.195886269211769,-1.09406614303589,-0.470613539218903,0.668592810630798,-1.09742594550583,-0.472191725819537,0.67040038511534,0
2.39999389648438,-1.42090332508087,2.35448741912842,2.01146650314331,-1.41986083522252,2.35488992936084,2.01071771239474,2134.477,2137.926,2142.244,2143.694,359.588562011719,44.9953956604004,0.162528917193413,-1.09573972225189,-0.471334755420685,0.66941374540329,-1.09897439291323,-0.472857979480329,0.671346307473475,0
2.42001342773438,-1.4428459405899,2.34504890441895,2.02487325668335,-1.44187496577138,2.34541786398928,2.02416580122331,2136.999,2137.975,2138.442,2138.29,359.671844482422,44.9954414367676,0.12903881072998,-1.0971360206604,-0.471940457820892,0.670339405536652,-1.1002439936861,-0.473404253224357,0.672121886773894,0
2.44000244140625,-1.46481096744537,2.33560037612915,2.03829765319824,-1.46387808506052,2.33595053645515,2.03760716344514,2141.954,2139.139,2128.884,2134.019,359.753570556641,44.9949607849121,0.097738616168499,-1.09824800491333,-0.472424894571304,0.671222150325775,-1.10123038958312,-0.473828671822132,0.672724460634977,0
2.46002197265625,-1.4867924451828,2.32614469528198,2.05172801017761,-1.48593173759011,2.32646146587939,2.051079395635,2128.834,2132.342,2136.278,2137.877,359.835357666016,44.9952659606934,0.0640707537531853,-1.09908258914948,-0.472785502672195,0.671516299247742,-1.10193621258339,-0.474132367740737,0.673155636891692,0
2.48001098632813,-1.50878548622131,2.31668400764465,2.06516909599304,-1.5079630509786,2.31698200721197,2.06453798119217,2137.209,2134.726,2126.853,2130.257,359.916717529297,44.9949493408203,0.0323128886520863,-1.0996378660202,-0.473029792308807,0.672054290771484,-1.10235904000526,-0.474314298567936,0.673413935565619,0
2.5,-1.53078365325928,2.30722093582153,2.07860946655273,-1.52999999932945,2.30750012397766,2.0780000090599,2124.344,2128.505,2133.745,2133.824,-0.000836655905004591,44.9953384399414,-0.00171828723978251,-1.09991776943207,-0.473153293132782,0.67201828956604,-1.10250000050292,-0.474374949932098,0.673500046133994,0
2.52001953125,-1.55278193950653,2.29775786399841,2.09205150604248,-1.55207058900185,2.29800376582252,2.09148258788601,2127.652,2128.623,2129.059,2128.485,0.0843062996864319,44.9953804016113,359.964294433594,-1.09991562366486,-0.473159521818161,0.672097206115723,-1.10235860927677,-0.474314113237503,0.673413672440311,0
2.54000854492188,-1.57477450370789,2.28829669952393,2.10549378395081,-1.57410188948011,2.28852431271001,2.10494116555652,2132.881,2129.728,2119.07,2124.417,0.167767241597176,44.9948616027832,359.9326171875,-1.09962499141693,-0.473041832447052,0.672120094299316,-1.10193535162022,-0.474131997292339,0.673155110942729,0
2.55999755859375,-1.59675574302673,2.27884101867676,2.11892485618591,-1.59612191359838,2.27904971150017,2.11839285467467,2119.97,2123.132,2126.028,2128.375,0.250832915306091,44.9951210021973,359.898651123047,-1.0990571975708,-0.472799479961395,0.67155385017395,-1.10123038958312,-0.473828671822132,0.672724460634977,0
2.58001708984375,-1.61871981620789,2.26939225196838,2.13234639167786,-1.6181586096433,2.26956793682606,2.13185472841265,2122.46,2122.892,2122.483,2123.196,0.335469424724579,44.9951667785645,359.864593505859,-1.09820652008057,-0.472438335418701,0.671079218387604,-1.10024227275454,-0.473403512755585,0.67212083548366,0
2.60000610351563,-1.64066112041473,2.25995326042175,2.14575743675232,-1.64013916343638,2.26011031859448,2.14528230572506,2126.977,2124.156,2113.725,2118.701,0.418128848075867,44.9947242736816,359.832824707031,-1.09706950187683,-0.471955150365829,0.67055082321167,-1.09897439291323,-0.472857979480329,0.671346307473476,0
2.6199951171875,-1.66257429122925,2.25052618980408,2.1591465473175,-1.66209156852628,2.2506648119635,2.15869268743396,2114.022,2117.488,2121.004,2122.718,0.500661075115204,44.9950714111328,359.798858642578,-1.09566020965576,-0.471350759267807,0.66945892572403,-1.09742594550583,-0.472191725819537,0.67040038511534,0
2.6400146484375,-1.68445372581482,2.24111366271973,2.17251586914063,-1.68404365734903,2.24121944141343,2.17210287594018,2116.514,2117.416,2117.582,2117.402,0.585171103477478,44.9951782226563,359.764892578125,-1.09396946430206,-0.470629066228867,0.668465375900269,-1.09559452046326,-0.471403714787811,0.669281596135657,0
2.66000366210938,-1.70629358291626,2.23171806335449,2.18586444854736,-1.70592290617745,2.23180541187802,2.18546856763052,2121.427,2118.466,2108.509,2113.168,0.667986452579498,44.9947509765625,359.733154296875,-1.09199368953705,-0.469785809516907,0.667429745197296,-1.09348640563071,-0.470496651869278,0.667993781680938,0
2.68002319335938,-1.72808837890625,2.22234153747559,2.1991810798645,-1.72779052905813,2.22239638466312,2.1988271572108,2108.819,2112.105,2115.263,2117.151,0.750670075416565,44.9950790405273,359.699310302734,-1.08974850177765,-0.468822181224823,0.665836155414581,-1.09109597826566,-0.469468117754907,0.666533506905514,0
2.70001220703125,-1.74983274936676,2.21298670768738,2.21247029304504,-1.74957429229274,2.21302343991116,2.21213451824191,2117.13,2114.306,2106.285,2109.628,0.83253026008606,44.9947853088379,359.667419433594,-1.08722054958344,-0.467740058898926,0.664462983608246,-1.08843144721369,-0.468321644481621,0.664905786465049,0
2.72000122070313,-1.77152132987976,2.20365595817566,2.22572112083435,-1.77130202882336,2.20367460188472,2.22540765343382,2104.709,2108.552,2112.653,2113.295,0.915089011192322,44.9951705932617,359.633544921875,-1.08442687988281,-0.466541051864624,0.662544310092926,-1.08549040888332,-0.467056197851165,0.663109152043028,0
2.74002075195313,-1.79314851760864,2.19435119628906,2.23893570899963,-1.79300125102058,2.19433803277934,2.23866336966442,2107.934,2108.534,2108.342,2108.196,0.999724209308624,44.9952392578125,359.599792480469,-1.08135235309601,-0.465224653482437,0.660723745822906,-1.08226887897249,-0.465670063529659,0.661141169691481,0
2.760009765625,-1.81470823287964,2.1850757598877,2.25211262702942,-1.81460030360772,2.18504456385877,2.25185789384333,2112.979,2109.639,2099.076,2104.092,1.08231592178345,44.9947509765625,359.568389892578,-1.07799470424652,-0.463786572217941,0.658845484256744,-1.07877792518082,-0.464168003639063,0.659008600495412,0
2.77999877929688,-1.83619594573975,2.17583107948303,2.26524090766907,-1.83612684690458,2.17578229366013,2.2650081232283,2100.738,2103.431,2105.416,2108.208,1.16418349742889,44.9950294494629,359.534973144531,-1.074373960495,-0.462230116128922,0.656417727470398,-1.07501419914593,-0.462548577472581,0.656709398992482,0
2.80001831054688,-1.85760521888733,2.16662001609802,2.27832221984863,-1.85760812647542,2.16653949917827,2.27813070170937,2102.936,2103.336,2102.411,2103.095,1.24714159965515,44.9951095581055,359.501617431641,-1.07047593593597,-0.460557132959366,0.654060363769531,-1.07097279461286,-0.460809674005774,0.654240568028104,0
2.82000732421875,-1.8789314031601,2.1574444770813,2.29135537147522,-1.87897323600723,2.1573466894188,2.29118231372639,2107.567,2104.328,2094.145,2098.862,1.32782769203186,44.9947204589844,359.470642089844,-1.06630051136017,-0.458765774965286,0.651658892631531,-1.06666760390385,-0.458957270716794,0.65161059420515,0
2.83999633789063,-1.90016865730286,2.14830756187439,2.30432987213135,-1.90024960698239,2.14819206138118,2.30417971674389,2095.028,2098.305,2101.009,2102.881,1.40813207626343,44.9950752258301,359.437683105469,-1.06187009811401,-0.45686075091362,0.648724973201752,-1.06209435025759,-0.456989527434725,0.648816864916866,0
2.86001586914063,-1.92131185531616,2.13921070098877,2.31724762916565,-1.9214641634913,2.13906403038149,2.31713935826856,2097.806,2098.14,2097.657,2097.859,1.48984634876251,44.995189666748,359.404846191406,-1.05716693401337,-0.454841762781143,0.645886123180389,-1.05724722779031,-0.454903946049977,0.645855833439456,0
2.8800048828125,-1.94235587120056,2.13015651702881,2.33010745048523,-1.94254691640495,2.12999271078668,2.33001848303364,2102.355,2099.208,2089.426,2093.742,1.5694899559021,44.9948043823242,359.374359130859,-1.05219161510468,-0.452706545591354,0.642996549606323,-1.0521429102862,-0.45270770082608,0.642737685527497,0
2.89999389648438,-1.96329510211945,2.1211473941803,2.34289932250977,-1.96352501326936,2.1209664217661,2.34283367505136,2090.407,2093.365,2095.704,2097.785,1.64871120452881,44.9951438903809,359.341979980469,-1.04696726799011,-0.450460106134415,0.639592528343201,-1.04677621342161,-0.450398561093403,0.639459254158576,0
2.92001342773438,-1.98412454128265,2.11218547821045,2.35562467575073,-1.98442500350686,2.11197373984504,2.35560115294953,2093.142,2093.317,2092.374,2092.808,1.72905850410461,44.9952354431152,359.309814453125,-1.04147469997406,-0.448101103305817,0.636271595954895,-1.04114045847258,-0.4479736531836,0.636016459404434,0
2.94000244140625,-2.00483894348145,2.10327291488647,2.36828255653381,-2.00517798053537,2.10304431360073,2.36827882277243,2097.638,2094.213,2084.375,2088.9,1.80708539485931,44.9948501586914,359.279876708984,-1.03571557998657,-0.445628017187119,0.632898926734924,-1.03525504859546,-0.445441325732794,0.632421154350513,0
2.96002197265625,-2.02543306350708,2.09441208839417,2.38086295127869,-2.02584216016808,2.09415309439512,2.38090224765189,2085.841,2088.679,2090.605,2092.786,1.88447904586792,44.995189666748,359.248229980469,-1.02971506118774,-0.443047076463699,0.62902307510376,-1.02910434715508,-0.442794850733705,0.628663786820389,0
2.98001098632813,-2.04590201377869,2.08560490608215,2.39336967468262,-2.04634944795115,2.08532938136936,2.39342982974865,2093.679,2090.458,2082.777,2085.818,1.96051251888275,44.9949645996094,359.218566894531,-1.02344906330109,-0.440354764461517,0.625341951847076,-1.02270954399162,-0.440043345582586,0.624757301356766,0
3,-2.06624102592468,2.07685375213623,2.40579319000244,-2.06672639957428,2.07656174835205,2.40587779151916,2082.233,2085.626,2088.493,2089.323,2.03679609298706,44.995361328125,359.187316894531,-1.01694798469543,-0.437559276819229,0.621176600456238,-1.01606400046349,-0.437183953857422,0.620697642517089,0
3.02001953125,-2.08644485473633,2.06816077232361,2.41813516616821,-2.08699882657197,2.06783908936099,2.41826190082706,2085.418,2085.522,2084.696,2084.727,2.11442995071411,44.9954452514648,359.156402587891,-1.01018857955933,-0.434655696153641,0.617097556591034,-1.0091596546337,-0.434213206731958,0.616479885389866,0
3.04000854492188,-2.10650849342346,2.05952739715576,2.43039441108704,-2.10709998486405,2.05919012250926,2.43054138475531,2090.159,2086.408,2076.531,2081.068,2.18965220451355,44.9950370788574,359.127746582031,-1.00317335128784,-0.431642055511475,0.61296546459198,-1.00202031904361,-0.431141350077486,0.612118576685011,0
3.05999755859375,-2.1264271736145,2.05095720291138,2.44256138801575,-2.12705600675913,2.05060360379452,2.44273220712343,2078.894,2081.335,2082.26,2084.845,2.26384830474854,44.9953308105469,359.097595214844,-0.995930016040802,-0.428525805473328,0.608345329761505,-0.994638524886308,-0.427965170275055,0.607609153824944,0
3.08001708984375,-2.14619565010071,2.04245114326477,2.45463728904724,-2.14689219650438,2.04206864550612,2.45484982590117,2081.499,2080.976,2079.361,2080.459,2.33837699890137,44.9954071044922,359.067687988281,-0.988436758518219,-0.425304085016251,0.603796601295471,-0.987005430654711,-0.424680863071165,0.602946215670947,0
3.10000610351563,-2.16580963134766,2.03401160240173,2.4666211605072,-2.16654331551667,2.03361331798384,2.46685438785611,2085.436,2081.99,2072.448,2076.601,2.41022610664368,44.9950828552246,359.040069580078,-0.980698108673096,-0.421977698802948,0.599194645881653,-0.979147395688901,-0.421299770153459,0.598145864732551,0
3.1199951171875,-2.18526458740234,2.02564072608948,2.47850394248962,-2.18603502400946,2.02522658035469,2.47876156841225,2074.394,2076.914,2078.364,2080.4,2.4812319278717,44.9954376220703,359.010955810547,-0.972742676734924,-0.418554723262787,0.594138562679291,-0.971056158224178,-0.417818336715394,0.593203054026623,0
3.1400146484375,-2.20455551147461,2.01733994483948,2.49028706550598,-2.20539207344272,2.01689778275692,2.49058648785022,2076.91,2076.756,2075.674,2075.99,2.55287504196167,44.9955787658691,358.982177734375,-0.964547336101532,-0.415031403303146,0.589159667491913,-0.962722140342815,-0.41423244164655,0.588111932552684,0
3.16000366210938,-2.22367787361145,2.0091118812561,2.50196981430054,-2.22455088103183,2.00865428308644,2.50229030443911,2081.042,2077.665,2068.73,2072.366,2.62214803695679,44.9952774047852,358.955657958984,-0.956116318702698,-0.411407649517059,0.584139287471771,-0.954174163352092,-0.410554485950274,0.582890106797601,0
3.18002319335938,-2.24262714385986,2.00095796585083,2.51354360580444,-2.24356543975693,2.00047284967231,2.51390600164794,2070.736,2072.877,2073.959,2076.109,2.69055151939392,44.9955940246582,358.927764892578,-0.947478294372559,-0.407691240310669,0.578685760498047,-0.945389654806993,-0.406774757334075,0.577523787606953,0
3.20001220703125,-2.26139974594116,1.99288034439087,2.52501153945923,-2.26237335188561,1.99238033051557,2.52539546167567,2077.869,2074.453,2067.154,2069.85,2.75722670555115,44.9954032897949,358.901794433594,-0.938605308532715,-0.403876185417175,0.573396682739258,-0.93639902618694,-0.402906341007952,0.572031552878955,0
3.22000122070313,-2.27999043464661,1.98488092422485,2.53636527061462,-2.28099938900442,1.98436606709459,2.53677381709797,2067.741,2070.288,2072.111,2073.262,2.82365417480469,44.9957695007324,358.874603271484,-0.9295334815979,-0.399973511695862,0.567688405513763,-0.927192788821982,-0.398945154262308,0.566407606133204,0
3.24002075195313,-2.29839515686035,1.97696137428284,2.54760646820068,-2.29946728755973,1.97641984627959,2.54805556813954,2070.843,2070.368,2068.775,2069.044,2.89063549041748,44.9958534240723,358.847961425781,-0.920237123966217,-0.395976930856705,0.562057852745056,-0.917760245372928,-0.394886594330938,0.560645412532115,0
3.260009765625,-2.31660938262939,1.96912360191345,2.55873394012451,-2.31771654397337,1.96856770107001,2.5592037541086,2074.924,2071.092,2061.958,2065.93,2.95490384101868,44.9955215454102,358.823486328125,-0.910722434520721,-0.391886442899704,0.55637663602829,-0.908134108040216,-0.390744736359816,0.55476495544847,0
3.27999877929688,-2.33463001251221,1.96136939525604,2.56973958015442,-2.33577134012187,1.96079922667992,2.57023314733618,2065.228,2066.82,2066.838,2069.423,3.01774740219116,44.9957962036133,358.797943115234,-0.901019513607025,-0.38771116733551,0.550285041332245,-0.898304216251578,-0.386515208538549,0.548760027947228,0
3.30001831054688,-2.35245180130005,1.95370042324066,2.5806245803833,-2.35365475236716,1.95310449399547,2.58115784481168,2067.352,2066.594,2064.696,2065.616,3.08036279678345,44.9959106445313,358.772827148438,-0.891105592250824,-0.383447021245956,0.54424911737442,-0.88825927318574,-0.382193150160541,0.542623728976554,0
3.32000732421875,-2.37007164955139,1.94611859321594,2.59138822555542,-2.37130830610839,1.94550866300381,2.59194212531393,2071.032,2067.428,2058.832,2062.311,3.14018487930298,44.9956665039063,358.749847412109,-0.880986869335175,-0.379095554351807,0.53817892074585,-0.878034183119985,-0.377793579561194,0.536377381014769,0
3.33999633789063,-2.38748550415039,1.93862533569336,2.60202288627625,-2.38875555478454,1.93800159931817,2.60260037727124,2061.577,2063.266,2063.813,2065.798,3.19881176948547,44.9959945678711,358.725830078125,-0.870693802833557,-0.374666273593903,0.531728386878967,-0.867618167158097,-0.373311858882592,0.530014399402376,0
3.36001586914063,-2.40468978881836,1.9312219619751,2.61252975463867,-2.40601888046917,1.93057367255756,2.6131462735431,2063.935,2063.267,2061.578,2061.966,3.25738191604614,44.9961242675781,358.702331542969,-0.860202729701996,-0.370154321193695,0.525345981121063,-0.856999388527103,-0.368742895092007,0.523527553239473,0
3.3800048828125,-2.42167997360229,1.92391085624695,2.62290835380554,-2.42304196557559,1.92324911460621,2.6235454105946,2067.459,2063.958,2055.938,2059.055,3.31335735321045,44.9958953857422,358.680938720703,-0.849520623683929,-0.365560859441757,0.518929541110992,-0.846214826007803,-0.364102599125748,0.516939432286212,0
3.39999389648438,-2.43845367431641,1.91669285297394,2.63315153121948,-2.43984769972619,1.91601807669906,2.63381177133889,2058.964,2060.202,2060.2,2062.268,3.36801314353943,44.9961853027344,358.658660888672,-0.838676631450653,-0.360894769430161,0.51216322183609,-0.835253140422974,-0.35938609205264,0.510243109616171,0
3.42001342773438,-2.45500636100769,1.90956997871399,2.64326047897339,-2.45645774020782,1.90887124031063,2.64395858587455,2061.049,2060.137,2058.173,2058.835,3.4222936630249,44.9963035583496,358.636962890625,-0.827648937702179,-0.356151551008224,0.505450189113617,-0.824102019042908,-0.354588076049064,0.503431063574906,0
3.44000244140625,-2.47133541107178,1.90254330635071,2.6532347202301,-2.47281804716281,1.90183185728196,2.6539528420958,2064.603,2060.833,2052.779,2056.017,3.47373533248901,44.9960708618164,358.617279052734,-0.816444337368011,-0.351332724094391,0.498711168766022,-0.812800388649434,-0.349725300221754,0.496527073925997,0
3.46002197265625,-2.4874370098114,1.89561438560486,2.66306734085083,-2.48897526921199,1.89487985601472,2.66382303691717,2056.15,2057.328,2057.198,2059.174,3.52370667457581,44.9963684082031,358.596832275391,-0.805093050003052,-0.34644815325737,0.491633951663971,-0.801318788528228,-0.344785088448372,0.489513143578788,0
3.48001098632813,-2.50330829620361,1.88878452777863,2.67276120185852,-2.50487694859767,1.88803780761656,2.67353712471306,2062.043,2058.525,2052.128,2054.232,3.57153487205505,44.9962730407715,358.578186035156,-0.793568193912506,-0.341490894556046,0.484695941209793,-0.789697369743255,-0.339784716610052,0.482413800191712,0
3.5,-2.51894640922546,1.88205504417419,2.68231010437012,-2.5205447997813,1.88129636896134,2.68310837050915,2054.204,2055.597,2055.992,2057.029,3.61846089363098,44.9965972900391,358.558990478516,-0.781906545162201,-0.33647346496582,0.477446854114532,-0.777924000354857,-0.334718964672089,0.475221632552147,0
3.52001953125,-2.53434801101685,1.87542724609375,2.69171547889709,-2.53599921507943,1.87464676580493,2.69254923165338,2056.746,2055.625,2053.62,2053.951,3.66505360603333,44.9967002868652,358.540466308594,-0.77008581161499,-0.331389635801315,0.470263570547104,-0.765985728654519,-0.329582259876133,0.467928728663466,0
3.54000854492188,-2.54951047897339,1.86890244483948,2.70097661018372,-2.55119019794619,1.86811051026429,2.70182916603607,2060.116,2056.281,2048.539,2051.605,3.70877814292908,44.9964752197266,358.52392578125,-0.758114218711853,-0.32624089717865,0.463053107261658,-0.753924423002452,-0.324392617007921,0.460560665253582,0
3.55999755859375,-2.56443071365356,1.86248171329498,2.7100875377655,-2.56613872308604,1.86167857751006,2.71096098677687,2052.775,2053.224,2052.292,2054.539,3.75065326690674,44.9967155456543,358.5068359375,-0.746020555496216,-0.321036845445633,0.455543607473373,-0.741727567798258,-0.319144650954242,0.45310979673751,0
3.58001708984375,-2.57910633087158,1.85616624355316,2.71904921531677,-2.58086439685043,1.85534253147694,2.71995667108993,2054.768,2053.331,2050.69,2051.55,3.79143381118774,44.9968223571777,358.490509033203,-0.733785331249237,-0.315773397684097,0.448089450597763,-0.729381927869994,-0.313832666990361,0.445568037955247,0
3.60000610351563,-2.59353494644165,1.84995722770691,2.72786140441895,-2.59531978247425,1.84912278287974,2.72878724059568,2057.503,2053.864,2046.65,2049.415,3.82920932769775,44.9966735839844,358.47607421875,-0.721417725086212,-0.310453414916992,0.440614253282547,-0.716930938559024,-0.308475354130224,0.437961922879033,0
3.6199951171875,-2.60771369934082,1.84385538101196,2.73651885986328,-2.60952509409627,1.84301063413925,2.73746504379605,2050.619,2051.084,2050.431,2052.123,3.86525321006775,44.9969635009766,358.461212158203,-0.708945214748383,-0.305086374282837,0.432876884937286,-0.704361775018033,-0.303067194200314,0.43028361700977,0
3.6400146484375,-2.62164092063904,1.8378621339798,2.74502301216125,-2.62349913748426,1.83699799365897,2.74600156884113,2052.619,2051.28,2048.945,2049.335,3.90033173561096,44.9971008300781,358.447174072266,-0.696349382400513,-0.299668163061142,0.42520347237587,-0.691660998977508,-0.297602405088683,0.422524911118315,0
3.66000366210938,-2.63531351089478,1.83197808265686,2.75337338447571,-2.63719712493647,1.83110413233575,2.75436945562281,2055.364,2051.725,2045.058,2047.539,3.93257617950439,44.9969749450684,358.434906005859,-0.683639407157898,-0.294201225042343,0.417518854141235,-0.678873453515702,-0.29210028151913,0.414713199141411,0
3.68002319335938,-2.64873027801514,1.82620406150818,2.76156544685364,-2.65065881779682,1.8253119419741,2.76259299372562,2049.299,2049.459,2048.292,2049.899,3.96296453475952,44.9972190856934,358.422485351563,-0.67084127664566,-0.288694500923157,0.409599363803864,-0.665966334939126,-0.286546708978778,0.406828441814594,0
3.70001220703125,-2.66188931465149,1.82054126262665,2.76960134506226,-2.66384123964357,1.81963991412768,2.77064592952416,2053.821,2050.339,2044.709,2046.454,3.99091458320618,44.9971733093262,358.411682128906,-0.657935440540314,-0.283142685890198,0.401791125535965,-0.65298533214413,-0.280961346123326,0.398898549771683,0
