t,x_s1,x_s2,x_s3,x_s_d1,x_s_d2,x_s_d3,propellers_rpms1,propellers_rpms2,propellers_rpms3,propellers_rpms4,rollRad,pitchRad,yawRad,v_s1,v_s2,v_s3,v_s_d1,v_s_d2,v_s_d3,insideCount
0,-0.0599999986588955,2.94000005722046,1.17999994754791,-0.0599999986588955,2.94000005722046,1.17999994754791,0,0,0,0,0,45.0048027038574,0,0,0,0,-1.06581410364015E-15,4.44089209850063E-16,-7.105427357601E-16,0
0.02001953125,-0.0599999986588955,2.94000005722046,1.17705690860748,-0.0600018744611685,2.93999925011514,1.18000109344625,0,0,0,0,0.937003672122955,44.8630027770996,-0.00115976633969694,3.71994488546079E-08,3.50004931704007E-08,-0.147149950265884,-0.000280531511337879,-0.000120704872184653,0.000171372322667033,5
0.040008544921875,-0.0599999986588955,2.94000005722046,1.17018985748291,-0.060014880898484,2.93999365380853,1.18000903887584,0,0,0,0,1.87400352954865,44.7211418151855,-0.00311126722954214,3.70364325874561E-08,3.5142885934647E-08,-0.343349903821945,-0.00111143977225461,-0.000478221483967637,0.000678961213193342,6
0.05999755859375,-0.0599062293767929,2.94009447097778,1.16346490383148,-0.0600498857373401,2.93997859220429,1.18003042278566,3197.055,2848.577,1517.557,2782.436,1.40377748012543,44.7413711547852,0.0287760011851788,0.00468848180025816,0.00471865246072412,-0.336246997117996,-0.00247936261166862,-0.00106680046642749,0.00151460392977639,6
0.08001708984375,-0.0597377717494965,2.94026732444763,1.15723729133606,-0.0601176241590912,2.9399494462538,1.18007180313047,2865.695,2651.763,2344.598,2562.151,0.340079486370087,44.8158378601074,0.0996070802211761,0.00842283293604851,0.00864462181925774,-0.311380505561829,-0.00437432711648753,-0.0018821507536715,0.0026722081754323,6
0.100006103515625,-0.0595562346279621,2.94046425819397,1.15151965618134,-0.0602282404704493,2.93990185114529,1.18013937690895,2240.613,2528.421,3137.222,2508.336,359.322052001953,44.919059753418,0.178504914045334,0.00907692406326532,0.00984971318393946,-0.285880416631699,-0.00677739276378709,-0.00291612276782231,0.00414020348026766,5
0.1199951171875,-0.059424240142107,2.94063234329224,1.14656901359558,-0.0603918861403606,2.93983143898525,1.18023934549506,2123.469,2454.617,3351.948,2464.742,358.750274658203,44.9998588562012,0.253258764743805,0.00659974943846464,0.00840045046061277,-0.247534602880478,-0.00967801353495435,-0.00416417885169243,0.00591214744607921,5
0.1400146484375,-0.0593827106058598,2.94074034690857,1.14257049560547,-0.0606187761383957,2.93973381455767,1.18037794905431,2312.11,2456.558,3069.346,2463.374,358.636383056641,45.032657623291,0.326257407665253,0.00207654712721705,0.00540162343531847,-0.199924275279045,-0.0130687916036232,-0.00562313592726786,0.00798352085618068,5
0.160003662109375,-0.059442937374115,2.94078588485718,1.13952445983887,-0.0609177895434042,2.93960515744296,1.18056061167741,2537.177,2487.052,2634.917,2491.605,358.757019042969,45.0249633789063,0.398278146982193,-0.00301136495545506,0.00228246464394033,-0.152299135923386,-0.0169265510445065,-0.00728302204135792,0.0103401658994673,5
0.180023193359375,-0.0595995113253593,2.94078207015991,1.13730907440186,-0.061299173422313,2.9394410586145,1.18079359313766,2665.876,2505.781,2303.06,2513.553,358.864135742188,44.9985656738281,0.467363446950912,-0.00782861188054085,-0.000194068066775799,-0.110769867897034,-0.0212503155312517,-0.00914341710800856,0.0129814861534057,5
0.20001220703125,-0.0598469451069832,2.94074034690857,1.13576126098633,-0.0617708265342762,2.93923811945689,1.18108171866376,2654.167,2500.396,2182.797,2508.284,358.816711425781,44.9743766784668,0.53305459022522,-0.0123716834932566,-0.00208839774131775,-0.077393427491188,-0.0260142813927851,-0.0111932185284278,0.0158917185579952,5
0.220001220703125,-0.0601887665688992,2.94066286087036,1.13474535942078,-0.0623420644491781,2.93899233174064,1.18143067899198,2539.645,2470.204,2246.324,2479.271,358.612091064453,44.9637107849121,0.594610154628754,-0.017091004177928,-0.00387852778658271,-0.0507953837513924,-0.03121219533433,-0.0134297356845702,0.0190670430730375,5
0.240020751953125,-0.0606379397213459,2.94054222106934,1.13419330120087,-0.0630225615075555,2.93869953286731,1.181846384026,2411.625,2429.629,2374.497,2437.295,358.334564208984,44.965950012207,0.65257203578949,-0.0224587507545948,-0.00603008316829801,-0.02760442905128,-0.0368405636651345,-0.0158514653389075,0.0225053254573701,5
0.260009765625,-0.061212245374918,2.94036674499512,1.13409101963043,-0.0638185570309634,2.93835703823113,1.18233264526998,2330.645,2392.493,2461.547,2398.137,358.076263427734,44.9738540649414,0.707952857017517,-0.0287153739482164,-0.00876791495829821,-0.00511444732546806,-0.0428699302682246,-0.0184457333472145,0.0261885714287875,4
0.279998779296875,-0.0619287192821503,2.94012570381165,1.13444089889526,-0.0647390625194898,2.93796097043536,1.18289496770872,2305.008,2364.709,2470.57,2371.175,357.886901855469,44.9803352355957,0.760622978210449,-0.0358236692845821,-0.0120551101863384,0.0174957066774368,-0.0492963837173861,-0.0212108567320638,0.0301143915580518,4
0.300018310546875,-0.062800221145153,2.93981170654297,1.13523650169373,-0.0657936070281142,2.93750722939386,1.18353917249319,2317.288,2348.147,2416.067,2353.449,357.765075683594,44.9818229675293,0.811219274997711,-0.0435751974582672,-0.015705643221736,0.0397787466645241,-0.0561185469977389,-0.0241462430024218,0.0342819446482607,4
0.32000732421875,-0.0638350248336792,2.9394211769104,1.13645005226135,-0.0669865614821475,2.93699393441958,1.18426792975347,2335.931,2337.032,2341.552,2341.193,357.678558349609,44.9787940979004,0.860219895839691,-0.0517403595149517,-0.0195241216570139,0.0606779642403126,-0.0633036493784043,-0.0272377918282996,0.0386712115712976,4
0.339996337890625,-0.0650386363267899,2.93895316123962,1.13803672790527,-0.068326768706371,2.93641728069206,1.18508664143323,2336.909,2324.313,2287.465,2330.56,357.594146728516,44.9741668701172,0.906621098518372,-0.060180738568306,-0.0234031062573195,0.0793310254812241,-0.0708499516420146,-0.0304847548730522,0.0432811298664125,4
0.360015869140625,-0.0664161518216133,2.93840622901917,1.13995122909546,-0.0698237345322385,2.93577317811757,1.18600111449656,2321.987,2310.462,2262.201,2315.885,357.494506835938,44.9703369140625,0.950675785541534,-0.0688758194446564,-0.0273419748991728,0.0957232639193535,-0.0787580297418618,-0.0338873799532906,0.048112051374484,4
0.3800048828125,-0.0679734721779823,2.93777847290039,1.14215505123138,-0.0714797725314022,2.93506063123087,1.18701276226829,2296.717,2295.012,2259.689,2298.984,357.379669189453,44.9685096740723,0.992949306964874,-0.0778661370277405,-0.0313905775547028,0.11018929630518,-0.0869921272359981,-0.0374302820709642,0.0531421330430943,4
0.399993896484375,-0.0697174295783043,2.93706655502319,1.14461779594421,-0.0733036822025899,2.9342758538535,1.18812696022487,2267.549,2277.241,2269.332,2283.493,357.261291503906,44.9687728881836,1.03245890140533,-0.0871980786323547,-0.0355980880558491,0.123139202594757,-0.0955525119207663,-0.0411135764513579,0.0583715384648505,4
0.420013427734375,-0.0716553330421448,2.93626666069031,1.14732098579407,-0.0753050585276311,2.93341471753282,1.18934956979097,2248.725,2262.781,2271.526,2267.632,357.152008056641,44.9699478149414,1.06985425949097,-0.0968950763344765,-0.0399899631738663,0.135157376527786,-0.104441553474511,-0.0449382827008623,0.0638017152392751,4
0.44000244140625,-0.07379399985075,2.93537569046021,1.15024936199188,-0.077483988232608,2.93247718495301,1.19068064394622,2239.32,2251.3,2262.009,2254.418,357.056884765625,44.9709815979004,1.10592710971832,-0.106933549046516,-0.0445502772927284,0.146419554948807,-0.113620829717891,-0.048887868829098,0.0694091918565748,4
0.46002197265625,-0.0761392787098885,2.93439078330994,1.15338504314423,-0.0798530997696509,2.93145782244394,1.19212789721494,2231.002,2239.749,2249.652,2245.561,356.975402832031,44.9717063903809,1.13953471183777,-0.117263861000538,-0.0492415614426136,0.15678197145462,-0.123107133063502,-0.0529695601420796,0.0752042265395641,4
0.480010986328125,-0.0786962881684303,2.93331003189087,1.1567131280899,-0.0824109101018722,2.93035726811493,1.19369042363305,2229.258,2232.553,2231.275,2235.489,356.902954101563,44.9718475341797,1.17192101478577,-0.127850517630577,-0.0540378093719482,0.166405037045479,-0.132860437136906,-0.0571661344090936,0.0811623678006979,4
0.5,-0.08146932721138,2.93213176727295,1.16021382808685,-0.085166398670376,2.92917165836334,1.195373708601,2220.91,2223.387,2220.852,2228.999,356.835021972656,44.9720458984375,1.2019077539444,-0.138652101159096,-0.0589126199483871,0.175036951899529,-0.142884000065179,-0.0614789935111996,0.0872856059789651,5
0.52001953125,-0.0844625607132912,2.9308545589447,1.16387236118317,-0.0881295333471192,2.92789670429234,1.19718384133622,2214.761,2216.666,2212.191,2220.682,356.769805908203,44.9723854064941,1.23017191886902,-0.149661883711815,-0.0638654977083206,0.182926326990128,-0.153182839569029,-0.0659102964334391,0.0935770063216458,5
0.540008544921875,-0.087679997086525,2.92947673797607,1.16767549514771,-0.0912963635428427,2.92653410573011,1.19911840848537,2208.944,2210.876,2205.307,2213.028,356.705993652344,44.9729042053223,1.25750803947449,-0.160871788859367,-0.0688954666256905,0.190158352255821,-0.163714777034477,-0.0704418948965508,0.100010802571645,5
0.55999755859375,-0.0911254212260246,2.92799663543701,1.17160904407501,-0.094676112580471,2.92507989413848,1.20118304443252,2198.305,2202.864,2205.818,2208.294,356.645233154297,44.9739761352539,1.28249359130859,-0.172271370887756,-0.073999285697937,0.196679249405861,-0.17448465888317,-0.0750758741803766,0.106589955332319,5
0.58001708984375,-0.0948027223348618,2.92641305923462,1.17566561698914,-0.0982790918331175,2.92352963282165,1.20338404823457,2193.655,2198.112,2202.752,2201.734,356.58984375,44.975170135498,1.30592596530914,-0.183865144848824,-0.0791831836104393,0.202830418944359,-0.185498893714783,-0.0798149917263209,0.113318379517207,5
0.600006103515625,-0.0987154766917229,2.92472434043884,1.17983877658844,-0.102098762959148,2.92188613504538,1.20571742572067,2191.938,2194.81,2196.471,2196.417,356.539245605469,44.976203918457,1.32868051528931,-0.195637911558151,-0.0844384804368019,0.208659917116165,-0.196713446836865,-0.0846403006364086,0.120169175019836,5
0.6199951171875,-0.102866798639297,2.92292928695679,1.18411898612976,-0.106144683970236,2.92014528826426,1.208189015731,2185.443,2189.212,2195.959,2194.452,356.493469238281,44.9774703979492,1.34918415546417,-0.207566052675247,-0.0897506475448608,0.214009284973145,-0.208134604141382,-0.0895545055543457,0.127146181793521,5
0.6400146484375,-0.107259765267372,2.92102694511414,1.18850231170654,-0.110427588881679,2.91830247393137,1.21080537550798,2184.563,2187.005,2191.719,2190.284,356.452697753906,44.9785995483398,1.36829519271851,-0.219648420810699,-0.0951205417513847,0.219168528914452,-0.21977002223474,-0.0945609009039674,0.134254077139634,5
0.660003662109375,-0.111897140741348,2.91901612281799,1.19298505783081,-0.114938248900541,2.91636166293851,1.21356086732604,2185.242,2185.972,2185.723,2186.998,356.414794921875,44.9795303344727,1.3869811296463,-0.231868654489517,-0.100538976490498,0.224136188626289,-0.231574097577923,-0.0996398647564507,0.141465002567821,5
0.680023193359375,-0.116781271994114,2.9168963432312,1.19755959510803,-0.119694071710854,2.91431536524554,1.21646612526771,2179.466,2181.876,2187.684,2186.941,356.379669189453,44.9807624816895,1.40348541736603,-0.244206920266151,-0.105994910001755,0.228727921843529,-0.243572831403349,-0.104802584715715,0.148794841825225,5
0.70001220703125,-0.121914774179459,2.91466641426086,1.20222628116608,-0.124683985757554,2.91216834463331,1.21951438589277,2181.723,2182.35,2183.49,2183.377,356.347137451172,44.9817962646484,1.41956269741058,-0.256674975156784,-0.111497394740582,0.233336418867111,-0.255719729227087,-0.11002905550423,0.156215192157144,5
0.720001220703125,-0.127299696207047,2.91232585906982,1.20697951316833,-0.129918284978346,2.90991617190799,1.22271193760712,2176.48,2179.19,2186.918,2184.08,356.317687988281,44.9831199645996,1.43353366851807,-0.269246399402618,-0.117032699286938,0.237662881612778,-0.268023157655716,-0.11532287703907,0.163731164592979,5
0.740020751953125,-0.132938280701637,2.90987372398376,1.2118204832077,-0.135408560960145,2.90755385953358,1.22606586153034,2177.668,2179.392,2185.664,2182.096,356.292327880859,44.9843292236328,1.44635617733002,-0.281929552555084,-0.122607663273811,0.24204657971859,-0.280492548100696,-0.120688107393104,0.171348520634816,5
0.760009765625,-0.138832479715347,2.90730953216553,1.21674978733063,-0.141140917956636,2.9050873864615,1.22956766896782,2180.606,2180.714,2181.724,2180.834,356.269195556641,44.985279083252,1.45914459228516,-0.294709891080856,-0.128214538097382,0.246463552117348,-0.293080296154222,-0.126104263719567,0.179038179492781,5
0.779998779296875,-0.144983813166618,2.90463280677795,1.22176337242126,-0.147126184485884,2.90251209348295,1.2332239748923,2176.304,2178.201,2186.025,2183.125,356.248443603516,44.986515045166,1.46981132030487,-0.30756676197052,-0.133841261267662,0.250679582357407,-0.305795832832518,-0.131575403921268,0.186805902427515,5
0.800018310546875,-0.151394039392471,2.90184283256531,1.22686421871185,-0.153376545303595,2.89982273783796,1.23704222278088,2178.408,2179.469,2185.622,2181.994,356.231048583984,44.9876174926758,1.47940731048584,-0.320511221885681,-0.13949678838253,0.255040287971497,-0.318649478366155,-0.137105968505107,0.194657993906831,5
0.82000732421875,-0.158064633607864,2.89893937110901,1.2320544719696,-0.159875221826383,2.89702653888221,1.24101216285881,2182.14,2181.749,2182.472,2181.465,356.215179443359,44.9884567260742,1.48914229869843,-0.333530157804489,-0.145174533128738,0.259512811899185,-0.331592781842754,-0.14267511039705,0.202564856024417,5
0.839996337890625,-0.164996698498726,2.89592218399048,1.23733127117157,-0.166633637018892,2.89411858163313,1.24514077323692,2178.025,2179.729,2188.069,2184.635,356.201293945313,44.9896049499512,1.49676203727722,-0.346603363752365,-0.150863245129585,0.263840287923813,-0.344636106234817,-0.148287288494656,0.210532819358465,5
0.860015869140625,-0.172191590070724,2.89279079437256,1.24269902706146,-0.173664618315387,2.89109334680413,1.24943588999465,2180.804,2181.696,2188.313,2184.021,356.190582275391,44.9906272888184,1.50339674949646,-0.359744608402252,-0.15657351911068,0.268387407064438,-0.357790534090669,-0.153947271308859,0.218568654064807,5
0.8800048828125,-0.179650396108627,2.88954472541809,1.24816119670868,-0.180948461186242,2.88795931270381,1.25388547594233,2185.31,2184.632,2185.347,2183.994,356.181213378906,44.9913558959961,1.51032447814941,-0.372940510511398,-0.162298589944839,0.273107439279556,-0.371007022483504,-0.159633957038354,0.226642400584755,5
0.899993896484375,-0.187373787164688,2.88618421554565,1.25371539592743,-0.18849723509595,2.8847112861788,1.25849690412748,2181.31,2182.933,2191.628,2187.761,356.173614501953,44.9923820495605,1.51516854763031,-0.386169493198395,-0.168026268482208,0.27771207690239,-0.384296738353309,-0.165352150505452,0.234760880627692,5
0.920013427734375,-0.195362731814384,2.88270878791809,1.25936710834503,-0.196324452211266,2.88134345332121,1.26327842892191,2184.668,2185.323,2191.987,2187.502,356.169067382813,44.9932746887207,1.5190908908844,-0.399447292089462,-0.173768237233162,0.282585024833679,-0.397671404529394,-0.171106895716105,0.242931255487113,5
0.94000244140625,-0.203617930412292,2.8791184425354,1.26512038707733,-0.204407453948074,2.87786556348678,1.26821620855017,2189.671,2188.715,2188.957,2187.712,356.165557861328,44.9938354492188,1.52346301078796,-0.412759810686111,-0.17951737344265,0.28766256570816,-0.411081631631503,-0.176876941799768,0.251123353961324,5
0.96002197265625,-0.212139636278152,2.87541317939758,1.27097308635712,-0.21277195700315,2.87426655149935,1.27332595294102,2185.563,2187.018,2195.716,2191.936,356.163543701172,44.9947357177734,1.52571225166321,-0.426084935665131,-0.185261189937592,0.292632877826691,-0.424559845004915,-0.182676240476657,0.259356984187769,5
0.980010986328125,-0.220928549766541,2.87159299850464,1.27693271636963,-0.221393324468958,2.87055701793193,1.27859261179209,2192.292,2191.369,2192.637,2190.627,356.163024902344,44.9952697753906,1.52830255031586,-0.439445972442627,-0.191015049815178,0.297982424497604,-0.438056556301695,-0.188483498293199,0.267601914506946,5
1,-0.229984700679779,2.86765789985657,1.28299725055695,-0.230284798736574,2.86673126495361,1.28402427467346,2188.129,2189.929,2199.444,2194.757,356.164489746094,44.9961242675781,1.52881002426147,-0.452807813882828,-0.196760609745979,0.303226977586746,-0.451584000205995,-0.194303979492187,0.275865618896484,5
1.02001953125,-0.239308446645737,2.86360764503479,1.28917288780212,-0.239461107372567,2.86278295570393,1.28962993842572,2192.143,2192.753,2199.372,2194.526,356.169189453125,44.9967727661133,1.52857303619385,-0.466187745332718,-0.202509790658951,0.308780074119568,-0.465154707681581,-0.200143075797255,0.284155752326605,5
1.04000854492188,-0.248899847269058,2.85944247245789,1.29546391963959,-0.248894644448595,2.85872396824263,1.29539273901802,2197.761,2196.437,2195.576,2194.845,356.174591064453,44.9970550537109,1.52904057502747,-0.479570060968399,-0.208253979682922,0.314553797245026,-0.47871923339115,-0.205979512261105,0.292442109412331,5
1.05999755859375,-0.258758455514908,2.85516285896301,1.30186784267426,-0.258599401509697,2.85454828239877,1.3013212236669,2193.119,2194.444,2202.689,2199.429,356.181091308594,44.9976997375488,1.52735412120819,-0.49293115735054,-0.213979661464691,0.320194363594055,-0.492290296490434,-0.211818761581115,0.30073246008742,5
1.08001708984375,-0.26888433098793,2.85076880455017,1.30839061737061,-0.268590868588476,2.85024923324404,1.30742485499156,2196.752,2197.154,2203.012,2199.002,356.190185546875,44.9982070922852,1.52488780021667,-0.506291747093201,-0.219701781868935,0.32613605260849,-0.505880764601332,-0.21766636033551,0.309034664981295,5
1.10000610351563,-0.279277086257935,2.84626054763794,1.31503653526306,-0.278838480013141,2.84583997233313,1.31368496090006,2202.074,2200.768,2199.449,2199.042,356.19970703125,44.9983711242676,1.52318155765533,-0.519637644290924,-0.225413262844086,0.332293778657913,-0.519441457145546,-0.223501147495394,0.317318680446121,5
1.1199951171875,-0.289935946464539,2.84163856506348,1.32180261611938,-0.289357002179081,2.84131414609862,1.32011056195293,2196.822,2198.45,2207.024,2203.531,356.210388183594,44.9989433288574,1.51927781105042,-0.532945454120636,-0.231100887060165,0.338301241397858,-0.532985466132485,-0.229328756186667,0.32559250418615,5
1.1400146484375,-0.300860702991486,2.83690285682678,1.32869482040405,-0.300162704591434,2.83666475422696,1.32671159693698,2200.447,2201.064,2207.098,2202.808,356.223937988281,44.9993515014648,1.51464009284973,-0.5462366938591,-0.236780002713203,0.344612449407578,-0.54652589017629,-0.235154822377061,0.33386413794036,5
1.16000366210938,-0.312050580978394,2.83205389976501,1.33571743965149,-0.311222084148811,2.83190621216671,1.33346759933036,2205.893,2204.608,2202.901,2202.609,356.238067626953,44.9993858337402,1.51088178157806,-0.559495806694031,-0.242442354559898,0.351130962371826,-0.560014026276883,-0.240958390526247,0.342103829805999,6
1.18002319335938,-0.323504537343979,2.82709240913391,1.34286677837372,-0.322568202252263,2.82702429452064,1.34039876582708,2200.253,2201.916,2210.289,2207.09,356.253326416016,44.9998512268066,1.50488519668579,-0.57269823551178,-0.248073786497116,0.35746818780899,-0.573483731835696,-0.246754028528194,0.350332262741268,6
1.20001220703125,-0.335222005844116,2.82201862335205,1.35015070438385,-0.334165615614823,2.82203425154496,1.3474834446762,2207.602,2206.34,2205.657,2204.804,356.269775390625,44.9998779296875,1.49957370758057,-0.585872709751129,-0.253692716360092,0.364197373390198,-0.586886736182789,-0.252520966862155,0.358519948947149,6
1.22000122070313,-0.347201585769653,2.81683301925659,1.35756516456604,-0.346030421585499,2.81692915700008,1.35473146949704,2201.648,2203.785,2212.873,2208.88,356.287994384766,45.0003280639648,1.49205899238586,-0.59897917509079,-0.259278059005737,0.370722532272339,-0.600236516861372,-0.258265004538453,0.366675121644476,6
1.24002075195313,-0.359442353248596,2.81153607368469,1.36511588096619,-0.358180209983518,2.8117014424782,1.36215358563568,2205.476,2206.202,2211.741,2207.639,356.309478759766,45.0005416870117,1.48394465446472,-0.612039387226105,-0.26484426856041,0.377533406019211,-0.613546334788502,-0.263991847359231,0.374805881720547,6
1.260009765625,-0.371943056583405,2.80612850189209,1.3728061914444,-0.37057666480527,2.80636759428526,1.36972638644343,2211.064,2209.463,2206.195,2207.048,356.331237792969,45.0003509521484,1.47688901424408,-0.6250359416008,-0.270381510257721,0.384513765573502,-0.626768731761373,-0.26968107538565,0.382883237699838,6
1.27999877929688,-0.38470196723938,2.80061101913452,1.38063097000122,-0.383236695417198,2.80092033679326,1.37746020158837,2204.408,2206.033,2213.498,2211.397,356.353820800781,45.0006217956543,1.46751224994659,-0.637943685054779,-0.275874942541122,0.391240388154984,-0.639917282339435,-0.275338529371412,0.39091548206889,6
1.30001831054688,-0.39771768450737,2.79498410224915,1.38859534263611,-0.396178686849666,2.79535175943725,1.38536626219868,2207.496,2208.107,2212.777,2209.715,356.378997802734,45.0007591247559,1.45745801925659,-0.650787115097046,-0.281342029571533,0.398220837116241,-0.653005218467598,-0.280969902652754,0.398910698016369,6
1.32000732421875,-0.410988688468933,2.78924870491028,1.39670240879059,-0.409361504843077,2.78967956113998,1.39341943999703,2212.544,2211.15,2207.463,2208.569,356.404327392578,45.0005111694336,1.44853138923645,-0.663551092147827,-0.286775022745132,0.405350983142853,-0.6659860834168,-0.286555206197011,0.406840505851434,6
1.33999633789063,-0.424512922763824,2.78340554237366,1.40494644641876,-0.422802873722428,2.78389611561957,1.401630562497,2205.16,2207.213,2215.08,2212.71,356.430633544922,45.0007781982422,1.43722426891327,-0.676211178302765,-0.292159348726273,0.412200331687927,-0.678873453515705,-0.29210028151913,0.41471319914141,6
1.36001586914063,-0.438288748264313,2.77745532989502,1.4133323431015,-0.4365219692899,2.77799317206405,1.41001134389691,2208.173,2209.061,2213.95,2210.614,356.459991455078,45.0008773803711,1.4252655506134,-0.688791751861572,-0.297512412071228,0.419295191764832,-0.691680442442074,-0.297610771068296,0.422536788827408,6
1.3800048828125,-0.452314257621765,2.7713987827301,1.42186272144318,-0.450474904562636,2.77198961381608,1.41853497432376,2213.302,2211.907,2207.854,2209.165,356.489654541016,45.0005569458008,1.41450297832489,-0.701276302337646,-0.302825152873993,0.4265216588974,-0.704361775018035,-0.303067194200314,0.43028361700977,6
1.39999389648438,-0.466587066650391,2.7652370929718,1.43053126335144,-0.464680216184654,2.76587746507559,1.42721277752413,2205.452,2207.618,2215.203,2213.151,356.520355224609,45.0007514953613,1.40134561061859,-0.713639378547668,-0.30808213353157,0.433427959680557,-0.716930938559026,-0.308475354130225,0.437961922879032,6
1.42001342773438,-0.481105118989944,2.75897097587585,1.4393424987793,-0.479157861067077,2.75964813894125,1.43605694486361,2208.375,2209.209,2213.569,2210.741,356.554077148438,45.0007781982422,1.38754391670227,-0.725905656814575,-0.313300758600235,0.440559417009354,-0.729400843645231,-0.313840805920001,0.445579593307164,6
1.44000244140625,-0.495866298675537,2.75260162353516,1.44829845428467,-0.493861275572861,2.75332167044526,1.44503903134294,2213.356,2211.872,2206.998,2208.928,356.587890625,45.0003814697266,1.37502527236938,-0.73805844783783,-0.318471938371658,0.447795778512955,-0.741727567798258,-0.319144650954242,0.453109796737511,6
1.46002197265625,-0.510867714881897,2.74612998962402,1.45739197731018,-0.50883280894277,2.74687983789241,1.45418490745244,2204.885,2207.102,2214.381,2212.828,356.622650146484,45.000545501709,1.36002850532532,-0.750073194503784,-0.323580682277679,0.454674512147903,-0.753942941956197,-0.324400585196357,0.460571978193441,6
1.48001098632813,-0.526107370853424,2.73955702781677,1.46662962436676,-0.524024159888143,2.74034342397783,1.46346506668862,2212.081,2210.844,2207.541,2208.406,356.658386230469,45.0002403259277,1.3461000919342,-0.761982023715973,-0.328647971153259,0.46188148856163,-0.766004036374583,-0.329590137176618,0.467939912563966,6
1.5,-0.54158228635788,2.7328839302063,1.47600388526917,-0.539455198877605,2.73370387899399,1.47289164761066,2203.382,2206.305,2214.653,2211.831,356.695983886719,45.0004463195801,1.3297826051712,-0.773743867874146,-0.33365124464035,0.468714118003845,-0.777924000354858,-0.334718964672088,0.475221632552146,6
1.52001953125,-0.557289838790894,2.7261118888855,1.48551893234253,-0.555147149984933,2.72695207081487,1.48247761567406,2206.531,2207.635,2211.826,2208.861,356.737121582031,45.000415802002,1.3129551410675,-0.785382032394409,-0.338606178760529,0.475754082202911,-0.789715229532175,-0.33979240117828,0.482424710458066,6
1.54000854492188,-0.57322746515274,2.71924185752869,1.49517619609833,-0.571049184024557,2.72010986981902,1.49219192012252,2211.728,2209.979,2203.877,2206.686,356.778350830078,44.9999046325684,1.29756057262421,-0.796878039836884,-0.343501597642899,0.482862174510956,-0.801336412291853,-0.344792671461508,0.489523909660973,6
1.55999755859375,-0.589391529560089,2.71227550506592,1.50496709346771,-0.587181951496087,2.71316839067337,1.50204717602401,2202.394,2204.637,2211.021,2210.435,356.820190429688,45.0000038146973,1.27965700626373,-0.808207750320435,-0.348322063684464,0.489545583724976,-0.812800388649436,-0.349725300221754,0.496527073925997,6
1.58001708984375,-0.605779588222504,2.70521378517151,1.51489520072937,-0.603567408310176,2.70611818636293,1.51205679590172,2204.79,2205.667,2208.747,2207.056,356.864807128906,44.999927520752,1.26116931438446,-0.819396913051605,-0.353086620569229,0.496404200792313,-0.824119146742882,-0.35459544561987,0.503441526619546,6
1.60000610351563,-0.622388064861298,2.69805812835693,1.52496147155762,-0.620152298932711,2.69898217125626,1.52218824678091,2209.269,2207.771,2201.426,2204.399,356.9091796875,44.9994430541992,1.24414396286011,-0.830430030822754,-0.357786804437637,0.503310978412628,-0.835253140422976,-0.35938609205264,0.510243109616171,5
1.6199951171875,-0.639213800430298,2.69080996513367,1.53515708446503,-0.636958033083316,2.69175113334911,1.53245460752521,2199.36,2202.093,2208.939,2207.91,356.954467773438,44.999584197998,1.22460150718689,-0.841285228729248,-0.362408339977264,0.509781420230865,-0.846214826007804,-0.364102599125749,0.516939432286212,5
1.6400146484375,-0.656253457069397,2.6834704875946,1.545485496521,-0.654007271984653,2.68441532215046,1.54286972152191,2201.674,2202.892,2206.457,2204.27,357.0029296875,44.9995460510254,1.20448005199432,-0.851986825466156,-0.366969287395477,0.516422629356384,-0.857015715678588,-0.368749920209162,0.523537527241534,5
1.66000366210938,-0.673503816127777,2.6760413646698,1.55594766139984,-0.671244443874359,2.67699864863716,1.55339964084857,2206.419,2204.94,2198.392,2201.33,357.051422119141,44.9990577697754,1.18592512607574,-0.86251825094223,-0.371460050344467,0.523105978965759,-0.867618167158098,-0.373311858882592,0.530014399402375,5
1.68002319335938,-0.690960943698883,2.66852402687073,1.56653416156769,-0.688718488267733,2.66948005550297,1.56407426189139,2196.227,2198.927,2205.587,2204.925,357.100891113281,44.9991683959961,1.16477656364441,-0.872857451438904,-0.375865668058395,0.529323935508728,-0.87804994059578,-0.377800359562815,0.53638700701084,5
1.70001220703125,-0.708621621131897,2.66091990470886,1.57725071907043,-0.706372354049449,2.66188409024902,1.5748587330143,2203.579,2202.184,2197.218,2199.204,357.151214599609,44.9987754821777,1.14492738246918,-0.883034229278564,-0.380206644535065,0.53583037853241,-0.888274735793774,-0.382199803288802,0.542633174842512,5
1.72000122070313,-0.726481854915619,2.65323066711426,1.58808791637421,-0.724228658537036,2.6542010212754,1.58576687078363,2193.199,2196.571,2204.175,2202.319,357.203308105469,44.9989585876465,1.12259459495544,-0.893011271953583,-0.384461283683777,0.541858315467834,-0.898304216251578,-0.386515208538549,0.548760027947228,5
1.74002075195313,-0.744538068771362,2.64545774459839,1.59904885292053,-0.742311168965756,2.64642062220478,1.59681319423253,2196.03,2197.282,2200.393,2198.308,357.259002685547,44.9988899230957,1.0998363494873,-0.902809739112854,-0.388644754886627,0.548046171665192,-0.908148960779607,-0.390751127078638,0.554774028755192,5
1.760009765625,-0.762786388397217,2.63760280609131,1.61013376712799,-0.760560719141003,2.63856835059778,1.60796155965597,2201.022,2199.114,2191.222,2195.183,357.314422607422,44.9983100891113,1.07878160476685,-0.912412226200104,-0.392746031284332,0.554243147373199,-0.91777478390713,-0.394892849856044,0.560654293895788,4
1.77999877929688,-0.781222283840179,2.62966775894165,1.62133228778839,-0.779000609654483,2.63063418086074,1.61922620102184,2190.105,2192.732,2198.355,2198.75,357.370330810547,44.9984016418457,1.05512642860413,-0.921799063682556,-0.396751195192337,0.559923768043518,-0.927192788821983,-0.398945154262308,0.566407606133204,4
1.80001831054688,-0.799842178821564,2.62165427207947,1.6326470375061,-0.797655223615693,2.62260762162281,1.63062201359123,2192.187,2193.243,2195.354,2194.387,357.428955078125,44.9983215332031,1.03098976612091,-0.930993318557739,-0.40067857503891,0.565738558769226,-0.936412917636689,-0.402912318110697,0.572040038948834,4
1.82000732421875,-0.818641781806946,2.61356377601624,1.64407813549042,-0.816463410111527,2.61451498441355,1.64211164122557,2196.586,2194.862,2186.91,2190.919,357.487030029297,44.9977951049805,1.00855672359467,-0.939980745315552,-0.40451991558075,0.571553885936737,-0.94540321420156,-0.406780591562751,0.577532070829503,3
1.83999633789063,-0.837616622447968,2.60539841651917,1.65561509132385,-0.835449117627072,2.60634596486888,1.6537097136807,2185.129,2188.314,2194.532,2194.296,357.5458984375,44.997974395752,0.983538687229156,-0.948744297027588,-0.408262670040131,0.576848685741425,-0.954174163352093,-0.410554485950274,0.582890106797601,3
1.86001586914063,-0.856762766838074,2.59715986251831,1.66726076602936,-0.854637305360818,2.59808982374295,1.66543147814148,2187.322,2188.663,2191.317,2189.786,357.607940673828,44.9979476928711,0.958049595355988,-0.957304775714874,-0.411923706531525,0.582284152507782,-0.962735018414262,-0.414237982720922,0.588119799565572,0
1.8800048828125,-0.876075685024261,2.5888500213623,1.67901515960693,-0.873964974649439,2.58977366760063,1.67723844970756,2192.021,2190.273,2182.269,2186.162,357.669677734375,44.997428894043,0.934337556362152,-0.965646922588348,-0.415493667125702,0.587718188762665,-0.971056158224177,-0.417818336715394,0.593203054026622,0
1.89999389648438,-0.895550787448883,2.58047080039978,1.69086742401123,-0.893456683142228,2.58138692997148,1.6891456302637,2180.509,2183.575,2189.495,2189.65,357.732177734375,44.9975852966309,0.908004105091095,-0.973754346370697,-0.418959707021713,0.592615365982056,-0.979147395688901,-0.421299770153459,0.598145864732551,0
1.92001342773438,-0.91518372297287,2.57202410697937,1.70282018184662,-0.913137923350175,2.5729186421402,1.70116859278703,2182.708,2183.911,2186.027,2184.964,357.797668457031,44.9975395202637,0.881228387355804,-0.981645882129669,-0.422338038682938,0.597639679908752,-0.987017247723777,-0.424685947625853,0.602953434534038,0
1.94000244140625,-0.934969842433929,2.56351161003113,1.71487319469452,-0.932943991899774,2.5643966441608,1.71326781099638,2187.386,2185.461,2176.831,2181.179,357.862548828125,44.997013092041,0.856301426887512,-0.989307343959808,-0.425619930028915,0.602650880813599,-0.994638524886308,-0.427965170275055,0.607609153824943,0
1.96002197265625,-0.954904317855835,2.55493569374084,1.727015376091,-0.952930593197372,2.55579696798345,1.72547731384432,2175.435,2178.645,2184.277,2184.651,357.928070068359,44.9971923828125,0.82878315448761,-0.996724903583527,-0.428793728351593,0.607108116149902,-1.00203140433628,-0.431146119769234,0.61212534851732,0
1.98001098632813,-0.974982678890228,2.54629826545715,1.73925197124481,-0.973031969359004,2.54714790738853,1.73775693086567,2183.135,2181.437,2174.978,2177.855,357.994079589844,44.9968070983887,0.802814960479736,-1.00392127037048,-0.431877434253693,0.611831724643707,-1.00917036754089,-0.434217816196637,0.616486429737696,0
2,-0.995200157165527,2.53760123252869,1.75157201290131,-0.993273599084619,2.53843849960327,1.75012222660065,2171.256,2175.11,2182.007,2180.961,358.061737060547,44.9970664978027,0.774325668811798,-1.01087009906769,-0.43485364317894,0.616003096103668,-1.01606400046349,-0.437183953857422,0.620697642517089,0
2.02001953125,-1.01555180549622,2.52884650230408,1.76397812366486,-1.01368176147806,2.52965743746343,1.7625892545437,2174.051,2175.418,2177.595,2176.121,358.132873535156,44.9970359802246,0.745545923709869,-1.01758527755737,-0.43773478269577,0.620305836200714,-1.0227194988233,-0.440047628868552,0.624763382608097,0
2.04000854492188,-1.03603279590607,2.52003622055054,1.77646970748901,-1.03418924440916,2.52083364047092,1.77511695585335,2179.2,2176.947,2167.45,2172.256,358.203338623047,44.9964637756348,0.718787789344788,-1.02405190467834,-0.440510630607605,0.624581396579742,-1.02911391720548,-0.442798968459032,0.628669633014835,0
2.05999755859375,-1.05663800239563,2.51117277145386,1.78903520107269,-1.05482201812353,2.5119559343546,1.78772119534738,2166.978,2169.936,2174.603,2175.949,358.273986816406,44.9966087341309,0.689438819885254,-1.03025960922241,-0.443170607089996,0.62827455997467,-1.03525504859546,-0.445441325732794,0.632421154350513,0
2.08001708984375,-1.07736253738403,2.50225806236267,1.80167675018311,-1.07560676837143,2.50301283698163,1.80041827493419,2169.032,2170.042,2171.131,2170.937,358.347106933594,44.9965782165527,0.65971302986145,-1.03622364997864,-0.445729970932007,0.632075607776642,-1.0411492471255,-0.447977434695423,0.636021828255355,0
2.10000610351563,-1.09820103645325,2.49329447746277,1.81439363956451,-1.09647498538954,2.49403382618922,1.81316634306845,2173.52,2171.436,2162.002,2166.788,358.419158935547,44.9960594177246,0.631986141204834,-1.04193270206451,-0.448181837797165,0.635845303535461,-1.04677621342161,-0.450398561093403,0.639459254158576,0
2.1199951171875,-1.11914873123169,2.48428416252136,1.82717454433441,-1.11745308225396,2.48500753716864,1.82598153508617,2160.941,2164.37,2169.642,2170.365,358.491668701172,44.9963111877441,0.601677179336548,-1.04737961292267,-0.450517565011978,0.639042913913727,-1.0521429102862,-0.45270770082608,0.642737685527497,0
2.1400146484375,-1.14020025730133,2.47522926330566,1.8400217294693,-1.13856809990831,2.47592233495728,1.83888036987787,2163.095,2164.417,2166.129,2165.256,358.567077636719,44.9963340759277,0.571016669273376,-1.05257630348206,-0.452750623226166,0.642357409000397,-1.05725481901126,-0.454907212340279,0.645860470797878,0
2.16000366210938,-1.16135048866272,2.46613168716431,1.85293459892273,-1.15975039167652,2.46680818657414,1.85182030137592,2167.968,2165.833,2156.51,2161.044,358.641693115234,44.9958343505859,0.542414546012878,-1.05751097202301,-0.45487317442894,0.645646691322327,-1.0620943502576,-0.456989527434725,0.648816864916866,0
2.17999267578125,-1.18259406089783,2.45699405670166,1.86590170860291,-1.18102676265167,2.45765355853653,1.86481770439342,2155.362,2158.811,2163.857,2164.714,358.716766357422,44.9960746765137,0.51127427816391,-1.06217777729034,-0.45687660574913,0.648354172706604,-1.06666760390386,-0.458957270716794,0.65161059420515,0
2.20001220703125,-1.20392572879791,2.44781851768494,1.87892520427704,-1.20242455577657,2.44844668594002,1.87788928230744,2157.736,2158.849,2160.038,2159.561,358.794586181641,44.9960899353027,0.479835689067841,-1.06658613681793,-0.458773225545883,0.651174783706665,-1.07097916161324,-0.460812413548163,0.654244457529281,0
2.22000122070313,-1.22534024715424,2.43860745429993,1.89200437068939,-1.22387315175433,2.43921795429519,1.89099189489151,2162.559,2160.213,2150.415,2155.323,358.871276855469,44.9955787658691,0.450496435165405,-1.07072532176971,-0.460555493831635,0.653959035873413,-1.07501419914593,-0.462548577472581,0.656709398992482,0
2.24002075195313,-1.24683213233948,2.42936301231384,1.90512752532959,-1.24543261682529,2.42994151877688,1.90416223567455,2149.772,2153.114,2157.84,2159.099,358.9482421875,44.9958267211914,0.418586909770966,-1.07459259033203,-0.462216645479202,0.656156778335571,-1.07878346314438,-0.464170386470068,0.659011983550929,0
2.260009765625,-1.26839601993561,2.42008757591248,1.91829967498779,-1.26703177594152,2.42064800401982,1.91735682493042,2157.838,2155.772,2148.306,2151.59,359.025207519531,44.9954795837402,0.388474524021149,-1.07819771766663,-0.463769376277924,0.658605575561523,-1.08227399942825,-0.465672266718726,0.661144297698006,0
2.27999877929688,-1.29002666473389,2.41078352928162,1.93150925636292,-1.28869796983554,2.41132564607061,1.93059236468599,2145.217,2149.337,2155.295,2154.927,359.103546142578,44.9958229064941,0.355964004993439,-1.0815304517746,-0.465203016996384,0.660478055477142,-1.08549040888332,-0.467056197851165,0.663109152043028,0
2.30001831054688,-1.31171846389771,2.40145301818848,1.94475865364075,-1.31045892272318,2.4019625159737,1.94388579123207,2148.232,2149.422,2150.648,2149.763,359.184967041016,44.9958381652832,0.323312103748322,-1.08459401130676,-0.46652540564537,0.662469148635864,-1.08843572622736,-0.468323485621664,0.66490840044773,0
2.32000732421875,-1.33346617221832,2.39209842681885,1.95804691314697,-1.33224276726637,2.39258953623693,1.95719320193332,2153.506,2150.771,2140.34,2145.59,359.265167236328,44.995288848877,0.292880773544312,-1.08737778663635,-0.467728108167648,0.664414525032043,-1.09109983431736,-0.469469776906228,0.666535862507326,0
2.33999633789063,-1.35526371002197,2.3827223777771,1.97136211395264,-1.35407709248145,2.38319483607731,1.97053145048929,2140.627,2143.726,2147.487,2149.543,359.34521484375,44.9955177307129,0.259955137968063,-1.08988332748413,-0.468805879354477,0.665758728981018,-1.09348640563071,-0.470496651869278,0.667993781680938,0
2.36001586914063,-1.37710607051849,2.37332701683044,1.98470616340637,-1.3759897762471,2.37376642042246,1.98391756706104,2142.925,2143.756,2143.866,2144.158,359.427276611328,44.995532989502,0.226859718561172,-1.09211456775665,-0.469769150018692,0.667201101779938,-1.09559752564474,-0.471405007833448,0.669283431954129,0
2.3800048828125,-1.39898729324341,2.36391496658325,1.99807810783386,-1.39790843013262,2.36433543599182,1.99730733068585,2147.469,2144.92,2134.751,2139.847,359.507781982422,44.9950561523438,0.195936068892479,-1.09406435489655,-0.470612704753876,0.668595671653748,-1.09742594550583,-0.472191725819537,0.67040038511534,0
2.39999389648438,-1.42090201377869,2.35448813438416,2.01146626472473,-1.41986083522252,2.35488992936084,2.01071771239474,2134.422,2137.959,2142.292,2143.657,359.58837890625,44.9953765869141,0.1625716984272,-1.09573757648468,-0.471333354711533,0.669410049915314,-1.09897439291323,-0.472857979480329,0.671346307473475,0
2.42001342773438,-1.44284462928772,2.3450493812561,2.02487277984619,-1.44187496577138,2.34541786398928,2.02416580122331,2136.744,2137.974,2138.765,2138.245,359.671447753906,44.9954528808594,0.129092812538147,-1.09713447093964,-0.471939355134964,0.670329868793488,-1.1002439936861,-0.473404253224357,0.672121886773894,0
2.44000244140625,-1.46480965614319,2.33560085296631,2.0382969379425,-1.46387808506052,2.33595053645515,2.03760716344514,2141.752,2139.112,2129.205,2133.98,359.753204345703,44.9949913024902,0.0978085920214653,-1.09824752807617,-0.47242459654808,0.671213865280151,-1.10123038958312,-0.473828671822132,0.672724460634977,0
2.46002197265625,-1.4867912530899,2.32614517211914,2.05172729492188,-1.48593173759011,2.32646146587939,2.051079395635,2128.841,2132.291,2136.359,2137.891,359.835144042969,44.9952926635742,0.064128577709198,-1.09908318519592,-0.472785919904709,0.671514689922333,-1.10193621258339,-0.474132367740737,0.673155636891692,0
2.48001098632813,-1.50878405570984,2.31668424606323,2.0651683807373,-1.5079630509786,2.31698200721197,2.06453798119217,2137.273,2134.718,2126.793,2130.278,359.916656494141,44.9949684143066,0.0323460847139359,-1.09963917732239,-0.473030567169189,0.672056317329407,-1.10235904000526,-0.474314298567936,0.673413935565619,0
2.5,-1.53078246116638,2.30722141265869,2.078608751297,-1.52999999932945,2.30750012397766,2.0780000090599,2124.45,2128.602,2133.607,2133.759,-0.000802289578132331,44.9953346252441,-0.00164105126168579,-1.09991931915283,-0.473154097795486,0.672022104263306,-1.10250000050292,-0.474374949932098,0.673500046133994,0
2.52001953125,-1.55278086662292,2.29775810241699,2.09205079078674,-1.55207058900185,2.29800376582252,2.09148258788601,2127.713,2128.511,2128.956,2128.631,0.0843406617641449,44.9953727722168,359.964324951172,-1.09991729259491,-0.473159998655319,0.672100007534027,-1.10235860927677,-0.474314113237503,0.673413672440311,0
2.54000854492188,-1.57477331161499,2.28829717636108,2.10549306869507,-1.57410188948011,2.28852431271001,2.10494116555652,2132.845,2129.823,2119.083,2124.342,0.167771935462952,44.9948501586914,359.9326171875,-1.09962666034698,-0.473042130470276,0.672120094299316,-1.10193535162022,-0.474131997292339,0.673155110942729,0
2.55999755859375,-1.59675431251526,2.27884125709534,2.11892414093018,-1.59612191359838,2.27904971150017,2.11839285467467,2120.034,2123.104,2125.981,2128.397,0.250786870718002,44.9951095581055,359.898651123047,-1.09905886650085,-0.472799748182297,0.671555519104004,-1.10123038958312,-0.473828671822132,0.672724460634977,0
2.58001708984375,-1.61871862411499,2.26939249038696,2.13234567642212,-1.6181586096433,2.26956793682606,2.13185472841265,2122.391,2122.979,2122.546,2123.116,0.335383862257004,44.9951667785645,359.864654541016,-1.09820830821991,-0.472438722848892,0.671078383922577,-1.10024227275454,-0.473403512755585,0.67212083548366,0
2.60000610351563,-1.64065992832184,2.25995349884033,2.14575672149658,-1.64013916343638,2.26011031859448,2.14528230572506,2126.922,2124.042,2113.807,2118.802,0.418054670095444,44.9947280883789,359.832855224609,-1.09707164764404,-0.471955567598343,0.670549869537354,-1.09897439291323,-0.472857979480329,0.671346307473476,0
2.6199951171875,-1.66257333755493,2.25052642822266,2.15914583206177,-1.66209156852628,2.2506648119635,2.15869268743396,2114.047,2117.511,2121.002,2122.687,0.500623285770416,44.9950637817383,359.798889160156,-1.09566259384155,-0.471351206302643,0.669460237026215,-1.09742594550583,-0.472191725819537,0.67040038511534,0
2.6400146484375,-1.6844527721405,2.24111390113831,2.17251515388489,-1.68404365734903,2.24121944141343,2.17210287594018,2116.504,2117.396,2117.586,2117.43,0.585172474384308,44.995174407959,359.764862060547,-1.09397196769714,-0.470629572868347,0.668466627597809,-1.09559452046326,-0.471403714787811,0.669281596135657,0
2.66000366210938,-1.70629262924194,2.23171806335449,2.18586373329163,-1.70592290617745,2.23180541187802,2.18546856763052,2121.473,2118.513,2108.463,2113.126,0.668009877204895,44.9947471618652,359.733154296875,-1.09199619293213,-0.469786256551743,0.667432188987732,-1.09348640563071,-0.470496651869278,0.667993781680938,0
2.67999267578125,-1.72808766365051,2.22234153747559,2.19918036460876,-1.72775723139253,2.2224107117184,2.19880681618649,2108.806,2112.135,2115.262,2117.132,0.750701010227203,44.9950637817383,359.699340820313,-1.08975100517273,-0.468822568655014,0.665837526321411,-1.09109983431736,-0.469469776906228,0.666535862507326,0
2.70001220703125,-1.74983215332031,2.21298670768738,2.21246695518494,-1.74957429229274,2.21302343991116,2.21213451824191,2111.435,2112,2111.699,2111.966,0.835076451301575,44.9951400756836,359.665496826172,-1.08722472190857,-0.467741012573242,0.664333879947662,-1.08843144721369,-0.468321644481621,0.664905786465049,0
2.72000122070313,-1.77152049541473,2.20365595817566,2.22572255134583,-1.77130202882336,2.20367460188472,2.22540765343382,2116.231,2113.073,2102.85,2107.728,0.917454719543457,44.9947204589844,359.633941650391,-1.08441507816315,-0.466538310050964,0.662781119346619,-1.08549040888332,-0.467056197851165,0.663109152043028,0
2.74002075195313,-1.79314720630646,2.19435167312622,2.23893618583679,-1.79300125102058,2.19433803277934,2.23866336966442,2103.626,2106.834,2109.659,2111.715,0.999498844146729,44.995044708252,359.600311279297,-1.08134031295776,-0.465217173099518,0.660677313804626,-1.08226887897249,-0.465670063529659,0.661141169691481,0
2.760009765625,-1.81470704078674,2.1850757598877,2.25211191177368,-1.81460030360772,2.18504456385877,2.25185789384333,2111.836,2108.916,2100.979,2104.273,1.08058071136475,44.9947776794434,359.568664550781,-1.0779846906662,-0.463778436183929,0.658790528774261,-1.07877792518082,-0.464168003639063,0.659008600495412,0
2.77999877929688,-1.83619451522827,2.17583155632019,2.26523923873901,-1.83612684690458,2.17578229366013,2.2650081232283,2099.455,2103.402,2107.355,2107.856,1.1623398065567,44.995174407959,359.535125732422,-1.07436859607697,-0.462225347757339,0.656368374824524,-1.07501419914593,-0.462548577472581,0.656709398992482,0
2.80001831054688,-1.85760390758514,2.1666202545166,2.2783203125,-1.85760812647542,2.16653949917827,2.27813070170937,2102.859,2103.25,2102.998,2102.932,1.24607753753662,44.9952430725098,359.501708984375,-1.07047462463379,-0.46055606007576,0.654048264026642,-1.07097279461286,-0.460809674005774,0.654240568028104,0
2.82000732421875,-1.87892997264862,2.15744495391846,2.29135370254517,-1.87897323600723,2.1573466894188,2.29118231372639,2107.823,2104.454,2093.917,2098.792,1.32768774032593,44.9947853088379,359.470703125,-1.06630146503448,-0.458766907453537,0.651667594909668,-1.06666760390385,-0.458957270716794,0.65161059420515,0
2.83999633789063,-1.90016734600067,2.14830803871155,2.30432868003845,-1.90024960698239,2.14819206138118,2.30417971674389,2095.679,2098.36,2100.199,2102.964,1.40853047370911,44.995059967041,359.437744140625,-1.06187117099762,-0.456861913204193,0.648746609687805,-1.06209435025759,-0.456989527434725,0.648816864916866,0
2.86001586914063,-1.92131054401398,2.13921141624451,2.31724667549133,-1.9214641634913,2.13906403038149,2.31713935826856,2098.143,2098.228,2097.058,2097.943,1.49027824401855,44.9951362609863,359.404907226563,-1.05716741085052,-0.454841911792755,0.645900845527649,-1.05724722779031,-0.454903946049977,0.645855833439456,0
2.8800048828125,-1.94235444068909,2.13015699386597,2.33010673522949,-1.94254691640495,2.12999271078668,2.33001848303364,2102.472,2099.228,2089.175,2093.797,1.56964063644409,44.9947547912598,359.374359130859,-1.0521913766861,-0.45270574092865,0.643001854419708,-1.0521429102862,-0.45270770082608,0.642737685527497,0
2.89999389648438,-1.96329367160797,2.12114763259888,2.34289836883545,-1.96352501326936,2.1209664217661,2.34283367505136,2090.219,2093.459,2095.872,2097.695,1.6485538482666,44.9951248168945,359.342041015625,-1.04696691036224,-0.450458914041519,0.639587700366974,-1.04677621342161,-0.450398561093403,0.639459254158576,0
2.92001342773438,-1.98412311077118,2.11218595504761,2.35562372207642,-1.98442500350686,2.11197373984504,2.35560115294953,2092.939,2093.256,2092.67,2092.811,1.72875738143921,44.995246887207,359.309875488281,-1.04147493839264,-0.448100179433823,0.636264681816101,-1.04114045847258,-0.4479736531836,0.636016459404434,0
2.94000244140625,-2.00483775138855,2.10327315330505,2.3682816028595,-2.00517798053537,2.10304431360073,2.36827882277243,2097.57,2094.111,2084.545,2088.947,1.8067991733551,44.9948806762695,359.279937744141,-1.03571665287018,-0.445627599954605,0.632896065711975,-1.03525504859546,-0.445441325732794,0.632421154350513,0
2.96002197265625,-2.02543187141418,2.0944128036499,2.38086199760437,-2.02584216016808,2.09415309439512,2.38090224765189,2085.735,2088.717,2090.742,2092.744,1.88432729244232,44.9952125549316,359.248260498047,-1.02971684932709,-0.443047195672989,0.62902158498764,-1.02910434715508,-0.442794850733705,0.628663786820389,0
2.98001098632813,-2.04590106010437,2.08560538291931,2.39336895942688,-2.04634944795115,2.08532938136936,2.39342982974865,2093.866,2090.399,2082.622,2085.864,1.96047389507294,44.9949722290039,359.218536376953,-1.02345097064972,-0.440355092287064,0.625347673892975,-1.02270954399162,-0.440043345582586,0.624757301356766,0
3,-2.06623983383179,2.07685422897339,2.4057924747467,-2.06672639957428,2.07656174835205,2.40587779151916,2082.189,2085.729,2088.471,2089.268,2.0368230342865,44.995361328125,359.187286376953,-1.01695001125336,-0.437559813261032,0.621178805828094,-1.01606400046349,-0.437183953857422,0.620697642517089,0
3.02001953125,-2.08644390106201,2.06816101074219,2.41813445091248,-2.08699882657197,2.06783908936099,2.41826190082706,2085.546,2085.55,2084.569,2084.696,2.11445641517639,44.9954414367676,359.156433105469,-1.01019048690796,-0.434656172990799,0.617102146148682,-1.0091596546337,-0.434213206731958,0.616479885389866,0
3.04000854492188,-2.10650730133057,2.0595281124115,2.4303936958313,-2.10709998486405,2.05919012250926,2.43054138475531,2090.071,2086.37,2076.579,2081.132,2.18966197967529,44.9950408935547,359.127746582031,-1.00317549705505,-0.431642472743988,0.612965762615204,-1.00202031904361,-0.431141350077486,0.612118576685011,0
3.05999755859375,-2.12642574310303,2.05095767974854,2.44256067276001,-2.12705600675913,2.05060360379452,2.44273220712343,2079.029,2081.283,2082.159,2084.871,2.26379895210266,44.9953231811523,359.097595214844,-0.995932042598724,-0.428526103496552,0.608349204063416,-0.994638524886308,-0.427965170275055,0.607609153824944,0
3.08001708984375,-2.14619445800781,2.04245138168335,2.4546365737915,-2.14689219650438,2.04206864550612,2.45484982590117,2081.388,2081.098,2079.439,2080.361,2.33827376365662,44.9954147338867,359.067718505859,-0.98843902349472,-0.425304621458054,0.603796124458313,-0.987005430654711,-0.424680863071165,0.602946215670947,0
3.10000610351563,-2.16580867767334,2.03401184082031,2.46662044525146,-2.16654331551667,2.03361331798384,2.46685438785611,2085.335,2081.914,2072.573,2076.665,2.41014909744263,44.9951019287109,359.040100097656,-0.980700731277466,-0.421978414058685,0.599193394184113,-0.979147395688901,-0.421299770153459,0.598145864732551,0
3.1199951171875,-2.18526339530945,2.02564096450806,2.47850322723389,-2.18603502400946,2.02522658035469,2.47876156841225,2074.417,2076.866,2078.375,2080.428,2.48122501373291,44.9954528808594,359.010955810547,-0.972745478153229,-0.418555468320847,0.594140231609344,-0.971056158224178,-0.417818336715394,0.593203054026623,0
3.1400146484375,-2.20455455780029,2.01734042167664,2.49028658866882,-2.20539207344272,2.01689778275692,2.49058648785022,2077.006,2076.827,2075.58,2075.918,2.55290150642395,44.9955825805664,358.982208251953,-0.964549958705902,-0.415032118558884,0.589163720607758,-0.962722140342815,-0.41423244164655,0.588111932552684,0
3.16000366210938,-2.22367691993713,2.00911235809326,2.50196933746338,-2.22455088103183,2.00865428308644,2.50229030443911,2081.045,2077.587,2068.697,2072.463,2.62216448783875,44.9952812194824,358.955596923828,-0.956118881702423,-0.411408245563507,0.584141671657562,-0.954174163352092,-0.410554485950274,0.582890106797601,0
3.17999267578125,-2.24262642860413,2.00095844268799,2.51354312896729,-2.24353658854737,2.00048526354177,2.51388837689424,2070.74,2072.95,2073.949,2076.037,2.69054079055786,44.9955978393555,358.927734375,-0.947480738162994,-0.407691955566406,0.57868754863739,-0.945403214201559,-0.406780591562751,0.577532070829503,0
3.20001220703125,-2.26139831542969,1.99288094043732,2.52500915527344,-2.26237335188561,1.99238033051557,2.52539546167567,2073.202,2072.85,2071.28,2071.814,2.75924372673035,44.9957084655762,358.900268554688,-0.938612282276154,-0.403878927230835,0.573299169540405,-0.93639902618694,-0.402906341007952,0.572031552878955,0
3.22000122070313,-2.27998876571655,1.98488140106201,2.53636646270752,-2.28099938900442,1.98436606709459,2.53677381709797,2077.26,2073.566,2064.609,2068.475,2.82530689239502,44.9954032897949,358.874969482422,-0.929518818855286,-0.399969488382339,0.56786972284317,-0.927192788821982,-0.398945154262308,0.566407606133204,0
3.24002075195313,-2.29839324951172,1.97696208953857,2.54760694503784,-2.29946728755973,1.97641984627959,2.54805556813954,2067.063,2069.098,2069.905,2072.061,2.89030385017395,44.9957313537598,358.848449707031,-0.920230150222778,-0.395972728729248,0.56201958656311,-0.917760245372928,-0.394886594330938,0.560645412532115,0
3.260009765625,-2.31660795211792,1.96912407875061,2.55873370170593,-2.31771654397337,1.96856770107001,2.5592037541086,2074.007,2070.493,2063.49,2066.091,2.95348620414734,44.9955673217773,358.823760986328,-0.910717666149139,-0.391881942749023,0.556333243846893,-0.908134108040216,-0.390744736359816,0.55476495544847,0
3.27999877929688,-2.33462810516357,1.96137022972107,2.5697386264801,-2.33577134012187,1.96079922667992,2.57023314733618,2064.251,2066.758,2068.286,2069.225,3.01634502410889,44.9959297180176,358.798034667969,-0.901018261909485,-0.387709230184555,0.550248622894287,-0.898304216251578,-0.386515208538549,0.548760027947228,0
3.30001831054688,-2.35245037078857,1.9537011384964,2.58062338829041,-2.35365475236716,1.95310449399547,2.58115784481168,2067.41,2066.671,2065.008,2065.356,3.07958674430847,44.9960250854492,358.772888183594,-0.891106247901917,-0.383447498083115,0.544243395328522,-0.88825927318574,-0.382193150160541,0.542623728976554,0
3.32000732421875,-2.37006998062134,1.9461190700531,2.59138703346252,-2.37130830610839,1.94550866300381,2.59194212531393,2071.173,2067.441,2058.659,2062.374,3.14010882377625,44.995719909668,358.749877929688,-0.880988836288452,-0.379097461700439,0.538185477256775,-0.878034183119985,-0.377793579561194,0.536377381014769,0
3.33999633789063,-2.38748407363892,1.93862581253052,2.60202193260193,-2.38875555478454,1.93800159931817,2.60260037727124,2062.083,2063.43,2063.209,2065.716,3.199138879776,44.995979309082,358.725891113281,-0.870695531368256,-0.374668151140213,0.531744480133057,-0.867618167158097,-0.373311858882592,0.530014399402376,0
3.36001586914063,-2.40468788146973,1.93122267723083,2.61252903938293,-2.40601888046917,1.93057367255756,2.6131462735431,2064.192,2063.216,2061.139,2062.135,3.25773692131042,44.9960899353027,358.702392578125,-0.86020416021347,-0.370155364274979,0.525356829166412,-0.856999388527103,-0.368742895092007,0.523527553239473,0
3.3800048828125,-2.42167854309082,1.9239114522934,2.6229076385498,-2.42304196557559,1.92324911460621,2.6235454105946,2067.649,2064.035,2055.67,2059.012,3.31346344947815,44.9958610534668,358.680999755859,-0.849521577358246,-0.365561008453369,0.51893538236618,-0.846214826007803,-0.364102599125748,0.516939432286212,0
3.39999389648438,-2.43845200538635,1.91669344902039,2.63315081596375,-2.43984769972619,1.91601807669906,2.63381177133889,2058.681,2060.141,2060.431,2062.362,3.36788153648376,44.9961776733398,358.65869140625,-0.838678181171417,-0.360894829034805,0.512157142162323,-0.835253140422974,-0.35938609205264,0.510243109616171,0
3.42001342773438,-2.45500493049622,1.90957045555115,2.64325976371765,-2.45645774020782,1.90887124031063,2.64395858587455,2060.983,2060.192,2058.345,2058.713,3.42205405235291,44.9963150024414,358.636993408203,-0.827650725841522,-0.356151819229126,0.505446374416351,-0.824102019042908,-0.354588076049064,0.503431063574906,0
3.44000244140625,-2.47133374214172,1.90254366397858,2.65323400497437,-2.47281804716281,1.90183185728196,2.6539528420958,2064.437,2060.776,2052.987,2056.059,3.47353792190552,44.99609375,358.617279052734,-0.816446781158447,-0.351333439350128,0.498707205057144,-0.812800388649434,-0.349725300221754,0.496527073925997,0
3.46002197265625,-2.48743534088135,1.89561498165131,2.66306662559509,-2.48897526921199,1.89487985601472,2.66382303691717,2056.216,2057.374,2057.191,2059.097,3.52361130714417,44.9963836669922,358.596893310547,-0.805095672607422,-0.346449136734009,0.491635620594025,-0.801318788528228,-0.344785088448372,0.489513143578788,0
3.48001098632813,-2.50330686569214,1.88878512382507,2.67276072502136,-2.50487694859767,1.88803780761656,2.67353712471306,2062.117,2058.445,2052.042,2054.324,3.57150936126709,44.9962730407715,358.578216552734,-0.793571054935455,-0.341491907835007,0.48469951748848,-0.789697369743255,-0.339784716610052,0.482413800191712,0
3.5,-2.51894497871399,1.88205552101135,2.68230962753296,-2.5205447997813,1.88129636896134,2.68310837050915,2054.189,2055.615,2055.968,2057.039,3.61847376823425,44.9965858459473,358.558959960938,-0.781909644603729,-0.336474627256393,0.477448761463165,-0.777924000354857,-0.334718964672089,0.475221632552147,0
3.52001953125,-2.53434681892395,1.87542796134949,2.69171500205994,-2.53599921507943,1.87464676580493,2.69254923165338,2056.778,2055.693,2053.582,2053.885,3.66507863998413,44.9966926574707,358.540466308594,-0.770088851451874,-0.331390768289566,0.470265746116638,-0.765985728654519,-0.329582259876133,0.467928728663466,0
3.54000854492188,-2.54950904846191,1.86890292167664,2.70097613334656,-2.55119019794619,1.86811051026429,2.70182916603607,2060.145,2056.193,2048.507,2051.692,3.70878624916077,44.9964637756348,358.523895263672,-0.758117198944092,-0.326241999864578,0.463055074214935,-0.753924423002452,-0.324392617007921,0.460560665253582,0
3.55999755859375,-2.56442975997925,1.86248219013214,2.71008706092834,-2.56613872308604,1.86167857751006,2.71096098677687,2052.764,2053.366,2052.294,2054.403,3.75063419342041,44.9967079162598,358.506866455078,-0.74602347612381,-0.321038007736206,0.455544680356979,-0.741727567798258,-0.319144650954242,0.45310979673751,0
3.58001708984375,-2.57910537719727,1.85616672039032,2.71904873847961,-2.58086439685043,1.85534253147694,2.71995667108993,2054.687,2053.189,2050.768,2051.696,3.791424036026,44.9968223571777,358.490509033203,-0.733788430690765,-0.315774530172348,0.448088854551315,-0.729381927869994,-0.313832666990361,0.445568037955247,0
3.60000610351563,-2.59353375434875,1.84995782375336,2.72786116600037,-2.59531978247425,1.84912278287974,2.72878724059568,2057.561,2053.919,2046.625,2049.337,3.82922005653381,44.9966697692871,358.476043701172,-0.721420645713806,-0.310454547405243,0.440616279840469,-0.716930938559024,-0.308475354130224,0.437961922879033,0
3.6199951171875,-2.6077127456665,1.8438560962677,2.73651885986328,-2.60952509409627,1.84301063413925,2.73746504379605,2050.669,2051.107,2050.373,2052.102,3.86524844169617,44.9969520568848,358.461212158203,-0.708948016166687,-0.30508753657341,0.432879477739334,-0.704361775018033,-0.303067194200314,0.43028361700977,0
3.6400146484375,-2.62163996696472,1.83786249160767,2.74502301216125,-2.62349913748426,1.83699799365897,2.74600156884113,2052.556,2051.22,2048.981,2049.409,3.90031599998474,44.9970932006836,358.447143554688,-0.696352422237396,-0.299669355154037,0.425203561782837,-0.691660998977508,-0.297602405088683,0.422524911118315,0
3.66000366210938,-2.63531279563904,1.83197855949402,2.75337338447571,-2.63719712493647,1.83110413233575,2.75436945562281,2055.321,2051.819,2045.107,2047.44,3.93258428573608,44.9969749450684,358.434906005859,-0.683642387390137,-0.294202595949173,0.417518645524979,-0.678873453515702,-0.29210028151913,0.414713199141411,0
3.67999267578125,-2.6487295627594,1.82620453834534,2.76156544685364,-2.65063849381582,1.82532068681534,2.76258057812278,2049.332,2049.36,2048.276,2049.983,3.96300482749939,44.9972152709961,358.422454833984,-0.67084413766861,-0.288695812225342,0.409600645303726,-0.665986083416798,-0.286555206197011,0.406840505851433,0
3.70001220703125,-2.66188812255859,1.82054162025452,2.76960015296936,-2.66384123964357,1.81963991412768,2.77064592952416,2051.141,2049.542,2046.954,2047.585,3.99215888977051,44.9973258972168,358.410797119141,-0.657941877841949,-0.283145606517792,0.401738107204437,-0.65298533214413,-0.280961346123326,0.398898549771683,0
