t,x_s1,x_s2,x_s3,x_s_d1,x_s_d2,x_s_d3,propellers_rpms1,propellers_rpms2,propellers_rpms3,propellers_rpms4,rollRad,pitchRad,yawRad,v_s1,v_s2,v_s3,v_s_d1,v_s_d2,v_s_d3,insideCount
0,-0.0599999986588955,2.94000005722046,1.17999994754791,-0.0599999986588955,2.94000005722046,1.17999994754791,0,0,0,0,0,45.0048027038574,0,0,0,0,-1.06581410364015E-15,4.44089209850063E-16,-7.105427357601E-16,0
0.019989013671875,-0.0599999986588955,2.94000005722046,1.17705690860748,-0.0600018659130177,2.93999925379318,1.18000108822432,0,0,0,0,0.937003672122955,44.8630027770996,-0.00115976633969694,3.71994488546079E-08,3.50004931704007E-08,-0.147149950265884,-0.000279680311988734,-0.000120338624884473,0.000170852338267345,5
0.0399932861328125,-0.0599999986588955,2.94000005722046,1.17018985748291,-0.060014863945674,2.93999366110285,1.18000902851964,0,0,0,0,1.87400352954865,44.7211418151855,-0.00311126722954214,3.70364325874561E-08,3.5142885934647E-08,-0.343349903821945,-0.00111059898697896,-0.000477859717552347,0.000678447590588643,6
0.05999755859375,-0.0599062219262123,2.94009447097778,1.16346514225006,-0.0600498857373401,2.93997859220429,1.18003042278566,3197.548,2848.816,1517.007,2782.242,1.40356075763702,44.741340637207,0.028959833085537,0.0046887663193047,0.00471893884241581,-0.336234629154205,-0.00247936261166862,-0.00106680046642749,0.00151460392977639,6
0.0800018310546875,-0.0597377866506577,2.94026732444763,1.15723752975464,-0.0601175574246769,2.93994947496775,1.18007176236346,2865.569,2651.698,2344.584,2562.293,0.339458614587784,44.8158149719238,0.0998864769935608,0.00842183083295822,0.00864457525312901,-0.311381936073303,-0.00437268608126799,-0.00188144466206175,0.00267120569262453,6
0.0999908447265625,-0.059556320309639,2.94046425819397,1.15151953697205,-0.0602281370710988,2.93990189563514,1.1801393137439,2239.838,2528.093,3138.061,2508.591,359.321350097656,44.9191131591797,0.178631111979485,0.00907337944954634,0.00984862074255943,-0.285901695489883,-0.00677536694902951,-0.00291525111632684,0.00413896594164447,5
0.1199951171875,-0.0594244487583637,2.94063210487366,1.146568775177,-0.0603918861403606,2.93983143898525,1.18023934549506,2123.527,2454.647,3352.138,2464.553,358.749847412109,44.9999008178711,0.253327608108521,0.00659362785518169,0.00839763507246971,-0.247538939118385,-0.00967801353495435,-0.00416417885169243,0.00591214744607921,5
0.139999389648438,-0.059383075684309,2.94074010848999,1.14257049560547,-0.0606185767455666,2.93973390035084,1.18037782724834,2312.496,2456.743,3068.972,2463.2,358.636169433594,45.0326614379883,0.326423346996307,0.00206869840621948,0.00539760151877999,-0.199915066361427,-0.0130660253322238,-0.00562194567796536,0.00798183098414958,5
0.159988403320313,-0.059443473815918,2.9407856464386,1.13952434062958,-0.0609175312885481,2.93960526856281,1.18056045391355,2536.712,2486.771,2635.259,2491.944,358.757019042969,45.0249786376953,0.398274898529053,-0.00301992753520608,0.00227848067879677,-0.15230792760849,-0.0169234294955564,-0.00728167892605071,0.0103382589939246,5
0.17999267578125,-0.0596002228558064,2.94078159332275,1.13730907440186,-0.0612985250199726,2.93944133760391,1.18079319703879,2666.212,2505.905,2302.79,2513.386,358.864379882813,44.9985618591309,0.467316418886185,-0.00783748552203178,-0.000198200810700655,-0.110764063894749,-0.0212433804254414,-0.00914043312572283,0.0129772496054864,5
0.199996948242188,-0.0598478130996227,2.94073987007141,1.13576102256775,-0.0617704296168641,2.93923829023936,1.1810814761931,2653.868,2500.302,2183.008,2508.391,358.817199707031,44.9743804931641,0.532876789569855,-0.0123795233666897,-0.00209190440364182,-0.0774004384875298,-0.0260104776919234,-0.0111915819022102,0.0158893949364944,5
0.220001220703125,-0.0601897649466991,2.94066214561462,1.13474547863007,-0.0623420644491781,2.93899233174064,1.18143067899198,2540.459,2470.543,2245.494,2478.958,358.612548828125,44.9636535644531,0.594581425189972,-0.017097570002079,-0.00388146191835403,-0.0507781282067299,-0.03121219533433,-0.0134297356845702,0.0190670430730375,5
0.239990234375,-0.0606390386819839,2.9405415058136,1.13419353961945,-0.0630214373585105,2.93870001655724,1.18184569730089,2411.755,2429.734,2374.131,2437.338,358.334564208984,44.9658966064453,0.652717709541321,-0.0224637035280466,-0.00603177398443222,-0.0275998916476965,-0.0368316683029241,-0.015847637913056,0.0224998914194052,5
0.259994506835938,-0.0612134262919426,2.94036602973938,1.13409042358398,-0.0638179029240226,2.93835731967507,1.18233224568626,2329.161,2391.759,2463.084,2398.737,358.076324462891,44.9739074707031,0.707698404788971,-0.0287193898111582,-0.00876869447529316,-0.00515558011829853,-0.0428651747123285,-0.0184436871643672,0.0261856663338995,4
0.279998779296875,-0.0619300007820129,2.94012498855591,1.13444066047668,-0.0647390625194898,2.93796097043536,1.18289496770872,2306.112,2365.279,2469.813,2370.437,357.887176513672,44.9803276062012,0.760534107685089,-0.0358286909759045,-0.0120572578161955,0.0175115037709475,-0.0492963837173861,-0.0212108567320638,0.0301143915580518,4
0.29998779296875,-0.0628015771508217,2.93981075286865,1.13523638248444,-0.0657918945890516,2.93750796620855,1.18353812639089,2317.608,2348.292,2415.48,2353.495,357.765106201172,44.9817733764648,0.811337769031525,-0.0435789413750172,-0.0157071426510811,0.0397889018058777,-0.0561078595514081,-0.0241416444928383,0.0342754158540715,4
0.319992065429688,-0.0638364255428314,2.93942022323608,1.13644909858704,-0.0669855955880233,2.93699435001684,1.18426733970383,2334.309,2336.246,2343.159,2341.878,357.678833007813,44.9788665771484,0.859911024570465,-0.0517423674464226,-0.0195241253823042,0.0606349222362041,-0.0632980253096114,-0.0272353719486164,0.0386677759154339,4
0.339996337890625,-0.0650401040911674,2.93895220756531,1.13803625106812,-0.068326768706371,2.93641728069206,1.18508664143323,2338.365,2324.984,2286.307,2329.776,357.5947265625,44.9741287231445,0.906515538692474,-0.0601838380098343,-0.0234044082462788,0.0793558955192566,-0.0708499516420146,-0.0304847548730522,0.0432811298664125,4
0.360000610351563,-0.0664176344871521,2.93840527534485,1.13995099067688,-0.0698225328270578,2.93577369517774,1.18600038039362,2322.375,2310.66,2261.424,2315.96,357.494689941406,44.9702682495117,0.950823068618774,-0.0688766911625862,-0.0273418314754963,0.0957367122173309,-0.0787518717320621,-0.0338847303337087,0.0481082895423912,4
0.379989624023438,-0.0679749324917793,2.93777751922607,1.14215409755707,-0.0714784451857985,2.93506120235061,1.18701195141357,2295.45,2294.354,2260.914,2299.583,357.379638671875,44.9685401916504,0.992806136608124,-0.077864870429039,-0.0313886739313602,0.11015435308218,-0.0869857157641562,-0.0374275233937465,0.0531382163749952,4
0.399993896484375,-0.0697188898921013,2.93706560134888,1.1446168422699,-0.0733036822025899,2.9342758538535,1.18812696022487,2267.868,2277.453,2269.338,2283.099,357.261505126953,44.9687919616699,1.03228890895844,-0.087197832763195,-0.0355972498655319,0.123135641217232,-0.0955525119207663,-0.0411135764513579,0.0583715384648505,4
0.419998168945313,-0.0716567859053612,2.93626570701599,1.14732038974762,-0.0753034649285836,2.93341540321397,1.18934859628618,2249.539,2263.217,2270.605,2267.333,357.152069091797,44.9699020385742,1.06997513771057,-0.0968948528170586,-0.0399895049631596,0.135175839066505,-0.104434660908044,-0.0449353170220673,0.0637975046779765,4
0.44000244140625,-0.0737954005599022,2.93537473678589,1.15024816989899,-0.077483988232608,2.93247718495301,1.19068064394622,2238.031,2250.61,2263.196,2255.083,357.056976318359,44.971019744873,1.10575199127197,-0.106930918991566,-0.0445481799542904,0.146386578679085,-0.113620829717891,-0.048887868829098,0.0694091918565748,4
0.459991455078125,-0.0761406645178795,2.93438982963562,1.15338432788849,-0.0798493430620752,2.93145943885026,1.1921256023009,2232.288,2240.402,2248.553,2244.897,356.975494384766,44.9716720581055,1.13963568210602,-0.117263421416283,-0.0492409244179726,0.156805649399757,-0.123092454730403,-0.0529632444654124,0.0751952597749251,4
0.479995727539063,-0.0786975845694542,2.93330907821655,1.15671133995056,-0.0824088828700873,2.93035814037613,1.19368918522879,2227.118,2231.47,2233.345,2236.439,356.903472900391,44.9719390869141,1.17141842842102,-0.127846077084541,-0.0540349744260311,0.166351214051247,-0.132852887402757,-0.0571628859694044,0.0811577557859174,4
0.5,-0.0814705863595009,2.93213081359863,1.16021299362183,-0.085166398670376,2.92917165836334,1.195373708601,2223.1,2224.507,2218.919,2227.858,356.8359375,44.971996307373,1.20178282260895,-0.138650178909302,-0.0589120239019394,0.175080761313438,-0.142884000065179,-0.0614789935111996,0.0872856059789651,5
0.519989013671875,-0.0844637081027031,2.93085360527039,1.1638720035553,-0.0881248588203387,2.92789871561062,1.19718098574075,2215.301,2216.897,2211.032,2220.868,356.77001953125,44.9722862243652,1.23043847084045,-0.149656131863594,-0.0638623535633087,0.182947859168053,-0.153166947611899,-0.0659034585682559,0.0935672981730243,5
0.539993286132813,-0.087680920958519,2.92947578430176,1.16767370700836,-0.091293865515634,2.92653518056143,1.19911688247953,2206.2,2209.431,2208.133,2214.185,356.706207275391,44.9730262756348,1.25703990459442,-0.16086083650589,-0.068888746201992,0.190083518624306,-0.163706645289342,-0.0704383960337938,0.100005835015435,5
0.55999755859375,-0.0911262184381485,2.92799592018127,1.17160797119141,-0.094676112580471,2.92507989413848,1.20118304443252,2200.458,2204.077,2204.149,2206.932,356.645751953125,44.9739608764648,1.28241014480591,-0.172264978289604,-0.073996014893055,0.196715548634529,-0.17448465888317,-0.0750758741803766,0.106589955332319,5
0.580001831054688,-0.0948033407330513,2.92641234397888,1.1756649017334,-0.0982762614093182,2.92353085067394,1.20338231917284,2194.144,2198.321,2201.727,2201.9,356.589721679688,44.9750900268555,1.30624079704285,-0.18385623395443,-0.0791783854365349,0.202848315238953,-0.185490414529404,-0.0798113433697334,0.113313199715174,5
0.599990844726563,-0.0987158566713333,2.92472362518311,1.1798369884491,-0.102095761416081,2.92188742652551,1.20571559212485,2189.917,2193.744,2198.542,2197.299,356.538879394531,44.9762916564941,1.32854962348938,-0.195625826716423,-0.0844313874840736,0.208603546023369,-0.19670480600515,-0.0846365827279185,0.120163896470579,5
0.6199951171875,-0.102867007255554,2.92292881011963,1.18411707878113,-0.106144683970236,2.92014528826426,1.208189015731,2185.988,2189.57,2195.909,2193.84,356.493530273438,44.9775238037109,1.34903275966644,-0.207557752728462,-0.0897462144494057,0.214007079601288,-0.208134604141382,-0.0895545055543457,0.127146181793521,5
0.639999389648438,-0.107259839773178,2.92102646827698,1.18850111961365,-0.110424235525481,2.91830391678686,1.21080332699501,2185.87,2187.649,2190.189,2189.903,356.452667236328,44.9785537719727,1.36856544017792,-0.219641610980034,-0.0951171889901161,0.219201326370239,-0.219761081350814,-0.0945570538913933,0.134248615293163,5
0.659988403320313,-0.111896991729736,2.91901588439941,1.1929829120636,-0.114934715429503,2.91636318329238,1.21355870878373,2183.337,2184.943,2187.489,2187.96,356.414764404297,44.979606628418,1.38680815696716,-0.231857761740685,-0.100532941520214,0.224088445305824,-0.231565018351745,-0.0996359582190702,0.141459456210227,5
0.67999267578125,-0.116780981421471,2.91689610481262,1.1975576877594,-0.119686638739014,2.91431856344567,1.2164615845812,2180.28,2182.282,2187.22,2186.383,356.380065917969,44.980785369873,1.40329122543335,-0.244199156761169,-0.105990797281265,0.228735953569412,-0.243554411173546,-0.104794659005432,0.14878358919428,5
0.699996948242188,-0.121914237737656,2.91466617584229,1.20222389698029,-0.124680083855354,2.91217002351282,1.2195120022816,2180.784,2181.915,2184.365,2183.728,356.348205566406,44.9818572998047,1.41900622844696,-0.256663590669632,-0.111491784453392,0.233310341835022,-0.255710395848158,-0.11002503961202,0.1562094905416,5
0.720001220703125,-0.127298966050148,2.91232562065125,1.20697832107544,-0.129918284978346,2.90991617190799,1.22271193760712,2178.886,2180.416,2184.336,2183.123,356.318725585938,44.9830131530762,1.43356072902679,-0.269236177206039,-0.117028050124645,0.237718626856804,-0.268023157655716,-0.11532287703907,0.163731164592979,5
0.739990234375,-0.132937252521515,2.90987372398376,1.21181952953339,-0.135400001298574,2.90755754251682,1.22606063256665,2178.081,2179.539,2184.532,2182.418,356.292022705078,44.9841918945313,1.44688391685486,-0.281914293766022,-0.122599326074123,0.242063477635384,-0.280473432677602,-0.12067988256057,0.171336843321139,5
0.759994506835938,-0.13883101940155,2.90730977058411,1.21674644947052,-0.14113644597991,2.90508931062815,1.22956493710703,2176.568,2178.584,2186.141,2182.373,356.268829345703,44.9854545593262,1.45858383178711,-0.29468822479248,-0.128201961517334,0.246347889304161,-0.293070637251543,-0.126100107763583,0.179032279019858,5
0.779998779296875,-0.144982114434242,2.90463304519653,1.22176098823547,-0.147126184485884,2.90251209348295,1.2332239748923,2179.257,2179.94,2183.807,2181.191,356.248657226563,44.9864883422852,1.46976292133331,-0.307555198669434,-0.133835598826408,0.250728785991669,-0.305795832832518,-0.131575403921268,0.186805902427515,5
0.79998779296875,-0.151392057538033,2.90184330940247,1.22686231136322,-0.153366821193532,2.89982692185086,1.23703628247379,2179.052,2179.823,2184.262,2182.156,356.230590820313,44.9875297546387,1.47994554042816,-0.320497393608093,-0.139490053057671,0.255065202713013,-0.318629798715703,-0.137097500901303,0.194645971915464,5
0.819992065429688,-0.158062264323235,2.89894008636475,1.23205041885376,-0.159870162197751,2.89702871589906,1.24100907201063,2178.241,2179.51,2186.618,2183.206,356.215148925781,44.9886436462402,1.48854434490204,-0.333510190248489,-0.145163893699646,0.259405255317688,-0.33158286215529,-0.142670842232658,0.202558796242139,5
0.839996337890625,-0.164994135499001,2.89592289924622,1.23732852935791,-0.166633637018892,2.89411858163313,1.24514077323692,2181.535,2181.665,2185.088,2182.673,356.201965332031,44.9895629882813,1.49672567844391,-0.346593469381332,-0.150859087705612,0.26390814781189,-0.344636106234817,-0.148287288494656,0.210532819358465,5
0.860000610351563,-0.172188758850098,2.8927915096283,1.24269688129425,-0.173659158941841,2.89109569582005,1.24943255494854,2181.579,2182.105,2186.6,2184.265,356.190338134766,44.9904975891113,1.50398349761963,-0.35973060131073,-0.156566724181175,0.268419772386551,-0.357780475378537,-0.153942943326036,0.218562509354528,5
0.879989624023438,-0.179647162556648,2.88954567909241,1.2481575012207,-0.18094280014554,2.88796174849148,1.2538820177009,2182.45,2183.016,2188.272,2185.338,356.180541992188,44.9914321899414,1.51025009155273,-0.372921228408813,-0.162287786602974,0.273028373718262,-0.370996904517929,-0.159629603560431,0.226636219677473,5
0.899993896484375,-0.187370300292969,2.88618540763855,1.25371170043945,-0.18849723509595,2.8847112861788,1.25849690412748,2182.088,2183.451,2191.535,2186.914,356.173431396484,44.9924430847168,1.51503229141235,-0.386156797409058,-0.168019473552704,0.277710407972336,-0.384296738353309,-0.165352150505452,0.234760880627692,5
0.919998168945313,-0.19535905122757,2.88271021842957,1.25936424732208,-0.196318384305134,2.8813460641717,1.26327472213274,2186.376,2186.278,2189.98,2186.914,356.168640136719,44.9931945800781,1.51956033706665,-0.399437665939331,-0.17376346886158,0.282628864049911,-0.397661187980262,-0.171102499820431,0.242925014356675,5
0.94000244140625,-0.203613966703415,2.87912011146545,1.26511609554291,-0.204407453948074,2.87786556348678,1.26821620855017,2186.957,2187.18,2191.576,2189.085,356.165161132813,44.9939422607422,1.52327489852905,-0.41274493932724,-0.179509356617928,0.287594020366669,-0.411081631631503,-0.176876941799768,0.251123353961324,5
0.959991455078125,-0.212135523557663,2.87541484832764,1.2709698677063,-0.212759000778906,2.87427212620069,1.27331803818581,2188.244,2188.466,2193.347,2190.579,356.163146972656,44.9946632385254,1.52608847618103,-0.426078826189041,-0.185258165001869,0.29268816113472,-0.424539267042903,-0.182667386354485,0.259344413431889,5
0.979995727539063,-0.220924153923988,2.87159466743469,1.2769273519516,-0.22138664033507,2.87055989392801,1.27858852855901,2187.942,2189.129,2196.979,2192.465,356.163513183594,44.9954872131348,1.52747118473053,-0.439430892467499,-0.191007435321808,0.297873884439468,-0.438046240701377,-0.188479059778567,0.267595612867683,5
1,-0.22998021543026,2.86765956878662,1.28299379348755,-0.230284798736574,2.86673126495361,1.28402427467346,2192.542,2192.252,2195.424,2192.552,356.165832519531,44.9960327148438,1.52874350547791,-0.452802985906601,-0.196759581565857,0.303322523832321,-0.451584000205995,-0.194303979492187,0.275865618896484,5
1.01998901367188,-0.239303737878799,2.86360955238342,1.28917026519775,-0.239446912293295,2.86278906344998,1.2896212668733,2193.095,2193.155,2197.185,2194.949,356.169189453125,44.9965896606445,1.52924931049347,-0.46617603302002,-0.202504128217697,0.308824419975281,-0.46513400752272,-0.200134169097193,0.284143106922576,5
1.03999328613281,-0.248894691467285,2.8594446182251,1.29545855522156,-0.248887339851819,2.85872711120656,1.29538827675384,2192.65,2193.608,2200.965,2197.021,356.174530029297,44.9972457885742,1.5282895565033,-0.47954785823822,-0.20824146270752,0.31441530585289,-0.478708875293167,-0.205975055460915,0.292435781811908,5
1.05999755859375,-0.258753091096878,2.85516500473022,1.3018639087677,-0.258599401509697,2.85454828239877,1.3013212236669,2197.161,2196.82,2199.45,2196.906,356.181579589844,44.9976539611816,1.52730894088745,-0.492921411991119,-0.213975131511688,0.320269227027893,-0.492290296490434,-0.211818761581115,0.30073246008742,5
1.08000183105469,-0.268878638744354,2.85077118873596,1.3083872795105,-0.268583149539609,2.85025255453512,1.30742013954506,2197.44,2197.566,2201.361,2199.255,356.189483642578,44.9980812072754,1.52560651302338,-0.506277859210968,-0.219694942235947,0.326167672872543,-0.50587040849135,-0.217661904390701,0.309028338595312,5
1.09999084472656,-0.279271006584167,2.84626317024231,1.31503117084503,-0.278830554044452,2.84584338265603,1.31368011904947,2198.538,2198.719,2203.186,2200.686,356.198638916016,44.9985084533691,1.52306425571442,-0.519618809223175,-0.225402772426605,0.332196682691574,-0.519431110871131,-0.223496695782555,0.317312360068532,5
1.1199951171875,-0.28992971777916,2.84164118766785,1.32179725170135,-0.289357002179081,2.84131414609862,1.32011056195293,2197.836,2199.123,2206.86,2202.458,356.210144042969,44.9990386962891,1.5190896987915,-0.532935619354248,-0.231096178293228,0.33830389380455,-0.532985466132485,-0.229328756186667,0.32559250418615,5
1.13999938964844,-0.300854325294495,2.83690571784973,1.32869064807892,-0.300154365346813,2.83666834237095,1.32670650262257,2202.594,2202.265,2204.547,2202.082,356.223541259766,44.9992713928223,1.51521277427673,-0.546230673789978,-0.236777827143669,0.34467151761055,-0.546515580872639,-0.235150386571708,0.333857840147634,5
1.15998840332031,-0.312044024467468,2.83205699920654,1.33571171760559,-0.31121353909136,2.83190988886621,1.33346237928811,2202.734,2202.74,2205.873,2204.331,356.237731933594,44.9995155334473,1.51065587997437,-0.559483468532562,-0.242436066269875,0.351055324077606,-0.560003743914979,-0.240953966313175,0.342097548471566,6
1.17999267578125,-0.323497831821442,2.82709550857544,1.34286153316498,-0.322550701230474,2.8270318247214,1.34038807472597,2201.652,2202.685,2209.447,2206.107,356.253784179688,44.9998893737793,1.50462865829468,-0.572692275047302,-0.248071417212486,0.357488006353378,-0.573463232144024,-0.246745208083563,0.350319739799517,6
1.19999694824219,-0.335215091705322,2.82202172279358,1.35014474391937,-0.334156660511822,2.8220381046756,1.34747797414352,2206.08,2205.636,2207.065,2205.376,356.271331787109,45,1.49873018264771,-0.585861146450043,-0.253688186407089,0.364159882068634,-0.58687652428584,-0.252516572968185,0.358513710658656,6
1.22000122070313,-0.347194492816925,2.81683611869812,1.3575611114502,-0.346030421585499,2.81692915700008,1.35473146949704,2205.628,2205.787,2208.585,2207.344,356.289489746094,45.0001564025879,1.49216401576996,-0.598970293998718,-0.25927546620369,0.370820015668869,-0.600236516861372,-0.258265004538453,0.366675121644476,6
1.239990234375,-0.359434932470322,2.8115394115448,1.36511242389679,-0.358161486344149,2.81170949873715,1.36214214765657,2206.076,2206.416,2209.987,2208.174,356.308776855469,45.0003242492676,1.48484528064728,-0.612022638320923,-0.264835894107819,0.377563744783401,-0.613526094901141,-0.263983138701136,0.374793517489195,6
1.25999450683594,-0.371935129165649,2.80613207817078,1.37279903888702,-0.3705671011502,2.80637170925886,1.36972054415578,2204.576,2206.069,2213.312,2209.486,356.330413818359,45.0006294250488,1.47605884075165,-0.625009655952454,-0.270366847515106,0.384332448244095,-0.626758665639206,-0.269676744214496,0.382877088462885,6
1.27999877929688,-0.384693801403046,2.80061459541321,1.3806254863739,-0.383236695417198,2.80092033679326,1.37746020158837,2209.108,2208.792,2209.986,2208.325,356.353942871094,45.0006217956543,1.46749186515808,-0.63793420791626,-0.275871515274048,0.391323357820511,-0.639917282339435,-0.275338529371412,0.39091548206889,6
1.29998779296875,-0.397709280252457,2.79498791694641,1.38859069347382,-0.396158759015336,2.79536033382764,1.38535408859565,2208.439,2208.61,2210.733,2209.998,356.378112792969,45.0006332397461,1.45833039283752,-0.650774657726288,-0.281337291002274,0.398262858390808,-0.652985332144132,-0.280961346123326,0.398898549771684,6
1.31999206542969,-0.410979896783829,2.78925251960754,1.39669454097748,-0.409351342777246,2.78968393359302,1.39341323214959,2206.536,2207.734,2213.825,2211.253,356.404144287109,45.0008010864258,1.44765555858612,-0.663530349731445,-0.286764860153198,0.405190706253052,-0.665976209205206,-0.286550957599616,0.406834473849655,6
1.33999633789063,-0.424504011869431,2.78340935707092,1.40494072437286,-0.422802873722428,2.78389611561957,1.401630562497,2210.59,2210.202,2210.485,2209.662,356.431640625,45.0007019042969,1.43722927570343,-0.676205515861511,-0.292158931493759,0.41230982542038,-0.678873453515705,-0.29210028151913,0.41471319914141,6
1.36000061035156,-0.438279569149017,2.77745914459229,1.41332769393921,-0.436511415158101,2.77799771321212,1.41000489654248,2209.327,2209.611,2211.375,2211.044,356.459594726563,45.0006675720215,1.42618584632874,-0.688780128955841,-0.297508090734482,0.419348388910294,-0.691670720740693,-0.297606588091785,0.422530849991739,6
1.37998962402344,-0.452304750680923,2.77140283584595,1.42185592651367,-0.450464156928423,2.77199423822282,1.41852840876173,2209.036,2209.525,2212.163,2211.194,356.488616943359,45.000675201416,1.41442728042603,-0.701257824897766,-0.302815228700638,0.426409274339676,-0.704352136620515,-0.303063047067127,0.430277729063129,6
1.39999389648438,-0.466577351093292,2.76524138450623,1.43052446842194,-0.464680216184654,2.76587746507559,1.42721277752413,2206.611,2208.391,2215.068,2211.878,356.520050048828,45.0008354187012,1.40116941928864,-0.713630318641663,-0.308077991008759,0.433429598808289,-0.716930938559026,-0.308475354130225,0.437961922879032,6
1.41999816894531,-0.481095343828201,2.75897550582886,1.43933701515198,-0.47914673136562,2.75965292774086,1.43605014590267,2210.843,2210.596,2210.705,2209.848,356.553375244141,45.0006713867188,1.38825178146362,-0.725900888442993,-0.31329944729805,0.440625995397568,-0.729391385793766,-0.313836736470737,0.445573815653291,6
1.44000244140625,-0.495856285095215,2.75260615348816,1.44829106330872,-0.493861275572861,2.75332167044526,1.44503903134294,2209.37,2209.654,2210.799,2210.962,356.587280273438,45.0005416870117,1.37477207183838,-0.73804759979248,-0.318466603755951,0.447700440883636,-0.741727567798258,-0.319144650954242,0.453109796737511,6
1.45999145507813,-0.510857760906219,2.74613451957703,1.45738625526428,-0.508809800712713,2.74688973769103,1.45417085208374,2208.784,2209.192,2211,2210.798,356.6220703125,45.0004577636719,1.36060404777527,-0.750073850154877,-0.323581993579865,0.454757481813431,-0.753924423002454,-0.324392617007921,0.460560665253582,6
1.47999572753906,-0.526097178459167,2.73956155776978,1.46662092208862,-0.524012471663969,2.74034845309416,1.46345792653486,2205.852,2207.658,2213.633,2211.143,356.659118652344,45.0005493164063,1.34493696689606,-0.761972010135651,-0.328643560409546,0.46173295378685,-0.765994882555672,-0.329586198544069,0.467934320638836,6
1.5,-0.541572093963623,2.7328884601593,1.47599804401398,-0.539455198877605,2.73370387899399,1.47289164761066,2209.775,2209.57,2208.915,2208.628,356.697875976563,45.0003204345703,1.32969105243683,-0.773745894432068,-0.333654999732971,0.468854308128357,-0.777924000354858,-0.334718964672088,0.475221632552146,6
1.51998901367188,-0.557279527187347,2.7261164188385,1.48551440238953,-0.555123050061237,2.72696244033876,1.48246289340675,2207.802,2208.176,2208.826,2209.459,356.737121582031,45.0001525878906,1.31389331817627,-0.785374701023102,-0.338603585958481,0.475818127393723,-0.789697369743256,-0.339784716610053,0.482413800191712,6
1.53999328613281,-0.573216736316681,2.71924662590027,1.49516785144806,-0.571036956668503,2.72011513090874,1.49218445062151,2204.508,2206.158,2211.348,2209.741,356.778259277344,45.0001831054688,1.29655373096466,-0.796858787536621,-0.34349063038826,0.482673466205597,-0.801327600455846,-0.344788879974649,0.489518526647862,6
1.55999755859375,-0.589380860328674,2.7122802734375,1.50496089458466,-0.587181951496087,2.71316839067337,1.50204717602401,2208.093,2207.813,2206.583,2206.905,356.820831298828,44.9999160766602,1.27961850166321,-0.808202683925629,-0.348320841789246,0.489651739597321,-0.812800388649436,-0.349725300221754,0.496527073925997,6
1.58000183105469,-0.60576856136322,2.70521855354309,1.51488983631134,-0.60355483331529,2.70612359703193,1.51204911403357,2205.653,2206.174,2206.578,2207.437,356.863830566406,44.9997406005859,1.26213884353638,-0.819386720657349,-0.353082418441772,0.496448636054993,-0.824110582941666,-0.354591760855452,0.503436295127019,6
1.59999084472656,-0.62237673997879,2.69806289672852,1.52495348453522,-0.620139554045575,2.69898765502515,1.52218046112824,2204.406,2205.12,2206.45,2206.619,356.907775878906,44.999626159668,1.24401664733887,-0.830415308475494,-0.357778608798981,0.503183484077454,-0.835244706287931,-0.359382463079953,0.510237957334684,5
1.6199951171875,-0.639202415943146,2.69081473350525,1.53514921665192,-0.636958033083316,2.69175113334911,1.53245460752521,2200.784,2202.969,2208.699,2206.45,356.954193115234,44.999698638916,1.22439789772034,-0.841280996799469,-0.362407028675079,0.509788572788239,-0.846214826007804,-0.364102599125749,0.516939432286212,5
1.63999938964844,-0.65624213218689,2.68347525596619,1.54547929763794,-0.653994195024907,2.68442094880091,1.54286173301126,2204.61,2204.412,2203.039,2203.316,357.00244140625,44.9994125366211,1.20526623725891,-0.851986646652222,-0.366970777511597,0.516504883766174,-0.857007552155828,-0.368746407673381,0.523532540272869,5
1.65998840332031,-0.673492431640625,2.67604613304138,1.55593943595886,-0.67123120513297,2.67700434489773,1.55339155350804,2202.095,2202.561,2202.32,2203.657,357.051086425781,44.9992065429688,1.1856632232666,-0.862511932849884,-0.371456831693649,0.523008763790131,-0.867610144209785,-0.373308406832068,0.530009498308446,5
1.67999267578125,-0.690949499607086,2.66852879524231,1.56652653217316,-0.688691692550512,2.66949158495151,1.56405789280588,2198.164,2199.926,2204.455,2203.573,357.1015625,44.9992065429688,1.16449117660522,-0.872857809066772,-0.375866681337357,0.529353499412537,-0.878034183119987,-0.377793579561193,0.536377381014768,5
1.69999694824219,-0.708610117435455,2.66092467308044,1.57724225521088,-0.706358800111611,2.66188992212981,1.57485045312518,2201.579,2201.272,2198.975,2200.037,357.1533203125,44.9989051818848,1.14386260509491,-0.883028447628021,-0.380205035209656,0.535786211490631,-0.888267004546665,-0.382196476749158,0.542628451944297,5
1.72000122070313,-0.726470291614532,2.65323543548584,1.58808195590973,-0.724228658537036,2.6542010212754,1.58576687078363,2198.476,2199.083,2198.666,2200.234,357.205291748047,44.998706817627,1.12273669242859,-0.893006026744843,-0.384460598230362,0.541986227035522,-0.898304216251578,-0.386515208538549,0.548760027947228,5
1.739990234375,-0.744526147842407,2.64546275138855,1.59904360771179,-0.74228345468553,2.64643254688532,1.59679626401121,2196.746,2197.531,2198.214,2198.995,357.258117675781,44.9985885620117,1.10098242759705,-0.902795672416687,-0.388636946678162,0.548085689544678,-0.908134108040217,-0.390744736359816,0.554764955448471,5
1.75999450683594,-0.762773931026459,2.63760805130005,1.61012387275696,-0.760546715064628,2.63857437616062,1.60795300478424,2192.547,2194.935,2200.226,2198.432,357.313415527344,44.998664855957,1.07772576808929,-0.912390530109406,-0.392732292413712,0.554015934467316,-0.917767514700581,-0.394889722119545,0.560649853250941,4
1.77999877929688,-0.781209766864777,2.62967300415039,1.62132441997528,-0.779000609654483,2.63063418086074,1.61922620102184,2196.278,2196.15,2193.957,2194.666,357.370483398438,44.9983711242676,1.05512082576752,-0.921792805194855,-0.396749168634415,0.560030341148376,-0.927192788821983,-0.398945154262308,0.566407606133204,4
1.79998779296875,-0.799829363822937,2.62165951728821,1.6326402425766,-0.797626646773287,2.62261991743975,1.63060455644414,2193.3,2193.798,2192.873,2194.803,357.427825927734,44.9981460571289,1.03208327293396,-0.930984258651733,-0.400675147771835,0.565791845321655,-0.936399026186941,-0.402906341007953,0.572031552878955,4
1.81999206542969,-0.818628668785095,2.61356925964355,1.64406740665436,-0.816448984455027,2.61452119137054,1.64210282881713,2188.882,2190.79,2194.763,2194.39,357.486907958984,44.9981651306152,1.00749802589417,-0.939966201782227,-0.404511898756027,0.571358740329742,-0.945396434568188,-0.406777674475912,0.57752792925727,3
1.83999633789063,-0.837603569030762,2.60540390014648,1.65560722351074,-0.835449117627072,2.60634596486888,1.6537097136807,2192.195,2191.838,2188.804,2190.396,357.547149658203,44.997859954834,0.983542740345001,-0.948742032051086,-0.408263802528381,0.576988339424133,-0.954174163352093,-0.410554485950274,0.582890106797601,3
1.86000061035156,-0.856749475002289,2.59716558456421,1.66725420951843,-0.854622615239374,2.59809614449182,1.66542250417552,2188.677,2189.331,2188.211,2190.311,357.607421875,44.9976806640625,0.959164679050446,-0.957296371459961,-0.411920368671417,0.582350790500641,-0.962728579444532,-0.414235212212131,0.588115866099442,0
1.87998962402344,-0.876062095165253,2.58885598182678,1.67900586128235,-0.873950157556149,2.58978004298193,1.67722939817649,2186.657,2187.43,2187.467,2188.798,357.668395996094,44.9975738525391,0.934199869632721,-0.965634346008301,-0.415485292673111,0.587584912776947,-0.971049893464309,-0.417815641164241,0.593199226982579,0
1.89999389648438,-0.895537078380585,2.58047676086426,1.69085824489594,-0.893456683142228,2.58138692997148,1.6891456302637,2181.988,2184.542,2189.361,2187.976,357.731750488281,44.9976768493652,0.90776002407074,-0.973750174045563,-0.41895717382431,0.592619359493256,-0.979147395688901,-0.421299770153459,0.598145864732551,0
1.91999816894531,-0.915169954299927,2.57203006744385,1.70281267166138,-0.913122862707269,2.57292512231409,1.7011593924753,2185.714,2185.545,2182.679,2183.789,357.796752929688,44.9973907470703,0.882087349891663,-0.981645107269287,-0.422338396310806,0.597720324993134,-0.987011339258123,-0.424683405378145,0.60294982514457,0
1.93998718261719,-0.934956073760986,2.56351780891418,1.71486341953278,-0.932928814964021,2.56440317437226,1.71325853964316,2182.414,2182.899,2181.344,2183.77,357.861846923828,44.9971961975098,0.856039881706238,-0.989303767681122,-0.425617277622223,0.60254043340683,-0.994632798067981,-0.427962706185118,0.607605655400993,0
1.95999145507813,-0.954890549182892,2.5549418926239,1.72700619697571,-0.952900013794853,2.55581012544606,1.7254586333645,2177.602,2179.616,2183.14,2183.181,357.928588867188,44.9972496032715,0.828460216522217,-0.996727705001831,-0.428795754909515,0.607139945030212,-1.00202031904361,-0.431141350077486,0.612118576685011,0
1.97999572753906,-0.974968910217285,2.54630422592163,1.73924195766449,-0.973016570682103,2.54715453300902,1.73774752405424,2180.97,2180.542,2176.803,2178.768,357.996307373047,44.9969596862793,0.801650404930115,-1.00391924381256,-0.431877762079239,0.611788034439087,-1.00916501115878,-0.434215511495054,0.616483157607448,0
2,-0.995186150074005,2.53760719299316,1.75156486034393,-0.993273599084619,2.53843849960327,1.75012222660065,2177.133,2177.78,2176.043,2178.585,358.063873291016,44.9967918395996,0.774492859840393,-1.01086604595184,-0.434854030609131,0.616143882274628,-1.01606400046349,-0.437183953857422,0.620697642517089,0
2.01998901367188,-1.01553761959076,2.52885270118713,1.7639719247818,-1.01365055070775,2.52967086658596,1.76257018837116,2174.895,2175.666,2175.161,2176.887,358.131927490234,44.9967002868652,0.746810734272003,-1.01757311820984,-0.4377281665802,0.620352387428284,-1.02270954399163,-0.440043345582587,0.624757301356767,0
2.03999328613281,-1.03601837158203,2.52004265785217,1.77645874023438,-1.03417354141348,2.52084039703127,1.77510736313833,2169.928,2172.57,2176.97,2175.951,358.202301025391,44.9968376159668,0.717677772045135,-1.02403604984283,-0.440499275922775,0.624342501163483,-1.02910913225408,-0.442796909628122,0.628666709962695,0
2.05999755859375,-1.0566234588623,2.51117920875549,1.78902649879456,-1.05482201812353,2.5119559343546,1.78772119534738,2173.736,2173.448,2169.999,2171.455,358.274078369141,44.9965782165527,0.689408779144287,-1.03025460243225,-0.443169265985489,0.628387868404388,-1.03525504859546,-0.445441325732794,0.632421154350513,0
2.08000183105469,-1.07734775543213,2.50226473808289,1.80166912078857,-1.07559088172821,2.50301967256038,1.80040857003175,2170.18,2170.678,2168.546,2171.317,358.345794677734,44.9964027404785,0.660864651203156,-1.03621661663055,-0.445727705955505,0.632132709026337,-1.04114485287423,-0.447975543971863,0.636019143875825,0
2.09999084472656,-1.09818637371063,2.49330115318298,1.81438338756561,-1.09645901288412,2.49404069871208,1.81315658571413,2168.02,2168.512,2167.27,2169.629,358.417755126953,44.9962959289551,0.631841778755188,-1.04192626476288,-0.448177605867386,0.635714173316956,-1.04677201701582,-0.450396755497224,0.639456690639761,0
2.1199951171875,-1.11913394927979,2.48429083824158,1.82716464996338,-1.11745308225396,2.48500753716864,1.82598153508617,2162.863,2165.376,2169.063,2168.653,358.491638183594,44.9964294433594,0.601412713527679,-1.04738032817841,-0.450518876314163,0.639060974121094,-1.0521429102862,-0.45270770082608,0.642737685527497,0
2.13999938964844,-1.14018535614014,2.4752357006073,1.8400137424469,-1.138551967509,2.47592927627801,1.83887051484687,2166.621,2166.154,2162.143,2164.036,358.566589355469,44.996166229248,0.571899235248566,-1.05257856845856,-0.452753633260727,0.642455339431763,-1.05725102347782,-0.454905579228273,0.645858152165725,0
2.15998840332031,-1.16133570671082,2.46613812446594,1.85292458534241,-1.15973418543027,2.46681515966915,1.85181040123298,2162.793,2163.333,2160.896,2163.823,358.641265869141,44.9960136413574,0.542174220085144,-1.05751156806946,-0.454873085021973,0.645539999008179,-1.06209075728,-0.456987981476842,0.64881467002292,0
2.17999267578125,-1.18257927894592,2.4570004940033,1.86589229106903,-1.18102676265167,2.45765355853653,1.86481770439342,2157.578,2159.76,2162.75,2163.171,358.717407226563,44.9961204528809,0.510985970497131,-1.06218206882477,-0.456879556179047,0.648385763168335,-1.06666760390386,-0.458957270716794,0.65161059420515,0
2.19999694824219,-1.20391118526459,2.44782495498657,1.8789176940918,-1.20240821395574,2.44845371736898,1.8778792993441,2161.123,2160.507,2156.123,2158.41,358.794250488281,44.9958686828613,0.480701297521591,-1.06658959388733,-0.458775877952576,0.651270568370819,-1.07097597819164,-0.460811043810786,0.654242512826705,0
2.22000122070313,-1.22532570362091,2.43861389160156,1.89199459552765,-1.22387315175433,2.43921795429519,1.89099189489151,2157.051,2157.603,2155.173,2158.179,358.870697021484,44.9957466125488,0.450167894363403,-1.07072722911835,-0.460554927587509,0.653843402862549,-1.07501419914593,-0.462548577472581,0.656709398992482,0
2.239990234375,-1.24681758880615,2.42936944961548,1.90511965751648,-1.24539969505118,2.42995568409656,1.90414212427648,2154.718,2155.41,2154.114,2156.286,358.947326660156,44.9957046508789,0.419259279966354,-1.07459914684296,-0.462220013141632,0.656252801418304,-1.07877792518082,-0.464168003639063,0.659008600495412,0
2.25999450683594,-1.26838171482086,2.42009401321411,1.918288230896,-1.26701526177039,2.4206551096063,1.91734673668097,2149.543,2152.225,2155.795,2155.294,359.026000976563,44.9958915710449,0.387035399675369,-1.07820308208466,-0.4637710750103,0.658428192138672,-1.08227143928024,-0.465671165158559,0.661142733743536,0
2.27999877929688,-1.29001235961914,2.41078972816467,1.93150115013123,-1.28869796983554,2.41132564607061,1.93059236468599,2153.469,2152.885,2148.682,2150.616,359.105682373047,44.9956588745117,0.355787307024002,-1.0815361738205,-0.465208768844604,0.660645842552185,-1.08549040888332,-0.467056197851165,0.663109152043028,0
2.29998779296875,-1.31170439720154,2.40145921707153,1.94475209712982,-1.31042570636616,2.40197680804417,1.9438654998779,2149.702,2150.094,2147.178,2150.391,359.184906005859,44.9955177307129,0.324410319328308,-1.08459270000458,-0.466525733470917,0.662548542022705,-1.08843144721369,-0.468321644481621,0.664905786465049,0
2.31999206542969,-1.333451628685,2.3921046257019,1.95803618431091,-1.33222611841886,2.3925966997709,1.95718303141218,2144.474,2146.511,2148.868,2149.77,359.265319824219,44.9956359863281,0.291637986898422,-1.08737528324127,-0.467724144458771,0.664204001426697,-1.09109790637238,-0.469468947365361,0.666534684755819,0
2.33999633789063,-1.35524940490723,2.38272857666016,1.97135400772095,-1.35407709248145,2.38319483607731,1.97053145048929,2148.064,2147.267,2142.251,2144.831,359.346099853516,44.9953994750977,0.259910851716995,-1.08988177776337,-0.468806356191635,0.665889084339142,-1.09348640563071,-0.470496651869278,0.667993781680938,0
2.36000061035156,-1.37709164619446,2.3733332157135,1.98469913005829,-1.37597305876702,2.37377361348711,1.98390735461333,2143.83,2144.236,2141.396,2144.726,359.426177978516,44.995288848877,0.22797304391861,-1.09210991859436,-0.46976712346077,0.667255818843842,-1.09559602313537,-0.471404361345641,0.669282514094601,0
2.37998962402344,-1.39897286891937,2.36392068862915,1.99806821346283,-1.39789168475144,2.36434264106153,1.9972971011938,2141.422,2142.08,2140.432,2142.744,359.506256103516,44.995288848877,0.195750445127487,-1.09406316280365,-0.470609903335571,0.668455481529236,-1.09742465646102,-0.47219117117957,0.670399597657984,0
2.39999389648438,-1.42088758945465,2.35449433326721,2.01145672798157,-1.41986083522252,2.35488992936084,2.01071771239474,2136.211,2138.957,2142.109,2141.732,359.588195800781,44.9955024719238,0.162340611219406,-1.09574091434479,-0.471335172653198,0.669420599937439,-1.09897439291323,-0.472857979480329,0.671346307473475,0
2.41999816894531,-1.44283044338226,2.34505558013916,2.02486515045166,-1.44185817738692,2.34542508756209,2.02415554546122,2140.358,2139.441,2134.906,2137.105,359.6708984375,44.995288848877,0.129931807518005,-1.0971382856369,-0.471942454576492,0.670426964759827,-1.10024313330221,-0.473403883025206,0.672121361178802,0
2.43998718261719,-1.46479535102844,2.33560705184937,2.03828740119934,-1.46386128162322,2.33595776650478,2.03759689848751,2136.428,2136.738,2133.498,2136.88,359.7529296875,44.9951705932617,0.0974620655179024,-1.09825360774994,-0.472426503896713,0.671111464500427,-1.10122974390336,-0.473828394004169,0.672724066199287,0
2.45999145507813,-1.48677718639374,2.3261513710022,2.05171847343445,-1.48589810917879,2.32647593524532,2.05105885256329,2131.298,2133.337,2135.087,2136.151,359.8359375,44.9953155517578,0.0637890994548798,-1.09908974170685,-0.472789704799652,0.671551883220673,-1.10193535162022,-0.474131997292339,0.673155110942729,0
2.47999572753906,-1.50876998901367,2.31669044494629,2.06515884399414,-1.50794623031618,2.31698924467309,2.06452770571198,2134.848,2133.805,2128.657,2131.417,359.919036865234,44.9951057434082,0.0311370026320219,-1.09964275360107,-0.47303318977356,0.672013580799103,-1.10235882472314,-0.474314205938057,0.673413804053135,0
2.5,-1.53076839447021,2.30722761154175,2.07860207557678,-1.52999999932945,2.30750012397766,2.0780000090599,2130.656,2131.084,2127.791,2131.089,0.00126345269382,44.9950332641602,-0.001517268945463,-1.09991431236267,-0.473153978586197,0.672160983085632,-1.10250000050292,-0.474374949932098,0.673500046133994,0
2.51998901367188,-1.55276656150818,2.29776453971863,2.09204483032227,-1.5520369476803,2.29801824074336,2.09146203692764,2128.35,2128.708,2126.781,2129.388,0.083246186375618,44.9950408935547,359.965545654297,-1.09990763664246,-0.473154604434967,0.67214161157608,-1.10235904000526,-0.474314298567936,0.67341393556562,0
2.53999328613281,-1.57475900650024,2.2883038520813,2.10548257827759,-1.57408507527774,2.28853154739156,2.10493089402267,2123.168,2125.768,2128.413,2128.351,0.16682057082653,44.9952774047852,359.931488037109,-1.09962296485901,-0.473036646842957,0.671887576580048,-1.10193578218388,-0.474132182551855,0.673155373967352,0
2.55999755859375,-1.59674024581909,2.27884793281555,2.11891603469849,-1.59612191359838,2.27904971150017,2.11839285467467,2127.246,2126.326,2121.49,2123.595,0.250910103321075,44.9950790405273,359.898590087891,-1.09905385971069,-0.472798883914948,0.671667695045471,-1.10123038958312,-0.473828671822132,0.672724460634977,0
2.58000183105469,-1.61870419979095,2.26939916610718,2.13233876228333,-1.61814182127198,2.26957516039323,2.13184447265859,2123.441,2123.547,2120.054,2123.556,0.334141790866852,44.9949798583984,359.86572265625,-1.09820318222046,-0.472437769174576,0.671134471893311,-1.10024313330221,-0.473403883025206,0.672121361178803,0
2.59999084472656,-1.6406455039978,2.25996017456055,2.14574718475342,-1.64012239440973,2.26011753383818,2.14527206178836,2121.29,2121.46,2118.784,2121.728,0.416829705238342,44.9949569702148,359.832702636719,-1.09707307815552,-0.471955537796021,0.670426726341248,-1.09897546783438,-0.47285844198887,0.671346964126033,0
2.6199951171875,-1.66255879402161,2.25053310394287,2.15913677215576,-1.66209156852628,2.2506648119635,2.15869268743396,2116.168,2118.401,2120.353,2120.924,0.500671148300171,44.995174407959,359.798645019531,-1.09566557407379,-0.471354126930237,0.669480562210083,-1.09742594550583,-0.472191725819537,0.67040038511534,0
2.63999938964844,-1.68443822860718,2.24112010002136,2.17250800132751,-1.68402693989188,2.24122663446822,2.17209266350648,2120.001,2118.935,2113.835,2116.171,0.584666669368744,44.9949913024902,359.765747070313,-1.0939736366272,-0.470632702112198,0.668559014797211,-1.09559602313537,-0.471404361345641,0.669282514094601,0
2.65998840332031,-1.7062783241272,2.23172450065613,2.18585467338562,-1.70590622088595,2.23181259109281,2.18545837484632,2116.122,2116.299,2112.648,2116.025,0.667657017707825,44.9949188232422,359.732971191406,-1.09200310707092,-0.469789385795593,0.667330682277679,-1.09348812118877,-0.470497390025984,0.667994829688588,0
2.67999267578125,-1.72807359695435,2.22234797477722,2.1991720199585,-1.72775723139253,2.2224107117184,2.19880681618649,2111.169,2112.894,2114.192,2115.57,0.751299321651459,44.9950942993164,359.699035644531,-1.08975672721863,-0.468826353549957,0.66586834192276,-1.09109983431736,-0.469469776906228,0.666535862507326,0
2.69999694824219,-1.74981808662415,2.21299314498901,2.2124605178833,-1.74955768413056,2.21303058593937,2.21212437257479,2114.712,2113.484,2108.126,2110.741,0.834711730480194,44.9949226379395,359.666290283203,-1.08722746372223,-0.467743754386902,0.664421498775482,-1.08843358680109,-0.468322565086308,0.664907093505606,0
2.72000122070313,-1.77150642871857,2.20366239547729,2.22571396827698,-1.77130202882336,2.20367460188472,2.22540765343382,2110.78,2110.875,2107.185,2110.578,0.916956841945648,44.9948768615723,359.633636474609,-1.08442330360413,-0.466541200876236,0.662675857543945,-1.08549040888332,-0.467056197851165,0.663109152043028,0
2.739990234375,-1.79313349723816,2.19435787200928,2.238929271698,-1.79296822271738,2.1943522439355,2.23864319318939,2108.549,2108.756,2106.272,2108.885,0.998603105545044,44.9949150085449,359.600952148438,-1.08134591579437,-0.465220659971237,0.660764396190643,-1.08227399942825,-0.465672266718727,0.661144297698006,0
2.75999450683594,-1.81469345092773,2.18508219718933,2.25210189819336,-1.81458384274179,2.18505164650952,2.2518478381572,2103.615,2105.899,2107.807,2108.107,1.08142113685608,44.9951629638672,359.567321777344,-1.07799828052521,-0.463784366846085,0.65862911939621,-1.07878069424208,-0.464169195088763,0.659010292071722,0
2.77999877929688,-1.83618080615997,2.17583727836609,2.26523232460022,-1.83612684690458,2.17578229366013,2.2650081232283,2107.696,2106.4,2101.291,2103.482,1.16428637504578,44.9949951171875,359.534942626953,-1.07437109947205,-0.46222996711731,0.656522274017334,-1.07501419914593,-0.462548577472581,0.656709398992482,0
2.79998779296875,-1.85759043693542,2.16662645339966,2.2783145904541,-1.85757544288233,2.1665535620153,2.27811073581237,2104.027,2103.936,2099.983,2103.438,1.24594879150391,44.994930267334,359.502777099609,-1.07047379016876,-0.460557222366333,0.654116690158844,-1.07097916161324,-0.460812413548163,0.654244457529281,0
2.81999206542969,-1.8789165019989,2.15745115280151,2.291344165802,-1.87895695992541,2.1573536925621,2.29117237092199,2099.296,2100.699,2101.402,2103.094,1.32791614532471,44.9951019287109,359.469573974609,-1.06630897521973,-0.458768159151077,0.651482820510864,-1.06667099276523,-0.458958728849171,0.651612664407684,0
2.83999633789063,-1.90015387535095,2.14831399917603,2.3043212890625,-1.90024960698239,2.14819206138118,2.30417971674389,2102.792,2101.331,2095.658,2098.332,1.40926969051361,44.9949417114258,359.437652587891,-1.06186866760254,-0.456862360239029,0.648859739303589,-1.06209435025759,-0.456989527434725,0.648816864916866,0
2.86000061035156,-1.92129719257355,2.13921689987183,2.3172402381897,-1.9214480311499,2.13907097167731,2.31712950327294,2098.879,2098.761,2094.932,2098.346,1.48920893669128,44.9949150085449,359.405914306641,-1.05716454982758,-0.454841405153275,0.645947813987732,-1.05725102347782,-0.454905579228273,0.645858152165725,0
2.87998962402344,-1.94234108924866,2.13016271591187,2.33009791374207,-1.94253086194772,2.12999961857111,2.33000867561624,2096.717,2096.848,2094.199,2096.649,1.56836438179016,44.9949798583984,359.374267578125,-1.05219793319702,-0.452707201242447,0.642878293991089,-1.05214690704168,-0.452709420518306,0.642740127083052,0
2.89999389648438,-1.96328043937683,2.12115383148193,2.34289002418518,-1.96352501326936,2.1209664217661,2.34283367505136,2092.188,2094.123,2095.533,2096.006,1.64841139316559,44.9952392578125,359.341796875,-1.04697251319885,-0.450462162494659,0.639601826667786,-1.04677621342161,-0.450398561093403,0.639459254158576,0
2.91999816894531,-1.98411011695862,2.11219167709351,2.3556170463562,-1.98440911693069,2.11198057539494,2.35559144808806,2096.14,2094.548,2089.399,2091.631,1.72818648815155,44.9950866699219,359.310577392578,-1.04147839546204,-0.448103457689285,0.636347234249115,-1.04114485287423,-0.447975543971863,0.636019143875825,0
2.93998718261719,-2.0048246383667,2.10327911376953,2.36827325820923,-2.00516218376194,2.10305111051103,2.36826917277004,2092.567,2092.307,2088.266,2091.61,1.80657029151917,44.9950370788574,359.279632568359,-1.03572821617126,-0.445632725954056,0.632807910442352,-1.03525963910674,-0.445443300901551,0.632423958622216,0
2.95999145507813,-2.02541923522949,2.09441804885864,2.38085436820984,-2.02581075424974,2.0941666074844,2.38088306226645,2088.153,2089.432,2089.589,2091.196,1.88500881195068,44.9952278137207,359.247985839844,-1.02972447872162,-0.443051904439926,0.629055619239807,-1.02911391720548,-0.442798968459032,0.628669633014836,0
2.97999572753906,-2.04588866233826,2.08561086654663,2.39336061477661,-2.04633384260397,2.08533609591429,2.39342029668558,2091.53,2089.806,2084.26,2086.877,1.96258914470673,44.9950904846191,359.217529296875,-1.02345860004425,-0.44035992026329,0.625310957431793,-1.02271452148052,-0.440045487257004,0.624760342027062,0
3,-2.06622743606567,2.07685971260071,2.40578651428223,-2.06672639957428,2.07656174835205,2.40587779151916,2087.878,2087.518,2083.571,2086.873,2.03858041763306,44.9950790405273,359.187377929688,-1.0169450044632,-0.437559723854065,0.621296584606171,-1.01606400046349,-0.437183953857422,0.620697642517089,0
3.01998901367188,-2.08643126487732,2.06816673278809,2.41812920570374,-2.0869680292999,2.06785234056679,2.41824308725414,2086.001,2085.764,2082.797,2085.3,2.11350440979004,44.9951400756836,359.157409667969,-1.01018440723419,-0.434652924537659,0.617136180400848,-1.00917036754089,-0.434217816196637,0.616486429737696,0
3.03999328613281,-2.10649466514587,2.0595338344574,2.43038463592529,-2.10708469520508,2.05919670122237,2.43053204454123,2081.618,2083.269,2084.171,2084.789,2.18895268440247,44.9954032897949,359.126831054688,-1.00318217277527,-0.431642591953278,0.612777292728424,-1.00202586176059,-0.431143734953757,0.612121962644322,0
3.05999755859375,-2.12641310691833,2.05096340179443,2.44255352020264,-2.12705600675913,2.05060360379452,2.44273220712343,2085.412,2083.76,2078.562,2080.543,2.26385021209717,44.9952850341797,359.097564697266,-0.995927572250366,-0.428525626659393,0.608439862728119,-0.994638524886308,-0.427965170275055,0.607609153824944,0
3.08000183105469,-2.1461820602417,2.04245710372925,2.45463037490845,-2.14687713595163,2.04207512564123,2.45484062564451,2082.194,2081.535,2077.448,2080.759,2.3371524810791,44.9952507019043,359.068664550781,-0.988436162471771,-0.425304859876633,0.603841781616211,-0.987011339258122,-0.424683405378145,0.60294982514457,0
3.09999084472656,-2.16579604148865,2.03401780128479,2.46661233901978,-2.16652837486666,2.03361974652815,2.46684526084616,2080.382,2079.865,2076.634,2079.365,2.40916752815247,44.9953002929688,359.039978027344,-0.980708599090576,-0.421981573104858,0.599094390869141,-0.979153483542501,-0.421302389586788,0.598149583707317,0
3.1199951171875,-2.18525099754333,2.02564668655396,2.47849559783936,-2.18603502400946,2.02522658035469,2.47876156841225,2076.455,2077.585,2077.735,2078.802,2.48126292228699,44.9955177307129,359.0107421875,-0.9727503657341,-0.4185591340065,0.594160914421082,-0.971056158224178,-0.417818336715394,0.593203054026623,0
3.13999938964844,-2.20454216003418,2.01734590530396,2.49028038978577,-2.20537738341953,2.01690410346351,2.49057751394429,2079.783,2077.994,2072.718,2074.834,2.55245208740234,44.995418548584,358.982879638672,-0.964552104473114,-0.415035277605057,0.589235544204712,-0.962728579444533,-0.414235212212131,0.588115866099442,0
3.15998840332031,-2.2236647605896,2.009117603302,2.50196170806885,-2.22453632143911,2.00866054767245,2.50228141021112,2076.625,2075.962,2071.882,2074.96,2.62192749977112,44.9954071044922,358.955444335938,-0.956130266189575,-0.411413609981537,0.584066033363342,-0.954180774018563,-0.410557330335374,0.582894145150591,0
3.17999267578125,-2.24261426925659,2.00096368789673,2.51353597640991,-2.24353658854737,2.00048526354177,2.51388837689424,2072.709,2073.548,2073.153,2074.641,2.69104480743408,44.9956130981445,358.927520751953,-0.947487711906433,-0.407696336507797,0.578712165355682,-0.945403214201559,-0.406780591562751,0.577532070829503,0
3.19999694824219,-2.26138687133789,1.99288582801819,2.52500343322754,-2.2623590635174,1.99238647840124,2.5253867331345,2075.929,2073.887,2068.501,2070.801,2.75893521308899,44.9955177307129,358.900939941406,-0.938615560531616,-0.403881669044495,0.573368608951569,-0.936405971974636,-0.402909329586355,0.572035795952272,0
3.22000122070313,-2.27997756004333,1.98488640785217,2.53635931015015,-2.28099938900442,1.98436606709459,2.53677381709797,2072.635,2071.931,2068.022,2070.969,2.82501029968262,44.9955406188965,358.874755859375,-0.929531574249268,-0.399974435567856,0.567788660526276,-0.927192788821982,-0.398945154262308,0.566407606133204,0
3.239990234375,-2.29838228225708,1.97696685791016,2.54760098457336,-2.2994392795179,1.97643189735754,2.54803845846384,2071.205,2070.433,2067.31,2069.666,2.88968896865845,44.9956245422363,358.848876953125,-0.920235812664032,-0.395975798368454,0.562088012695313,-0.917774783907129,-0.394892849856044,0.560654293895788,0
3.25999450683594,-2.3165967464447,1.96912932395935,2.55872535705566,-2.31770268688992,1.96857366338589,2.55919528903255,2067.493,2068.508,2068.458,2069.196,2.95429015159607,44.9958686828613,358.82275390625,-0.910735011100769,-0.391889423131943,0.556218087673187,-0.90814153446928,-0.390747931744771,0.554769492138098,0
3.27999877929688,-2.33461713790894,1.96137499809265,2.56973266601563,-2.33577134012187,1.96079922667992,2.57023314733618,2070.936,2068.805,2063.709,2065.657,3.01779580116272,44.9957809448242,358.797912597656,-0.90101945400238,-0.387712180614471,0.550366401672363,-0.898304216251578,-0.386515208538549,0.548760027947228,0
3.29998779296875,-2.35243916511536,1.95370602607727,2.58061838150024,-2.35362764460945,1.95311615770631,2.58114128510551,2068.047,2067.103,2062.952,2065.847,3.07939648628235,44.9957809448242,358.773651123047,-0.891107380390167,-0.383448839187622,0.544291496276855,-0.888274735793772,-0.382199803288803,0.542633174842512,0
3.31999206542969,-2.37005949020386,1.94612383842468,2.59137940406799,-2.37129490830989,1.94551442770222,2.59193394080789,2064.633,2064.986,2064.068,2065.629,3.14026308059692,44.9959754943848,358.749084472656,-0.881001770496368,-0.379101425409317,0.538054227828979,-0.878042061913513,-0.37779696958594,0.536382194046788,0
3.33999633789063,-2.38747310638428,1.9386305809021,2.60201597213745,-2.38875555478454,1.93800159931817,2.60260037727124,2067.472,2065.254,2060.107,2062.264,3.199627161026,44.9959030151367,358.725799560547,-0.870694816112518,-0.374668657779694,0.531824052333832,-0.867618167158097,-0.373311858882592,0.530014399402376,0
3.36000061035156,-2.40467739105225,1.93122744560242,2.61252379417419,-2.406005803634,1.93057929915441,2.61313828510855,2064.838,2063.702,2059.522,2062.305,3.25691246986389,44.9959259033203,358.703125,-0.86020439863205,-0.370155900716782,0.525394916534424,-0.857007552155826,-0.36874640767338,0.523532540272868,0
3.37998962402344,-2.42166805267334,1.92391610145569,2.62290072441101,-2.42302905329872,1.92325467039821,2.62353752268616,2063.272,2062.338,2059.203,2061.358,3.31254863739014,44.9960327148438,358.680877685547,-0.849532425403595,-0.365564703941345,0.518850684165955,-0.846223126656603,-0.364106170663035,0.516944503023036,0
3.39999389648438,-2.43844151496887,1.91669821739197,2.63314414024353,-2.43984769972619,1.91601807669906,2.63381177133889,2060.177,2060.713,2060.219,2060.934,3.36776351928711,44.9962539672852,358.658508300781,-0.83868533372879,-0.360898643732071,0.51216858625412,-0.835253140422974,-0.35938609205264,0.510243109616171,0
3.41999816894531,-2.45499467849731,1.90957498550415,2.64325428009033,-2.45644516534361,1.90887665092339,2.64395090408624,2063.299,2061.027,2056.105,2057.832,3.4216160774231,44.9961891174316,358.637512207031,-0.827654957771301,-0.356155067682266,0.5055051445961,-0.824110582941664,-0.354591760855451,0.503436295127018,0
3.43998718261719,-2.47132396697998,1.90254807472229,2.65322732925415,-2.47280564474684,1.90183719369507,2.65394526565342,2060.832,2059.559,2055.465,2058.118,3.47339296340942,44.9962120056152,358.617126464844,-0.816460072994232,-0.351339399814606,0.498651027679443,-0.812809078412023,-0.349729039183832,0.496532382366361,0
3.45999145507813,-2.48742628097534,1.89561903476715,2.66306042671204,-2.48895081463434,1.8948903781363,2.66380809799729,2057.884,2057.812,2056.498,2057.977,3.52410793304443,44.996395111084,358.5966796875,-0.80510413646698,-0.346453785896301,0.491659075021744,-0.80133641229185,-0.344792671461508,0.489523909660973,0
3.47999572753906,-2.50329780578613,1.88878917694092,2.67275404930115,-2.50486489870395,1.88804299234919,2.67352976362102,2060.567,2058.078,2053.046,2055.072,3.57302832603455,44.9963531494141,358.577484130859,-0.793580412864685,-0.341497033834457,0.484680026769638,-0.789706299681989,-0.339788558913217,0.482419255351936,0
3.5,-2.51893591880798,1.8820595741272,2.6823046207428,-2.5205447997813,1.88129636896134,2.68310837050915,2058.215,2056.835,2052.69,2055.189,3.61967802047729,44.996395111084,358.559020996094,-0.781907498836517,-0.336475223302841,0.477530092000961,-0.777924000354857,-0.334718964672089,0.475221632552147,0
3.51998901367188,-2.53433752059937,1.87543177604675,2.69171047210693,-2.53597583877076,1.87465682397749,2.69253495143119,2057.002,2055.764,2052.463,2054.374,3.66443419456482,44.9965019226074,358.541137695313,-0.770087599754333,-0.331389904022217,0.470289498567581,-0.766004036374581,-0.329590137176618,0.467939912563966,0
3.53999328613281,-2.54949998855591,1.8689067363739,2.70096921920776,-2.55117869390181,1.86811546013321,2.70182213839487,2054.387,2054.365,2053.414,2054.187,3.70834541320801,44.9967231750488,358.523345947266,-0.758128106594086,-0.32624489068985,0.462936252355576,-0.753933682518821,-0.324396601119134,0.46056632174764,0
3.55999755859375,-2.56442070007324,1.8624861240387,2.71008133888245,-2.56613872308604,1.86167857751006,2.71096098677687,2057.086,2054.722,2050.072,2051.555,3.75063800811768,44.996696472168,358.506896972656,-0.746022701263428,-0.321038335561752,0.455603808164597,-0.741727567798258,-0.319144650954242,0.45310979673751,0
3.57998657226563,-2.57909631729126,1.85617089271545,2.71904373168945,-2.58084213759183,1.85535210901407,2.7199430732562,2055.175,2053.484,2049.517,2051.946,3.79068470001221,44.9967308044434,358.491088867188,-0.733789443969727,-0.315775603055954,0.448120594024658,-0.72940084364523,-0.31384080592,0.445579593307163,0
3.59999084472656,-2.59352517127991,1.84996163845062,2.72785425186157,-2.59530884290342,1.84912748987145,2.72878055778257,2052.824,2052.238,2050.387,2051.788,3.82928156852722,44.9969024658203,358.475494384766,-0.721432566642761,-0.310459345579147,0.440528273582458,-0.716940488958392,-0.308479463400265,0.437967757068975,0
3.6199951171875,-2.60770416259766,1.84385979175568,2.73651313781738,-2.60952509409627,1.84301063413925,2.73746504379605,2055.02,2052.539,2047.724,2049.431,3.86583495140076,44.9968872070313,358.461212158203,-0.708948016166687,-0.305089056491852,0.432949364185333,-0.704361775018033,-0.303067194200314,0.43028361700977,0
3.63999938964844,-2.62163114547729,1.83786654472351,2.74501800537109,-2.6234885835008,1.83700253474321,2.74599512157732,2053.176,2051.514,2047.525,2049.682,3.89999270439148,44.9969520568848,358.447692871094,-0.696353256702423,-0.299670577049255,0.425239741802216,-0.691670720740692,-0.297606588091786,0.422530849991739,0
3.65998840332031,-2.63530421257019,1.83198213577271,2.75336742401123,-2.63718676607487,1.8311085894645,2.7543631275559,2052.37,2050.695,2047.343,2049.113,3.93202137947083,44.9970550537109,358.434875488281,-0.683651268482208,-0.294205725193024,0.417466282844543,-0.678883253871145,-0.292104498338286,0.414719186025619,0
3.67999267578125,-2.64872121810913,1.82620811462402,2.76155948638916,-2.65063849381582,1.82532068681534,2.76258057812278,2050.155,2049.76,2048.33,2048.987,3.962815284729,44.9972648620605,358.422393798828,-0.670850396156311,-0.288698732852936,0.409605026245117,-0.665986083416798,-0.286555206197011,0.406840505851433,0
3.69999694824219,-2.66188025474548,1.82054531574249,2.76959490776062,-2.66383127580226,1.81964420129024,2.77063984276899,2052.682,2050.045,2045.582,2046.968,3.99169015884399,44.9972686767578,358.411193847656,-0.657946109771729,-0.283148139715195,0.401776552200317,-0.65299527533123,-0.280965624398954,0.398904623909523,0
