t,x_s1,x_s2,x_s3,x_s_d1,x_s_d2,x_s_d3,propellers_rpms1,propellers_rpms2,propellers_rpms3,propellers_rpms4,rollRad,pitchRad,yawRad,v_s1,v_s2,v_s3,v_s_d1,v_s_d2,v_s_d3,insideCount
0,-0.0599999986588955,2.94000005722046,1.17999994754791,-0.0599999986588955,2.94000005722046,1.17999994754791,0,0,0,0,0,45.0048027038574,0,0,0,0,-1.06581410364015E-15,4.44089209850063E-16,-7.105427357601E-16,0
0.019989013671875,-0.0599999986588955,2.94000005722046,1.17705690860748,-0.0600018659130177,2.93999925379318,1.18000108822432,0,0,0,0,0.937003672122955,44.8630027770996,-0.00115976633969694,3.71994488546079E-08,3.50004931704007E-08,-0.147149950265884,-0.000279680311988734,-0.000120338624884473,0.000170852338267345,5
0.03997802734375,-0.0599999986588955,2.94000005722046,1.17018985748291,-0.060014847005691,2.93999366839165,1.18000901817127,0,0,0,0,1.87400352954865,44.7211418151855,-0.00311126722954214,3.70364325874561E-08,3.5142885934647E-08,-0.343349903821945,-0.00110975851463131,-0.000477498085781228,0.000677934159146771,6
0.05999755859375,-0.0599062256515026,2.94009447097778,1.16346502304077,-0.0600498857373401,2.93997859220429,1.18003042278566,3197.325,2848.704,1517.249,2782.322,1.40365922451019,44.7413520812988,0.0288782697170973,0.00468863174319267,0.00471880286931992,-0.336240500211716,-0.00247936261166862,-0.00106680046642749,0.00151460392977639,6
0.079986572265625,-0.0597377754747868,2.94026732444763,1.15723752975464,-0.0601174907153006,2.93994950367094,1.18007172161174,2866.013,2651.907,2344.175,2562.079,0.339566051959991,44.8157997131348,0.0999031513929367,0.00842245481908321,0.00864478945732117,-0.311372131109238,-0.00437104534358026,-0.00188073869847162,0.0026702033915743,6
0.100006103515625,-0.0595562905073166,2.94046425819397,1.15151929855347,-0.0602282404704493,2.93990185114529,1.18013937690895,2239.444,2527.902,3138.338,2508.833,359.321472167969,44.919116973877,0.178560763597488,0.00907422322779894,0.00984908081591129,-0.285909205675125,-0.00677739276378709,-0.00291612276782231,0.00414020348026766,5
0.1199951171875,-0.0594243966042995,2.94063210487366,1.146568775177,-0.0603918861403606,2.93983143898525,1.18023934549506,2124.257,2454.974,3351.492,2464.2,358.749755859375,44.9998626708984,0.253461509943008,0.00659478455781937,0.00839804578572512,-0.247523859143257,-0.00967801353495435,-0.00416417885169243,0.00591214744607921,5
0.139984130859375,-0.059383001178503,2.94074010848999,1.1425701379776,-0.0606183773949454,2.93973398612584,1.18037770546816,2311.698,2456.411,3069.61,2463.62,358.635955810547,45.0326805114746,0.3264379799366,0.00206980342045426,0.00539857149124146,-0.19993132352829,-0.0130632593357409,-0.00562075554695178,0.00798014128006072,5
0.160003662109375,-0.0594433955848217,2.9407856464386,1.13952374458313,-0.0609177895434042,2.93960515744296,1.18056061167741,2536.507,2486.669,2635.673,2491.901,358.757019042969,45.0250244140625,0.398146063089371,-0.00301971007138491,0.00227876985445619,-0.152317598462105,-0.0169265510445065,-0.00728302204135792,0.0103401658994673,5
0.17999267578125,-0.0596001446247101,2.94078159332275,1.13730895519257,-0.0612985250199726,2.93944133760391,1.18079319703879,2667.268,2506.407,2301.779,2512.914,358.864349365234,44.9985275268555,0.467462569475174,-0.00783749390393496,-0.000198534224182367,-0.110739216208458,-0.0212433804254414,-0.00914043312572283,0.0129772496054864,5
0.199981689453125,-0.0598477274179459,2.94073987007141,1.13576066493988,-0.0617700327574899,2.93923846099686,1.18108123375791,2652.997,2499.879,2183.642,2508.931,358.817077636719,44.9744071960449,0.532884418964386,-0.0123791377991438,-0.0020914850756526,-0.0774162411689758,-0.0260066742439309,-0.011189945384795,0.0158870714694674,5
0.220001220703125,-0.0601896792650223,2.94066214561462,1.13474488258362,-0.0623420644491781,2.93899233174064,1.18143067899198,2540.245,2470.423,2245.923,2478.921,358.612701416016,44.9637107849121,0.594415485858917,-0.0170976389199495,-0.00388133060187101,-0.0507879182696342,-0.03121219533433,-0.0134297356845702,0.0190670430730375,5
0.239990234375,-0.0606389530003071,2.9405415058136,1.13419330120087,-0.0630214373585105,2.93870001655724,1.18184569730089,2412.63,2430.167,2373.286,2436.931,358.334808349609,44.9658699035645,0.652739763259888,-0.0224636252969503,-0.00603189738467336,-0.027579054236412,-0.0368316683029241,-0.015847637913056,0.0224998914194052,5
0.259979248046875,-0.0612133145332336,2.94036602973938,1.13409018516541,-0.0638172488896441,2.93835760108779,1.18233184614686,2328.93,2391.629,2463.083,2399,358.076354980469,44.9738883972168,0.707738637924194,-0.028718089684844,-0.00876786559820175,-0.00515642948448658,-0.0428604193878216,-0.0184416410810803,0.0261827613803636,4
0.279998779296875,-0.061929851770401,2.94012498855591,1.13444006443024,-0.0647390625194898,2.93796097043536,1.18289496770872,2305.505,2364.989,2470.485,2370.639,357.887298583984,44.980354309082,0.760380804538727,-0.0358268655836582,-0.0120559697970748,0.0174946282058954,-0.0492963837173861,-0.0212108567320638,0.0301143915580518,4
0.29998779296875,-0.062801405787468,2.93981075286865,1.13523626327515,-0.0657918945890516,2.93750796620855,1.18353812639089,2318.5,2348.747,2414.7,2353.019,357.765197753906,44.9817428588867,0.81139200925827,-0.0435776859521866,-0.0157066099345684,0.0398076176643372,-0.0561078595514081,-0.0241416444928383,0.0342754158540715,4
0.32000732421875,-0.0638362094759941,2.93942022323608,1.13644886016846,-0.0669865614821475,2.93699393441958,1.18426792975347,2333.942,2336.07,2343.338,2342.154,357.6787109375,44.9788589477539,0.859976410865784,-0.0517400242388248,-0.0195229258388281,0.0606295838952065,-0.0633036493784043,-0.0272377918282996,0.0386712115712976,4
0.339996337890625,-0.0650398582220078,2.93895220756531,1.13803613185883,-0.068326768706371,2.93641728069206,1.18508664143323,2338.827,2325.207,2285.887,2329.575,357.594268798828,44.9741058349609,0.906774759292603,-0.0601826272904873,-0.0234036687761545,0.0793658867478371,-0.0708499516420146,-0.0304847548730522,0.0432811298664125,4
0.3599853515625,-0.0664173737168312,2.93840527534485,1.13995027542114,-0.0698213312158394,2.93577421219747,1.18599964634808,2321.166,2310.076,2262.664,2316.466,357.494262695313,44.9703254699707,0.950806200504303,-0.0688757076859474,-0.027340903878212,0.0957074090838432,-0.0787457139191101,-0.0338820807988248,0.0481045278305496,4
0.3800048828125,-0.0679746866226196,2.93777751922607,1.14215314388275,-0.0714797725314022,2.93506063123087,1.18701276226829,2295.205,2294.254,2261.513,2299.444,357.3798828125,44.9686088562012,0.992531836032867,-0.0778657421469688,-0.0313892811536789,0.110142387449741,-0.0869921272359981,-0.0374302820709642,0.0531421330430943,4
0.399993896484375,-0.0697186961770058,2.93706560134888,1.14461696147919,-0.0733036822025899,2.9342758538535,1.18812696022487,2270.027,2278.517,2267.059,2282.267,357.26171875,44.9687004089355,1.03257656097412,-0.0872005224227905,-0.0355993434786797,0.123192504048347,-0.0955525119207663,-0.0411135764513579,0.0583715384648505,4
0.41998291015625,-0.0716565698385239,2.93626594543457,1.14731991291046,-0.075301871434707,2.93341608884986,1.18934762284564,2247.94,2262.34,2271.752,2268.383,357.151977539063,44.9699172973633,1.06998789310455,-0.0968937650322914,-0.0399884134531021,0.135147422552109,-0.104427768518458,-0.0449323514193797,0.0637932942247324,4
0.44000244140625,-0.0737951844930649,2.93537497520447,1.15024733543396,-0.077483988232608,2.93247718495301,1.19068064394622,2237.639,2250.381,2263.978,2255.023,357.057250976563,44.9710731506348,1.10542118549347,-0.106930673122406,-0.0445474684238434,0.146368846297264,-0.113620829717891,-0.048887868829098,0.0694091918565748,4
0.459991455078125,-0.076140470802784,2.9343900680542,1.1533842086792,-0.0798493430620752,2.93145943885026,1.1921256023009,2233.732,2241.248,2247.122,2244.136,356.975830078125,44.9716110229492,1.13965475559235,-0.117264337837696,-0.0492415949702263,0.156841158866882,-0.123092454730403,-0.0529632444654124,0.0751952597749251,4
0.47998046875,-0.0786973536014557,2.93330931663513,1.15671110153198,-0.082406855753501,2.93035901258777,1.1936879468949,2226.64,2231.202,2233.478,2236.882,356.903442382813,44.9719085693359,1.17147660255432,-0.127844154834747,-0.0540337413549423,0.166346877813339,-0.132845337826091,-0.057159637597476,0.0811531438673414,4
0.5,-0.0814702957868576,2.93213105201721,1.1602121591568,-0.085166398670376,2.92917165836334,1.195373708601,2222.089,2223.966,2220.113,2228.191,356.836059570313,44.9720420837402,1.20150411128998,-0.138647139072418,-0.0589100942015648,0.175051495432854,-0.142884000065179,-0.0614789935111996,0.0872856059789651,5
0.519989013671875,-0.0844634026288986,2.93085384368896,1.16387176513672,-0.0881248588203387,2.92789871561062,1.19718098574075,2216.807,2217.718,2209.648,2220.079,356.770172119141,44.9722290039063,1.23052060604095,-0.149655431509018,-0.0638623461127281,0.182981491088867,-0.153166947611899,-0.0659034585682559,0.0935672981730243,5
0.53997802734375,-0.0876805558800697,2.92947602272034,1.1676732301712,-0.0912913676125048,2.92653625533937,1.19911535654949,2205.609,2209.108,2208.42,2214.652,356.705993652344,44.9729919433594,1.25713741779327,-0.160857632756233,-0.0688871368765831,0.190075054764748,-0.16369851368286,-0.0704348972306956,0.100000867543927,5
0.55999755859375,-0.0911257788538933,2.92799615859985,1.1716068983078,-0.094676112580471,2.92507989413848,1.20118304443252,2199.349,2203.488,2205.495,2207.277,356.645843505859,44.9740104675293,1.28212237358093,-0.172261148691177,-0.0739939659833908,0.196682542562485,-0.17448465888317,-0.0750758741803766,0.106589955332319,5
0.579986572265625,-0.0948029011487961,2.92641258239746,1.17566466331482,-0.0982734311149,2.92353206847056,1.20338059019015,2195.89,2199.257,2200.089,2201.032,356.589904785156,44.975025177002,1.30634951591492,-0.183855637907982,-0.0791786462068558,0.202888026833534,-0.185481935470438,-0.0798076950675377,0.113308019990364,5
0.600006103515625,-0.0987153053283691,2.92472410202026,1.17983603477478,-0.102098762959148,2.92188613504538,1.20571742572067,2188.316,2192.88,2199.885,2198.173,356.539154052734,44.9763107299805,1.3282995223999,-0.195620641112328,-0.0844289064407349,0.208569020032883,-0.196713446836865,-0.0846403006364086,0.120169175019836,5
0.6199951171875,-0.10286645591259,2.92292928695679,1.18411755561829,-0.106144683970236,2.92014528826426,1.208189015731,2188.836,2190.989,2193.058,2192.669,356.493255615234,44.9773597717285,1.34954655170441,-0.207557275891304,-0.089746318757534,0.214074730873108,-0.208134604141382,-0.0895545055543457,0.127146181793521,5
0.639984130859375,-0.107259154319763,2.92102694511414,1.18850028514862,-0.110420882305709,2.91830535958365,1.21080127856538,2183.027,2186.224,2192.709,2191.317,356.451782226563,44.978588104248,1.36860752105713,-0.219635233283043,-0.0951132029294968,0.219137638807297,-0.219752140575416,-0.0945532069255159,0.134243153512991,5
0.660003662109375,-0.111896261572838,2.91901636123657,1.19298136234283,-0.114938248900541,2.91636166293851,1.21356086732604,2182.65,2184.652,2188.98,2187.706,356.414733886719,44.9797172546387,1.38637030124664,-0.231855466961861,-0.100531756877899,0.224054217338562,-0.231574097577923,-0.0996398647564507,0.141465002567821,5
0.67999267578125,-0.116780325770378,2.91689658164978,1.19755780696869,-0.119686638739014,2.91431856344567,1.2164615845812,2183.686,2184.112,2183.68,2184.943,356.380035400391,44.9806480407715,1.40379023551941,-0.244203343987465,-0.105994112789631,0.228823304176331,-0.243554411173546,-0.104794659005432,0.14878358919428,5
0.699981689453125,-0.12191353738308,2.91466689109802,1.20222294330597,-0.124676182095571,2.91217170233105,1.21950961875744,2178.072,2180.36,2186.524,2185.411,356.347778320313,44.9818878173828,1.41903305053711,-0.256660342216492,-0.111490041017532,0.233256787061691,-0.25570106256044,-0.110021023759057,0.156203788981777,5
0.720001220703125,-0.12729823589325,2.91232633590698,1.20697677135468,-0.129918284978346,2.90991617190799,1.22271193760712,2178.374,2180.094,2185.515,2182.98,356.319122314453,44.983097076416,1.43304514884949,-0.269235700368881,-0.117028020322323,0.237692147493362,-0.268023157655716,-0.11532287703907,0.163731164592979,5
0.739990234375,-0.132936581969261,2.90987420082092,1.21181929111481,-0.135400001298574,2.90755754251682,1.22606063256665,2180.518,2180.961,2181.99,2181.252,356.292663574219,44.9840965270996,1.44694674015045,-0.281917244195938,-0.122602067887783,0.242126166820526,-0.280473432677602,-0.12067988256057,0.171336843321139,5
0.759979248046875,-0.138830289244652,2.90731024742126,1.21674609184265,-0.141131974150567,2.90509123473139,1.22956220533626,2175.855,2178.154,2186.268,2183.087,356.268920898438,44.9853935241699,1.4587219953537,-0.294685363769531,-0.12820103764534,0.246342420578003,-0.293060978423328,-0.126095951839638,0.179026378592425,5
0.779998779296875,-0.144981279969215,2.90463352203369,1.22175979614258,-0.147126184485884,2.90251209348295,1.2332239748923,2177.745,2179.073,2185.606,2181.727,356.248901367188,44.9865493774414,1.46937203407288,-0.307549953460693,-0.133832991123199,0.25068387389183,-0.305795832832518,-0.131575403921268,0.186805902427515,5
0.79998779296875,-0.151391208171844,2.90184378623962,1.22686207294464,-0.153366821193532,2.89982692185086,1.23703628247379,2181.33,2181.12,2182.113,2180.968,356.230804443359,44.9874382019043,1.48010492324829,-0.320496767759323,-0.139490485191345,0.255116581916809,-0.318629798715703,-0.137097500901303,0.194645971915464,5
0.82000732421875,-0.158061310648918,2.8989405632019,1.23204982280731,-0.159875221826383,2.89702653888221,1.24101216285881,2177.271,2178.979,2187.171,2183.908,356.214813232422,44.9886169433594,1.4887136220932,-0.333505064249039,-0.145161524415016,0.259388953447342,-0.331592781842754,-0.14267511039705,0.202564856024417,5
0.839996337890625,-0.164993152022362,2.89592337608337,1.23732841014862,-0.166633637018892,2.89411858163313,1.24514077323692,2182.622,2182.216,2184.074,2182.224,356.200836181641,44.9894790649414,1.49733936786652,-0.346592277288437,-0.150858327746391,0.263931721448898,-0.344636106234817,-0.148287288494656,0.210532819358465,5
0.8599853515625,-0.172187700867653,2.89279198646545,1.24269533157349,-0.173653699721778,2.89109804476993,1.2494292199962,2178.698,2180.643,2189.715,2185.382,356.189208984375,44.9906234741211,1.50392270088196,-0.359727382659912,-0.15656453371048,0.268345564603806,-0.357770416714212,-0.153938615363784,0.218556364673454,5
0.8800048828125,-0.179646179080009,2.88954615592957,1.24815535545349,-0.180948461186242,2.88795931270381,1.25388547594233,2181.976,2182.839,2189.6,2184.958,356.180999755859,44.9915962219238,1.50961184501648,-0.372923821210861,-0.162289902567863,0.273001819849014,-0.371007022483504,-0.159633957038354,0.226642400584755,5
0.899993896484375,-0.187369525432587,2.88618564605713,1.25371217727661,-0.18849723509595,2.8847112861788,1.25849690412748,2186.873,2185.937,2186.275,2185.151,356.174011230469,44.9922485351563,1.51565873622894,-0.386167019605637,-0.168026491999626,0.277841120958328,-0.384296738353309,-0.165352150505452,0.234760880627692,5
0.91998291015625,-0.195358216762543,2.88271045684814,1.25936341285706,-0.196312316554895,2.88134867495511,1.2632710154388,2182.893,2184.258,2192.608,2189.145,356.168487548828,44.9932136535645,1.51959621906281,-0.399435102939606,-0.173762053251266,0.28256356716156,-0.397650971463704,-0.171098103938772,0.242918773246135,5
0.94000244140625,-0.203613132238388,2.87912034988403,1.26511454582214,-0.204407453948074,2.87786556348678,1.26821620855017,2186.224,2186.789,2193.146,2188.874,356.165771484375,44.9940338134766,1.52265286445618,-0.412744849920273,-0.179509103298187,0.287558406591415,-0.411081631631503,-0.176876941799768,0.251123353961324,5
0.959991455078125,-0.212134778499603,2.87541508674622,1.2709698677063,-0.212759000778906,2.87427212620069,1.27331803818581,2191.232,2190.215,2190.253,2189.131,356.163940429688,44.9945487976074,1.52619361877441,-0.426083028316498,-0.185261026024818,0.292764395475388,-0.424539267042903,-0.182667386354485,0.259344413431889,5
0.97998046875,-0.220923334360123,2.87159490585327,1.27692711353302,-0.221379956358585,2.87056276985637,1.27858444542207,2186.951,2188.507,2197.301,2193.385,356.163513183594,44.995418548584,1.5276266336441,-0.439427614212036,-0.191005617380142,0.297863274812698,-0.438035925118965,-0.188474621271639,0.267589311239359,5
1,-0.229979276657104,2.8676598072052,1.28299236297607,-0.230284798736574,2.86673126495361,1.28402427467346,2190.571,2191.193,2197.814,2193.151,356.166076660156,44.9961318969727,1.52823412418365,-0.452796846628189,-0.196756035089493,0.303263455629349,-0.451584000205995,-0.194303979492187,0.275865618896484,5
1.01998901367188,-0.239302799105644,2.863609790802,1.28917014598846,-0.239446912293295,2.86278906344998,1.2896212668733,2195.974,2194.799,2194.48,2193.442,356.169464111328,44.9964904785156,1.52944445610046,-0.466176241636276,-0.202504858374596,0.30888968706131,-0.46513400752272,-0.200134169097193,0.284143106922576,5
1.03997802734375,-0.248893648386002,2.85944509506226,1.2954580783844,-0.248880035413094,2.85873025410248,1.2953838145862,2191.461,2192.93,2201.627,2197.912,356.174163818359,44.9972229003906,1.52850258350372,-0.479542285203934,-0.208238646388054,0.314396023750305,-0.478698517198992,-0.205970598662363,0.292429454213812,5
1.05999755859375,-0.258751899003983,2.85516571998596,1.30186223983765,-0.258599401509697,2.85454828239877,1.3013212236669,2195.182,2195.685,2201.924,2197.545,356.181701660156,44.9977798461914,1.5267767906189,-0.49291455745697,-0.213971644639969,0.320208251476288,-0.492290296490434,-0.211818761581115,0.30073246008742,5
1.07998657226563,-0.268877446651459,2.8507719039917,1.30838704109192,-0.268575430648764,2.85025587575821,1.30741542419509,2200.633,2199.351,2198.293,2197.668,356.189819335938,44.9979782104492,1.52579379081726,-0.506278276443481,-0.219696208834648,0.326241582632065,-0.50586005237609,-0.217657448443621,0.309022012206103,5
1.10000610351563,-0.279269635677338,2.84626388549805,1.31502962112427,-0.278838480013141,2.84583997233313,1.31368496090006,2195.619,2197.144,2205.689,2202.216,356.199096679688,44.9985847473145,1.52261745929718,-0.519609689712524,-0.22539883852005,0.332132041454315,-0.519441457145546,-0.223501147495394,0.317318680446121,5
1.1199951171875,-0.28992834687233,2.84164190292358,1.32179808616638,-0.289357002179081,2.84131414609862,1.32011056195293,2202.833,2201.712,2201.809,2200.372,356.209655761719,44.9987831115723,1.52004039287567,-0.532936275005341,-0.23109732568264,0.338423311710358,-0.532985466132485,-0.229328756186667,0.32559250418615,5
1.13998413085938,-0.30085277557373,2.83690643310547,1.32868921756744,-0.300146026259498,2.83667193044725,1.32670140840426,2197.629,2199.65,2209.021,2204.6,356.222045898438,44.9993629455566,1.51532387733459,-0.546219646930695,-0.236771389842033,0.344558298587799,-0.546505271550557,-0.235145950758426,0.333851542343647,5
1.16000366210938,-0.312042385339737,2.83205771446228,1.33570921421051,-0.311222084148811,2.83190621216671,1.33346759933036,2201.654,2202.278,2208.335,2203.872,356.237701416016,44.9997177124023,1.50994157791138,-0.559480130672455,-0.2424346357584,0.35099858045578,-0.560014026276883,-0.240958390526247,0.342103829805999,6
1.17999267578125,-0.323496371507645,2.82709622383118,1.34286189079285,-0.322550701230474,2.8270318247214,1.34038807472597,2207.374,2205.811,2203.441,2203.693,356.253753662109,44.9996681213379,1.50549042224884,-0.572700679302216,-0.248077571392059,0.357635825872421,-0.573463232144024,-0.246745208083563,0.350319739799517,6
1.19998168945313,-0.335213482379913,2.82202243804932,1.3501433134079,-0.334147705564643,2.8220419577392,1.34747250370603,2201.519,2202.986,2210.734,2208.194,356.270660400391,45.0000610351563,1.4987860918045,-0.585856258869171,-0.253685712814331,0.364068686962128,-0.586866312357874,-0.25251217906087,0.358507472351216,6
1.22000122070313,-0.347192913293839,2.81683683395386,1.35755884647369,-0.346030421585499,2.81692915700008,1.35473146949704,2204.844,2205.377,2210.461,2207.009,356.290161132813,45.0002937316895,1.49139380455017,-0.598970413208008,-0.259275794029236,0.370777815580368,-0.600236516861372,-0.258265004538453,0.366675121644476,6
1.239990234375,-0.359433472156525,2.81154012680054,1.36511218547821,-0.358161486344149,2.81170949873715,1.36214214765657,2210.037,2208.641,2205.827,2206.385,356.309875488281,45.0001754760742,1.48498928546906,-0.612028360366821,-0.264840394258499,0.377665936946869,-0.613526094901141,-0.263983138701136,0.374793517489195,6
1.25997924804688,-0.371933549642563,2.80613279342651,1.37279868125916,-0.370557537648727,2.80637582416637,1.36971470196197,2203.462,2205.334,2213.475,2210.679,356.330596923828,45.0005264282227,1.47627091407776,-0.625005841255188,-0.270365297794342,0.384324193000793,-0.626748599474006,-0.269672413024826,0.382870939199643,6
1.27999877929688,-0.38469210267067,2.80061554908752,1.38062369823456,-0.383236695417198,2.80092033679326,1.37746020158837,2206.71,2207.511,2212.819,2209.095,356.354309082031,45.0007095336914,1.46688652038574,-0.637926459312439,-0.275867283344269,0.391252011060715,-0.639917282339435,-0.275338529371412,0.39091548206889,6
1.29998779296875,-0.397707551717758,2.79498887062073,1.38859057426453,-0.396158759015336,2.79536033382764,1.38535408859565,2211.999,2210.591,2207.397,2208.168,356.378387451172,45.0004959106445,1.4585622549057,-0.650773942470551,-0.28133761882782,0.398342043161392,-0.652985332144132,-0.280961346123326,0.398898549771684,6
1.32000732421875,-0.410978019237518,2.78925371170044,1.39669382572174,-0.409361504843077,2.78967956113998,1.39341943999703,2204.948,2206.926,2214.783,2212.311,356.403533935547,45.0007667541504,1.44790768623352,-0.663522839546204,-0.286761164665222,0.405162513256073,-0.6659860834168,-0.286555206197011,0.406840505851434,6
1.33999633789063,-0.424502104520798,2.78341054916382,1.40494072437286,-0.422802873722428,2.78389611561957,1.401630562497,2212.265,2210.992,2208.959,2209.002,356.429809570313,45.0005950927734,1.43813133239746,-0.676204204559326,-0.292157888412476,0.412344962358475,-0.678873453515705,-0.29210028151913,0.41471319914141,6
1.3599853515625,-0.43827760219574,2.77746033668518,1.41332542896271,-0.436500861174643,2.77800225429635,1.40999844927868,2204.911,2207.445,2216.116,2212.718,356.457824707031,45.0008697509766,1.42607426643372,-0.688776552677155,-0.297505527734756,0.419235080480576,-0.69166099897751,-0.297602405088682,0.422524911118315,6
1.3800048828125,-0.452302873134613,2.77140402793884,1.42185282707214,-0.450474904562636,2.77198961381608,1.41853497432376,2208.389,2209.287,2214.086,2210.611,356.489288330078,45.0009346008301,1.41346430778503,-0.701263010501862,-0.30281937122345,0.426370859146118,-0.704361775018035,-0.303067194200314,0.43028361700977,6
1.39999389648438,-0.466575771570206,2.76524233818054,1.43052530288696,-0.464680216184654,2.76587746507559,1.42721277752413,2213.752,2212.039,2207.286,2209.231,356.520874023438,45.0005378723145,1.40208113193512,-0.71364551782608,-0.308088749647141,0.433622777462006,-0.716930938559026,-0.308475354130225,0.437961922879032,6
1.41998291015625,-0.48109370470047,2.75897645950317,1.43933594226837,-0.479135601808478,2.75965771647838,1.43604334702988,2205.693,2207.631,2214.509,2213.208,356.553161621094,45.0006866455078,1.38828468322754,-0.725898802280426,-0.313298583030701,0.440530985593796,-0.729381927869995,-0.313832666990362,0.445568037955247,6
1.44000244140625,-0.495854705572128,2.75260710716248,1.4482889175415,-0.493861275572861,2.75332167044526,1.44503903134294,2208.369,2209.146,2212.988,2210.627,356.588165283203,45.0006866455078,1.37386393547058,-0.738048732280731,-0.318467289209366,0.447650402784348,-0.741727567798258,-0.319144650954242,0.453109796737511,6
1.45999145507813,-0.5108562707901,2.74613547325134,1.45738625526428,-0.508809800712713,2.74688973769103,1.45417085208374,2213.091,2211.669,2206.603,2208.685,356.623138427734,45.0002784729004,1.36074161529541,-0.750079810619354,-0.323586612939835,0.454865455627441,-0.753924423002454,-0.324392617007921,0.460560665253582,6
1.47998046875,-0.526095628738403,2.73956274986267,1.46662056446075,-0.524000783579472,2.74035348215039,1.46345078646643,2204.366,2206.772,2214.15,2212.473,356.659088134766,45.0004463195801,1.34515070915222,-0.76196825504303,-0.328641980886459,0.461716026067734,-0.76598572865452,-0.329582259876133,0.467928728663466,6
1.5,-0.541570484638214,2.7328896522522,1.47599601745605,-0.539455198877605,2.73370387899399,1.47289164761066,2207.006,2208.063,2212.24,2209.532,356.698150634766,45.0004463195801,1.32894253730774,-0.773738920688629,-0.33365136384964,0.468771755695343,-0.777924000354858,-0.334718964672088,0.475221632552146,6
1.51998901367188,-0.557277917861938,2.7261176109314,1.48551416397095,-0.555123050061237,2.72696244033876,1.48246289340675,2211.857,2210.469,2205.101,2207.268,356.737426757813,45,1.31412625312805,-0.785374939441681,-0.338605254888535,0.475907742977142,-0.789697369743256,-0.339784716610053,0.482413800191712,6
1.53997802734375,-0.573215007781982,2.71924781799316,1.49516701698303,-0.571024729446907,2.7201203919406,1.49217698120264,2202.799,2205.234,2212.294,2210.999,356.777679443359,45.0001373291016,1.29681551456451,-0.796852171421051,-0.343488097190857,0.482645779848099,-0.801318788528229,-0.344785088448372,0.489513143578788,6
1.55999755859375,-0.589378893375397,2.7122814655304,1.50495839118958,-0.587181951496087,2.71316839067337,1.50204717602401,2205.33,2206.329,2209.978,2207.767,356.821014404297,45.0000953674316,1.27890062332153,-0.808194994926453,-0.348317712545395,0.489567786455154,-0.812800388649436,-0.349725300221754,0.496527073925997,6
1.57998657226563,-0.605766594409943,2.70521974563599,1.51488935947418,-0.603542258451077,2.7061290076447,1.51204143224525,2210.113,2208.553,2202.405,2205.218,356.864288330078,44.9996109008789,1.2624351978302,-0.819386959075928,-0.353084951639175,0.496549189090729,-0.82410201904291,-0.354588076049064,0.503431063574906,6
1.60000610351563,-0.622374713420868,2.69806432723999,1.52495133876801,-0.620152298932711,2.69898217125626,1.52218824678091,2200.404,2202.988,2209.764,2208.817,356.908447265625,44.9997329711914,1.24344754219055,-0.830404996871948,-0.357774883508682,0.503097534179688,-0.835253140422976,-0.35938609205264,0.510243109616171,5
1.6199951171875,-0.639200389385223,2.69081616401672,1.53515028953552,-0.636958033083316,2.69175113334911,1.53245460752521,2207.652,2206.302,2201.949,2203.596,356.953552246094,44.9993591308594,1.22564244270325,-0.841280698776245,-0.362408608198166,0.509948015213013,-0.846214826007804,-0.364102599125749,0.516939432286212,5
1.63998413085938,-0.656239807605743,2.68347692489624,1.54547739028931,-0.653981118189727,2.68442657539777,1.54285374457671,2197.787,2201.067,2209.007,2206.73,357.000457763672,44.9995536804199,1.20538878440857,-0.851974666118622,-0.366963922977448,0.5163534283638,-0.856999388527105,-0.368742895092007,0.523527553239473,5
1.66000366210938,-0.673490047454834,2.67604780197144,1.55593609809875,-0.671244443874359,2.67699864863716,1.55339964084857,2200.752,2201.976,2205.479,2203.049,357.051025390625,44.9994812011719,1.18469047546387,-0.862509369850159,-0.371456384658813,0.522935926914215,-0.867618167158098,-0.373311858882592,0.530014399402375,5
1.67999267578125,-0.690947353839874,2.66853022575378,1.56652700901031,-0.688691692550512,2.66949158495151,1.56405789280588,2205.754,2203.939,2196.714,2200.258,357.101470947266,44.9989242553711,1.16558957099915,-0.87286651134491,-0.375874549150467,0.529544115066528,-0.878034183119987,-0.377793579561193,0.536377381014768,5
1.69998168945313,-0.708607852458954,2.66092610359192,1.57724034786224,-0.706345246291743,2.66189575395985,1.57484217330813,2195.413,2197.92,2203.778,2203.819,357.152465820313,44.9990043640137,1.14393830299377,-0.883024573326111,-0.380203902721405,0.535666644573212,-0.88825927318574,-0.382193150160541,0.542623728976553,5
1.72000122070313,-0.726467967033386,2.65323686599731,1.58807897567749,-0.724228658537036,2.6542010212754,1.58576687078363,2197.551,2198.536,2201.007,2199.828,357.206207275391,44.9989204406738,1.12174379825592,-0.893007874488831,-0.384462893009186,0.541933834552765,-0.898304216251578,-0.386515208538549,0.548760027947228,5
1.739990234375,-0.74452406167984,2.64546394348145,1.59904336929321,-0.74228345468553,2.64643254688532,1.59679626401121,2201.997,2200.344,2192.866,2196.577,357.259521484375,44.9984016418457,1.10118007659912,-0.902801632881165,-0.388643234968185,0.548217236995697,-0.908134108040217,-0.390744736359816,0.554764955448471,5
1.75997924804688,-0.762771725654602,2.63760924339294,1.6101233959198,-0.760532711099173,2.63858040167573,1.60794444998027,2190.996,2194.008,2200.481,2200.018,357.313659667969,44.9985542297363,1.07801830768585,-0.912386655807495,-0.392731696367264,0.554004073143005,-0.917760245372929,-0.394886594330938,0.560645412532115,4
1.77999877929688,-0.781207501888275,2.62967443466187,1.62132227420807,-0.779000609654483,2.63063418086074,1.61922620102184,2193.222,2194.547,2197.477,2195.722,357.371002197266,44.9985122680664,1.05436408519745,-0.921785473823547,-0.396745830774307,0.559941589832306,-0.927192788821983,-0.398945154262308,0.566407606133204,4
1.79998779296875,-0.799827098846436,2.62166094779968,1.63264012336731,-0.797626646773287,2.62261991743975,1.63060455644414,2197.91,2196.232,2188.732,2192.364,357.428131103516,44.997989654541,1.03238391876221,-0.930982291698456,-0.400676012039185,0.565890252590179,-0.936399026186941,-0.402906341007953,0.572031552878955,4
1.82000732421875,-0.818626344203949,2.61357069015503,1.64406657218933,-0.816463410111527,2.61451498441355,1.64211164122557,2186.791,2189.8,2195.971,2195.791,357.486145019531,44.9981346130371,1.00781583786011,-0.939958214759827,-0.404508680105209,0.571323156356812,-0.94540321420156,-0.406780591562751,0.577532070829503,3
1.83999633789063,-0.837601006031036,2.60540533065796,1.65560710430145,-0.835449117627072,2.60634596486888,1.6537097136807,2194.297,2192.785,2187.006,2189.481,357.544860839844,44.9977340698242,0.984683394432068,-0.948740124702454,-0.408263146877289,0.577029526233673,-0.954174163352093,-0.410554485950274,0.582890106797601,3
1.8599853515625,-0.856747090816498,2.59716701507568,1.66725134849548,-0.854607925216182,2.59810246519841,1.66541353026959,2183.121,2186.763,2193.929,2192.52,357.605316162109,44.9979476928711,0.959066569805145,-0.957295358181,-0.411919325590134,0.582213997840881,-0.962722140342816,-0.41423244164655,0.588111932552683,0
1.8800048828125,-0.876059889793396,2.58885717391968,1.67900216579437,-0.873964974649439,2.58977366760063,1.67723844970756,2185.889,2187.127,2189.756,2188.136,357.669281005859,44.9978828430176,0.933030128479004,-0.965642094612122,-0.415491342544556,0.587539553642273,-0.971056158224177,-0.417818336715394,0.593203054026622,0
1.89999389648438,-0.895535171031952,2.58047771453857,1.69085919857025,-0.893456683142228,2.58138692997148,1.6891456302637,2190.925,2188.87,2180.009,2184.484,357.732757568359,44.9972953796387,0.908889412879944,-0.973764002323151,-0.41896864771843,0.59285181760788,-0.979147395688901,-0.421299770153459,0.598145864732551,0
1.91998291015625,-0.915167987346649,2.57203102111816,1.70281136035919,-0.91310780215452,2.5729316024492,1.70115019221864,2179.22,2182.061,2187.205,2188.096,357.796600341797,44.9974174499512,0.882142901420593,-0.98164564371109,-0.422338783740997,0.597607016563416,-0.98700543065471,-0.424680863071164,0.602946215670947,0
1.94000244140625,-0.934954166412354,2.5635187625885,1.71486103534698,-0.932943991899774,2.5643966441608,1.71326781099638,2181.274,2182.309,2183.899,2183.363,357.863006591797,44.9973602294922,0.854952991008759,-0.98930686712265,-0.425618857145309,0.602482080459595,-0.994638524886308,-0.427965170275055,0.607609153824943,0
1.95999145507813,-0.954888880252838,2.55494284629822,1.72700774669647,-0.952900013794853,2.55581012544606,1.7254586333645,2185.676,2183.793,2175.044,2179.493,357.928680419922,44.9968452453613,0.829617202281952,-0.99673467874527,-0.42880117893219,0.607337772846222,-1.00202031904361,-0.431141350077486,0.612118576685011,0
1.97998046875,-0.974967181682587,2.54630541801453,1.73924052715302,-0.973001172086935,2.54716115859433,1.73773811729275,2173.556,2176.897,2182.701,2182.946,357.994964599609,44.9970550537109,0.801672101020813,-1.0039165019989,-0.431874960660934,0.611640989780426,-1.0091596546337,-0.434213206731958,0.616479885389866,0
2,-0.995184540748596,2.53760862350464,1.75156199932098,-0.993273599084619,2.53843849960327,1.75012222660065,2175.74,2177.11,2179.242,2178.036,358.064331054688,44.9970550537109,0.773338675498962,-1.01086926460266,-0.434855610132217,0.616072297096252,-1.01606400046349,-0.437183953857422,0.620697642517089,0
2.01998901367188,-1.01553618907928,2.52885365486145,1.76397168636322,-1.01365055070775,2.52967086658596,1.76257018837116,2180.527,2178.546,2169.794,2174.129,358.133148193359,44.9965438842773,0.746909558773041,-1.0175793170929,-0.437734365463257,0.620487034320831,-1.02270954399163,-0.440043345582587,0.624757301356767,0
2.03997802734375,-1.03601670265198,2.52004361152649,1.77645838260651,-1.03415783849082,2.52084715356021,1.77509777046792,2168.272,2171.684,2177.206,2177.607,358.202606201172,44.9967498779297,0.717927515506744,-1.02403485774994,-0.440500259399414,0.624333262443542,-1.02910434715509,-0.442794850733705,0.628663786820389,0
2.05999755859375,-1.05662167072296,2.51118016242981,1.78902447223663,-1.05482201812353,2.5119559343546,1.78772119534738,2170.679,2171.789,2173.386,2172.685,358.274963378906,44.9967346191406,0.688570022583008,-1.03025090694427,-0.443167805671692,0.62830376625061,-1.03525504859546,-0.445441325732794,0.632421154350513,0
2.07998657226563,-1.07734608650208,2.5022656917572,1.80166935920715,-1.07557499515204,2.50302650811029,1.80039886517028,2175.344,2173.223,2163.943,2168.649,358.346466064453,44.9962043762207,0.661180973052979,-1.03621447086334,-0.445728629827499,0.632242798805237,-1.04114045847258,-0.4479736531836,0.636016459404434,0
2.10000610351563,-1.098184466362,2.49330234527588,1.81438148021698,-1.09647498538954,2.49403382618922,1.81316634306845,2162.914,2166.156,2171.385,2172.29,358.418395996094,44.9964256286621,0.631151139736176,-1.04191720485687,-0.448173463344574,0.635607659816742,-1.04677621342161,-0.450398561093403,0.639459254158576,0
2.1199951171875,-1.11913192272186,2.48429203033447,1.82716608047485,-1.11745308225396,2.48500753716864,1.82598153508617,2170.823,2168.941,2161.87,2165.017,358.490570068359,44.9960556030273,0.602813482284546,-1.04737555980682,-0.450518012046814,0.639231026172638,-1.0521429102862,-0.45270770082608,0.642737685527497,0
2.13998413085938,-1.14018332958221,2.4752368927002,1.84001171588898,-1.13853583516761,2.47593621757383,1.83886065985125,2158.447,2162.524,2168.94,2168.198,358.564270019531,44.9963531494141,0.572035431861877,-1.05257093906403,-0.452748090028763,0.64228343963623,-1.05724722779031,-0.454903946049977,0.645855833439456,0
2.16000366210938,-1.1613335609436,2.46613931655884,1.85292088985443,-1.15975039167652,2.46680818657414,1.85182030137592,2161.331,2162.697,2164.387,2163.148,358.641296386719,44.9963531494141,0.54107254743576,-1.05751240253448,-0.454873859882355,0.645460486412048,-1.0620943502576,-0.456989527434725,0.648816864916866,0
2.17999267578125,-1.182577252388,2.45700192451477,1.86589288711548,-1.18102676265167,2.45765355853653,1.86481770439342,2166.575,2164.039,2154.058,2159.174,358.717376708984,44.9957885742188,0.512201309204102,-1.06218695640564,-0.45688584446907,0.648600459098816,-1.06666760390386,-0.458957270716794,0.65161059420515,0
2.19998168945313,-1.20390892028809,2.44782638549805,1.87891578674316,-1.20239187218348,2.44846074877705,1.87786931641044,2154.023,2156.96,2161.137,2162.992,358.793487548828,44.9959678649902,0.480737596750259,-1.0665899515152,-0.458776086568832,0.651145339012146,-1.07097279461286,-0.460809674005774,0.654240568028104,0
2.22000122070313,-1.22532367706299,2.43861532211304,1.89199149608612,-1.22387315175433,2.43921795429519,1.89099189489151,2156.063,2157.117,2157.66,2157.653,358.871795654297,44.9959602355957,0.449048668146133,-1.07073104381561,-0.460557579994202,0.653787553310394,-1.07501419914593,-0.462548577472581,0.656709398992482,0
2.239990234375,-1.24681556224823,2.42937088012695,1.90511929988861,-1.24539969505118,2.42995568409656,1.90414212427648,2160.633,2158.283,2148.454,2153.471,358.948822021484,44.9954719543457,0.419424653053284,-1.07460129261017,-0.462224304676056,0.656391859054565,-1.07877792518082,-0.464168003639063,0.659008600495412,0
2.25997924804688,-1.26837956905365,2.42009544372559,1.91828763484955,-1.26699874763832,2.42066221517598,1.91733664845539,2147.713,2151.288,2156.097,2157.09,359.026184082031,44.9957504272461,0.387308865785599,-1.0781991481781,-0.463770240545273,0.658414602279663,-1.08226887897249,-0.465670063529659,0.661141169691481,0
2.27999877929688,-1.29001033306122,2.41079139709473,1.93149864673615,-1.28869796983554,2.41132564607061,1.93059236468599,2149.986,2151.251,2152.502,2151.843,359.106201171875,44.9958076477051,0.354943603277206,-1.08153116703033,-0.465206205844879,0.660549581050873,-1.08549040888332,-0.467056197851165,0.663109152043028,0
2.29998779296875,-1.31170213222504,2.40146088600159,1.94475162029266,-1.31042570636616,2.40197680804417,1.9438654998779,2154.908,2152.51,2142.864,2147.586,359.185180664063,44.9953346252441,0.324689835309982,-1.08458745479584,-0.466525256633759,0.662651240825653,-1.08843144721369,-0.468321644481621,0.664905786465049,0
2.32000732421875,-1.33344948291779,2.39210653305054,1.95803499221802,-1.33224276726637,2.39258953623693,1.95719320193332,2142.115,2145.58,2150.104,2151.334,359.264495849609,44.9955978393555,0.291967988014221,-1.08736801147461,-0.467721521854401,0.664167523384094,-1.09109983431736,-0.469469776906228,0.666535862507326,0
2.33999633789063,-1.35524702072144,2.38273048400879,1.97135365009308,-1.35407709248145,2.38319483607731,1.97053145048929,2150.422,2148.109,2140.386,2143.837,359.343658447266,44.9952507019043,0.261078387498856,-1.08987843990326,-0.468805402517319,0.665931880474091,-1.09348640563071,-0.470496651869278,0.667993781680938,0
2.3599853515625,-1.37708926200867,2.37333512306213,1.98469591140747,-1.37595634130987,2.37378080654189,1.98389714217962,2137.672,2141.755,2147.304,2147.254,359.424011230469,44.9955863952637,0.227832034230232,-1.09211325645447,-0.469768464565277,0.667114734649658,-1.09559452046326,-0.471403714787811,0.669281596135657,0
2.3800048828125,-1.39897060394287,2.36392283439636,1.99806416034698,-1.39790843013262,2.36433543599182,1.99730733068585,2140.729,2141.844,2142.688,2142.005,359.507293701172,44.9956130981445,0.19452103972435,-1.09407246112823,-0.470617204904556,0.66841197013855,-1.09742594550583,-0.472191725819537,0.67040038511534,0
2.39999389648438,-1.42088556289673,2.35449600219727,2.0114574432373,-1.41986083522252,2.35488992936084,2.01071771239474,2145.989,2143.092,2132.499,2137.84,359.589080810547,44.9950790405273,0.163458362221718,-1.09574711322784,-0.471344023942947,0.669659972190857,-1.09897439291323,-0.472857979480329,0.671346307473475,0
2.41998291015625,-1.44282841682434,2.34505701065063,2.02486371994019,-1.4418413890156,2.34543231112926,2.02414528970716,2133.036,2136.156,2139.622,2141.821,359.670654296875,44.9953155517578,0.12997068464756,-1.09714245796204,-0.471945345401764,0.670309245586395,-1.10024227275454,-0.473403512755585,0.67212083548366,0
2.44000244140625,-1.46479368209839,2.33560848236084,2.03828477859497,-1.46387808506052,2.33595053645515,2.03760716344514,2135.304,2136.134,2136.122,2136.435,359.754150390625,44.9953536987305,0.0963549688458443,-1.09825885295868,-0.4724300801754,0.671052396297455,-1.10123038958312,-0.473828671822132,0.672724460634977,0
2.45999145507813,-1.48677539825439,2.32615280151367,2.05171966552734,-1.48589810917879,2.32647593524532,2.05105885256329,2139.967,2137.252,2127.012,2132.106,359.835906982422,44.9948921203613,0.0649389401078224,-1.09909045696259,-0.472793489694595,0.671750009059906,-1.10193535162022,-0.474131997292339,0.673155110942729,0
2.47998046875,-1.50876832008362,2.31669187545776,2.06515693664551,-1.50792940965705,2.3169964821328,2.06451743023379,2126.907,2130.438,2134.448,2135.954,359.917755126953,44.9952125549316,0.0311645697802305,-1.09964537620544,-0.473033785820007,0.671869575977325,-1.10235860927677,-0.474314113237503,0.673413672440311,0
2.5,-1.53076684474945,2.30722856521606,2.07859873771667,-1.52999999932945,2.30750012397766,2.0780000090599,2129.273,2130.415,2130.955,2130.565,0.00185156369116157,44.9953079223633,-0.00267375190742314,-1.09992027282715,-0.473157703876495,0.672091066837311,-1.10250000050292,-0.474374949932098,0.673500046133994,0
2.51998901367188,-1.55276489257813,2.29776573181152,2.09204411506653,-1.5520369476803,2.29801824074336,2.09146203692764,2134.264,2131.51,2121.542,2126.298,0.0845017731189728,44.9948501586914,359.965728759766,-1.09990930557251,-0.473159730434418,0.672274172306061,-1.10235904000526,-0.474314298567936,0.67341393556562,0
2.53997802734375,-1.57475733757019,2.28830504417419,2.10548186302185,-1.57406826106879,2.28853878207593,2.1049206224848,2121.53,2124.793,2128.456,2130.286,0.16715881228447,44.9951515197754,359.931762695313,-1.09962224960327,-0.4730384349823,0.671883881092072,-1.10193621258339,-0.474132367740737,0.673155636891692,0
2.55999755859375,-1.59673857688904,2.27884912490845,2.1189136505127,-1.59612191359838,2.27904971150017,2.11839285467467,2123.958,2124.818,2124.861,2124.912,0.251797765493393,44.9952201843262,359.897766113281,-1.09905314445496,-0.472799271345139,0.671584844589233,-1.10123038958312,-0.473828671822132,0.672724460634977,0
2.57998657226563,-1.61870241165161,2.26940035820007,2.13233852386475,-1.61812503288753,2.26958238396605,2.1318342168965,2128.818,2125.906,2115.679,2120.631,0.334694892168045,44.9947738647461,359.865997314453,-1.09819734096527,-0.472437769174576,0.671240150928497,-1.1002439936861,-0.473404253224357,0.672121886773894,0
2.60000610351563,-1.64064371585846,2.25996136665344,2.14574503898621,-1.64013916343638,2.26011031859448,2.14528230572506,2115.99,2119.383,2122.712,2124.533,0.417457818984985,44.9950904846191,359.832061767578,-1.09706783294678,-0.471953988075256,0.670326292514801,-1.09897439291323,-0.472857979480329,0.671346307473476,0
2.6199951171875,-1.66255664825439,2.25053429603577,2.15913772583008,-1.66209156852628,2.2506648119635,2.15869268743396,2124.271,2121.534,2113.632,2117.057,0.499534428119659,44.9947929382324,359.800018310547,-1.09565532207489,-0.471351742744446,0.669640362262726,-1.09742594550583,-0.472191725819537,0.67040038511534,0
2.63998413085938,-1.68443632125854,2.24112176895142,2.17250561714172,-1.6840102224118,2.24123382753286,2.17208245105877,2111.671,2115.714,2120.204,2120.563,0.582478106021881,44.9951934814453,359.765930175781,-1.09397220611572,-0.470630884170532,0.668399035930634,-1.09559752564474,-0.471405007833448,0.669283431954129,0
2.66000366210938,-1.70627617835999,2.2317259311676,2.18585085868835,-1.70592290617745,2.23180541187802,2.18546856763052,2114.846,2115.618,2115.824,2115.487,0.667780697345734,44.9952545166016,359.731872558594,-1.09200644493103,-0.469791978597641,0.667259991168976,-1.09348640563071,-0.470496651869278,0.667993781680938,0
2.67999267578125,-1.72807145118713,2.2223494052887,2.19917225837708,-1.72775723139253,2.2224107117184,2.19880681618649,2120.147,2116.852,2106.111,2111.24,0.751178503036499,44.9947509765625,359.7001953125,-1.08975398540497,-0.468829959630966,0.666069090366364,-1.09109983431736,-0.469469776906228,0.666535862507326,0
2.69998168945313,-1.74981594085693,2.21299433708191,2.21245837211609,-1.74954107593572,2.21303773198162,2.21211422688774,2107.444,2110.357,2112.813,2115.469,0.833994150161743,44.9950218200684,359.666351318359,-1.08723199367523,-0.467746585607529,0.664305508136749,-1.08843572622736,-0.468323485621663,0.66490840044773,0
2.72000122070313,-1.77150440216064,2.20366358757019,2.22571086883545,-1.77130202882336,2.20367460188472,2.22540765343382,2109.911,2110.377,2109.484,2110.114,0.918086051940918,44.9950828552246,359.632629394531,-1.08442878723145,-0.466545104980469,0.662625670433044,-1.08549040888332,-0.467056197851165,0.663109152043028,0
2.739990234375,-1.79313135147095,2.19435906410217,2.23892879486084,-1.79296822271738,2.1943522439355,2.23864319318939,2114.466,2111.267,2101.025,2105.99,0.999983787536621,44.9946823120117,359.601135253906,-1.08134353160858,-0.465223133563995,0.660894572734833,-1.08227399942825,-0.465672266718727,0.661144297698006,0
2.75997924804688,-1.81469130516052,2.18508338928223,2.25210118293762,-1.81456738183361,2.18505872917844,2.25183778244526,2101.713,2105.101,2108.082,2109.905,1.08158493041992,44.9950408935547,359.567626953125,-1.07799541950226,-0.463784098625183,0.658617556095123,-1.07878346314437,-0.464170386470068,0.659011983550929,0
2.77999877929688,-1.83617854118347,2.17583870887756,2.26522994041443,-1.83612684690458,2.17578229366013,2.2650081232283,2104.356,2104.969,2104.736,2104.75,1.16482615470886,44.9951515197754,359.5341796875,-1.07436990737915,-0.46222922205925,0.656436383724213,-1.07501419914593,-0.462548577472581,0.656709398992482,0
2.79998779296875,-1.85758817195892,2.16662764549255,2.27831411361694,-1.85757544288233,2.1665535620153,2.27811073581237,2109.129,2106.024,2096.112,2100.569,1.24613118171692,44.9947509765625,359.503051757813,-1.07046580314636,-0.460555404424667,0.654209613800049,-1.07097916161324,-0.460812413548163,0.654244457529281,0
2.81997680664063,-1.87891411781311,2.15745234489441,2.29134297370911,-1.87894068379188,2.15736069572766,2.291162428086,2096.846,2099.901,2102.607,2104.69,1.32712137699127,44.9950904846191,359.469909667969,-1.06630396842957,-0.458766281604767,0.651448488235474,-1.0666743814704,-0.458960186914335,0.65161473451479,0
2.83999633789063,-1.90015149116516,2.14831519126892,2.30431842803955,-1.90024960698239,2.14819206138118,2.30417971674389,2099.592,2099.943,2099.145,2099.497,1.4094386100769,44.995174407959,359.436950683594,-1.06186747550964,-0.45686212182045,0.648774445056915,-1.06209435025759,-0.456989527434725,0.648816864916866,0
2.8599853515625,-1.9212943315506,2.1392183303833,2.31723928451538,-1.92143189875059,2.13907791299805,2.31711964824194,2104.17,2100.839,2090.843,2095.52,1.48953998088837,44.9947738647461,359.40625,-1.05715680122375,-0.454840570688248,0.646047413349152,-1.05725481901126,-0.454907212340279,0.645860470797877,0
2.8800048828125,-1.94233822822571,2.13016414642334,2.3300952911377,-1.94254691640495,2.12999271078668,2.33001848303364,2092.081,2095.098,2097.261,2099.386,1.56910622119904,44.9951057434082,359.373718261719,-1.0521947145462,-0.452706724405289,0.642799615859985,-1.0521429102862,-0.45270770082608,0.642737685527497,0
2.89999389648438,-1.96327757835388,2.12115502357483,2.34289026260376,-1.96352501326936,2.1209664217661,2.34283367505136,2099.968,2096.867,2089.199,2092.345,1.6474757194519,44.9948768615723,359.343109130859,-1.04696011543274,-0.450458556413651,0.639751613140106,-1.04677621342161,-0.450398561093403,0.639459254158576,0
2.91998291015625,-1.98410701751709,2.1121928691864,2.35561442375183,-1.98439323028747,2.1119874109737,2.35558174318562,2088.249,2091.781,2095.091,2095.864,1.7262727022171,44.9952697753906,359.310791015625,-1.04147970676422,-0.448102563619614,0.636203408241272,-1.0411492471255,-0.447977434695422,0.636021828255355,0
2.94000244140625,-2.00482153892517,2.10328006744385,2.36826920509338,-2.00517798053537,2.10304431360073,2.36827882277243,2091.482,2091.834,2091.086,2090.971,1.80665552616119,44.9953536987305,359.27880859375,-1.03573215007782,-0.445634841918945,0.63274472951889,-1.03525504859546,-0.445441325732794,0.632421154350513,0
2.95999145507813,-2.02541589736938,2.09441900253296,2.38085389137268,-2.02581075424974,2.0941666074844,2.38088306226645,2096.342,2092.67,2082.55,2087.278,1.88471877574921,44.9949188232422,359.249114990234,-1.02971875667572,-0.443052649497986,0.629230320453644,-1.02911391720548,-0.442798968459032,0.628669633014836,0
2.97998046875,-2.04588532447815,2.08561182022095,2.39335799217224,-2.04631823718085,2.08534281049189,2.39341076357611,2084.759,2087.177,2088.447,2091.245,1.96182119846344,44.9951972961426,359.217712402344,-1.02346539497375,-0.440362453460693,0.625207722187042,-1.0227194988233,-0.440047628868552,0.624763382608097,0
3,-2.06622433662415,2.07686042785645,2.40578293800354,-2.06672639957428,2.07656174835205,2.40587779151916,2087.152,2087.036,2085.594,2086.49,2.03949522972107,44.9952850341797,359.1865234375,-1.01695203781128,-0.437562793493271,0.621253252029419,-1.01606400046349,-0.437183953857422,0.620697642517089,0
3.01998901367188,-2.08642792701721,2.06816744804382,2.41812801361084,-2.0869680292999,2.06785234056679,2.41824308725414,2091.336,2087.954,2078.268,2082.565,2.11463689804077,44.9949531555176,359.157653808594,-1.01018178462982,-0.434653431177139,0.617249548435211,-1.00917036754089,-0.434217816196637,0.616486429737696,0
3.03997802734375,-2.10649108886719,2.05953502655029,2.4303834438324,-2.10706940546153,2.05920327997188,2.43052270427549,2079.928,2082.601,2084.349,2086.432,2.18905878067017,44.995304107666,359.127136230469,-1.0031818151474,-0.431641668081284,0.612769782543182,-1.00203140433628,-0.431146119769234,0.612125348517319,0
3.05999755859375,-2.12641024589539,2.05096411705017,2.44255089759827,-2.12705600675913,2.05060360379452,2.44273220712343,2082.524,2082.499,2081.43,2081.774,2.26428318023682,44.9954261779785,359.096923828125,-0.995930135250092,-0.428524702787399,0.608369290828705,-0.994638524886308,-0.427965170275055,0.607609153824944,0
3.07998657226563,-2.14617872238159,2.04245829582214,2.45462918281555,-2.14686207530873,2.04208160581513,2.45483142533277,2086.506,2083.321,2074.354,2078.133,2.33726739883423,44.9951171875,359.068939208984,-0.988430500030518,-0.425302028656006,0.603917062282562,-0.987017247723776,-0.424685947625853,0.602953434534038,0
3.10000610351563,-2.16579294204712,2.03401851654053,2.46660947799683,-2.16654331551667,2.03361331798384,2.46685438785611,2076.02,2078.318,2079.652,2081.805,2.40953135490417,44.9954376220703,359.039459228516,-0.980709433555603,-0.421980440616608,0.599018633365631,-0.979147395688901,-0.421299770153459,0.598145864732551,0
3.1199951171875,-2.18524765968323,2.02564764022827,2.4784951210022,-2.18603502400946,2.02522658035469,2.47876156841225,2083.243,2079.953,2072.528,2075.355,2.4802074432373,44.995231628418,359.011932373047,-0.972740769386292,-0.418554812669754,0.594285905361176,-0.971056158224178,-0.417818336715394,0.593203054026623,0
3.13998413085938,-2.20453906059265,2.01734685897827,2.49027752876282,-2.20536269329809,2.01691042421237,2.49056853997833,2072.843,2075.557,2077.573,2078.753,2.55075454711914,44.9955902099609,358.983062744141,-0.964558362960815,-0.415035128593445,0.58911520242691,-0.962735018414262,-0.414237982720922,0.588119799565572,0
3.16000366210938,-2.22366166114807,2.00911855697632,2.50195789337158,-2.22455088103183,2.00865428308644,2.50229030443911,2075.682,2075.539,2074.279,2074.458,2.62213158607483,44.9956893920898,358.954650878906,-0.956137895584106,-0.411415785551071,0.584014713764191,-0.954174163352092,-0.410554485950274,0.582890106797601,0
3.17999267578125,-2.24261164665222,2.00096464157104,2.51353526115417,-2.24353658854737,2.00048526354177,2.51388837689424,2080.183,2076.347,2066.874,2071.039,2.69090247154236,44.9953231811523,358.928466796875,-0.947483539581299,-0.407695889472961,0.578869462013245,-0.945403214201559,-0.406780591562751,0.577532070829503,0
3.19998168945313,-2.26138401031494,1.99288702011108,2.52500081062317,-2.26234477504321,1.99239262633251,2.52537800452858,2069.773,2071.642,2072.136,2074.811,2.7584125995636,44.9955978393555,358.900939941406,-0.938625335693359,-0.403884261846542,0.573280572891235,-0.936412917636688,-0.402912318110697,0.572040038948834,0
3.22000122070313,-2.27997493743896,1.9848872423172,2.53635597229004,-2.28099938900442,1.98436606709459,2.53677381709797,2072.19,2071.618,2069.628,2070.498,2.82589626312256,44.9957008361816,358.873931884766,-0.929539978504181,-0.399977147579193,0.567756175994873,-0.927192788821982,-0.398945154262308,0.566407606133204,0
3.239990234375,-2.29837942123413,1.97696781158447,2.54759955406189,-2.2994392795179,1.97643189735754,2.54803845846384,2075.798,2072.292,2063.503,2067.227,2.89066100120544,44.9954376220703,358.849029541016,-0.920233845710754,-0.395975679159164,0.562184572219849,-0.917774783907129,-0.394892849856044,0.560654293895788,0
3.25997924804688,-2.31659412384033,1.96913003921509,2.55872368812561,-2.31768882969315,1.96857962575054,2.55918682388728,2065.979,2067.897,2068.642,2070.686,2.95434880256653,44.9957656860352,358.822967529297,-0.910736203193665,-0.391888827085495,0.556212186813354,-0.908148960779607,-0.390751127078637,0.554774028755191,0
3.27999877929688,-2.33461451530457,1.96137595176697,2.56972980499268,-2.33577134012187,1.96079922667992,2.57023314733618,2068.244,2067.792,2066.321,2066.719,3.01820993423462,44.9958992004395,358.79736328125,-0.901023924350739,-0.387712121009827,0.550303876399994,-0.898304216251578,-0.386515208538549,0.548760027947228,0
3.29998779296875,-2.35243654251099,1.95370674133301,2.58061695098877,-2.35362764460945,1.95311615770631,2.58114128510551,2072.125,2068.505,2060.109,2063.551,3.07950830459595,44.9956474304199,358.773834228516,-0.891102612018585,-0.383446156978607,0.544362127780914,-0.888274735793772,-0.382199803288803,0.542633174842512,0
3.31997680664063,-2.37005662918091,1.94612491130829,2.59137749671936,-2.37128151039117,1.94552019245235,2.59192575622841,2062.677,2064.502,2064.934,2066.876,3.13969111442566,44.9959564208984,358.749328613281,-0.881002187728882,-0.379100143909454,0.538032054901123,-0.878049940595779,-0.377800359562814,0.53638700701084,0
3.33999633789063,-2.38747096061707,1.93863141536713,2.60201287269592,-2.38875555478454,1.93800159931817,2.60260037727124,2065.16,2064.279,2062.5,2063.213,3.19977045059204,44.9960708618164,358.725280761719,-0.870698988437653,-0.374668896198273,0.531768143177032,-0.867618167158097,-0.373311858882592,0.530014399402376,0
3.3599853515625,-2.40467500686646,1.93122839927673,2.61252212524414,-2.40599272667425,1.93058492580486,2.6131302965979,2068.666,2065.062,2056.786,2060.167,3.25713038444519,44.9958229064941,358.703308105469,-0.860200047492981,-0.370154082775116,0.525464117527008,-0.857015715678588,-0.368749920209162,0.523537527241535,0
3.3800048828125,-2.42166566848755,1.92391693592072,2.62289810180664,-2.42304196557559,1.92324911460621,2.6235454105946,2059.861,2061.258,2061.292,2063.371,3.31315088272095,44.9961166381836,358.680419921875,-0.849534749984741,-0.36556488275528,0.518799960613251,-0.846214826007803,-0.364102599125748,0.516939432286212,0
3.39999389648438,-2.4384388923645,1.91669917106628,2.63314366340637,-2.43984769972619,1.91601807669906,2.63381177133889,2065.939,2062.496,2055.838,2058.122,3.36711621284485,44.9959907531738,358.659423828125,-0.83867621421814,-0.360894560813904,0.512274563312531,-0.835253140422974,-0.35938609205264,0.510243109616171,0
3.41998291015625,-2.45499205589294,1.90957617759705,2.64325189590454,-2.45643259034873,1.90888206159239,2.64394322221809,2057.577,2059.218,2059.905,2061.048,3.42032837867737,44.9963188171387,358.637634277344,-0.827661156654358,-0.356155395507813,0.505411386489868,-0.824119146742881,-0.354595445619869,0.503441526619546,0
3.44000244140625,-2.47132158279419,1.90254926681519,2.65322399139404,-2.47281804716281,1.90183185728196,2.6539528420958,2060.089,2059.199,2057.388,2057.715,3.47345638275146,44.9964256286621,358.616485595703,-0.816466450691223,-0.351341098546982,0.498610287904739,-0.812800388649434,-0.349725300221754,0.496527073925997,0
3.45999145507813,-2.48742341995239,1.89562034606934,2.66305947303772,-2.48895081463434,1.8948903781363,2.66380809799729,2063.651,2059.879,2051.856,2055.096,3.5238208770752,44.9961738586426,358.597351074219,-0.805099308490753,-0.346452802419662,0.491776376962662,-0.80133641229185,-0.344792671461508,0.489523909660973,0
3.47998046875,-2.50329542160034,1.88879013061523,2.67275166511536,-2.50485284867397,1.88804817714046,2.67352240244575,2055.773,2056.528,2055.783,2058.119,3.57247352600098,44.996410369873,358.577575683594,-0.793588995933533,-0.341499865055084,0.484614878892899,-0.789715229532172,-0.33979240117828,0.482424710458066,0
3.5,-2.51893377304077,1.88206052780151,2.68230175971985,-2.5205447997813,1.88129636896134,2.68310837050915,2057.635,2056.485,2054.122,2054.973,3.62031030654907,44.9965362548828,358.558410644531,-0.781915307044983,-0.336478263139725,0.477501600980759,-0.777924000354857,-0.334718964672089,0.475221632552147,0
3.51998901367188,-2.53433513641357,1.87543308734894,2.69170904159546,-2.53597583877076,1.87465682397749,2.69253495143119,2060.791,2057.076,2049.456,2052.459,3.6652045249939,44.9963493347168,358.541229248047,-0.770085871219635,-0.331390112638474,0.470366984605789,-0.766004036374581,-0.329590137176618,0.467939912563966,0
3.53997802734375,-2.54949808120728,1.8689079284668,2.70096778869629,-2.55116718971613,1.86812041006291,2.70181511066737,2053.267,2053.974,2053.429,2055.324,3.70843625068665,44.996639251709,358.523468017578,-0.758129715919495,-0.326245218515396,0.462935894727707,-0.753942941956194,-0.324400585196356,0.460571978193441,0
3.55999755859375,-2.56441879272461,1.86248707771301,2.71007895469666,-2.56613872308604,1.86167857751006,2.71096098677687,2054.991,2053.99,2052.02,2052.395,3.75097727775574,44.9967842102051,358.506408691406,-0.74602735042572,-0.321039438247681,0.455558091402054,-0.741727567798258,-0.319144650954242,0.45310979673751,0
3.57998657226563,-2.57909417152405,1.85617136955261,2.71904230117798,-2.58084213759183,1.85535210901407,2.7199430732562,2058.23,2054.593,2047.483,2050.071,3.79077816009521,44.9966239929199,358.491241455078,-0.73378586769104,-0.315774351358414,0.448172152042389,-0.72940084364523,-0.31384080592,0.445579593307163,0
3.60000610351563,-2.59352254867554,1.84996247291565,2.72785258293152,-2.59531978247425,1.84912278287974,2.72878724059568,2051.365,2051.887,2051.015,2052.736,3.82888126373291,44.9968795776367,358.475738525391,-0.721433520317078,-0.31045937538147,0.440513283014297,-0.716930938559024,-0.308475354130224,0.437961922879033,0
3.6199951171875,-2.60770177841187,1.84386074542999,2.73651194572449,-2.60952509409627,1.84301063413925,2.73746504379605,2056.429,2052.725,2046.813,2048.894,3.8645932674408,44.9968070983887,358.461853027344,-0.708947896957397,-0.305088341236115,0.432973206043243,-0.704361775018033,-0.303067194200314,0.43028361700977,0
3.63998413085938,-2.6216287612915,1.83786737918854,2.7450156211853,-2.623478029369,1.83700707589127,2.7459886742229,2049.795,2050.505,2050.22,2051.275,3.89900279045105,44.9971008300781,358.447662353516,-0.696363210678101,-0.299673616886139,0.425178706645966,-0.691680442442073,-0.297610771068296,0.422536788827407,0
3.66000366210938,-2.63530206680298,1.8319833278656,2.75336456298828,-2.63719712493647,1.83110413233575,2.75436945562281,2052.201,2050.716,2048.26,2048.623,3.93253684043884,44.9972114562988,358.434356689453,-0.683660209178925,-0.294209837913513,0.417452752590179,-0.678873453515702,-0.29210028151913,0.414713199141411,0
3.67999267578125,-2.6487193107605,1.82620906829834,2.76155877113342,-2.65063849381582,1.82532068681534,2.76258057812278,2054.969,2051.211,2044.272,2046.935,3.96310758590698,44.9970474243164,358.4228515625,-0.670848846435547,-0.288699477910995,0.409709244966507,-0.665986083416798,-0.286555206197011,0.406840505851433,0
3.69998168945313,-2.66187858581543,1.82054603099823,2.76959347724915,-2.66382131180924,1.81964848851807,2.77063375592113,2048.952,2048.95,2047.521,2049.356,3.99163269996643,44.9972763061523,358.411193847656,-0.657955169677734,-0.283151477575302,0.401731491088867,-0.653005218467595,-0.280969902652754,0.398910698016369,0
