t,x_s1,x_s2,x_s3,x_s_d1,x_s_d2,x_s_d3,propellers_rpms1,propellers_rpms2,propellers_rpms3,propellers_rpms4,rollRad,pitchRad,yawRad,v_s1,v_s2,v_s3,v_s_d1,v_s_d2,v_s_d3,insideCount
0,-0.0599999986588955,2.94000005722046,1.17999994754791,-0.0599999986588955,2.94000005722046,1.17999994754791,0,0,0,0,0,45.0048027038574,0,0,0,0,-1.06581410364015E-15,4.44089209850063E-16,-7.105427357601E-16,0
0.0199966430664063,-0.0599999986588955,2.94000005722046,1.17705690860748,-0.0600018680476204,2.93999925287472,1.18000108952831,0,0,0,0,0.937003672122955,44.8630027770996,-0.00115976633969694,3.71994488546079E-08,3.50004931704007E-08,-0.147149950265884,-0.000279892991557604,-0.000120430134961378,0.000170982260897168,5
0.0400009155273438,-0.0599999986588955,2.94000005722046,1.17018985748291,-0.0600148724204753,2.93999365745638,1.18000903369676,0,0,0,0,1.87400352954865,44.7211418151855,-0.00311126722954214,3.70364325874561E-08,3.5142885934647E-08,-0.343349903821945,-0.00111101934050116,-0.00047804058392963,0.000678704377995865,6
0.05999755859375,-0.0599062256515026,2.94009447097778,1.16346514225006,-0.0600498857373401,2.93997859220429,1.18003042278566,3197.48,2848.784,1517.084,2782.271,1.40359055995941,44.7413444519043,0.0289342664182186,0.00468872953206301,0.00471890158951283,-0.336236238479614,-0.00247936261166862,-0.00106680046642749,0.00151460392977639,6
0.0799942016601563,-0.0597377866506577,2.94026732444763,1.15723741054535,-0.0601175240668593,2.93994948932069,1.18007174198569,2865.49,2651.661,2344.691,2562.31,0.339586973190308,44.8158302307129,0.099812276661396,0.00842196960002184,0.00864456128329039,-0.31138402223587,-0.00437186567523228,-0.00188109166426407,0.0026707045193795,6
0.0999984741210938,-0.0595563054084778,2.94046425819397,1.15151941776276,-0.0602281887669101,2.93990187339187,1.18013934532406,2239.866,2528.104,3138.05,2508.566,359.321624755859,44.919116973877,0.178523629903793,0.00907408818602562,0.00984880048781633,-0.285901010036469,-0.00677637982016689,-0.00291568692648091,0.00413958468881675,5
0.1199951171875,-0.0594244003295898,2.94063210487366,1.14656889438629,-0.0603918861403606,2.93983143898525,1.18023934549506,2124.005,2454.85,3351.637,2464.381,358.750030517578,44.9998779296875,0.253347128629684,0.00659534800797701,0.00839820504188538,-0.247526824474335,-0.00967801353495435,-0.00416417885169243,0.00591214744607921,5
0.139999389648438,-0.0593829751014709,2.94074010848999,1.14257049560547,-0.0606185767455666,2.93973390035084,1.18037782724834,2312.125,2456.585,3069.211,2463.43,358.636199951172,45.0326614379883,0.326402515172958,0.00207129120826721,0.00539902737364173,-0.199921429157257,-0.0130660253322238,-0.00562194567796536,0.00798183098414958,5
0.159996032714844,-0.0594433210790157,2.9407856464386,1.13952434062958,-0.0609176604100223,2.93960521300545,1.18056053279185,2536.753,2486.789,2635.306,2491.868,358.756988525391,45.0249900817871,0.398254185914993,-0.0030173109844327,0.00227990257553756,-0.15230917930603,-0.0169249902365933,-0.00728235046931681,0.0103392124262691,5
0.180000305175781,-0.0596000216901302,2.94078159332275,1.13730907440186,-0.0612986871007165,2.9394412678651,1.18079329605139,2666.356,2505.993,2302.658,2513.302,358.8642578125,44.9985618591309,0.467370003461838,-0.007834960706532,-0.00019699614495039,-0.110760770738125,-0.0212451141043368,-0.00914117907931815,0.0129783086828701,5
0.199996948242188,-0.059847567230463,2.94073987007141,1.13576102256775,-0.0617704296168641,2.93923829023936,1.1810814761931,2653.693,2500.227,2183.163,2508.482,358.817016601563,44.9743919372559,0.532933294773102,-0.0123772900551558,-0.00209077773615718,-0.0774038657546043,-0.0260104776919234,-0.0111915819022102,0.0158893949364944,5
0.220001220703125,-0.0601894855499268,2.94066214561462,1.13474535942078,-0.0623420644491781,2.93899233174064,1.18143067899198,2540.213,2470.419,2245.807,2479.032,358.612457275391,44.9636878967285,0.594555854797363,-0.0170959010720253,-0.00388059811666608,-0.0507848337292671,-0.03121219533433,-0.0134297356845702,0.0190670430730375,5
0.239997863769531,-0.0606387332081795,2.9405415058136,1.13419342041016,-0.0630217183703222,2.93869989564571,1.18184586896662,2411.952,2429.823,2373.995,2437.222,358.334625244141,44.9659042358398,0.652698695659637,-0.0224624499678612,-0.00603129109367728,-0.0275954753160477,-0.0368338920540454,-0.0158485947310391,0.0225012498742643,5
0.259994506835938,-0.061213094741106,2.94036602973938,1.13409054279327,-0.0638179029240226,2.93835731967507,1.18233224568626,2329.491,2391.906,2462.675,2398.662,358.076324462891,44.9738883972168,0.707781493663788,-0.0287180580198765,-0.00876811612397432,-0.00514502264559269,-0.0428651747123285,-0.0184436871643672,0.0261856663338995,4
0.279998779296875,-0.0619296319782734,2.94012498855591,1.13444066047668,-0.0647390625194898,2.93796097043536,1.18289496770872,2305.692,2365.066,2470.155,2370.675,357.887145996094,44.9803352355957,0.760524690151215,-0.0358268879354,-0.0120561569929123,0.0175035335123539,-0.0492963837173861,-0.0212108567320638,0.0301143915580518,4
0.299995422363281,-0.06280118227005,2.93981075286865,1.13523650169373,-0.0657923226682404,2.93750778201804,1.18353838789779,2317.749,2348.375,2415.431,2353.36,357.76513671875,44.9817810058594,0.811329543590546,-0.0435775555670261,-0.0157063081860542,0.0397909209132195,-0.0561105313314725,-0.0241427940851591,0.0342770480028206,4
0.319999694824219,-0.0638360008597374,2.93942022323608,1.13644933700562,-0.0669860785243584,2.93699414222283,1.1842676347221,2334.609,2336.401,2342.816,2341.771,357.678741455078,44.9788551330566,0.860016942024231,-0.0517411194741726,-0.0195234585553408,0.0606438219547272,-0.0633008373176985,-0.0272365818771378,0.0386694937272938,4
0.339996337890625,-0.0650396570563316,2.93895220756531,1.1380363702774,-0.068326768706371,2.93641728069206,1.18508664143323,2338.118,2324.863,2286.496,2329.926,357.594451904297,44.9741439819336,0.906617999076843,-0.0601826533675194,-0.0234034843742847,0.0793519020080566,-0.0708499516420146,-0.0304847548730522,0.0432811298664125,4
0.360000610351563,-0.0664171800017357,2.93840527534485,1.13995087146759,-0.0698225328270578,2.93577369517774,1.18600038039362,2321.975,2310.46,2261.931,2316.07,357.494537353516,44.9703025817871,0.950789213180542,-0.068876139819622,-0.0273412726819515,0.0957258865237236,-0.0787518717320621,-0.0338847303337087,0.0481082895423912,4
0.379997253417969,-0.0679744854569435,2.93777751922607,1.14215409755707,-0.0714791088463715,2.935060916796,1.18701235683346,2295.704,2294.5,2260.76,2299.392,357.379699707031,44.9685554504395,0.992782652378082,-0.0778653174638748,-0.0313889719545841,0.110160015523434,-0.0869889214763108,-0.0374289027221294,0.0531401746945263,4
0.399993896484375,-0.0697184577584267,2.93706560134888,1.14461708068848,-0.0733036822025899,2.9342758538535,1.18812696022487,2268.331,2277.667,2268.763,2282.99,357.261535644531,44.9687690734863,1.03241419792175,-0.0871985033154488,-0.0355976223945618,0.123150825500488,-0.0955525119207663,-0.0411135764513579,0.0583715384648505,4
0.419998168945313,-0.071656346321106,2.93626570701599,1.14732038974762,-0.0753034649285836,2.93341540321397,1.18934859628618,2248.938,2262.885,2271.118,2267.676,357.152038574219,44.9699211120605,1.06995630264282,-0.0968945845961571,-0.0399889573454857,0.135164245963097,-0.104434660908044,-0.0449353170220673,0.0637975046779765,4
0.439994812011719,-0.0737949758768082,2.93537473678589,1.15024816989899,-0.0774831213880516,2.93247755793201,1.1906801144044,2238.25,2250.735,2263.1,2254.893,357.057037353516,44.971019744873,1.10572695732117,-0.106931410729885,-0.0445480942726135,0.146390289068222,-0.11361726969793,-0.0488863370519643,0.0694070170959338,4
0.459999084472656,-0.0761402398347855,2.93438982963562,1.15338408946991,-0.0798502821969742,2.93145903476675,1.19212617600376,2231.951,2240.25,2248.883,2245.016,356.975738525391,44.9716873168945,1.1394864320755,-0.117263168096542,-0.049240481108427,0.156798616051674,-0.123096124252221,-0.0529648233581361,0.075197501428542,4
0.479995727539063,-0.0786971747875214,2.93330907821655,1.15671169757843,-0.0824088828700873,2.93035814037613,1.19368918522879,2228.296,2232.056,2232.107,2235.975,356.903533935547,44.9718894958496,1.17159914970398,-0.127846792340279,-0.0540351346135139,0.166381731629372,-0.132852887402757,-0.0571628859694044,0.0811577557859174,4
0.5,-0.0814701467752457,2.93213081359863,1.16021287441254,-0.085166398670376,2.92917165836334,1.195373708601,2222.043,2223.95,2219.784,2228.454,356.835723876953,44.9720115661621,1.20179283618927,-0.138648480176926,-0.058910358697176,0.175059378147125,-0.142884000065179,-0.0614789935111996,0.0872856059789651,5
0.519996643066406,-0.0844632685184479,2.93085360527039,1.16387176513672,-0.0881260274065667,2.92789821280061,1.19718169961184,2215.434,2216.992,2211.142,2220.636,356.769866943359,44.9723014831543,1.23042106628418,-0.149656042456627,-0.0638616904616356,0.182946220040321,-0.153170920546857,-0.0659051680111775,0.0935697251769938,5
0.540000915527344,-0.0876805037260056,2.92947578430176,1.16767370700836,-0.0912951145137283,2.92653464315245,1.19911764547298,2206.66,2209.7,2207.644,2213.982,356.705963134766,44.9729957580566,1.2571986913681,-0.160861864686012,-0.068888857960701,0.190096527338028,-0.163710711144578,-0.0704401454577151,0.100008318782952,5
0.55999755859375,-0.0911258235573769,2.92799592018127,1.17160785198212,-0.094676112580471,2.92507989413848,1.20118304443252,2200.091,2203.864,2204.446,2207.18,356.645355224609,44.9739532470703,1.28254449367523,-0.172265946865082,-0.0739958733320236,0.196709647774696,-0.17448465888317,-0.0750758741803766,0.106589955332319,5
0.579994201660156,-0.0948029831051826,2.92641234397888,1.17566454410553,-0.0982748462459366,2.92353145957921,1.20338145467162,2193.572,2198.026,2202.465,2202.06,356.589538574219,44.9751319885254,1.30615544319153,-0.183857977390289,-0.0791785418987274,0.202832832932472,-0.185486174984119,-0.0798095192118365,0.113310609843116,5
0.599998474121094,-0.0987155586481094,2.92472362518311,1.17983651161194,-0.102097262171133,2.92188678079254,1.2057165089127,2189.877,2193.731,2198.753,2197.191,356.539276123047,44.9763221740723,1.32828783988953,-0.195628508925438,-0.0844325199723244,0.208601325750351,-0.196709126405959,-0.0846384416756885,0.120166535736014,5
0.6199951171875,-0.102866783738136,2.92292857170105,1.18411755561829,-0.106144683970236,2.92014528826426,1.208189015731,2187.685,2190.433,2193.994,2193.242,356.493896484375,44.977424621582,1.34922623634338,-0.207561701536179,-0.0897482484579086,0.214054942131042,-0.208134604141382,-0.0895545055543457,0.127146181793521,5
0.639999389648438,-0.107259601354599,2.9210262298584,1.18850111961365,-0.110424235525481,2.91830391678686,1.21080332699501,2184.592,2186.966,2191.135,2190.678,356.45263671875,44.9785461425781,1.36857783794403,-0.219640910625458,-0.0951160714030266,0.219177961349487,-0.219761081350814,-0.0945570538913933,0.134248615293163,5
0.659996032714844,-0.111896768212318,2.91901564598083,1.1929829120636,-0.114936482147704,2.9163624231229,1.21355978804431,2183.544,2185.037,2187.544,2187.718,356.414733886719,44.979606628418,1.3867883682251,-0.231858521699905,-0.100532434880733,0.224088162183762,-0.231569557951997,-0.0996379114822372,0.141462229381183,5
0.680000305175781,-0.116780787706375,2.91689586639404,1.19755792617798,-0.119688496929273,2.91431776391831,1.21646271972064,2180.796,2182.608,2186.657,2186.139,356.379791259766,44.9807510375977,1.40348529815674,-0.244200900197029,-0.105990901589394,0.228750646114349,-0.243559016194652,-0.104796640417365,0.148786402329814,5
0.699996948242188,-0.121914088726044,2.91466593742371,1.20222389698029,-0.124680083855354,2.91217002351282,1.2195120022816,2180.248,2181.631,2184.857,2184.016,356.34765625,44.9818725585938,1.41916525363922,-0.256664931774139,-0.111491404473782,0.233299762010574,-0.255710395848158,-0.11002503961202,0.1562094905416,5
0.720001220703125,-0.127298846840858,2.91232538223267,1.20697784423828,-0.129918284978346,2.90991617190799,1.22271193760712,2178.143,2180.03,2185.337,2183.301,356.318511962891,44.983081817627,1.43344306945801,-0.26923856139183,-0.117028310894966,0.237697377800941,-0.268023157655716,-0.11532287703907,0.163731164592979,5
0.739997863769531,-0.132937222719193,2.90987324714661,1.2118194103241,-0.135402141159277,2.90755662179454,1.22606193977416,2178.639,2179.855,2184.126,2182.059,356.292297363281,44.9842185974121,1.44678378105164,-0.281919181346893,-0.122601382434368,0.242077007889748,-0.280478211503383,-0.120681938755799,0.171339762631236,5
0.759994506835938,-0.138831079006195,2.90730905532837,1.21674692630768,-0.14113644597991,2.90508931062815,1.22956493710703,2177.446,2179.034,2184.993,2182.165,356.269012451172,44.9853973388672,1.45878481864929,-0.294693291187286,-0.128204017877579,0.246377855539322,-0.293070637251543,-0.126100107763583,0.179032279019858,5
0.779998779296875,-0.144982218742371,2.9046323299408,1.22176110744476,-0.147126184485884,2.90251209348295,1.2332239748923,2178.166,2179.3,2184.759,2181.815,356.248748779297,44.9865226745605,1.46971583366394,-0.307556986808777,-0.133835151791573,0.250706940889359,-0.305795832832518,-0.131575403921268,0.186805902427515,5
0.799995422363281,-0.151392236351967,2.90184259414673,1.2268625497818,-0.153369252164744,2.89982587587186,1.23703776751617,2179.486,2180.035,2184.022,2181.853,356.230804443359,44.9875259399414,1.47987651824951,-0.320500791072845,-0.139490306377411,0.25507315993309,-0.318634718604462,-0.13709961779199,0.194648977398734,5
0.819999694824219,-0.158062517642975,2.89893937110901,1.2320511341095,-0.159872691993147,2.89702762739878,1.24101061742316,2178.965,2179.935,2185.722,2182.95,356.215087890625,44.9885902404785,1.48874616622925,-0.333513855934143,-0.145164221525192,0.259428292512894,-0.331587821991737,-0.142672976311719,0.202561826128828,5
0.839996337890625,-0.164994418621063,2.89592218399048,1.23732900619507,-0.166633637018892,2.89411858163313,1.24514077323692,2180.906,2181.325,2185.611,2183.037,356.201507568359,44.9895553588867,1.49689090251923,-0.3465955555439,-0.150858104228973,0.263896644115448,-0.344636106234817,-0.148287288494656,0.210532819358465,5
0.860000610351563,-0.172189086675644,2.89279079437256,1.24269688129425,-0.173659158941841,2.89109569582005,1.24943255494854,2180.643,2181.643,2187.843,2184.468,356.190093994141,44.9905662536621,1.50382661819458,-0.359733253717422,-0.156566083431244,0.268392652273178,-0.357780475378537,-0.153942943326036,0.218562509354528,5
0.879997253417969,-0.179647624492645,2.88954496383667,1.24815773963928,-0.180945630646592,2.88796053060595,1.25388374680983,2183.039,2183.373,2187.89,2184.904,356.180786132813,44.9914588928223,1.51011621952057,-0.372926771640778,-0.16228936612606,0.273041576147079,-0.371001963495383,-0.159631780297098,0.226639310127856,5
0.899993896484375,-0.187370896339417,2.88618445396423,1.25371265411377,-0.18849723509595,2.8847112861788,1.25849690412748,2183.096,2183.934,2190.239,2186.695,356.173614501953,44.9923820495605,1.51522409915924,-0.386162728071213,-0.168021395802498,0.277744144201279,-0.384296738353309,-0.165352150505452,0.234760880627692,5
0.919998168945313,-0.19535967707634,2.88270926475525,1.25936472415924,-0.196318384305134,2.8813460641717,1.26327472213274,2185.067,2185.555,2191.149,2187.596,356.168731689453,44.9932250976563,1.51946663856506,-0.399439573287964,-0.173762738704681,0.282601803541183,-0.397661187980262,-0.171102499820431,0.242925014356675,5
0.939994812011719,-0.20361465215683,2.87911915779114,1.26511681079865,-0.204404317663683,2.87786691294234,1.26821429264298,2187.488,2187.445,2191.272,2188.715,356.165435791016,44.9939384460449,1.52317440509796,-0.412748903036118,-0.179509669542313,0.2876036465168,-0.4110765036434,-0.176874735369747,0.251120221353413,5
0.959999084472656,-0.212136268615723,2.87541389465332,1.27097022533417,-0.212762239776093,2.87427073255068,1.27332001683864,2187.548,2188.132,2194.026,2190.823,356.163787841797,44.9947166442871,1.52572929859161,-0.426080197095871,-0.185257270932198,0.292672783136368,-0.424544411524882,-0.18266959988136,0.259347556115652,5
0.979995727539063,-0.220924943685532,2.87159371376038,1.27692890167236,-0.22138664033507,2.87055989392801,1.27858852855901,2190.31,2190.357,2194.413,2191.552,356.163787841797,44.995361328125,1.52778196334839,-0.439434915781021,-0.191007986664772,0.297935962677002,-0.438046240701377,-0.188479059778567,0.267595612867683,5
1,-0.229980945587158,2.8676586151123,1.282994389534,-0.230284798736574,2.86673126495361,1.28402427467346,2190.415,2191.095,2197.227,2193.709,356.16552734375,44.9960556030273,1.5287150144577,-0.45279997587204,-0.196755677461624,0.303276777267456,-0.451584000205995,-0.194303979492187,0.275865618896484,5
1.01999664306641,-0.239304482936859,2.86360859870911,1.28917074203491,-0.239450461003889,2.86278753653895,1.28962343472523,2193.375,2193.356,2197.382,2194.485,356.168975830078,44.9966201782227,1.52917468547821,-0.466176480054855,-0.202502340078354,0.308820486068726,-0.465139182559269,-0.200136395770846,0.284146268271649,5
1.04000091552734,-0.248895466327667,2.85944366455078,1.29545950889587,-0.24889099213045,2.8587255397331,1.29539050787386,2193.468,2194.115,2200.077,2196.648,356.174163818359,44.9972190856934,1.52854979038239,-0.479550421237946,-0.208241164684296,0.314437717199326,-0.478714054341683,-0.205977283860805,0.292438945611829,5
1.05999755859375,-0.258753925561905,2.85516428947449,1.30186462402344,-0.258599401509697,2.85454828239877,1.3013212236669,2196.466,2196.393,2200.045,2197.362,356.180938720703,44.9976768493652,1.52751982212067,-0.492923140525818,-0.213974177837372,0.320255845785141,-0.492290296490434,-0.211818761581115,0.30073246008742,5
1.07999420166016,-0.268879562616348,2.85077047348022,1.30838739871979,-0.268579290074434,2.85025421515517,1.30741778185801,2196.453,2196.997,2202.665,2199.56,356.189270019531,44.998176574707,1.52539241313934,-0.506280720233917,-0.219694539904594,0.326139003038406,-0.50586523043438,-0.217659676417445,0.30902517540111,5
1.09999847412109,-0.279271990060806,2.84626245498657,1.31503129005432,-0.278834517009062,2.84584167750307,1.31368253996271,2198.469,2198.754,2203.541,2200.447,356.199462890625,44.998592376709,1.5225476026535,-0.519623219966888,-0.225404068827629,0.332191735506058,-0.519436284009554,-0.223498921639497,0.317315520258069,5
1.1199951171875,-0.28993085026741,2.84164047241211,1.3217990398407,-0.289357002179081,2.84131414609862,1.32011056195293,2200.847,2200.671,2203.413,2201.419,356.210876464844,44.9988899230957,1.51939070224762,-0.532942533493042,-0.231099098920822,0.33838826417923,-0.532985466132485,-0.229328756186667,0.32559250418615,5
1.13999938964844,-0.300855368375778,2.83690500259399,1.32869160175323,-0.300154365346813,2.83666834237095,1.32670650262257,2200.395,2200.98,2206.179,2203.497,356.223571777344,44.9992561340332,1.51515400409698,-0.546228229999542,-0.236774653196335,0.344629228115082,-0.546515580872639,-0.235150386571708,0.333857840147634,5
1.15999603271484,-0.312045097351074,2.83205628395081,1.33571267127991,-0.311217811600473,2.8319080505249,1.33346498929726,2203.079,2202.987,2205.958,2203.846,356.237670898438,44.9995079040527,1.51055836677551,-0.559483349323273,-0.242434084415436,0.35105299949646,-0.560008885098767,-0.240956178420931,0.342100689140515,6
1.18000030517578,-0.323498964309692,2.8270947933197,1.34286284446716,-0.322555076427271,2.82702994219644,1.34039074746542,2202.442,2203.226,2208.584,2205.693,356.253295898438,44.999828338623,1.50490438938141,-0.572693645954132,-0.248070552945137,0.35750874876976,-0.573468357077025,-0.246747413199059,0.350322870541114,6
1.19999694824219,-0.335216164588928,2.82202100753784,1.3501455783844,-0.334156660511822,2.8220381046756,1.34747797414352,2205.152,2205.127,2207.953,2205.862,356.270446777344,45.0000038146973,1.49894630908966,-0.58586174249649,-0.253686755895615,0.364138871431351,-0.58687652428584,-0.252516572968185,0.358513710658656,6
1.21999359130859,-0.347195655107498,2.81683540344238,1.35756123065948,-0.346025842163694,2.81693112739735,1.35472867199972,2204.437,2205.18,2210.204,2207.612,356.289123535156,45.0002479553223,1.49194538593292,-0.598972737789154,-0.259275317192078,0.370783984661102,-0.600231432569387,-0.258262816909651,0.366672015729841,6
1.23999786376953,-0.359436184167862,2.81153869628906,1.36511242389679,-0.358166167196084,2.81170748469733,1.36214500711597,2206.021,2206.402,2210.394,2207.947,356.309661865234,45.000415802002,1.48429048061371,-0.612027406692505,-0.264837950468063,0.377557963132858,-0.613531154887641,-0.263985315871967,0.374796608555988,6
1.25999450683594,-0.371936500072479,2.80613136291504,1.37280094623566,-0.3705671011502,2.80637170925886,1.36972054415578,2207.98,2207.769,2209.427,2208.352,356.331268310547,45.0004615783691,1.47639441490173,-0.62501722574234,-0.270370811223984,0.384427517652512,-0.626758665639206,-0.269676744214496,0.382877088462885,6
1.27999877929688,-0.384695112705231,2.80061388015747,1.38062655925751,-0.383236695417198,2.80092033679326,1.37746020158837,2206.725,2207.409,2211.702,2209.882,356.354064941406,45.000602722168,1.46743547916412,-0.63793158531189,-0.275868773460388,0.391278564929962,-0.639917282339435,-0.275338529371412,0.39091548206889,6
1.29999542236328,-0.397710591554642,2.79498720169067,1.38859176635742,-0.396163740917024,2.79535819025452,1.38535713196165,2208.846,2208.878,2210.78,2209.479,356.378112792969,45.0006294250488,1.45822763442993,-0.650774300098419,-0.281335473060608,0.398261100053787,-0.652990303744023,-0.280963485263868,0.398901586844477,6
1.31999969482422,-0.410981237888336,2.78925180435181,1.39669597148895,-0.409356423791328,2.7896817473746,1.39341633606181,2207.406,2208.327,2212.875,2210.796,356.403625488281,45.0007514953613,1.44795894622803,-0.663531303405762,-0.286764025688171,0.40521314740181,-0.665981146317813,-0.286553081901244,0.406837489854705,6
1.33999633789063,-0.424505352973938,2.78340864181519,1.40494167804718,-0.422802873722428,2.78389611561957,1.401630562497,2209.546,2209.65,2211.489,2210.187,356.430633544922,45.0007286071777,1.43746984004974,-0.676205694675446,-0.292157471179962,0.412285685539246,-0.678873453515705,-0.29210028151913,0.41471319914141,6
1.36000061035156,-0.438280999660492,2.77745842933655,1.4133278131485,-0.436511415158101,2.77799771321212,1.41000489654248,2207.987,2208.928,2213.197,2211.348,356.459167480469,45.0007972717285,1.42594230175018,-0.688782393932343,-0.297508031129837,0.419307500123978,-0.691670720740693,-0.297606588091785,0.422530849991739,6
1.37999725341797,-0.452306270599365,2.77140212059021,1.42185640335083,-0.450469530727146,2.77199192602736,1.41853169153152,2210.055,2210.072,2211.42,2210.565,356.489105224609,45.0007209777832,1.41421234607697,-0.701264441013336,-0.302818536758423,0.426431804895401,-0.704356955827446,-0.303065120637236,0.430280673041441,6
1.39999389648438,-0.466578960418701,2.76524043083191,1.4305260181427,-0.464680216184654,2.76587746507559,1.42721277752413,2208.212,2209.14,2212.987,2211.555,356.520446777344,45.0007438659668,1.40144550800323,-0.713636994361877,-0.308081328868866,0.433481752872467,-0.716930938559026,-0.308475354130225,0.437961922879032,6
1.41999816894531,-0.481096982955933,2.75897455215454,1.43933773040771,-0.47914673136562,2.75965292774086,1.43605014590267,2208.957,2209.547,2212.307,2210.904,356.553558349609,45.0006942749023,1.38810336589813,-0.72590172290802,-0.313298940658569,0.440587162971497,-0.729391385793766,-0.313836736470737,0.445573815653291,6
1.43999481201172,-0.495857983827591,2.75260519981384,1.44829201698303,-0.493855616658466,2.75332410531803,1.44503557440044,2210.104,2210.058,2210.399,2210.4,356.587646484375,45.0005340576172,1.3746212720871,-0.738050520420074,-0.318467259407043,0.447711706161499,-0.7417228873516,-0.319142637088802,0.453106937525684,6
1.45999908447266,-0.510859489440918,2.74613356590271,1.45738661289215,-0.508815552717244,2.74688726276417,1.45417436589355,2207.73,2208.719,2212.04,2211.147,356.622894287109,45.0005073547363,1.36009466648102,-0.750073313713074,-0.323581278324127,0.454732626676559,-0.753929052770513,-0.324394609067776,0.460563493506643,6
1.47999572753906,-0.526098906993866,2.73956060409546,1.46662294864655,-0.524012471663969,2.74034845309416,1.46345792653486,2209.219,2209.368,2210.076,2209.805,356.659393310547,45.0003700256348,1.34538757801056,-0.761974513530731,-0.328644752502441,0.461818218231201,-0.765994882555672,-0.329586198544069,0.467934320638836,6
1.5,-0.541573703289032,2.73288750648499,1.47599875926971,-0.539455198877605,2.73370387899399,1.47289164761066,2206.708,2207.944,2211.49,2210.303,356.697387695313,45.0003433227539,1.32966661453247,-0.77374005317688,-0.33365061879158,0.46878844499588,-0.777924000354858,-0.334718964672088,0.475221632552146,6
1.51999664306641,-0.557281196117401,2.72611546516418,1.48551499843597,-0.555129074991064,2.72695984797977,1.48246657394236,2208.244,2208.452,2209.068,2208.808,356.73681640625,45.0001907348633,1.31380152702332,-0.785373449325562,-0.338601857423782,0.475812911987305,-0.789701834723693,-0.339786637766398,0.482416527778586,6
1.54000091552734,-0.57321834564209,2.71924567222595,1.49516904354095,-0.571043070329722,2.72011250037111,1.49218818536175,2205.656,2206.836,2210.117,2209.232,356.777709960938,45.000129699707,1.29690754413605,-0.796860098838806,-0.343490749597549,0.482704043388367,-0.801332006385301,-0.344790775723006,0.489521218161413,6
1.55999755859375,-0.589382410049438,2.71227931976318,1.50496172904968,-0.587181951496087,2.71316839067337,1.50204717602401,2207.133,2207.264,2207.375,2207.525,356.819946289063,44.9999351501465,1.2799106836319,-0.808203458786011,-0.348320215940475,0.489633411169052,-0.812800388649436,-0.349725300221754,0.496527073925997,6
1.57999420166016,-0.605770170688629,2.70521759986877,1.51488995552063,-0.603548545866849,2.70612630234534,1.51204527312944,2204.272,2205.457,2208.36,2207.829,356.863555908203,44.9998588562012,1.26189363002777,-0.819389283657074,-0.353082805871964,0.496409118175507,-0.824106301004481,-0.354589918457504,0.503433679358411,6
1.59999847412109,-0.622378647327423,2.6980619430542,1.52495348453522,-0.620145926473056,2.69898491314762,1.52218435394475,2204.352,2205.136,2206.886,2206.338,356.908905029297,44.9997291564941,1.24336552619934,-0.830419778823853,-0.357781022787094,0.503177523612976,-0.835248923368005,-0.359384277571697,0.510240533483095,5
1.6199951171875,-0.639204323291779,2.69081377983093,1.53515148162842,-0.636958033083316,2.69175113334911,1.53245460752521,2204.873,2204.949,2204.132,2205.047,356.955169677734,44.9994888305664,1.22480273246765,-0.841287195682526,-0.362410873174667,0.509900212287903,-0.846214826007804,-0.364102599125749,0.516939432286212,5
1.63999938964844,-0.656244039535522,2.68347454071045,1.54548048973083,-0.653994195024907,2.68442094880091,1.54286173301126,2201.64,2202.803,2205.167,2205.191,357.002502441406,44.999397277832,1.20521092414856,-0.851982593536377,-0.366967469453812,0.516449332237244,-0.857007552155828,-0.368746407673381,0.523532540272869,5
1.65999603271484,-0.673494160175323,2.67604541778564,1.55594062805176,-0.671237824488362,2.67700149677403,1.55339559716896,2202.591,2202.814,2202.419,2203.062,357.050994873047,44.999195098877,1.18552029132843,-0.86251026391983,-0.371454626321793,0.523005723953247,-0.867614155697522,-0.373310132863173,0.530011948863706,5
1.68000030517578,-0.690951347351074,2.66852807998657,1.56652820110321,-0.688698391434734,2.66948870260877,1.56406198504972,2199.209,2200.688,2203.348,2202.943,357.100891113281,44.9991226196289,1.16485989093781,-0.872857511043549,-0.375865697860718,0.529379785060883,-0.878038122530658,-0.377795274579551,0.536379787539275,5
1.69999694824219,-0.708611845970154,2.66092395782471,1.57724332809448,-0.706358800111611,2.66188992212981,1.57485045312518,2200.293,2200.587,2200.18,2200.725,357.152130126953,44.9989242553711,1.14414703845978,-0.883028030395508,-0.380203664302826,0.53575736284256,-0.888267004546665,-0.382196476749158,0.542628451944297,5
1.71999359130859,-0.726472079753876,2.6532347202301,1.58808207511902,-0.72422180503422,2.6542039701462,1.58576268408571,2196.916,2198.324,2200.75,2200.593,357.204803466797,44.998851776123,1.12245965003967,-0.893008470535278,-0.384461164474487,0.541939854621887,-0.898300426012065,-0.386513577704374,0.548757712549055,5
1.73999786376953,-0.744527995586395,2.64546203613281,1.59904360771179,-0.742290383213093,2.64642956573347,1.59680049654058,2196.707,2197.536,2198.7,2198.691,357.25927734375,44.9987030029297,1.10028183460236,-0.902800559997559,-0.388640284538269,0.548079431056976,-0.908137821269591,-0.39074633405868,0.554767223802352,5
1.75999450683594,-0.762775957584381,2.63760733604431,1.61012637615204,-0.760546715064628,2.63857437616062,1.60795300478424,2196.993,2197.04,2195.308,2196.899,357.314483642578,44.9984359741211,1.0781706571579,-0.912396788597107,-0.392737060785294,0.554136574268341,-0.917767514700581,-0.394889722119545,0.560649853250941,4
1.77999877929688,-0.781211674213409,2.62967228889465,1.62132585048676,-0.779000609654483,2.63063418086074,1.61922620102184,2193.143,2194.42,2196.112,2196.751,357.370635986328,44.998348236084,1.055055975914,-0.921789288520813,-0.396746784448624,0.559974074363708,-0.927192788821983,-0.398945154262308,0.566407606133204,4
1.79999542236328,-0.799831390380859,2.62165880203247,1.63264167308807,-0.797633790944145,2.62261684350262,1.63060892070663,2193.867,2194.142,2192.917,2194.099,357.427795410156,44.9981346130371,1.03196573257446,-0.930982649326324,-0.400673598051071,0.565789997577667,-0.936402499096495,-0.402907835303912,0.572033674425208,4
1.81999969482422,-0.818630754947662,2.61356854438782,1.64406943321228,-0.816456197270346,2.61451808789761,1.64210723501345,2189.96,2191.49,2193.626,2193.813,357.486236572266,44.9980926513672,1.00787675380707,-0.939965665340424,-0.404511213302612,0.571385502815247,-0.945399824400851,-0.406779133026206,0.577530000053147,3
1.83999633789063,-0.837605535984039,2.60540318489075,1.65560865402222,-0.835449117627072,2.60634596486888,1.6537097136807,2190.855,2191.172,2190.044,2191.077,357.5458984375,44.9978828430176,0.983836054801941,-0.948741614818573,-0.408262759447098,0.576958298683167,-0.954174163352093,-0.410554485950274,0.582890106797601,3
1.86000061035156,-0.856751501560211,2.59716486930847,1.66725468635559,-0.854622615239374,2.59809614449182,1.66542250417552,2187.018,2188.55,2190.392,2190.694,357.606903076172,44.9978370666504,0.958874046802521,-0.957298874855042,-0.411921262741089,0.582301735877991,-0.962728579444532,-0.414235212212131,0.588115866099442,0
1.87999725341797,-0.876064300537109,2.58885502815247,1.67900693416595,-0.873957566090845,2.58977685529642,1.67723392393473,2187.955,2188.082,2186.545,2188,357.669006347656,44.9976119995117,0.933953702449799,-0.965640544891357,-0.41548952460289,0.587612569332123,-0.971053025860989,-0.417816988947023,0.593201140514831,0
1.89999389648438,-0.895539402961731,2.58047580718994,1.69086050987244,-0.893456683142228,2.58138692997148,1.6891456302637,2183.927,2185.416,2186.909,2187.538,357.732208251953,44.9975509643555,0.908121585845947,-0.973755598068237,-0.418961048126221,0.592680513858795,-0.979147395688901,-0.421299770153459,0.598145864732551,0
1.91999816894531,-0.915172338485718,2.57202911376953,1.70281398296356,-0.913122862707269,2.57292512231409,1.7011593924753,2183.403,2184.26,2184.54,2185.194,357.796997070313,44.9974250793457,0.881893455982208,-0.981646120548248,-0.422338426113129,0.597674608230591,-0.987011339258123,-0.424683405378145,0.60294982514457,0
1.93999481201172,-0.934958457946777,2.56351685523987,1.71486508846283,-0.932936403420974,2.56439990927123,1.7132631753131,2183.337,2183.398,2180.872,2183.021,357.8623046875,44.9971733093262,0.855831503868103,-0.989305853843689,-0.425618141889572,0.602553069591522,-0.994635661494588,-0.427963938237592,0.607607404623624,0
1.95999908447266,-0.954893052577972,2.55494093894958,1.72700870037079,-0.952907658613767,2.55580683609405,1.72546330346508,2179.046,2180.42,2181.449,2182.612,357.928405761719,44.9971160888672,0.828826785087585,-0.99672919511795,-0.428796470165253,0.60718047618866,-1.00202309041976,-0.431142542523221,0.612120269675456,0
1.97999572753906,-0.974971354007721,2.54630351066589,1.73924386501312,-0.973016570682103,2.54715453300902,1.73774752405424,2179.601,2179.845,2177.9,2179.579,357.995330810547,44.9969367980957,0.80194079875946,-1.00391972064972,-0.431877076625824,0.61176073551178,-1.00916501115878,-0.434215511495054,0.616483157607448,0
2,-0.995188772678375,2.53760623931885,1.75156569480896,-0.993273599084619,2.53843849960327,1.75012222660065,2175.323,2176.937,2178.347,2179.04,358.063385009766,44.9969139099121,0.774151623249054,-1.0108687877655,-0.434854686260223,0.616091072559357,-1.01606400046349,-0.437183953857422,0.620697642517089,0
2.01999664306641,-1.01554024219513,2.52885174751282,1.76397311687469,-1.01365835337184,2.52966750931758,1.76257495489689,2176.042,2176.358,2174.483,2175.969,358.132446289063,44.9967422485352,0.746534287929535,-1.01757872104645,-0.437731891870499,0.620373725891113,-1.02271203275434,-0.440044416427654,0.624758821703072,0
2.03999328613281,-1.0360209941864,2.52004170417786,1.77646112442017,-1.03417354141348,2.52084039703127,1.77510736313833,2171.927,2173.4,2174.559,2175.487,358.20263671875,44.9967155456543,0.718022227287292,-1.02404093742371,-0.440503031015396,0.624402761459351,-1.02910913225408,-0.442796909628122,0.628666709962695,0
2.05999755859375,-1.05662608146667,2.51117825508118,1.78902792930603,-1.05482201812353,2.5119559343546,1.78772119534738,2171.279,2172.17,2171.973,2172.889,358.274291992188,44.9966011047363,0.689205050468445,-1.03025615215302,-0.443169832229614,0.62833958864212,-1.03525504859546,-0.445441325732794,0.632421154350513,0
2.07999420166016,-1.07735061645508,2.50226378440857,1.80167090892792,-1.07558293843174,2.50302309033894,1.80040371759589,2171.178,2171.161,2168.042,2170.552,358.346282958984,44.9963836669922,0.660651445388794,-1.03621900081635,-0.44572913646698,0.632146418094635,-1.0411426556922,-0.447974598585819,0.636017801651613,0
2.09999847412109,-1.098188996315,2.49330019950867,1.81438457965851,-1.09646699912883,2.4940372624541,1.8131614643864,2166.682,2167.983,2168.478,2170.121,358.418853759766,44.9963417053223,0.631179630756378,-1.04192578792572,-0.448177874088287,0.635684609413147,-1.04677411523768,-0.450397658303471,0.63945797241075,0
2.1199951171875,-1.11913669109344,2.48428988456726,1.8271678686142,-1.11745308225396,2.48500753716864,1.82598153508617,2167.221,2167.373,2164.749,2166.813,358.492004394531,44.9961814880371,0.601950764656067,-1.04737913608551,-0.450519561767578,0.639163374900818,-1.0521429102862,-0.45270770082608,0.642737685527497,0
2.13999938964844,-1.1401880979538,2.47523498535156,1.84001541137695,-1.138551967509,2.47592927627801,1.83887051484687,2162.648,2164.255,2165.214,2166.293,358.566070556641,44.9961891174316,0.571846902370453,-1.05257296562195,-0.452750027179718,0.642375111579895,-1.05725102347782,-0.454905579228273,0.645858152165725,0
2.15999603271484,-1.16133809089661,2.46613764762878,1.85292601585388,-1.15974228854654,2.4668116731246,1.85181535130026,2163.432,2163.612,2161.167,2163.002,358.640930175781,44.9960403442383,0.542008221149445,-1.05750894546509,-0.454871624708176,0.645532667636871,-1.06209255378819,-0.456988754464129,0.648815767481742,0
2.18000030517578,-1.182581782341,2.45700001716614,1.86589443683624,-1.18103490068612,2.45765005696766,1.86482267579167,2159.032,2160.596,2161.281,2162.439,358.716705322266,44.9960441589355,0.511379241943359,-1.06218087673187,-0.456879734992981,0.648420631885529,-1.06666929835407,-0.458957999791384,0.651611629318345,0
2.19999694824219,-1.20391345024109,2.44782447814941,1.87891936302185,-1.20240821395574,2.44845371736898,1.8778792993441,2159.79,2159.84,2157.154,2159.255,358.793151855469,44.9958915710449,0.481004387140274,-1.06658971309662,-0.4587761759758,0.651244938373566,-1.07097597819164,-0.460811043810786,0.654242512826705,0
2.21999359130859,-1.2253280878067,2.4386134147644,1.89199531078339,-1.22386495005255,2.43922148325834,1.89098688459988,2155.409,2156.86,2157.197,2158.64,358.870361328125,44.9958801269531,0.449866205453873,-1.07073032855988,-0.460556983947754,0.653797090053558,-1.07501271071614,-0.462547937042828,0.656708489733953,0
2.23999786376953,-1.24682021141052,2.42936897277832,1.90512025356293,-1.24540792547886,2.42995214277345,1.90414715211632,2154.688,2155.421,2154.571,2155.987,358.948699951172,44.9958190917969,0.418488144874573,-1.07460308074951,-0.46222397685051,0.656245768070221,-1.07877930973132,-0.464168599372462,0.659009446295705,0
2.25999450683594,-1.26838433742523,2.42009353637695,1.91829133033752,-1.26701526177039,2.4206551096063,1.91734673668097,2154.483,2154.356,2150.646,2153.47,359.027069091797,44.9956130981445,0.387491315603256,-1.07820427417755,-0.463774621486664,0.658552646636963,-1.08227143928024,-0.465671165158559,0.661142733743536,0
2.27999877929688,-1.29001498222351,2.41078948974609,1.93150293827057,-1.28869796983554,2.41132564607061,1.93059236468599,2149.816,2151.145,2151.065,2152.979,359.105773925781,44.9956245422363,0.355707317590714,-1.0815327167511,-0.465207248926163,0.660581886768341,-1.08549040888332,-0.467056197851165,0.663109152043028,0
2.29999542236328,-1.31170678138733,2.40145897865295,1.94475376605988,-1.31043401044317,2.40197323503182,1.94387057270897,2150.374,2150.358,2147.287,2149.631,359.184814453125,44.995491027832,0.324235320091248,-1.08458971977234,-0.466524571180344,0.662543475627899,-1.08843251702753,-0.468322104792631,0.664906439997631,0
2.31999969482422,-1.33345425128937,2.39210438728333,1.95803833007813,-1.33223444283894,2.39259311800549,1.9571881166705,2145.699,2147.323,2147.67,2149.006,359.264526367188,44.9955406188965,0.292042016983032,-1.08737254142761,-0.467723846435547,0.664230763912201,-1.09109887036509,-0.469469362144493,0.666535273643923,0
2.33999633789063,-1.35525178909302,2.38272833824158,1.97135543823242,-1.35407709248145,2.38319483607731,1.97053145048929,2146.503,2146.531,2143.599,2145.693,359.344787597656,44.9954223632813,0.260209679603577,-1.08988118171692,-0.468806654214859,0.665855169296265,-1.09348640563071,-0.470496651869278,0.667993781680938,0
2.36000061035156,-1.37709403038025,2.37333297729492,1.98469948768616,-1.37597305876702,2.37377361348711,1.98390735461333,2142.078,2143.496,2143.599,2145.159,359.425689697266,44.9954528808594,0.227665945887566,-1.09211301803589,-0.469769895076752,0.667205452919006,-1.09559602313537,-0.471404361345641,0.669282514094601,0
2.37999725341797,-1.39897549152374,2.36392068862915,1.99806916713715,-1.39790005743958,2.36433903852774,1.99730221593832,2142.896,2142.736,2139.433,2141.854,359.506927490234,44.9953155517578,0.195500791072845,-1.09406757354736,-0.47061488032341,0.668484449386597,-1.09742530100382,-0.472191448508328,0.67039999139912,0
2.39999389648438,-1.42089033126831,2.35449385643005,2.01145887374878,-1.41986083522252,2.35488992936084,2.01071771239474,2138.346,2139.72,2139.545,2141.315,359.588623046875,44.9953536987305,0.162652686238289,-1.09574341773987,-0.471339255571365,0.669483721256256,-1.09897439291323,-0.472857979480329,0.671346307473475,0
2.41999816894531,-1.44283294677734,2.34505462646484,2.02486634254456,-1.44185817738692,2.34542508756209,2.02415554546122,2137.698,2138.342,2136.91,2138.523,359.671142578125,44.9953079223633,0.129727721214294,-1.09713959693909,-0.47194442152977,0.670377135276794,-1.10024313330221,-0.473403883025206,0.672121361178802,0
2.43999481201172,-1.4647980928421,2.33560633659363,2.03828883171082,-1.46386968334064,2.3359541514805,2.03760203096557,2137.498,2137.251,2133.029,2135.991,359.753387451172,44.9951553344727,0.0973405539989471,-1.09825420379639,-0.472428530454636,0.671123862266541,-1.10123006676374,-0.473828532921971,0.672724263429655,0
2.45999908447266,-1.48677980899811,2.32615041732788,2.05172061920166,-1.48590651627916,2.32647231790489,2.05106398832971,2132.855,2133.901,2133.384,2135.723,359.835723876953,44.9951934814453,0.0641747787594795,-1.09908890724182,-0.472790896892548,0.67159241437912,-1.10193556692257,-0.474132089930926,0.673155242467576,0
2.47999572753906,-1.50877261161804,2.31668949127197,2.06516027450562,-1.50794623031618,2.31698924467309,2.06452770571198,2133.382,2133.277,2129.739,2132.172,359.918060302734,44.9950942993164,0.0314808189868927,-1.09964311122894,-0.47303381562233,0.671986281871796,-1.10235882472314,-0.474314205938057,0.673413804053135,0
2.5,-1.5307708978653,2.30722665786743,2.07860255241394,-1.52999999932945,2.30750012397766,2.0780000090599,2128.746,2130.258,2130.086,2131.642,0.000842897279653698,44.995174407959,-0.00180500943679363,-1.09991788864136,-0.473156094551086,0.672108292579651,-1.10250000050292,-0.474374949932098,0.673500046133994,0
2.51999664306641,-1.55276918411255,2.29776358604431,2.09204578399658,-1.55204535801192,2.29801462201262,2.09146717466799,2129.689,2129.352,2126.007,2128.43,0.0837927982211113,44.9950714111328,359.965301513672,-1.09991145133972,-0.473158448934555,0.672165334224701,-1.10235893238473,-0.47431425226183,0.67341386982192,0
2.53999328613281,-1.57476162910461,2.28830289840698,2.1054847240448,-1.57408507527774,2.28853154739156,2.10493089402267,2125.148,2126.534,2126.117,2127.841,0.167123153805733,44.9951324462891,359.931854248047,-1.09962487220764,-0.473039746284485,0.671945035457611,-1.10193578218388,-0.474132182551855,0.673155373967352,0
2.55999755859375,-1.59674263000488,2.27884674072266,2.11891722679138,-1.59612191359838,2.27904971150017,2.11839285467467,2124.645,2125.15,2123.433,2125.119,0.251100927591324,44.9951133728027,359.898406982422,-1.09905624389648,-0.472800463438034,0.671620309352875,-1.10123038958312,-0.473828671822132,0.672724460634977,0
2.57999420166016,-1.61870694160461,2.26939821243286,2.1323401927948,-1.61813342708139,2.26957877217893,2.13183934477855,2124.521,2124.058,2119.576,2122.658,0.334600329399109,44.9949684143066,359.865570068359,-1.09820437431335,-0.47243931889534,0.671147882938385,-1.10024356351463,-0.47340406813359,0.672121623988854,0
2.59999847412109,-1.64064824581146,2.25995898246765,2.14574813842773,-1.64013077892511,2.26011392621545,2.14527718375796,2119.929,2120.874,2119.913,2122.394,0.417946338653564,44.9950218200684,359.832061767578,-1.09707295894623,-0.471956431865692,0.670399606227875,-1.09897493039424,-0.472858210743393,0.671346635812239,0
2.6199951171875,-1.66256141662598,2.25053191184998,2.15913963317871,-1.66209156852628,2.2506648119635,2.15869268743396,2120.569,2120.255,2116.32,2118.886,0.501004815101624,44.994945526123,359.799163818359,-1.09566032886505,-0.471353471279144,0.669576585292816,-1.09742594550583,-0.472191725819537,0.67040038511534,0
2.63999938964844,-1.68444085121155,2.24111938476563,2.17250943183899,-1.68402693989188,2.24122663446822,2.17209266350648,2115.984,2117.26,2116.683,2118.51,0.584212720394135,44.9950408935547,359.765716552734,-1.09397041797638,-0.470630466938019,0.668484807014465,-1.09559602313537,-0.471404361345641,0.669282514094601,0
2.65999603271484,-1.70628070831299,2.23172354698181,2.18585586547852,-1.70591456353497,2.23180900148401,2.18546347124042,2116.859,2116.456,2112.869,2115.252,0.667343199253082,44.9949645996094,359.732788085938,-1.09200024604797,-0.469787985086441,0.667324900627136,-1.09348726343002,-0.470497020956359,0.667994305697154,0
2.68000030517578,-1.72807586193085,2.22234678268433,2.19917392730713,-1.72776555581996,2.22240712994983,2.19881190144931,2112.502,2113.747,2112.928,2114.723,0.750637173652649,44.9950485229492,359.699432373047,-1.08975374698639,-0.468825995922089,0.665898561477661,-1.09109887036509,-0.469469362144494,0.666535273643922,0
2.69999694824219,-1.74982035160065,2.2129921913147,2.21246194839478,-1.74955768413056,2.21303058593937,2.21212437257479,2113.402,2112.899,2109.063,2111.589,0.833723843097687,44.9949569702148,359.666656494141,-1.0872278213501,-0.467744290828705,0.664398491382599,-1.08843358680109,-0.468322565086308,0.664907093505606,0
2.71999359130859,-1.77150893211365,2.2036612033844,2.22571468353271,-1.77129374718429,2.20367816524265,2.22540259430974,2109.207,2110.086,2108.999,2111.219,0.916750133037567,44.9950294494629,359.633392333984,-1.08442723751068,-0.466543346643448,0.66263484954834,-1.08549158402443,-0.467056703481556,0.663109869918395,0
2.73999786376953,-1.79313588142395,2.19435691833496,2.23892974853516,-1.79297647980783,2.19434869114016,2.23864823731709,2108.531,2108.873,2106.674,2108.513,0.999983966350555,44.9950294494629,359.600250244141,-1.08134925365448,-0.465223699808121,0.660758912563324,-1.08227271937422,-0.465671715947234,0.661143515732969,0
2.75999450683594,-1.81469583511353,2.18508124351501,2.25210452079773,-1.81458384274179,2.18505164650952,2.2518478381572,2108.54,2107.721,2103.031,2106.218,1.08239650726318,44.9948997497559,359.567779541016,-1.07799458503723,-0.463784903287888,0.658744692802429,-1.07878069424208,-0.464169195088763,0.659010292071722,0
2.77999877929688,-1.83618307113647,2.17583656311035,2.26523375511169,-1.83612684690458,2.17578229366013,2.2650081232283,2103.997,2104.916,2103.494,2105.863,1.16438734531403,44.9949836730957,359.534881591797,-1.07436943054199,-0.46222847700119,0.656463265419006,-1.07501419914593,-0.462548577472581,0.656709398992482,0
2.79999542236328,-1.85759234428406,2.16662549972534,2.27831602096558,-1.85758361379882,2.16655004629821,2.27811572729775,2104.737,2104.141,2100.116,2102.657,1.24583077430725,44.994930267334,359.502624511719,-1.07047069072723,-0.460555136203766,0.654111564159393,-1.07097756992209,-0.460811728687929,0.654243485189995,0
2.81999969482422,-1.87891840934753,2.1574501991272,2.29134607315063,-1.87896509797278,2.15735019098767,2.29117734232814,2100.412,2101.423,2100.408,2102.313,1.32714796066284,44.9950370788574,359.470001220703,-1.06630516052246,-0.458766430616379,0.651505172252655,-1.06666929835407,-0.458957999791384,0.651611629318345,0
2.83999633789063,-1.90015578269958,2.14831304550171,2.30432271957397,-1.90024960698239,2.14819206138118,2.30417971674389,2101.319,2100.679,2096.834,2099.204,1.40806424617767,44.9949836730957,359.43798828125,-1.06186890602112,-0.456861943006516,0.648830473423004,-1.06209435025759,-0.456989527434725,0.648816864916866,0
2.85999298095703,-1.92129933834076,2.13921618461609,2.31724071502686,-1.92143996495749,2.13907444233456,2.31712457576186,2097.219,2098.094,2096.873,2098.856,1.48881566524506,44.9950790405273,359.405670166016,-1.057168841362,-0.454843282699585,0.645903885364532,-1.0572529212638,-0.454906395792563,0.645859311493566,0
2.87999725341797,-1.94234323501587,2.13016200065613,2.33009815216064,-1.94253888918396,2.12999616467562,2.3300135793296,2096.807,2096.864,2094.527,2096.367,1.56959569454193,44.9951019287109,359.373565673828,-1.05220150947571,-0.452710121870041,0.642875015735626,-1.05214490868305,-0.452708560680416,0.642738906316949,0
2.89999389648438,-1.96328258514404,2.12115263938904,2.34289240837097,-1.96352501326936,2.1209664217661,2.34283367505136,2096.893,2095.905,2091.022,2094.1,1.64933466911316,44.994987487793,359.342193603516,-1.04696846008301,-0.450462490320206,0.639711380004883,-1.04677621342161,-0.450398561093403,0.639459254158576,0
2.91999816894531,-1.98411202430725,2.11219048500061,2.3556182384491,-1.98440911693069,2.11198057539494,2.35559144808806,2092.607,2093.227,2091.422,2093.897,1.72838044166565,44.9950790405273,359.310577392578,-1.04147779941559,-0.448102563619614,0.636293232440948,-1.04114485287423,-0.447975543971863,0.636019143875825,0
2.93999481201172,-2.00482678413391,2.10327792167664,2.36827445030212,-2.00517008215741,2.10304771205211,2.36827399777659,2093.357,2092.458,2088.286,2090.894,1.80657505989075,44.9950332641602,359.279602050781,-1.03572559356689,-0.445630699396133,0.632805645465851,-1.03525734386973,-0.445442313325187,0.632422556497743,0
2.95999908447266,-2.02542090415955,2.09441685676575,2.38085603713989,-2.02581860575671,2.0941632292003,2.38088785862954,2089.198,2089.949,2088.653,2090.618,1.88437128067017,44.9951629638672,359.248352050781,-1.02972102165222,-0.443049699068069,0.629076540470123,-1.02911152474823,-0.442797939051516,0.628668171500036,0
2.97999572753906,-2.04589009284973,2.08560991287231,2.39336180686951,-2.04633384260397,2.08533609591429,2.39342029668558,2090.203,2089.389,2085.286,2087.523,1.96148526668549,44.9951248168945,359.217895507813,-1.02345907688141,-0.440358936786652,0.625285089015961,-1.02271452148052,-0.440045487257004,0.624760342027062,0
3,-2.06622934341431,2.07685852050781,2.40578699111938,-2.06672639957428,2.07656174835205,2.40587779151916,2086.294,2086.853,2085.375,2087.428,2.03815984725952,44.9952354431152,359.187164306641,-1.01694941520691,-0.437560766935349,0.621255457401276,-1.01606400046349,-0.437183953857422,0.620697642517089,0
3.01999664306641,-2.08643293380737,2.06816554069519,2.41813015937805,-2.08697572864857,2.06784902775215,2.41824779066609,2087.182,2086.259,2082.126,2084.492,2.11403775215149,44.995189666748,359.1572265625,-1.01018714904785,-0.434654533863068,0.617156624794006,-1.00916768936771,-0.434216663853534,0.616484793683489,0
3.03999328613281,-2.10649681091309,2.0595326423645,2.4303867816925,-2.10708469520508,2.05919670122237,2.43053204454123,2083.55,2083.949,2082.069,2084.219,2.189293384552,44.9952774047852,359.127136230469,-1.00318193435669,-0.431642949581146,0.612829267978668,-1.00202586176059,-0.431143734953757,0.612121962644322,0
3.05999755859375,-2.12641525268555,2.05096220970154,2.44255471229553,-2.12705600675913,2.05060360379452,2.44273220712343,2083.064,2082.777,2080.117,2082.036,2.26411175727844,44.9953193664551,359.097381591797,-0.995930731296539,-0.428525865077972,0.60840117931366,-0.994638524886308,-0.427965170275055,0.607609153824944,0
3.07999420166016,-2.14618420600891,2.04245615005493,2.45463180541992,-2.14686960564145,2.04207836572333,2.45483602549553,2083.214,2081.933,2077.028,2079.934,2.3375678062439,44.995246887207,359.068481445313,-0.988436341285706,-0.425304114818573,0.603852510452271,-0.987014293508169,-0.424684676509408,0.602951629849824,0
3.09999847412109,-2.16579818725586,2.03401660919189,2.46661329269409,-2.16653584520328,2.033616532251,2.46684982435823,2079.232,2079.522,2077.508,2079.864,2.41005778312683,44.9953575134277,359.039428710938,-0.980708718299866,-0.421980798244476,0.599072515964508,-0.979150439632689,-0.421301079877433,0.598147724230312,0
3.1199951171875,-2.18525338172913,2.02564525604248,2.47849798202515,-2.18603502400946,2.02522658035469,2.47876156841225,2080.097,2078.919,2074.661,2077.043,2.48140788078308,44.9953384399414,359.011169433594,-0.972743213176727,-0.41855588555336,0.59423303604126,-0.971056158224178,-0.417818336715394,0.593203054026623,0
3.13999938964844,-2.20454406738281,2.01734495162964,2.49028134346008,-2.20537738341953,2.01690410346351,2.49057751394429,2076.236,2076.73,2075.089,2076.89,2.55206894874573,44.9954795837402,358.982849121094,-0.964551389217377,-0.415033042430878,0.589173436164856,-0.962728579444533,-0.414235212212131,0.588115866099442,0
3.15999603271484,-2.22366666793823,2.00911664962769,2.50196266174316,-2.22454360124808,2.00865741537402,2.50228585733282,2077.466,2076.104,2071.934,2074.212,2.6216824054718,44.9954605102539,358.955352783203,-0.95612770318985,-0.411411255598068,0.58406400680542,-0.95417746870157,-0.410555908149813,0.582892125984019,0
3.18000030517578,-2.24261665344238,2.00096273422241,2.51353740692139,-2.24354380138856,2.00048216005771,2.51389278310636,2073.749,2074.098,2072.188,2074.06,2.69050073623657,44.9955749511719,358.927856445313,-0.94748443365097,-0.407694280147552,0.578734576702118,-0.94539982440085,-0.406779133026206,0.577530000053146,0
3.19999694824219,-2.2613890171051,1.99288511276245,2.52500438690186,-2.2623590635174,1.99238647840124,2.5253867331345,2074.779,2073.41,2069.27,2071.576,2.75817894935608,44.9955558776855,358.901123046875,-0.938616216182709,-0.40388098359108,0.573349356651306,-0.936405971974636,-0.402909329586355,0.572035795952272,0
3.21999359130859,-2.27997970581055,1.98488569259644,2.53635954856873,-2.28099231507127,1.9843691108104,2.5367694957426,2071.48,2071.524,2069.305,2071.331,2.8248872756958,44.9956512451172,358.874481201172,-0.929534912109375,-0.399975299835205,0.56775963306427,-0.927196343299057,-0.398946683654493,0.566409777507781,0
3.23999786376953,-2.29838418960571,1.97696590423584,2.54760122299194,-2.29944628156995,1.97642888457015,2.54804273590817,2071.25,2070.516,2067.541,2069.406,2.89074182510376,44.9957008361816,358.848297119141,-0.920237481594086,-0.395977020263672,0.562085390090942,-0.917771149318993,-0.394891285994308,0.560652073582612,0
3.25999450683594,-2.31659889221191,1.96912813186646,2.5587272644043,-2.31770268688992,1.96857366338589,2.55919528903255,2071.293,2069.842,2064.998,2067.575,2.95494222640991,44.9956550598145,358.823120117188,-0.910728514194489,-0.391887634992599,0.556301295757294,-0.90814153446928,-0.390747931744771,0.554769492138098,0
3.27999877929688,-2.33461928367615,1.96137380599976,2.56973361968994,-2.33577134012187,1.96079922667992,2.57023314733618,2067.909,2067.674,2065.413,2067.681,3.01786518096924,44.9957733154297,358.797912597656,-0.901018857955933,-0.387710750102997,0.55032080411911,-0.898304216251578,-0.386515208538549,0.548760027947228,0
3.29999542236328,-2.35244107246399,1.95370519161224,2.58061933517456,-2.35363442159312,1.95311324175956,2.58114542505908,2068.68,2067.227,2063.049,2065.201,3.07934856414795,44.995777130127,358.773559570313,-0.891104400157928,-0.383446395397186,0.544287621974945,-0.888270870184445,-0.382198140025101,0.542630813402095,0
3.31999969482422,-2.37006115913391,1.94612300395966,2.59138083457947,-2.37130160722417,1.94551154534655,2.59193803307009,2065.603,2065.417,2063.248,2065.092,3.13971495628357,44.9959106445313,358.749359130859,-0.880997478961945,-0.379098862409592,0.53807258605957,-0.878038122530657,-0.377795274579551,0.536379787539275,0
3.33999633789063,-2.38747501373291,1.93862974643707,2.60201692581177,-2.38875555478454,1.93800159931817,2.60260037727124,2066.297,2064.944,2060.945,2062.841,3.19873595237732,44.9959259033203,358.726043701172,-0.870694577693939,-0.3746677339077,0.531802833080292,-0.867618167158097,-0.373311858882592,0.530014399402376,0
3.35999298095703,-2.40467882156372,1.9312264919281,2.61252427101135,-2.40599926516969,1.93058211247293,2.61313429086273,2063.531,2063.199,2060.957,2062.771,3.2566249370575,44.9960441589355,358.702941894531,-0.860207438468933,-0.370156764984131,0.525362253189087,-0.857011633930453,-0.36874816394697,0.523535033765293,0
3.37999725341797,-2.42166948318481,1.92391538619995,2.62290120124817,-2.42303550945299,1.9232518924954,2.62354146665005,2063.445,2062.488,2059.367,2060.989,3.31341671943665,44.9960975646973,358.680450439453,-0.849533915519714,-0.365565955638885,0.518850088119507,-0.846218976345105,-0.364104384899943,0.516941967662506,0
3.39999389648438,-2.43844318389893,1.91669726371765,2.63314604759216,-2.43984769972619,1.91601807669906,2.63381177133889,2063.611,2061.704,2057.104,2059.659,3.36834001541138,44.9960746765137,358.658813476563,-0.838679432868958,-0.36089700460434,0.512243986129761,-0.835253140422974,-0.35938609205264,0.510243109616171,0
3.41999816894531,-2.45499658584595,1.90957427024841,2.64325547218323,-2.45644516534361,1.90887665092339,2.64395090408624,2060.619,2060.171,2057.542,2059.538,3.421719789505,44.9961853027344,358.637481689453,-0.827655076980591,-0.356154203414917,0.505466759204865,-0.824110582941664,-0.354591760855451,0.503436295127018,0
3.43999481201172,-2.47132539749146,1.90254759788513,2.65322852134705,-2.4728118459714,1.90183452548138,2.65394905388473,2061.431,2059.615,2055.51,2057.591,3.47338891029358,44.9962043762207,358.617004394531,-0.816457748413086,-0.351337462663651,0.49864861369133,-0.812804733542555,-0.349727169707881,0.496529728153404,0
3.45999908447266,-2.48742771148682,1.8956184387207,2.66306209564209,-2.48895692832918,1.89488774758421,2.66381183275806,2058.768,2058.291,2055.754,2057.389,3.52362775802612,44.996337890625,358.596893310547,-0.805100321769714,-0.346451699733734,0.491675525903702,-0.801332006385299,-0.344790775723006,0.489521218161412,0
3.47999572753906,-2.50329923629761,1.88878834247589,2.67275524139404,-2.50486489870395,1.88804299234919,2.67352976362102,2059.444,2057.751,2053.844,2055.655,3.57224249839783,44.9963798522949,358.577697753906,-0.793580532073975,-0.34149643778801,0.484659522771835,-0.789706299681989,-0.339788558913217,0.482419255351936,0
3.5,-2.51893711090088,1.88205897808075,2.68230533599854,-2.5205447997813,1.88129636896134,2.68310837050915,2057.103,2056.451,2053.927,2055.533,3.61942529678345,44.9965019226074,358.558898925781,-0.781910479068756,-0.336476147174835,0.477501541376114,-0.777924000354857,-0.334718964672089,0.475221632552147,0
3.51999664306641,-2.53433895111084,1.87543118000031,2.69171142578125,-2.53598168290031,1.87465430941181,2.69253852151874,2058.049,2056.037,2051.836,2053.812,3.66479182243347,44.996509552002,358.541015625,-0.770088016986847,-0.331390559673309,0.470306843519211,-0.765999459475408,-0.329588167864767,0.467937116607681,0
3.53999328613281,-2.54950165748596,1.86890602111816,2.70097064971924,-2.55117869390181,1.86811546013321,2.70182213839487,2055.508,2054.733,2052.156,2053.89,3.70854473114014,44.9966316223145,358.523529052734,-0.758126556873322,-0.326244682073593,0.462966501712799,-0.753933682518821,-0.324396601119134,0.46056632174764,0
3.55999755859375,-2.56442213058472,1.86248540878296,2.71008229255676,-2.56613872308604,1.86167857751006,2.71096098677687,2055.539,2054.211,2051.052,2052.468,3.75081133842468,44.9967079162598,358.506744384766,-0.746024668216705,-0.321038752794266,0.455578744411469,-0.741727567798258,-0.319144650954242,0.45310979673751,0
3.57999420166016,-2.57909798622131,1.85616993904114,2.71904492378235,-2.58084770246059,1.8553497146065,2.71994647274769,2055.911,2053.718,2049.225,2051.38,3.79093813896179,44.996711730957,358.490997314453,-0.733788669109344,-0.315775036811829,0.448127299547195,-0.729396114728537,-0.313838771199258,0.445576704485749,0
3.59999847412109,-2.59352660179138,1.8499608039856,2.72785568237305,-2.59531431270705,1.84912513636775,2.72878389920025,2053.532,2052.527,2049.68,2051.479,3.82917308807373,44.9968376159668,358.475677490234,-0.721430420875549,-0.310458153486252,0.440544039011002,-0.716935713767317,-0.308477408768949,0.437964839979262,0
3.6199951171875,-2.60770559310913,1.84385895729065,2.73651432991028,-2.60952509409627,1.84301063413925,2.73746504379605,2054.297,2052.261,2048.182,2049.908,3.8653736114502,44.9968757629395,358.461364746094,-0.7089484333992,-0.305088520050049,0.432936906814575,-0.704361775018033,-0.303067194200314,0.43028361700977,0
3.63999938964844,-2.62163257598877,1.83786582946777,2.74501872062683,-2.6234885835008,1.83700253474321,2.74599512157732,2052.169,2051.198,2048.577,2049.999,3.89982199668884,44.9970169067383,358.447570800781,-0.696355938911438,-0.299671083688736,0.425214797258377,-0.691670720740692,-0.297606588091786,0.422530849991739,0
3.65999603271484,-2.63530588150024,1.83198142051697,2.75336813926697,-2.63719194552437,1.83110636089208,2.75436629160077,2053.108,2050.93,2046.98,2048.616,3.93227529525757,44.9970664978027,358.434753417969,-0.683651685714722,-0.294205993413925,0.4174764752388,-0.678878353700696,-0.292102389931838,0.414716192587956,0
3.67999267578125,-2.64872264862061,1.82620739936829,2.76156067848206,-2.65063849381582,1.82532068681534,2.76258057812278,2051.049,2050.056,2047.38,2048.714,3.96293973922729,44.9972038269043,358.422515869141,-0.670849084854126,-0.288698315620422,0.409627854824066,-0.665986083416798,-0.286555206197011,0.406840505851433,0
3.69999694824219,-2.66188192367554,1.82054460048676,2.76959586143494,-2.66383127580226,1.81964420129024,2.77063984276899,2051.467,2049.661,2046.345,2047.677,3.99180459976196,44.9972801208496,358.411102294922,-0.657947659492493,-0.283148348331451,0.401757061481476,-0.65299527533123,-0.280965624398954,0.398904623909523,0
