t,x_s1,x_s2,x_s3,x_s_d1,x_s_d2,x_s_d3,propellers_rpms1,propellers_rpms2,propellers_rpms3,propellers_rpms4,rollRad,pitchRad,yawRad,v_s1,v_s2,v_s3,v_s_d1,v_s_d2,v_s_d3,insideCount
0,-0.0599999986588955,2.94000005722046,1.17999994754791,-0.0599999986588955,2.94000005722046,1.17999994754791,0,0,0,0,0,45.0048027038574,0,0,0,0,-1.06581410364015E-15,4.44089209850063E-16,-7.105427357601E-16,0
0.0200042724609375,-0.0599999986588955,2.94000005722046,1.17705690860748,-0.0600018701838461,2.93999925195556,1.1800010908333,0,0,0,0,0.937003672122955,44.8630027770996,-0.00115976633969694,3.71994488546079E-08,3.50004931704007E-08,-0.147149950265884,-0.000280105751305916,-0.000120521679537258,0.000171112232507361,5
0.0399932861328125,-0.0599999986588955,2.94000005722046,1.17018985748291,-0.060014863945674,2.93999366110285,1.18000902851964,0,0,0,0,1.87400352954865,44.7211418151855,-0.00311126722954214,3.70364325874561E-08,3.5142885934647E-08,-0.343349903821945,-0.00111059898697896,-0.000477859717552347,0.000678447590588643,6
0.05999755859375,-0.0599062293767929,2.94009447097778,1.16346502304077,-0.0600498857373401,2.93997859220429,1.18003042278566,3197.19,2848.641,1517.403,2782.379,1.40371799468994,44.7413673400879,0.0288274101912975,0.00468855630606413,0.00471872743219137,-0.336243748664856,-0.00247936261166862,-0.00106680046642749,0.00151460392977639,6
0.0800018310546875,-0.0597377754747868,2.94026732444763,1.15723752975464,-0.0601175574246769,2.93994947496775,1.18007176236346,2865.853,2651.835,2344.386,2562.115,0.339822888374329,44.8158149719238,0.0997550711035728,0.00842265971004963,0.00864472053945065,-0.311376333236694,-0.00437268608126799,-0.00188144466206175,0.00267120569262453,6
0.0999908447265625,-0.0595562644302845,2.94046425819397,1.15151965618134,-0.0602281370710988,2.93990189563514,1.1801393137439,2240.029,2528.161,3137.778,2508.584,359.321746826172,44.9190902709961,0.178532809019089,0.00907563231885433,0.00984945334494114,-0.285894840955734,-0.00677536694902951,-0.00291525111632684,0.00413896594164447,5
0.1199951171875,-0.0594243183732033,2.94063234329224,1.14656889438629,-0.0603918861403606,2.93983143898525,1.18023934549506,2123.573,2454.671,3352.003,2464.582,358.750122070313,44.999885559082,0.253259539604187,0.00659737922251225,0.00839937385171652,-0.247536301612854,-0.00967801353495435,-0.00416417885169243,0.00591214744607921,5
0.139999389648438,-0.0593828484416008,2.94074034690857,1.14257061481476,-0.0606185767455666,2.93973390035084,1.18037782724834,2312.49,2456.716,3068.955,2463.237,358.636291503906,45.0326461791992,0.326357305049896,0.00207357434555888,0.00540005043148994,-0.199915498495102,-0.0130660253322238,-0.00562194567796536,0.00798183098414958,5
0.160003662109375,-0.0594431385397911,2.94078588485718,1.13952434062958,-0.0609177895434042,2.93960515744296,1.18056061167741,2536.621,2486.791,2635.364,2491.91,358.756988525391,45.0249786376953,0.398233413696289,-0.00301444111391902,0.00228119059465826,-0.152311220765114,-0.0169265510445065,-0.00728302204135792,0.0103401658994673,5
0.17999267578125,-0.0595997795462608,2.94078207015991,1.13730919361115,-0.0612985250199726,2.93944133760391,1.18079319703879,2666.505,2506.052,2302.529,2513.244,358.864135742188,44.9985427856445,0.467424005270004,-0.00783213041722775,-0.000195700908079743,-0.110758066177368,-0.0212433804254414,-0.00914043312572283,0.0129772496054864,5
0.199996948242188,-0.0598472729325294,2.94074034690857,1.13576090335846,-0.0617704296168641,2.93923829023936,1.1810814761931,2653.149,2499.932,2183.713,2508.745,358.816955566406,44.9744148254395,0.532822847366333,-0.012374609708786,-0.00208951998502016,-0.077417403459549,-0.0260104776919234,-0.0111915819022102,0.0158893949364944,5
0.220001220703125,-0.0601891428232193,2.94066286087036,1.13474535942078,-0.0623420644491781,2.93899233174064,1.18143067899198,2540.682,2470.692,2245.453,2478.713,358.612487792969,44.9636726379395,0.59453547000885,-0.0170935746282339,-0.00387999881058931,-0.050775982439518,-0.03121219533433,-0.0134297356845702,0.0190670430730375,5
0.239990234375,-0.0606383383274078,2.94054222106934,1.13419342041016,-0.0630214373585105,2.93870001655724,1.18184569730089,2411.908,2429.759,2373.927,2437.356,358.334625244141,44.9658966064453,0.652682244777679,-0.022459814324975,-0.00603062706068158,-0.0275941770523787,-0.0368316683029241,-0.015847637913056,0.0224998914194052,5
0.259994506835938,-0.0612126402556896,2.9403669834137,1.13409042358398,-0.0638179029240226,2.93835731967507,1.18233224568626,2329.215,2391.804,2462.954,2398.742,358.076385498047,44.9738998413086,0.70769065618515,-0.0287151206284761,-0.0087673794478178,-0.00515219382941723,-0.0428651747123285,-0.0184436871643672,0.0261856663338995,4
0.279998779296875,-0.0619291253387928,2.94012594223022,1.13444066047668,-0.0647390625194898,2.93796097043536,1.18289496770872,2306.159,2365.252,2469.728,2370.486,357.887176513672,44.9803085327148,0.760521590709686,-0.0358242131769657,-0.0120557975023985,0.0175134893506765,-0.0492963837173861,-0.0212108567320638,0.0301143915580518,4
0.300003051757813,-0.0628006160259247,2.93981194496155,1.13523638248444,-0.0657927507678135,2.93750759781875,1.18353864941714,2317.546,2348.32,2415.53,2353.472,357.765014648438,44.9817657470703,0.811341345310211,-0.0435743667185307,-0.015705743804574,0.0397876501083374,-0.0561132031658829,-0.0241439437008635,0.0342786801847687,4
0.319992065429688,-0.0638353899121284,2.93942141532898,1.13644933700562,-0.0669855955880233,2.93699435001684,1.18426733970383,2334.837,2336.475,2342.621,2341.701,357.678436279297,44.9788246154785,0.860105693340302,-0.051738552749157,-0.0195232760161161,0.0606481619179249,-0.0632980253096114,-0.0272353719486164,0.0386677759154339,4
0.339996337890625,-0.0650389939546585,2.9389533996582,1.13803589344025,-0.068326768706371,2.93641728069206,1.18508664143323,2337.219,2324.475,2287.433,2330.238,357.594268798828,44.974178314209,0.906481802463531,-0.0601800531148911,-0.0234034433960915,0.0793292969465256,-0.0708499516420146,-0.0304847548730522,0.0432811298664125,4
0.360000610351563,-0.0664164945483208,2.93840646743774,1.1399507522583,-0.0698225328270578,2.93577369517774,1.18600038039362,2322.725,2310.846,2261.354,2315.629,357.494567871094,44.9702987670898,0.950786232948303,-0.0688752382993698,-0.0273426547646523,0.0957407429814339,-0.0787518717320621,-0.0338847303337087,0.0481082895423912,4
0.379989624023438,-0.0679737702012062,2.93777871131897,1.14215397834778,-0.0714784451857985,2.93506120235061,1.18701195141357,2295.622,2294.425,2260.667,2299.572,357.379730224609,44.9685401916504,0.99280172586441,-0.0778638198971748,-0.031390018761158,0.11016208678484,-0.0869857157641562,-0.0374275233937465,0.0531382163749952,4
0.399993896484375,-0.0697176977992058,2.93706679344177,1.1446168422699,-0.0733036822025899,2.9342758538535,1.18812696022487,2267.995,2277.472,2269.11,2283.146,357.261627197266,44.9687767028809,1.03230452537537,-0.0871965438127518,-0.0355984084308147,0.123142145574093,-0.0955525119207663,-0.0411135764513579,0.0583715384648505,4
0.419998168945313,-0.0716555640101433,2.93626689910889,1.14732038974762,-0.0753034649285836,2.93341540321397,1.18934859628618,2249.578,2263.221,2270.5,2267.364,357.152099609375,44.9698829650879,1.06999754905701,-0.0968931689858437,-0.0399902872741222,0.13517889380455,-0.104434660908044,-0.0449353170220673,0.0637975046779765,4
0.44000244140625,-0.0737941414117813,2.93537592887878,1.15024816989899,-0.077483988232608,2.93247718495301,1.19068064394622,2237.991,2250.605,2263.221,2255.089,357.056915283203,44.971004486084,1.1057767868042,-0.106929033994675,-0.0445488169789314,0.146386384963989,-0.113620829717891,-0.048887868829098,0.0694091918565748,4
0.459991455078125,-0.0761393755674362,2.93439102172852,1.1533842086792,-0.0798493430620752,2.93145943885026,1.1921256023009,2232.224,2240.394,2248.643,2244.883,356.975372314453,44.9716644287109,1.13966464996338,-0.117261692881584,-0.049241628497839,0.156804040074348,-0.123092454730403,-0.0529632444654124,0.0751952597749251,4
0.479995727539063,-0.0786962732672691,2.93331027030945,1.15671122074127,-0.0824088828700873,2.93035814037613,1.19368918522879,2227.072,2231.453,2233.425,2236.434,356.9033203125,44.9719429016113,1.17144644260406,-0.127844780683517,-0.0540359057486057,0.166350021958351,-0.132852887402757,-0.0571628859694044,0.0811577557859174,4
0.5,-0.0814692601561546,2.93213200569153,1.16021287441254,-0.085166398670376,2.92917165836334,1.195373708601,2223.09,2224.498,2218.951,2227.854,356.835815429688,44.971996307373,1.20180821418762,-0.13864940404892,-0.0589132979512215,0.175080895423889,-0.142884000065179,-0.0614789935111996,0.0872856059789651,5
0.520004272460938,-0.0844623744487762,2.93085479736328,1.16387188434601,-0.088127196023106,2.92789770997757,1.19718241350145,2215.309,2216.9,2211.025,2220.866,356.769927978516,44.972282409668,1.23046398162842,-0.149655759334564,-0.0638638734817505,0.182948917150497,-0.153174893518032,-0.065906877469682,0.0935721522030874,5
0.539993286132813,-0.0876796171069145,2.92947697639465,1.16767406463623,-0.091293865515634,2.92653518056143,1.19911688247953,2207.119,2209.893,2207.109,2213.879,356.705749511719,44.9729461669922,1.25739645957947,-0.16086208820343,-0.0688910037279129,0.190109133720398,-0.163706645289342,-0.0704383960337938,0.100005835015435,5
0.55999755859375,-0.0911249071359634,2.92799711227417,1.17160749435425,-0.094676112580471,2.92507989413848,1.20118304443252,2198.696,2203.164,2205.894,2207.733,356.645263671875,44.9740142822266,1.28235518932343,-0.172264501452446,-0.0739968419075012,0.196674466133118,-0.17448465888317,-0.0750758741803766,0.106589955332319,5
0.580001831054688,-0.0948020964860916,2.92641353607178,1.17566466331482,-0.0982762614093182,2.92353085067394,1.20338231917284,2194.742,2198.673,2201.522,2201.362,356.589691162109,44.9751167297363,1.3061637878418,-0.183859705924988,-0.0791817978024483,0.202856719493866,-0.185490414529404,-0.0798113433697334,0.113313199715174,5
0.599990844726563,-0.098714679479599,2.924724817276,1.1798369884491,-0.102095761416081,2.92188742652551,1.20571559212485,2190.156,2193.866,2198.167,2197.275,356.539093017578,44.9762687683105,1.32851362228394,-0.195629328489304,-0.0844351351261139,0.208614960312843,-0.19670480600515,-0.0846365827279185,0.120163896470579,5
0.6199951171875,-0.102865889668465,2.92292976379395,1.18411731719971,-0.106144683970236,2.92014528826426,1.208189015731,2186.161,2189.601,2195.585,2193.904,356.493804931641,44.9774856567383,1.34902250766754,-0.207560420036316,-0.0897493213415146,0.21401609480381,-0.208134604141382,-0.0895545055543457,0.127146181793521,5
0.639999389648438,-0.107258751988411,2.92102742195129,1.18850135803223,-0.110424235525481,2.91830391678686,1.21080332699501,2185.883,2187.676,2190.087,2189.918,356.452789306641,44.9785079956055,1.36858463287354,-0.219643235206604,-0.0951195433735847,0.219204246997833,-0.219761081350814,-0.0945570538913933,0.134248615293163,5
0.660003662109375,-0.111895926296711,2.91901683807373,1.19298315048218,-0.114938248900541,2.91636166293851,1.21356086732604,2183.292,2184.902,2187.525,2187.994,356.414764404297,44.9795761108398,1.38682448863983,-0.231858849525452,-0.10053475946188,0.224087819457054,-0.231574097577923,-0.0996398647564507,0.141465002567821,5
0.67999267578125,-0.116779968142509,2.91689705848694,1.19755840301514,-0.119686638739014,2.91431856344567,1.2164615845812,2181.317,2182.843,2186.082,2185.99,356.379486083984,44.9806938171387,1.40371692180634,-0.244202062487602,-0.105993412435055,0.228763863444328,-0.243554411173546,-0.104794659005432,0.14878358919428,5
0.699996948242188,-0.121913239359856,2.9146671295166,1.20222353935242,-0.124680083855354,2.91217002351282,1.2195120022816,2178.492,2180.738,2186.727,2184.689,356.347534179688,44.98193359375,1.4189133644104,-0.256663769483566,-0.111492499709129,0.233254283666611,-0.255710395848158,-0.11002503961202,0.1562094905416,5
0.720001220703125,-0.127298071980476,2.91232657432556,1.20697808265686,-0.129918284978346,2.90991617190799,1.22271193760712,2179.625,2180.853,2184.123,2182.438,356.318695068359,44.9830474853516,1.43344151973724,-0.269241899251938,-0.117032438516617,0.237727999687195,-0.268023157655716,-0.11532287703907,0.163731164592979,5
0.739990234375,-0.132936477661133,2.9098744392395,1.21181964874268,-0.135400001298574,2.90755754251682,1.22606063256665,2178.394,2179.693,2184.053,2182.387,356.292388916016,44.984188079834,1.44681692123413,-0.281920164823532,-0.12260427325964,0.242078021168709,-0.280473432677602,-0.12067988256057,0.171336843321139,5
0.759994506835938,-0.138830333948135,2.90731024742126,1.21674680709839,-0.14113644597991,2.90508931062815,1.22956493710703,2176.804,2178.65,2185.708,2182.429,356.269287109375,44.9854202270508,1.45857298374176,-0.294692844152451,-0.128206014633179,0.246359750628471,-0.293070637251543,-0.126100107763583,0.179032279019858,5
0.779998779296875,-0.144981503486633,2.90463352203369,1.22176146507263,-0.147126184485884,2.90251209348295,1.2332239748923,2179.342,2179.943,2183.588,2181.259,356.248992919922,44.986457824707,1.46977841854095,-0.30755826830864,-0.133838251233101,0.250734329223633,-0.305795832832518,-0.131575403921268,0.186805902427515,5
0.800003051757813,-0.151391491293907,2.90184378623962,1.22686278820038,-0.153371683173492,2.89982482987671,1.23703925258147,2179.012,2179.776,2184.262,2182.209,356.230682373047,44.9874992370605,1.47994482517242,-0.320499330759048,-0.139491692185402,0.255064994096756,-0.318639638509124,-0.13710173468952,0.194651982891718,5
0.819992065429688,-0.158061772584915,2.8989405632019,1.23205149173737,-0.159870162197751,2.89702871589906,1.24100907201063,2179.458,2180.203,2185.267,2182.723,356.214508056641,44.9885368347168,1.48903453350067,-0.333514004945755,-0.145166262984276,0.259437918663025,-0.33158286215529,-0.142670842232658,0.202558796242139,5
0.839996337890625,-0.164993643760681,2.89592337608337,1.23732829093933,-0.166633637018892,2.89411858163313,1.24514077323692,2178.767,2180.241,2187.972,2183.807,356.201202392578,44.9896583557129,1.49659609794617,-0.346593499183655,-0.150858968496323,0.263839274644852,-0.344636106234817,-0.148287288494656,0.210532819358465,5
0.860000610351563,-0.172188386321068,2.89279198646545,1.24269688129425,-0.173659158941841,2.89109569582005,1.24943255494854,2182.449,2182.631,2186.364,2183.443,356.190338134766,44.990550994873,1.50382518768311,-0.359737455844879,-0.156571120023727,0.268430233001709,-0.357780475378537,-0.153942943326036,0.218562509354528,5
0.879989624023438,-0.17964693903923,2.88954615592957,1.24815773963928,-0.18094280014554,2.88796174849148,1.2538820177009,2182.811,2183.197,2187.717,2185.298,356.180999755859,44.9914360046387,1.51015758514404,-0.372928112745285,-0.162292778491974,0.273044914007187,-0.370996904517929,-0.159629603560431,0.226636219677473,5
0.899993896484375,-0.187370181083679,2.88618564605713,1.2537122964859,-0.18849723509595,2.8847112861788,1.25849690412748,2182.416,2183.494,2190.968,2187.025,356.174041748047,44.9924011230469,1.51497662067413,-0.38616219162941,-0.168023496866226,0.277725398540497,-0.384296738353309,-0.165352150505452,0.234760880627692,5
0.919998168945313,-0.195358991622925,2.88271021842957,1.25936496257782,-0.196318384305134,2.8813460641717,1.26327472213274,2186.455,2186.328,2189.728,2186.954,356.169036865234,44.9931449890137,1.51954305171967,-0.399440824985504,-0.173765912652016,0.282634794712067,-0.397661187980262,-0.171102499820431,0.242925014356675,5
0.94000244140625,-0.203613936901093,2.87912011146545,1.26511681079865,-0.204407453948074,2.87786556348678,1.26821620855017,2186.876,2187.167,2191.615,2189.099,356.165313720703,44.9939041137695,1.52328288555145,-0.412746608257294,-0.179510593414307,0.28759241104126,-0.411081631631503,-0.176876941799768,0.251123353961324,5
0.959991455078125,-0.212135523557663,2.87541484832764,1.27097046375275,-0.212759000778906,2.87427212620069,1.27331803818581,2188.117,2188.397,2193.521,2190.599,356.163116455078,44.9946403503418,1.52608239650726,-0.426079899072647,-0.185258895158768,0.292683392763138,-0.424539267042903,-0.182667386354485,0.259344413431889,5
0.979995727539063,-0.22092416882515,2.87159466743469,1.27692782878876,-0.22138664033507,2.87055989392801,1.27858852855901,2187.827,2189.106,2197.166,2192.431,356.163421630859,44.995475769043,1.52745640277863,-0.439431995153427,-0.19100821018219,0.297869116067886,-0.438046240701377,-0.188479059778567,0.267595612867683,5
1,-0.229980260133743,2.86765956878662,1.28299427032471,-0.230284798736574,2.86673126495361,1.28402427467346,2192.502,2192.24,2195.519,2192.525,356.165802001953,44.9960250854492,1.52872681617737,-0.452804416418076,-0.196760728955269,0.303320229053497,-0.451584000205995,-0.194303979492187,0.275865618896484,5
1.01998901367188,-0.239303797483444,2.86360955238342,1.28917074203491,-0.239446912293295,2.86278906344998,1.2896212668733,2193.112,2193.154,2197.183,2194.939,356.169250488281,44.9965782165527,1.52923464775085,-0.466177672147751,-0.202505528926849,0.308824449777603,-0.46513400752272,-0.200134169097193,0.284143106922576,5
1.03999328613281,-0.248894810676575,2.8594446182251,1.29545903205872,-0.248887339851819,2.85872711120656,1.29538827675384,2192.699,2193.614,2200.898,2197.026,356.174652099609,44.9972305297852,1.52827894687653,-0.479549467563629,-0.208242863416672,0.314416736364365,-0.478708875293167,-0.205975055460915,0.292435781811908,5
1.05999755859375,-0.258753269910812,2.85516500473022,1.30186438560486,-0.258599401509697,2.85454828239877,1.3013212236669,2197.195,2196.819,2199.385,2196.922,356.181671142578,44.9976387023926,1.52729523181915,-0.492922693490982,-0.213976368308067,0.320270329713821,-0.492290296490434,-0.211818761581115,0.30073246008742,5
1.08000183105469,-0.268878847360611,2.85077118873596,1.30838775634766,-0.268583149539609,2.85025255453512,1.30742013954506,2197.453,2197.575,2201.325,2199.255,356.189575195313,44.9980697631836,1.52559280395508,-0.50627875328064,-0.219695866107941,0.326167821884155,-0.50587040849135,-0.217661904390701,0.309028338595312,5
1.09999084472656,-0.279271215200424,2.84626317024231,1.31503164768219,-0.278830554044452,2.84584338265603,1.31368011904947,2198.535,2198.718,2203.18,2200.688,356.198699951172,44.9985008239746,1.52304863929749,-0.519619405269623,-0.225403472781181,0.332195997238159,-0.519431110871131,-0.223496695782555,0.317312360068532,5
1.1199951171875,-0.289929926395416,2.84164118766785,1.32179772853851,-0.289357002179081,2.84131414609862,1.32011056195293,2197.818,2199.123,2206.88,2202.45,356.210174560547,44.9990272521973,1.51907670497894,-0.532935976982117,-0.231096714735031,0.338302493095398,-0.532985466132485,-0.229328756186667,0.32559250418615,5
1.13999938964844,-0.300854533910751,2.83690571784973,1.32869112491608,-0.300154365346813,2.83666834237095,1.32670650262257,2202.58,2202.259,2204.57,2202.079,356.223571777344,44.999267578125,1.51520144939423,-0.546230912208557,-0.236778303980827,0.344670057296753,-0.546515580872639,-0.235150386571708,0.333857840147634,5
1.16000366210938,-0.312044203281403,2.83205699920654,1.33571219444275,-0.311222084148811,2.83190621216671,1.33346759933036,2202.726,2202.735,2205.891,2204.326,356.237762451172,44.99951171875,1.51064670085907,-0.559483587741852,-0.242436572909355,0.351054042577744,-0.560014026276883,-0.240958390526247,0.342103829805999,6
1.17999267578125,-0.323498129844666,2.82709550857544,1.34286296367645,-0.322550701230474,2.8270318247214,1.34038807472597,2203.527,2203.67,2207.34,2205.468,356.252990722656,44.9997596740723,1.50532329082489,-0.572695732116699,-0.24807333946228,0.357538193464279,-0.573463232144024,-0.246745208083563,0.350319739799517,6
1.19999694824219,-0.335215270519257,2.82202172279358,1.35014426708221,-0.334156660511822,2.8220381046756,1.34747797414352,2202.354,2203.657,2210.855,2207.025,356.270416259766,45.000129699707,1.49855315685272,-0.585859179496765,-0.253686487674713,0.364068239927292,-0.58687652428584,-0.252516572968185,0.358513710658656,6
1.22000122070313,-0.347194820642471,2.81683611869812,1.35756099224091,-0.346030421585499,2.81692915700008,1.35473146949704,2206.927,2206.573,2208.089,2206.205,356.289581298828,45.0002098083496,1.49195981025696,-0.598977267742157,-0.259279429912567,0.370837032794952,-0.600236516861372,-0.258265004538453,0.366675121644476,6
1.239990234375,-0.359435439109802,2.8115394115448,1.36511266231537,-0.358161486344149,2.81170949873715,1.36214214765657,2206.529,2206.65,2209.245,2208.145,356.309417724609,45.0003204345703,1.48472476005554,-0.612029135227203,-0.264840185642242,0.377584427595139,-0.613526094901141,-0.263983138701136,0.374793517489195,6
1.25999450683594,-0.371935725212097,2.80613207817078,1.37279963493347,-0.3705671011502,2.80637170925886,1.36972054415578,2204.975,2206.123,2212.611,2209.628,356.331146240234,45.0005836486816,1.47598373889923,-0.625014007091522,-0.270369797945023,0.384349912405014,-0.626758665639206,-0.269676744214496,0.382877088462885,6
1.27999877929688,-0.384694397449493,2.80061459541321,1.38062620162964,-0.383236695417198,2.80092033679326,1.37746020158837,2209.207,2208.823,2209.686,2208.399,356.354370117188,45.000560760498,1.46744096279144,-0.637935876846313,-0.275872558355331,0.391329556703568,-0.639917282339435,-0.275338529371412,0.39091548206889,6
1.30000305175781,-0.397709906101227,2.79498791694641,1.38859140872955,-0.396168722856641,2.79535604666509,1.38536017535082,2208.312,2208.594,2210.826,2210.008,356.378204345703,45.0005989074707,1.45829045772552,-0.650774478912354,-0.28133699297905,0.398259192705154,-0.652995275331231,-0.280965624398954,0.398904623909522,6
1.31999206542969,-0.410980552434921,2.78925251960754,1.39669620990753,-0.409351342777246,2.78968393359302,1.39341323214959,2208.39,2208.749,2211.809,2210.533,356.403106689453,45.0006675720215,1.44837605953217,-0.663533091545105,-0.286765873432159,0.405238628387451,-0.665976209205206,-0.286550957599616,0.406834473849655,6
1.33999633789063,-0.424504578113556,2.78340935707092,1.40494024753571,-0.422802873722428,2.78389611561957,1.401630562497,2206.346,2208.037,2214.889,2211.41,356.430419921875,45.0008697509766,1.43701231479645,-0.67620313167572,-0.29215669631958,0.412203967571259,-0.678873453515705,-0.29210028151913,0.41471319914141,6
1.36000061035156,-0.438280344009399,2.77745914459229,1.41332757472992,-0.436511415158101,2.77799771321212,1.41000489654248,2210.71,2210.422,2210.956,2209.79,356.459564208984,45.0007591247559,1.42593812942505,-0.688787937164307,-0.297512590885162,0.419365078210831,-0.691670720740693,-0.297606588091785,0.422530849991739,6
1.37998962402344,-0.452305674552917,2.77140283584595,1.42185628414154,-0.450464156928423,2.77199423822282,1.41852840876173,2209.569,2209.772,2211.33,2211.164,356.489349365234,45.0006828308105,1.4142678976059,-0.701265513896942,-0.302820652723312,0.426433622837067,-0.704352136620515,-0.303063047067127,0.430277729063129,6
1.39999389648438,-0.466578364372253,2.76524114608765,1.43052530288696,-0.464680216184654,2.76587746507559,1.42721277752413,2207.134,2208.482,2214.184,2212.02,356.520965576172,45.000789642334,1.40107536315918,-0.713635683059692,-0.308081895112991,0.43345233798027,-0.716930938559026,-0.308475354130225,0.437961922879032,6
1.41999816894531,-0.48109644651413,2.7589750289917,1.43933796882629,-0.47914673136562,2.75965292774086,1.43605014590267,2210.985,2210.651,2210.297,2209.935,356.553985595703,45.0006141662598,1.38820624351501,-0.725902855396271,-0.313300997018814,0.440635085105896,-0.729391385793766,-0.313836736470737,0.445573815653291,6
1.44000244140625,-0.495857417583466,2.752605676651,1.44829189777374,-0.493861275572861,2.75332167044526,1.44503903134294,2209.234,2209.632,2210.872,2210.988,356.587463378906,45.0005035400391,1.37475442886353,-0.738047122955322,-0.318466424942017,0.447697192430496,-0.741727567798258,-0.319144650954242,0.453109796737511,6
1.45999145507813,-0.510858774185181,2.74613404273987,1.45738685131073,-0.508809800712713,2.74688973769103,1.45417085208374,2208.574,2209.113,2211.294,2210.798,356.621978759766,45.0004539489746,1.36057901382446,-0.750072538852692,-0.323581248521805,0.454749345779419,-0.753924423002454,-0.324392617007921,0.460560665253582,6
1.47999572753906,-0.526098191738129,2.73956108093262,1.46662139892578,-0.524012471663969,2.74034845309416,1.46345792653486,2205.682,2207.629,2213.924,2211.082,356.658935546875,45.000560760498,1.34491991996765,-0.7619708776474,-0.328643143177032,0.46172559261322,-0.765994882555672,-0.329586198544069,0.467934320638836,6
1.5,-0.541573107242584,2.73288798332214,1.47599840164185,-0.539455198877605,2.73370387899399,1.47289164761066,2209.7,2209.53,2209.078,2208.609,356.697784423828,45.0003356933594,1.32967329025269,-0.773745357990265,-0.333655148744583,0.468850553035736,-0.777924000354858,-0.334718964672088,0.475221632552146,6
1.51998901367188,-0.557280659675598,2.72611594200134,1.4855147600174,-0.555123050061237,2.72696244033876,1.48246289340675,2207.839,2208.169,2208.814,2209.454,356.737152099609,45.0001564025879,1.31387519836426,-0.785374581813812,-0.338604062795639,0.47581872344017,-0.789697369743256,-0.339784716610053,0.482413800191712,6
1.53999328613281,-0.573217809200287,2.71924614906311,1.49516832828522,-0.571036956668503,2.72011513090874,1.49218445062151,2204.579,2206.154,2211.247,2209.765,356.778411865234,45.0001945495605,1.29652297496796,-0.796858608722687,-0.343491077423096,0.482675939798355,-0.801327600455846,-0.344788879974649,0.489518526647862,6
1.55999755859375,-0.589381814002991,2.71227979660034,1.50496137142181,-0.587181951496087,2.71316839067337,1.50204717602401,2208.179,2207.855,2206.449,2206.891,356.821014404297,44.9999160766602,1.27959954738617,-0.808202028274536,-0.348321050405502,0.489654630422592,-0.812800388649436,-0.349725300221754,0.496527073925997,6
1.58000183105469,-0.605769574642181,2.70521807670593,1.5148903131485,-0.60355483331529,2.70612359703193,1.51204911403357,2205.683,2206.195,2206.506,2207.438,356.863952636719,44.9997406005859,1.26214015483856,-0.819385528564453,-0.353082180023193,0.496449649333954,-0.824110582941666,-0.354591760855452,0.503436295127019,6
1.59999084472656,-0.622377753257751,2.69806241989136,1.52495396137238,-0.620139554045575,2.69898765502515,1.52218046112824,2204.366,2205.083,2206.48,2206.654,356.907806396484,44.9996337890625,1.24400615692139,-0.83041375875473,-0.357777982950211,0.503181874752045,-0.835244706287931,-0.359382463079953,0.510237957334684,5
1.6199951171875,-0.639203369617462,2.69081425666809,1.53514969348907,-0.636958033083316,2.69175113334911,1.53245460752521,2200.751,2202.968,2208.75,2206.435,356.954223632813,44.9997062683105,1.22438132762909,-0.841279208660126,-0.362406343221664,0.509786546230316,-0.846214826007804,-0.364102599125749,0.516939432286212,5
1.63999938964844,-0.656243026256561,2.68347477912903,1.5454797744751,-0.653994195024907,2.68442094880091,1.54286173301126,2204.594,2204.427,2203.072,2203.288,357.00244140625,44.9994239807129,1.20526301860809,-0.851984798908234,-0.366970121860504,0.516503274440765,-0.857007552155828,-0.368746407673381,0.523532540272869,5
1.66000366210938,-0.673493206501007,2.67604565620422,1.55593991279602,-0.671244443874359,2.67699864863716,1.55339964084857,2202.089,2202.551,2202.333,2203.66,357.051116943359,44.999210357666,1.18566763401031,-0.862510144710541,-0.371456176042557,0.523007571697235,-0.867618167158098,-0.373311858882592,0.530014399402375,5
1.67999267578125,-0.690950453281403,2.66852831840515,1.5665283203125,-0.688691692550512,2.66949158495151,1.56405789280588,2200.666,2201.167,2201.725,2202.704,357.100494384766,44.9990425109863,1.16541230678558,-0.872859418392181,-0.375867456197739,0.52941882610321,-0.878034183119987,-0.377793579561193,0.536377381014768,5
1.69999694824219,-0.708610951900482,2.66092419624329,1.57724165916443,-0.706358800111611,2.66188992212981,1.57485045312518,2196.596,2198.759,2203.879,2202.286,357.152160644531,44.9990997314453,1.14364075660706,-0.883025825023651,-0.380202353000641,0.535667777061462,-0.888267004546665,-0.382196476749158,0.542628451944297,5
1.72000122070313,-0.726471126079559,2.65323495864868,1.58808183670044,-0.724228658537036,2.6542010212754,1.58576687078363,2200.247,2200.09,2198.006,2198.698,357.205413818359,44.9988021850586,1.12248039245605,-0.893012762069702,-0.384464412927628,0.542009055614471,-0.898304216251578,-0.386515208538549,0.548760027947228,5
1.739990234375,-0.744527161121368,2.64546203613281,1.59904408454895,-0.74228345468553,2.64643254688532,1.59679626401121,2197.35,2197.863,2197.23,2198.931,357.258941650391,44.9985847473145,1.10085988044739,-0.902801692485809,-0.388641327619553,0.548113465309143,-0.908134108040217,-0.390744736359816,0.554764955448471,5
1.75999450683594,-0.762775063514709,2.63760733604431,1.61012482643127,-0.760546715064628,2.63857437616062,1.60795300478424,2193.017,2195.003,2199.376,2198.599,357.314361572266,44.998607635498,1.0776926279068,-0.912393867969513,-0.392734825611115,0.55403745174408,-0.917767514700581,-0.394889722119545,0.560649853250941,4
1.77999877929688,-0.781210899353027,2.62967228889465,1.62132561206818,-0.779000609654483,2.63063418086074,1.61922620102184,2196.426,2196.122,2193.567,2194.816,357.371032714844,44.9983100891113,1.05509865283966,-0.921793162822723,-0.396749287843704,0.56003874540329,-0.927192788821983,-0.398945154262308,0.566407606133204,4
1.80000305175781,-0.799830555915833,2.62165880203247,1.63264131546021,-0.797640935141499,2.62261376955408,1.63061328498531,2193.138,2193.788,2192.982,2194.807,357.427947998047,44.9981117248535,1.03206586837769,-0.930982530117035,-0.400673717260361,0.565787553787231,-0.936405971974637,-0.402909329586356,0.572035795952272,4
1.81999206542969,-0.818629920482635,2.61356854438782,1.64406967163086,-0.816448984455027,2.61452119137054,1.64210282881713,2191.237,2192.015,2192.307,2193.422,357.485595703125,44.9979934692383,1.00842869281769,-0.939966917037964,-0.404511392116547,0.571417093276978,-0.945396434568188,-0.406777674475912,0.57752792925727,3
1.83999633789063,-0.837604582309723,2.60540342330933,1.65560686588287,-0.835449117627072,2.60634596486888,1.6537097136807,2186.761,2189.227,2194.218,2192.71,357.545684814453,44.9980773925781,0.98329496383667,-0.948740184307098,-0.40826079249382,0.57685798406601,-0.954174163352093,-0.410554485950274,0.582890106797601,3
1.86000061035156,-0.856750726699829,2.59716486930847,1.66725432872772,-0.854622615239374,2.59809614449182,1.66542250417552,2190.538,2190.309,2187.626,2188.694,357.607391357422,44.9977836608887,0.958868265151978,-0.957304000854492,-0.411924421787262,0.582372963428497,-0.962728579444532,-0.414235212212131,0.588115866099442,0
1.87998962402344,-0.876063525676727,2.58885502815247,1.67900657653809,-0.873950157556149,2.58978004298193,1.67722939817649,2187.244,2187.793,2186.498,2188.706,357.669281005859,44.9975776672363,0.934048533439636,-0.965641498565674,-0.41549026966095,0.58761340379715,-0.971049893464309,-0.417815641164241,0.593199226982579,0
1.89999389648438,-0.895538628101349,2.58047580718994,1.69085943698883,-0.893456683142228,2.58138692997148,1.6891456302637,2182.622,2184.614,2188.318,2188.161,357.732879638672,44.9976196289063,0.907704055309296,-0.973754644393921,-0.418960303068161,0.592646181583405,-0.979147395688901,-0.421299770153459,0.598145864732551,0
1.91999816894531,-0.915171563625336,2.57202911376953,1.70281410217285,-0.913122862707269,2.57292512231409,1.7011593924753,2185.948,2185.536,2182.133,2183.961,357.797515869141,44.9973182678223,0.882045269012451,-0.981646120548248,-0.422338634729385,0.597732365131378,-0.987011339258123,-0.424683405378145,0.60294982514457,0
1.94000244140625,-0.93495762348175,2.56351685523987,1.71486485004425,-0.932943991899774,2.5643966441608,1.71326781099638,2182.266,2182.886,2181.399,2183.795,357.862091064453,44.997142791748,0.855994164943695,-0.989302158355713,-0.425615519285202,0.602536916732788,-0.994638524886308,-0.427965170275055,0.607609153824943,0
1.95999145507813,-0.954892039299011,2.55494093894958,1.72700881958008,-0.952900013794853,2.55581012544606,1.7254586333645,2180.055,2180.891,2180.615,2182.125,357.92724609375,44.9970512390137,0.829413115978241,-0.996727764606476,-0.428794473409653,0.607199251651764,-1.00202031904361,-0.431141350077486,0.612118576685011,0
1.97999572753906,-0.974970519542694,2.54630351066589,1.7392418384552,-0.973016570682103,2.54715453300902,1.73774752405424,2175.242,2177.875,2182.423,2181.219,357.994781494141,44.9971771240234,0.801395535469055,-1.00391805171967,-0.431874513626099,0.611652076244354,-1.00916501115878,-0.434215511495054,0.616483157607448,0
2,-0.995187997817993,2.53760647773743,1.75156509876251,-0.993273599084619,2.53843849960327,1.75012222660065,2179.005,2178.707,2175.554,2176.938,358.063812255859,44.9969024658203,0.774147987365723,-1.0108734369278,-0.434857547283173,0.616163671016693,-1.01606400046349,-0.437183953857422,0.620697642517089,0
2.01998901367188,-1.01553964614868,2.52885150909424,1.76397275924683,-1.01365055070775,2.52967086658596,1.76257018837116,2175.557,2176.053,2174.129,2176.767,358.132843017578,44.9967079162598,0.746592700481415,-1.01758015155792,-0.437732815742493,0.620382308959961,-1.02270954399163,-0.440043345582587,0.624757301356767,0
2.03999328613281,-1.03602027893066,2.52004170417786,1.77646017074585,-1.03417354141348,2.52084039703127,1.77510736313833,2170.547,2172.713,2175.928,2176.072,358.203460693359,44.9967765808105,0.717593967914581,-1.02404010295868,-0.440502166748047,0.624369144439697,-1.02910913225408,-0.442796909628122,0.628666709962695,0
2.05999755859375,-1.05662536621094,2.51117825508118,1.78902816772461,-1.05482201812353,2.5119559343546,1.78772119534738,2174.081,2173.408,2169.334,2171.664,358.27490234375,44.9964942932129,0.689350962638855,-1.03025507926941,-0.443169325590134,0.628402471542358,-1.03525504859546,-0.445441325732794,0.632421154350513,0
2.08000183105469,-1.07734966278076,2.50226378440857,1.80167078971863,-1.07559088172821,2.50301967256038,1.80040857003175,2169.993,2170.673,2168.611,2171.347,358.346038818359,44.996337890625,0.660816073417664,-1.03621435165405,-0.445725739002228,0.632128417491913,-1.04114485287423,-0.447975543971863,0.636019143875825,0
2.09999084472656,-1.09818816184998,2.49330019950867,1.81438481807709,-1.09645901288412,2.49404069871208,1.81315658571413,2167.685,2168.458,2167.703,2169.584,358.417572021484,44.9962730407715,0.631798207759857,-1.04192304611206,-0.44817516207695,0.635701417922974,-1.04677201701582,-0.450396755497224,0.639456690639761,0
2.1199951171875,-1.11913585662842,2.48428988456726,1.82716584205627,-1.11745308225396,2.48500753716864,1.82598153508617,2162.61,2165.33,2169.478,2168.579,358.491363525391,44.9964370727539,0.601386904716492,-1.04737746715546,-0.450516998767853,0.639049649238586,-1.0521429102862,-0.45270770082608,0.642737685527497,0
2.13999938964844,-1.14018738269806,2.47523474693298,1.84001481533051,-1.138551967509,2.47592927627801,1.83887051484687,2166.503,2166.081,2162.371,2164.037,358.566467285156,44.9961853027344,0.571860611438751,-1.05257642269135,-0.452752500772476,0.642449080944061,-1.05725102347782,-0.454905579228273,0.645858152165725,0
2.16000366210938,-1.16133761405945,2.46613740921021,1.85292565822601,-1.15975039167652,2.46680818657414,1.85182030137592,2162.855,2163.329,2160.861,2163.815,358.641357421875,44.9960136413574,0.542124688625336,-1.05750977993011,-0.45487242937088,0.645540118217468,-1.0620943502576,-0.456989527434725,0.648816864916866,0
2.17999267578125,-1.18258118629456,2.45699977874756,1.8658949136734,-1.18102676265167,2.45765355853653,1.86481770439342,2160.633,2161.082,2159.565,2162.111,358.716339111328,44.995922088623,0.511947095394135,-1.0621817111969,-0.456879526376724,0.648461520671844,-1.06666760390386,-0.458957270716794,0.65161059420515,0
2.19999694824219,-1.20391297340393,2.44782423973083,1.87891781330109,-1.20240821395574,2.44845371736898,1.8778792993441,2155.417,2157.945,2161.313,2161.084,358.793151855469,44.9960670471191,0.480424106121063,-1.06658971309662,-0.458774238824844,0.651143968105316,-1.07097597819164,-0.460811043810786,0.654242512826705,0
2.22000122070313,-1.22532749176025,2.43861317634583,1.8919951915741,-1.22387315175433,2.43921795429519,1.89099189489151,2159.16,2158.64,2154.409,2156.409,358.870910644531,44.9958152770996,0.449862629175186,-1.07073259353638,-0.460558027029037,0.653867959976196,-1.07501419914593,-0.462548577472581,0.656709398992482,0
2.239990234375,-1.24681949615479,2.42936873435974,1.90512084960938,-1.24539969505118,2.42995568409656,1.90414212427648,2155.333,2155.753,2153.083,2156.228,358.948272705078,44.995677947998,0.419096678495407,-1.07460331916809,-0.46222335100174,0.656280517578125,-1.07877792518082,-0.464168003639063,0.659008600495412,0
2.25999450683594,-1.26838362216949,2.42009329795837,1.91828978061676,-1.26701526177039,2.4206551096063,1.91734673668097,2150.055,2152.254,2154.909,2155.488,359.026947021484,44.9958076477051,0.386944681406021,-1.07820451259613,-0.463772565126419,0.658449172973633,-1.08227143928024,-0.465671165158559,0.661142733743536,0
2.27999877929688,-1.29001438617706,2.41078925132751,1.93150281906128,-1.28869796983554,2.41132564607061,1.93059236468599,2153.577,2152.896,2148.341,2150.716,359.106231689453,44.9955673217773,0.35573011636734,-1.08153486251831,-0.465208023786545,0.660651445388794,-1.08549040888332,-0.467056197851165,0.663109152043028,0
2.30000305175781,-1.31170606613159,2.40145874023438,1.94475364685059,-1.31044231452835,2.40196966201596,1.94387564554502,2149.516,2150.008,2147.333,2150.457,359.184997558594,44.9954643249512,0.324321657419205,-1.08458971977234,-0.466523736715317,0.662541568279266,-1.08843358680109,-0.468322565086307,0.664907093505606,0
2.31999206542969,-1.33345365524292,2.39210438728333,1.95803892612457,-1.33222611841886,2.3925966997709,1.95718303141218,2147.137,2147.837,2146.285,2148.523,359.263824462891,44.9954414367676,0.292619675397873,-1.08737289905548,-0.467722624540329,0.664263784885406,-1.09109790637238,-0.469468947365361,0.666534684755819,0
2.33999633789063,-1.35525131225586,2.38272833824158,1.97135388851166,-1.35407709248145,2.38319483607731,1.97053145048929,2141.952,2144.541,2147.933,2147.659,359.344573974609,44.9956398010254,0.25958189368248,-1.08988296985626,-0.46880504488945,0.665750801563263,-1.09348640563071,-0.470496651869278,0.667993781680938,0
2.36000061035156,-1.37709355354309,2.37333297729492,1.98469948768616,-1.37597305876702,2.37377361348711,1.98390735461333,2145.962,2145.302,2140.795,2142.801,359.426208496094,44.995418548584,0.227617204189301,-1.09211575984955,-0.469771146774292,0.667277693748474,-1.09559602313537,-0.471404361345641,0.669282514094601,0
2.37998962402344,-1.39897501468658,2.36392068862915,1.99806916713715,-1.39789168475144,2.36434264106153,1.9972971011938,2142.158,2142.447,2139.293,2142.669,359.507232666016,44.9952774047852,0.195556879043579,-1.0940682888031,-0.47061476111412,0.668487191200256,-1.09742465646102,-0.47219117117957,0.670399597657984,0
2.39999389648438,-1.42088985443115,2.35449361801147,2.01145815849304,-1.41986083522252,2.35488992936084,2.01071771239474,2136.884,2138.941,2141.004,2142.012,359.589294433594,44.9954147338867,0.162182584404945,-1.09574317932129,-0.471338123083115,0.669447660446167,-1.09897439291323,-0.472857979480329,0.671346307473475,0
2.41999816894531,-1.44283258914948,2.345055103302,2.02486681938171,-1.44185817738692,2.34542508756209,2.02415554546122,2140.449,2139.604,2134.51,2137.096,359.671630859375,44.9952011108398,0.129882022738457,-1.09713733196259,-0.471942991018295,0.670434236526489,-1.10024313330221,-0.473403883025206,0.672121361178802,0
2.44000244140625,-1.46479749679565,2.33560657501221,2.03828907012939,-1.46387808506052,2.33595053645515,2.03760716344514,2136.385,2136.598,2133.497,2137.004,359.753143310547,44.9951095581055,0.0974076464772224,-1.0982506275177,-0.472425371408463,0.671108305454254,-1.10123038958312,-0.473828671822132,0.672724460634977,0
2.45999145507813,-1.48677933216095,2.32615089416504,2.0517213344574,-1.48589810917879,2.32647593524532,2.05105885256329,2133.874,2134.535,2132.616,2134.98,359.83447265625,44.9951095581055,0.0647424459457397,-1.09908640384674,-0.472788333892822,0.671608686447144,-1.10193535162022,-0.474131997292339,0.673155110942729,0
2.47999572753906,-1.50877213478088,2.31668996810913,2.06515884399414,-1.50794623031618,2.31698924467309,2.06452770571198,2128.708,2131.287,2134.27,2134.147,359.917541503906,44.9953498840332,0.0308552198112011,-1.09964466094971,-0.473032772541046,0.671876788139343,-1.10235882472314,-0.474314205938057,0.673413804053135,0
2.5,-1.53077065944672,2.30722713470459,2.07860255241394,-1.52999999932945,2.30750012397766,2.0780000090599,2132.763,2132.017,2127.267,2129.238,0.00126095488667488,44.9951477050781,-0.00184465700294822,-1.09991943836212,-0.473158061504364,0.672180891036987,-1.10250000050292,-0.474374949932098,0.673500046133994,0
2.51998901367188,-1.55276894569397,2.29776382446289,2.09204602241516,-1.5520369476803,2.29801824074336,2.09146203692764,2129.042,2129.056,2125.706,2129.32,0.084203690290451,44.9950332641602,359.96533203125,-1.09991192817688,-0.473159492015839,0.672171771526337,-1.10235904000526,-0.474314298567936,0.67341393556562,0
2.53999328613281,-1.57476139068604,2.28830337524414,2.10548424720764,-1.57408507527774,2.28853154739156,2.10493089402267,2123.821,2125.86,2127.348,2128.508,0.167976915836334,44.995189666748,359.931396484375,-1.09962451457977,-0.47303968667984,0.671913743019104,-1.10193578218388,-0.474132182551855,0.673155373967352,0
2.55999755859375,-1.5967423915863,2.27884745597839,2.11891794204712,-1.59612191359838,2.27904971150017,2.11839285467467,2127.529,2126.28,2120.91,2123.787,0.251671075820923,44.9949798583984,359.898529052734,-1.09905242919922,-0.472799330949783,0.671679198741913,-1.10123038958312,-0.473828671822132,0.672724460634977,0
2.58000183105469,-1.61870634555817,2.26939868927002,2.13234043121338,-1.61814182127198,2.26957516039323,2.13184447265859,2123.273,2123.596,2120.122,2123.525,0.33432674407959,44.9949264526367,359.865661621094,-1.09819972515106,-0.472436666488647,0.671129167079926,-1.10024313330221,-0.473403883025206,0.672121361178803,0
2.59999084472656,-1.6406477689743,2.25995969772339,2.14574861526489,-1.64012239440973,2.26011753383818,2.14527206178836,2120.927,2121.384,2119.237,2121.716,0.416628777980804,44.9949493408203,359.832672119141,-1.09706914424896,-0.471954077482224,0.670412600040436,-1.09897546783438,-0.47285844198887,0.671346964126033,0
2.6199951171875,-1.66256105899811,2.25053262710571,2.15913796424866,-1.66209156852628,2.2506648119635,2.15869268743396,2115.892,2118.317,2120.788,2120.897,0.500404596328735,44.9951972961426,359.798583984375,-1.0956619977951,-0.471353203058243,0.669467985630035,-1.09742594550583,-0.472191725819537,0.67040038511534,0
2.63999938964844,-1.68444049358368,2.24112010002136,2.17250895500183,-1.68402693989188,2.24122663446822,2.17209266350648,2119.94,2118.927,2114.006,2116.114,0.58455365896225,44.9950103759766,359.765686035156,-1.09397053718567,-0.470632433891296,0.668553531169891,-1.09559602313537,-0.471404361345641,0.669282514094601,0
2.65998840332031,-1.70628046989441,2.23172426223755,2.18585562705994,-1.70590622088595,2.23181259109281,2.18545837484632,2116.259,2116.236,2112.527,2116.085,0.667711853981018,44.9949150085449,359.732849121094,-1.09200012683868,-0.469789445400238,0.667332172393799,-1.09348812118877,-0.470497390025984,0.667994829688588,0
2.67999267578125,-1.72807538509369,2.22234773635864,2.19917297363281,-1.72775723139253,2.2224107117184,2.19880681618649,2111.211,2113.038,2114.086,2115.469,0.75145149230957,44.9950828552246,359.698974609375,-1.08975338935852,-0.468826532363892,0.665868997573853,-1.09109983431736,-0.469469776906228,0.666535862507326,0
2.69999694824219,-1.74981999397278,2.21299266815186,2.21246147155762,-1.74955768413056,2.21303058593937,2.21212437257479,2114.843,2113.491,2107.956,2110.757,0.834856927394867,44.9949035644531,359.666290283203,-1.08722364902496,-0.467743635177612,0.664423167705536,-1.08843358680109,-0.468322565086308,0.664907093505606,0
2.72000122070313,-1.77150821685791,2.20366191864014,2.22571492195129,-1.77130202882336,2.20367460188472,2.22540765343382,2110.711,2110.831,2107.209,2110.646,0.917052149772644,44.9948577880859,359.633666992188,-1.08441925048828,-0.4665407538414,0.662672579288483,-1.08549040888332,-0.467056197851165,0.663109152043028,0
2.739990234375,-1.79313516616821,2.19435787200928,2.23893022537231,-1.79296822271738,2.1943522439355,2.23864319318939,2108.577,2108.743,2106.264,2108.881,0.998647630214691,44.9948997497559,359.600982666016,-1.08134174346924,-0.465219974517822,0.660761892795563,-1.08227399942825,-0.465672266718727,0.661144297698006,0
2.75999450683594,-1.81469488143921,2.18508219718933,2.25210285186768,-1.81458384274179,2.18505164650952,2.2518478381572,2103.647,2105.833,2107.783,2108.164,1.08139884471893,44.9951553344727,359.567291259766,-1.07799398899078,-0.463783532381058,0.658626973628998,-1.07878069424208,-0.464169195088763,0.659010292071722,0
2.77999877929688,-1.83618235588074,2.17583751678467,2.26523327827454,-1.83612684690458,2.17578229366013,2.2650081232283,2107.633,2106.496,2101.35,2103.386,1.16421449184418,44.9949951171875,359.534942626953,-1.07436680793762,-0.462229251861572,0.6565181016922,-1.07501419914593,-0.462548577472581,0.656709398992482,0
2.80000305175781,-1.8575918674469,2.16662645339966,2.27831554412842,-1.85759178470316,2.16654653058634,2.2781207187757,2103.987,2103.849,2100.042,2103.512,1.24587118625641,44.994930267334,359.502716064453,-1.07046961784363,-0.46055668592453,0.654112696647644,-1.07097597819164,-0.460811043810786,0.654242512826704,0
2.81999206542969,-1.8789176940918,2.15745115280151,2.29134631156921,-1.87895695992541,2.1573536925621,2.29117237092199,2102.023,2101.845,2098.872,2101.876,1.32665717601776,44.994930267334,359.470489501953,-1.06630349159241,-0.458767294883728,0.651541352272034,-1.06667099276523,-0.458958728849171,0.651612664407684,0
2.83999633789063,-1.90015530586243,2.14831352233887,2.3043212890625,-1.90024960698239,2.14819206138118,2.30417971674389,2097.262,2099.191,2100.273,2101.072,1.40815258026123,44.9951515197754,359.437469482422,-1.06187224388123,-0.456864029169083,0.648746609687805,-1.06209435025759,-0.456989527434725,0.648816864916866,0
2.86000061035156,-1.92129862308502,2.13921689987183,2.31724071502686,-1.9214480311499,2.13907097167731,2.31712950327294,2100.912,2099.584,2094.355,2096.618,1.48936676979065,44.9950103759766,359.405700683594,-1.05716717243195,-0.454844802618027,0.64596700668335,-1.05725102347782,-0.454905579228273,0.645858152165725,0
2.87998962402344,-1.94234263896942,2.13016271591187,2.33009886741638,-1.94253086194772,2.12999961857111,2.33000867561624,2097.473,2097.057,2093.109,2096.676,1.56921029090881,44.9949569702148,359.374114990234,-1.0521993637085,-0.452710628509521,0.642907083034515,-1.05214690704168,-0.452709420518306,0.642740127083052,0
2.89999389648438,-1.96328210830688,2.12115335464478,2.34289121627808,-1.96352501326936,2.1209664217661,2.34283367505136,2092.641,2094.241,2094.711,2096.105,1.64926397800446,44.9951629638672,359.341705322266,-1.04697179794312,-0.45046404004097,0.639620780944824,-1.04677621342161,-0.450398561093403,0.639459254158576,0
2.91999816894531,-1.98411154747009,2.11219120025635,2.3556182384491,-1.98440911693069,2.11198057539494,2.35559144808806,2096.166,2094.61,2089.171,2091.663,1.72867465019226,44.9950256347656,359.310577392578,-1.04147589206696,-0.448103696107864,0.636350035667419,-1.04114485287423,-0.447975543971863,0.636019143875825,0
2.94000244140625,-2.00482630729675,2.10327863693237,2.36827421188354,-2.00517798053537,2.10304431360073,2.36827882277243,2092.476,2092.235,2088.36,2091.648,1.80663311481476,44.9950103759766,359.279663085938,-1.03572475910187,-0.445631921291351,0.632802486419678,-1.03525504859546,-0.445441325732794,0.632421154350513,0
2.95999145507813,-2.02542066574097,2.09441733360291,2.38085627555847,-2.02581075424974,2.0941666074844,2.38088306226645,2090.463,2090.282,2087.575,2090.17,1.88366782665253,44.9950675964355,359.248840332031,-1.02971935272217,-0.443050175905228,0.629101514816284,-1.02911391720548,-0.442798968459032,0.628669633014836,0
2.97999572753906,-2.04588961601257,2.08561038970947,2.39336013793945,-2.04633384260397,2.08533609591429,2.39342029668558,2086.047,2087.931,2088.887,2089.359,1.96137869358063,44.9953193664551,359.217376708984,-1.02346396446228,-0.440361469984055,0.625198304653168,-1.02271452148052,-0.440045487257004,0.624760342027062,0
3,-2.06622862815857,2.07685923576355,2.40578651428223,-2.06672639957428,2.07656174835205,2.40587779151916,2089.995,2088.208,2082.963,2085.229,2.03859686851501,44.995174407959,359.187194824219,-1.0169483423233,-0.437562525272369,0.621317327022552,-1.01606400046349,-0.437183953857422,0.620697642517089,0
3.01998901367188,-2.08643245697021,2.06816601753235,2.41812968254089,-2.0869680292999,2.06785234056679,2.41824308725414,2086.494,2086.016,2081.935,2085.319,2.11426448822021,44.9951400756836,359.157318115234,-1.01018714904785,-0.434656083583832,0.617160558700562,-1.00917036754089,-0.434217816196637,0.616486429737696,0
3.03999328613281,-2.10649633407593,2.05953311920166,2.43038558959961,-2.10708469520508,2.05919670122237,2.43053204454123,2082.154,2083.376,2083.335,2084.858,2.1898398399353,44.9953384399414,359.126800537109,-1.00318288803101,-0.431644231081009,0.612798154354095,-1.00202586176059,-0.431143734953757,0.612121962644322,0
3.05999755859375,-2.12641477584839,2.0509626865387,2.44255447387695,-2.12705600675913,2.05060360379452,2.44273220712343,2085.541,2083.668,2078.213,2080.74,2.2644407749176,44.9952087402344,359.097503662109,-0.995926678180695,-0.428525447845459,0.608446776866913,-0.994638524886308,-0.427965170275055,0.607609153824944,0
3.08000183105469,-2.14618325233459,2.04245662689209,2.45463132858276,-2.14687713595163,2.04207512564123,2.45484062564451,2082.105,2081.583,2077.493,2080.708,2.33733224868774,44.9952087402344,359.068603515625,-0.988434135913849,-0.425303548574448,0.603838443756104,-0.987011339258122,-0.424683405378145,0.60294982514457,0
3.09999084472656,-2.1657977104187,2.03401708602905,2.46661305427551,-2.16652837486666,2.03361974652815,2.46684526084616,2080.234,2079.865,2076.848,2079.302,2.40902042388916,44.9952850341797,359.039947509766,-0.980706214904785,-0.421979993581772,0.599087178707123,-0.979153483542501,-0.421302389586788,0.598149583707317,0
3.1199951171875,-2.18525266647339,2.02564597129822,2.47849607467651,-2.18603502400946,2.02522658035469,2.47876156841225,2076.065,2077.493,2078.187,2078.858,2.48105788230896,44.995548248291,359.010711669922,-0.972748517990112,-0.418558031320572,0.594148814678192,-0.971056158224178,-0.417818336715394,0.593203054026623,0
3.13999938964844,-2.20454359054565,2.01734519004822,2.49028062820435,-2.20537738341953,2.01690410346351,2.49057751394429,2079.795,2077.99,2072.837,2074.76,2.55238389968872,44.9954376220703,358.982849121094,-0.964550316333771,-0.415034562349319,0.589232325553894,-0.962728579444533,-0.414235212212131,0.588115866099442,0
3.15998840332031,-2.22366619110107,2.00911688804626,2.50196194648743,-2.22453632143911,2.00866054767245,2.50228141021112,2076.724,2075.996,2071.791,2074.93,2.62200093269348,44.9954071044922,358.955444335938,-0.956128299236298,-0.411413043737411,0.584067940711975,-0.954180774018563,-0.410557330335374,0.582894145150591,0
3.17999267578125,-2.24261569976807,2.00096297264099,2.51353621482849,-2.24353658854737,2.00048526354177,2.51388837689424,2072.78,2073.529,2073.036,2074.695,2.69119024276733,44.9956016540527,358.927520751953,-0.947485566139221,-0.407695561647415,0.578714370727539,-0.945403214201559,-0.406780591562751,0.577532070829503,0
3.19999694824219,-2.26138806343079,1.99288535118103,2.52500367164612,-2.2623590635174,1.99238647840124,2.5253867331345,2075.99,2073.89,2068.406,2070.819,2.75907301902771,44.9955024719238,358.900909423828,-0.93861311674118,-0.403880536556244,0.573370039463043,-0.936405971974636,-0.402909329586355,0.572035795952272,0
3.22000122070313,-2.27997875213623,1.98488569259644,2.53635954856873,-2.28099938900442,1.98436606709459,2.53677381709797,2072.708,2071.939,2067.933,2070.968,2.8250675201416,44.9955253601074,358.874725341797,-0.929528772830963,-0.399972975254059,0.567789793014526,-0.927192788821982,-0.398945154262308,0.566407606133204,0
3.239990234375,-2.2983832359314,1.97696650028229,2.54760122299194,-2.2994392795179,1.97643189735754,2.54803845846384,2071.081,2070.479,2067.407,2069.64,2.88968062400818,44.9956169128418,358.848907470703,-0.920233070850372,-0.395974278450012,0.56208461523056,-0.917774783907129,-0.394892849856044,0.560654293895788,0
3.25999450683594,-2.31659817695618,1.96912860870361,2.55872559547424,-2.31770268688992,1.96857366338589,2.55919528903255,2067.559,2068.437,2068.439,2069.234,2.95422887802124,44.9958610534668,358.822723388672,-0.91073215007782,-0.391887754201889,0.556217551231384,-0.90814153446928,-0.390747931744771,0.554769492138098,0
3.27999877929688,-2.33461856842041,1.96137452125549,2.5697329044342,-2.33577134012187,1.96079922667992,2.57023314733618,2070.724,2068.821,2063.895,2065.668,3.01776695251465,44.9957885742188,358.797882080078,-0.9010169506073,-0.387710750102997,0.550361156463623,-0.898304216251578,-0.386515208538549,0.548760027947228,0
3.30000305175781,-2.35244059562683,1.95370554924011,2.5806188583374,-2.35364119854729,1.95311032582551,2.58114956499463,2068.182,2067.077,2062.882,2065.83,3.07942175865173,44.9957809448242,358.773590087891,-0.891104519367218,-0.383447408676147,0.544292628765106,-0.888267004546666,-0.382196476749158,0.542628451944297,0
3.31999206542969,-2.37006044387817,1.94612348079681,2.59138083457947,-2.37129490830989,1.94551442770222,2.59193394080789,2066.74,2065.74,2062.198,2064.703,3.13938188552856,44.9958381652832,358.749725341797,-0.880996406078339,-0.379099130630493,0.538098335266113,-0.878042061913513,-0.37779696958594,0.536382194046788,0
3.33999633789063,-2.38747453689575,1.93863010406494,2.60201573371887,-2.38875555478454,1.93800159931817,2.60260037727124,2063.283,2063.885,2063.335,2064.361,3.19887065887451,44.9960670471191,358.725677490234,-0.87069970369339,-0.374669760465622,0.531745791435242,-0.867618167158097,-0.373311858882592,0.530014399402376,0
3.36000061035156,-2.40467858314514,1.93122684955597,2.61252379417419,-2.406005803634,1.93057929915441,2.61313828510855,2066.365,2064.145,2059.161,2061.082,3.25702023506165,44.9959907531738,358.702911376953,-0.86020565032959,-0.370156943798065,0.525408208370209,-0.857007552155826,-0.36874640767338,0.523532540272868,0
3.37998962402344,-2.42166900634766,1.92391562461853,2.62290120124817,-2.42302905329872,1.92325467039821,2.62353752268616,2063.774,2062.659,2058.485,2061.19,3.3131422996521,44.9960136413574,358.680786132813,-0.849532544612885,-0.365565776824951,0.518870711326599,-0.846223126656603,-0.364106170663035,0.516944503023036,0
3.39999389648438,-2.43844294548035,1.91669762134552,2.63314485549927,-2.43984769972619,1.91601807669906,2.63381177133889,2060.578,2060.691,2059.59,2061.081,3.36835026741028,44.996208190918,358.658508300781,-0.838684141635895,-0.360898613929749,0.512184083461761,-0.835253140422974,-0.35938609205264,0.510243109616171,0
3.41999816894531,-2.45499610900879,1.90957450866699,2.64325499534607,-2.45644516534361,1.90887665092339,2.64395090408624,2063.239,2060.957,2056,2057.982,3.42194628715515,44.9961547851563,358.637451171875,-0.827653169631958,-0.35615411400795,0.50550651550293,-0.824110582941664,-0.354591760855451,0.503436295127018,0
3.44000244140625,-2.47132539749146,1.90254759788513,2.65322804450989,-2.47281804716281,1.90183185728196,2.6539528420958,2060.781,2059.571,2055.54,2058.066,3.47344040870667,44.9961853027344,358.617065429688,-0.816457629203796,-0.351337850093842,0.498647779226303,-0.812800388649434,-0.349725300221754,0.496527073925997,0
3.45999145507813,-2.48742723464966,1.89561867713928,2.66306185722351,-2.48895081463434,1.8948903781363,2.66380809799729,2059.542,2058.409,2055.144,2057.149,3.52317595481873,44.9962844848633,358.597229003906,-0.805099308490753,-0.346451312303543,0.491690367460251,-0.80133641229185,-0.344792671461508,0.489523909660973,0
3.47999572753906,-2.50329875946045,1.88878881931305,2.67275404930115,-2.50486489870395,1.88804299234919,2.67352976362102,2056.765,2056.893,2056.039,2056.894,3.57220220565796,44.9965057373047,358.577362060547,-0.793585419654846,-0.341498196125031,0.484607696533203,-0.789706299681989,-0.339788558913217,0.482419255351936,0
3.5,-2.51893711090088,1.88205909729004,2.68230485916138,-2.5205447997813,1.88129636896134,2.68310837050915,2059.585,2057.232,2052.402,2054.064,3.61966180801392,44.9964599609375,358.558868408203,-0.781908988952637,-0.336476385593414,0.477541476488113,-0.777924000354857,-0.334718964672089,0.475221632552147,0
3.51998901367188,-2.53433895111084,1.87543129920959,2.69171094894409,-2.53597583877076,1.87465682397749,2.69253495143119,2057.347,2055.945,2051.904,2054.351,3.66494679450989,44.9964904785156,358.541046142578,-0.770088493824005,-0.331391364336014,0.470305770635605,-0.766004036374581,-0.329590137176618,0.467939912563966,0
3.53999328613281,-2.54950141906738,1.8689067363739,2.7009699344635,-2.55117869390181,1.86811546013321,2.70182213839487,2054.775,2054.372,2052.836,2054.286,3.70897507667542,44.9966697692871,358.523254394531,-0.758127629756927,-0.326245427131653,0.462950885295868,-0.753933682518821,-0.324396601119134,0.46056632174764,0
3.55999755859375,-2.56442165374756,1.86248576641083,2.71008205413818,-2.56613872308604,1.86167857751006,2.71096098677687,2057.314,2054.695,2049.709,2051.636,3.75102853775024,44.9966316223145,358.506774902344,-0.746021032333374,-0.321037828922272,0.455611497163773,-0.741727567798258,-0.319144650954242,0.45310979673751,0
3.58000183105469,-2.57909774780273,1.85617029666901,2.71904444694519,-2.58085326729328,1.85534732021446,2.71994987221714,2055.028,2053.67,2049.593,2051.785,3.79074311256409,44.996696472168,358.491088867188,-0.733787357807159,-0.315774708986282,0.448117047548294,-0.729391385793765,-0.313836736470737,0.44557381565329,0
3.59999084472656,-2.59352612495422,1.84996128082275,2.72785544395447,-2.59530884290342,1.84912748987145,2.72878055778257,2054.079,2052.54,2049.41,2051.271,3.82848596572876,44.9968070983887,358.475952148438,-0.721428751945496,-0.310457527637482,0.440550357103348,-0.716940488958392,-0.308479463400265,0.437967757068975,0
3.6199951171875,-2.60770535469055,1.84385943412781,2.73651313781738,-2.60952509409627,1.84301063413925,2.73746504379605,2051.878,2051.548,2050.214,2050.95,3.86514806747437,44.9970169067383,358.461090087891,-0.708952605724335,-0.305090367794037,0.432889223098755,-0.704361775018033,-0.303067194200314,0.43028361700977,0
3.63999938964844,-2.62163209915161,1.83786606788635,2.74501800537109,-2.6234885835008,1.83700253474321,2.74599512157732,2054.293,2051.854,2047.316,2048.729,3.90001034736633,44.9970092773438,358.447540283203,-0.696354568004608,-0.299671769142151,0.425248503684998,-0.691670720740692,-0.297606588091786,0.422530849991739,0
3.65998840332031,-2.63530540466309,1.83198189735413,2.75336766242981,-2.63718676607487,1.8311085894645,2.7543631275559,2052.765,2050.94,2046.79,2048.985,3.93247413635254,44.9970474243164,358.434814453125,-0.683651685714722,-0.294207096099854,0.417481958866119,-0.678883253871145,-0.292104498338286,0.414719186025619,0
3.67999267578125,-2.64872241020203,1.82620763778687,2.76155996322632,-2.65063849381582,1.82532068681534,2.76258057812278,2050.46,2049.667,2047.839,2049.188,3.96332693099976,44.9972267150879,358.422302246094,-0.670849800109863,-0.288699239492416,0.409617334604263,-0.665986083416798,-0.286555206197011,0.406840505851433,0
3.69999694824219,-2.6618812084198,1.82054460048676,2.76959562301636,-2.66383127580226,1.81964420129024,2.77063984276899,2052.743,2050.147,2045.395,2046.926,3.99201846122742,44.9972267150879,358.411163330078,-0.657944679260254,-0.283147871494293,0.401780277490616,-0.65299527533123,-0.280965624398954,0.398904623909523,0
