t,x_s1,x_s2,x_s3,x_s_d1,x_s_d2,x_s_d3,propellers_rpms1,propellers_rpms2,propellers_rpms3,propellers_rpms4,rollRad,pitchRad,yawRad,v_s1,v_s2,v_s3,v_s_d1,v_s_d2,v_s_d3,insideCount
0,-0.0599999986588955,2.94000005722046,1.17999994754791,-0.0599999986588955,2.94000005722046,1.17999994754791,0,0,0,0,0,0,0,0,0,0,-1.06581410364015E-15,4.44089209850063E-16,4.44089209850063E-16,0
0.0199999921023846,-0.0599999986588955,2.94000005722046,1.18023538589478,-0.0600018689851485,2.93999925247132,1.18000110536896,0,0,0,0,-8.223779E-10,-3.280937E-19,7.979146E-10,-3.68531795724258E-15,-8.77082051431444E-09,0.0117720020934939,-0.000279986375734238,-0.000120470315563732,0.000173324904179954,5
0.0399999842047691,-0.0599999986588955,2.94000005722046,1.17676818370819,-0.0600148713857818,2.93999365790158,1.18000915447434,0,0,0,0,-1.644756E-09,-1.312375E-18,1.595829E-09,-3.4641991593289E-15,-8.24457124792843E-09,-0.173362255096436,-0.00111096802362334,-0.000478018503710732,0.000687742129368719,5
0.059999980032444,-0.0599999986588955,2.94000005722046,1.16982042789459,-0.060049891741204,2.93997858962099,1.1800308337426,2457.113,2398.493,2259.647,2320.468,-2.467134E-09,-2.952844E-18,2.393744E-09,-3.2563476502263E-15,-7.74989672436277E-09,-0.347388505935669,-0.00247956031385756,-0.00106688553215623,0.00153496595211551,5
0.0799999684095383,-0.0599999986588955,2.94000005722046,1.16394925117493,-0.0601175492801009,2.93994947847214,1.18007271698215,2701.161,2640.377,2496.117,2559.147,-0.001516937,2.121793E-06,0.0005816872,-4.77355843742089E-09,-1.91309350583424E-08,-0.293560326099396,-0.00437248577996248,-0.00188135847800576,0.00270677698817921,5
0.0999999642372131,-0.0600071102380753,2.93999695777893,1.15953290462494,-0.0602281988646503,2.9399018690471,1.18014121434596,2720.429,2627.757,2394.379,2494.508,-0.004609399,3.671927E-06,0.00176894,-0.000355535856215283,-0.000158503535203636,-0.220817372202873,-0.00677657765502183,-0.00291577204929212,0.00419502438161857,5
0.119999960064888,-0.0600350722670555,2.93998456001282,1.15641045570374,-0.0603919330116387,2.93983141881785,1.18024257358268,2565.156,2526.651,2413.874,2461.37,-0.0102063,1.481365E-06,0.003949604,-0.00139802834019065,-0.000622642983216792,-0.156122013926506,-0.0096787755294144,-0.00416450671662093,0.00599162311672447,5
0.139999955892563,-0.0601073317229748,2.93995261192322,1.15437960624695,-0.0606185841441557,2.93973389716743,1.1803828814306,2380.641,2416.13,2475.55,2447.873,-0.0169654,-1.029495E-05,0.006617143,-0.00361295463517308,-0.00160117004998028,-0.101540856063366,-0.0130661279819148,-0.00562198984525972,0.00808855564679666,5
0.159999936819077,-0.0602499470114708,2.93988966941833,1.15326070785522,-0.0609177264885074,2.93960518457372,1.18056806479188,2239.947,2325.962,2512.903,2430.292,-0.02299533,-2.487907E-05,0.009048278,-0.0071308589540422,-0.00314353336580098,-0.0559459738433361,-0.0169257889229127,-0.00728269412172734,0.0104778696304222,5
0.179999932646751,-0.0604832917451859,2.9397873878479,1.15290105342865,-0.0612986791863105,2.93944127127045,1.18080389265912,2190.537,2275.318,2475.517,2389.208,-0.02692882,-2.732146E-05,0.01070153,-0.0116671752184629,-0.0051150182262063,-0.01798040792346,-0.0212450294505367,-0.0091411426551529,0.013151685270981,5
0.199999928474426,-0.0608170330524445,2.93964195251465,1.15317249298096,-0.0617705071352352,2.93923825688537,1.18109597663578,2226.613,2263.354,2365.163,2325.084,-0.02867266,-1.199385E-05,0.01150534,-0.0166871286928654,-0.00727404048666358,0.013570498675108,-0.026011220582377,-0.0111919015472184,0.0161021846267596,5
0.219999924302101,-0.0612509250640869,2.93945384025574,1.15396749973297,-0.0623420239858836,2.93899234915087,1.18144977279146,2298.634,2272.163,2228.592,2254.664,-0.0293523,1.053133E-05,0.01184875,-0.0216946825385094,-0.00940409675240517,0.0397529825568199,-0.031211844417406,-0.0134295846948213,0.0193216185207115,4
0.239999920129776,-0.0617803260684013,2.93922543525696,1.15519654750824,-0.0630217941146897,2.93869986305502,1.18187058288313,2344.887,2277.472,2126.696,2199.56,-0.03056989,2.605582E-05,0.01232283,-0.0264700781553984,-0.0114204846322536,0.0614540204405785,-0.0368344914346654,-0.0158488526277751,0.0228023048682162,4
0.25999990105629,-0.0624030195176601,2.93895745277405,1.15678489208221,-0.0638181341527546,2.93835722018381,1.18236355530163,2326.987,2262.241,2098.312,2173.422,-0.03346368,2.543957E-05,0.01337826,-0.0311347749084234,-0.0133939702063799,0.0794160440564156,-0.0428668558492025,-0.0184444105105986,0.026536625802182,4
0.279999911785126,-0.0631235837936401,2.93864774703979,1.15867006778717,-0.0647391183472776,2.93796094641423,1.1829336883906,2248.882,2224.919,2139.889,2174.971,-0.0381141,7.666305E-06,0.01509652,-0.0360282026231289,-0.0154881374910474,0.0942601636052132,-0.0492967588323918,-0.0212110181335712,0.0305170420475318,4
0.299999892711639,-0.0639532655477524,2.9382905960083,1.16080021858215,-0.0657925735053613,2.93750767408983,1.18358582731648,2150.352,2178.2,2210.907,2190.113,-0.04360234,-1.961786E-05,0.01718778,-0.0414841249585152,-0.0178522150963545,0.106510102748871,-0.0561120968528548,-0.0241434676852743,0.0347360609417709,4
0.319999873638153,-0.0649060308933258,2.93787980079651,1.16313242912292,-0.066986089843436,2.93699413735254,1.18432467078482,2080.579,2140.446,2260.034,2200.675,-0.04862506,-4.190144E-05,0.01919035,-0.0476383939385414,-0.0205346718430519,0.116612814366817,-0.0633009032247692,-0.0272366102351091,0.0391862745363232,4
0.339999884366989,-0.0659933984279633,2.93741059303284,1.16563153266907,-0.0683270199764796,2.93641717257755,1.18515477041453,2069.324,2124.69,2254.594,2194.861,-0.0522688,-4.501886E-05,0.02074328,-0.0543685033917427,-0.0234618801623583,0.124954707920551,-0.0708513218684839,-0.0304853444432222,0.0438603433531013,4
0.359999865293503,-0.0672210678458214,2.93688082695007,1.16826903820038,-0.0698224741524531,2.93577372042378,1.18608052778782,2111.659,2132.026,2197.169,2172.589,-0.05448987,-2.770093E-05,0.02177216,-0.0613834485411644,-0.0264886934310198,0.131872907280922,-0.0787515710530303,-0.0338846009599213,0.0487509739393939,4
0.379999876022339,-0.0685890093445778,2.93629121780396,1.17102217674255,-0.0714793369853421,2.93506081863418,1.1871062048087,2174.04,2151.96,2120.671,2143.875,-0.05605422,-2.593208E-06,0.0224983,-0.0683972835540771,-0.0294850058853626,0.137657448649406,-0.086990023450842,-0.0374293768709845,0.0538509684255509,4
0.399999856948853,-0.0700946450233459,2.93564319610596,1.17387318611145,-0.0733042517476919,2.93427560879415,1.18823591397934,2216.07,2169.102,2066.604,2122.023,-0.05802815,1.294715E-05,0.02328525,-0.0752819776535034,-0.0324058048427105,0.14254792034626,-0.0955551120403749,-0.0411146952101866,0.059153166274223,4
0.419999837875366,-0.0717369914054871,2.93493700027466,1.17680788040161,-0.0753036392233569,2.93341532821979,1.18947363007081,2213.709,2172.077,2060.83,2115.762,-0.06115044,9.203712E-06,0.02442437,-0.0821172818541527,-0.0353072322905064,0.146733999252319,-0.104435414773886,-0.0449356413894786,0.0646504966937494,4
0.439999848604202,-0.0735194012522697,2.93417096138,1.17981517314911,-0.0774836936378566,2.9324773117089,1.19082318760378,2171.143,2159.197,2100.29,2124.986,-0.06544718,-1.317668E-05,0.02598466,-0.0891206786036491,-0.0383036769926548,0.150364279747009,-0.11361961986258,-0.0488873482621572,0.0703359571480111,4
0.459999829530716,-0.0754495784640312,2.93334102630615,1.18288636207581,-0.0798503739108672,2.93145899530482,1.19228827543339,2115.539,2138.186,2157.329,2141.859,-0.07028828,-4.265034E-05,0.02780082,-0.0965089499950409,-0.0414963662624359,0.153559997677803,-0.123096482606157,-0.0529649775478235,0.0762025866318629,4
0.479999840259552,-0.0775370821356773,2.9324426651001,1.18601489067078,-0.0824094292610639,2.93035790527936,1.19387245259987,2079.122,2121.024,2197.76,2155.792,-0.0748082,-6.338205E-05,0.02958944,-0.104375086724758,-0.0449153259396553,0.156427517533302,-0.132854922276536,-0.0571637615187439,0.0822435256467739,4
0.499999821186066,-0.0797900259494781,2.93147253990173,1.18919622898102,-0.0851663731207339,2.92917166935664,1.19557913218046,2080.571,2116.738,2200.461,2159.714,-0.07841731,-6.422603E-05,0.03111772,-0.112647086381912,-0.0485083684325218,0.159066408872604,-0.142883909221989,-0.0614789544239126,0.0884519463129095,4
0.519999802112579,-0.082212895154953,2.93042898178101,1.19242763519287,-0.0881265112831755,2.92789800460203,1.19741159871394,2115.657,2126.836,2168.087,2153.309,-0.08110551,-4.613804E-05,0.03232438,-0.121143132448196,-0.0521765612065792,0.161570310592651,-0.153172565600841,-0.0659058758319492,0.0948211147280901,4
0.539999783039093,-0.0848065391182899,2.92931222915649,1.19570803642273,-0.0912949291136132,2.92653472292494,1.19937300028366,2161.969,2145.172,2123.2,2142.256,-0.08339103,-2.213308E-05,0.03333331,-0.129682540893555,-0.0558342933654785,0.164021298289299,-0.163710107617,-0.0704398857766591,0.101344355208831,4
0.559999823570251,-0.0875702202320099,2.92812299728394,1.19903767108917,-0.0946765077855201,2.92507972409279,1.2014663585685,2193.418,2161.988,2093.537,2134.385,-0.0859743,-7.830378E-06,0.03436492,-0.138184264302254,-0.0594558082520962,0.166481599211693,-0.174485892312833,-0.0750764048907026,0.108015079257362,4
0.579999804496765,-0.0905042141675949,2.92686128616333,1.20241749286652,-0.0982758855033902,2.92353101241576,1.203694544838,2195.255,2169.676,2095.876,2135.034,-0.08932456,-1.259747E-05,0.03560407,-0.146699875593185,-0.0630836114287376,0.168990403413773,-0.185489288397106,-0.0798108588264658,0.114826705597972,4
0.599999785423279,-0.0936115980148315,2.92552542686462,1.20584893226624,-0.102097520116728,2.92188666980575,1.20606031871336,2171.215,2166.648,2127.584,2144.5,-0.09343807,-3.395127E-05,0.03710329,-0.155369073152542,-0.0667974501848221,0.171569183468819,-0.196709868977879,-0.0846387611836407,0.121772779487847,4
0.619999766349792,-0.0968982130289078,2.92411208152771,1.20933353900909,-0.106145651628018,2.92014487190815,1.20856630495809,2139.463,2157.603,2169.981,2158.421,-0.09788715,-6.037656E-05,0.03876854,-0.164330363273621,-0.0706644207239151,0.174231499433517,-0.208137283778369,-0.0895556585272806,0.128846893612608,4
0.639999747276306,-0.100371040403843,2.92261815071106,1.2128734588623,-0.110424314118205,2.91830388297061,1.21121500086048,2120.815,2150.242,2200.424,2170.749,-0.1021019,-7.720172E-05,0.04042728,-0.17364165186882,-0.0747013911604881,0.176993116736412,-0.219761290901539,-0.0945571440552161,0.136042707750099,4
0.659999787807465,-0.104036122560501,2.92104077339172,1.21647095680237,-0.114937351717038,2.91636204897151,1.21400878611995,2126.794,2150.643,2205.282,2177.357,-0.1057057,-7.598393E-05,0.04193172,-0.183253958821297,-0.0788681879639626,0.179876312613487,-0.231571792295924,-0.0996388728580087,0.143353970725426,4
0.679999768733978,-0.107897058129311,2.91937875747681,1.22012913227081,-0.119688366274122,2.91431782013557,1.21694989045299,2153.88,2160.235,2186.957,2177.819,-0.1087065,-5.904537E-05,0.0432357,-0.193047359585762,-0.0830951407551765,0.182908490300179,-0.243558692403314,-0.104796501098997,0.150774432907138,4
0.699999749660492,-0.111955121159554,2.91763234138489,1.22385144233704,-0.124680800209538,2.91216971528562,1.22004044488162,2187.22,2175.343,2160.723,2175.288,-0.1114528,-3.780012E-05,0.04440835,-0.20290333032608,-0.0873239785432816,0.186114192008972,-0.25571210939136,-0.11002577690179,0.158297976970277,4
0.719999730587006,-0.116210490465164,2.91580152511597,1.22764158248901,-0.129917885593406,2.90991634375217,1.22328245021121,2210.11,2189.718,2144.937,2174.271,-0.114403,-2.587294E-05,0.04558267,-0.2127685546875,-0.0915392115712166,0.189507365226746,-0.268022234882335,-0.115322479995463,0.165918531061789,4
0.739999711513519,-0.120664000511169,2.91388607025146,1.23150336742401,-0.135402659412275,2.90755639880475,1.2266777864811,2213.487,2198.371,2150.515,2177.825,-0.1178539,-3.059054E-05,0.04687428,-0.222675651311874,-0.0957719758152962,0.193087786436081,-0.280479368878259,-0.120682436741875,0.173630090420851,4
0.759999752044678,-0.125318273901939,2.91188454627991,1.23544025421143,-0.141137983205286,2.90508864920302,1.23022822512034,2200.444,2199.965,2175.233,2186.357,-0.121788,-4.904513E-05,0.04832109,-0.232713595032692,-0.100077293813229,0.196844890713692,-0.29307395749094,-0.126101536369839,0.181426740735557,4
0.779999732971191,-0.130177661776543,2.9097945690155,1.23945558071136,-0.147126476115806,2.90251196800275,1.23393538750343,2183.058,2197.326,2206.467,2197.529,-0.1259164,-7.060279E-05,0.04987024,-0.24296960234642,-0.104499280452728,0.200766280293465,-0.305796442389055,-0.131575666196417,0.189302564943491,4
0.799999713897705,-0.135247215628624,2.90761375427246,1.24355244636536,-0.153370619602546,2.89982528750158,1.23780080977152,2174.681,2195.367,2229.238,2207.986,-0.1298648,-8.322107E-05,0.05141732,-0.253477573394775,-0.109045937657356,0.204845324158669,-0.318637486048877,-0.137100808546009,0.19725178267266,4
0.819999694824219,-0.14053125679493,2.90533995628357,1.24773418903351,-0.159872691993147,2.89702762739878,1.24182590231796,2182.308,2198.194,2234.819,2215.299,-0.1333951,-8.06975E-05,0.05286888,-0.264201879501343,-0.113686375319958,0.209084361791611,-0.331587821991737,-0.142672976311719,0.205268657531342,4
0.839999675750732,-0.146032482385635,2.90297245979309,1.25200402736664,-0.16663478736965,2.89411808666934,1.24601196147929,2203.178,2206.956,2225.169,2219.07,-0.1365216,-6.567631E-05,0.05419164,-0.275061428546906,-0.118370771408081,0.21349236369133,-0.344638292118709,-0.148288229019428,0.213347520220043,4
0.859999716281891,-0.151752024888992,2.90051126480103,1.25636553764343,-0.173658839061432,2.89109583345565,1.25036018407849,2227.479,2219.406,2210.592,2221.02,-0.1394793,-4.813817E-05,0.05542407,-0.28597691655159,-0.12305898219347,0.218077570199966,-0.357779886002355,-0.15394268973393,0.221482792854951,4
0.879999697208405,-0.157690271735191,2.89795637130737,1.26082229614258,-0.180946537299623,2.88796014049848,1.25487161644914,2244.496,2231.594,2203.266,2223.596,-0.1425665,-3.888137E-05,0.05664594,-0.296912223100662,-0.127741351723671,0.222840756177902,-0.371003583951354,-0.159632477534032,0.229668891817471,4
0.899999678134918,-0.163848012685776,2.89530754089355,1.26537775993347,-0.188499456976537,2.88471033016565,1.25954723352461,2248.756,2240.164,2210.188,2228.596,-0.1459705,-4.306788E-05,0.05792971,-0.30788716673851,-0.132440090179443,0.22777259349823,-0.384300592040009,-0.165353808639179,0.237900373248685,3
0.919999659061432,-0.17022716999054,2.89256358146667,1.27003490924835,-0.196318976867224,2.88134580920878,1.26438788883233,2242.668,2244.118,2229.582,2236.356,-0.1496702,-5.815655E-05,0.05930177,-0.318957656621933,-0.13719254732132,0.232856661081314,-0.397662185688703,-0.1711029291065,0.2461718362182,3
0.939999639987946,-0.176830723881721,2.88972306251526,1.27479648590088,-0.204406302339104,2.87786605899195,1.26939432855217,2234.207,2245.163,2252.949,2245.664,-0.1534711,-7.475205E-05,0.06073248,-0.330177485942841,-0.142027273774147,0.238076493144035,-0.411079748697569,-0.1768761316259,0.254477946887852,3
0.959999680519104,-0.18366202712059,2.88678407669067,1.27966487407684,-0.212762492824401,2.87427062367106,1.27456720852312,2231.953,2246.427,2270.326,2254.74,-0.1571281,-8.401161E-05,0.06215889,-0.341565191745758,-0.146947085857391,0.243421524763107,-0.424544813437776,-0.18266977281325,0.262813463392024,3
0.979999661445618,-0.190723896026611,2.88374543190002,1.28464269638062,-0.221388363573279,2.87055915246675,1.27990703342388,2240.051,2250.691,2276.236,2262.108,-0.1604911,-8.077791E-05,0.06352192,-0.353093832731247,-0.151928275823593,0.248889520764351,-0.438048900190371,-0.188480204082383,0.271173136380742,3
0.999999642372131,-0.198018044233322,2.88060665130615,1.28973233699799,-0.230284637237593,2.86673133444211,1.28541425061038,2256.458,2258.757,2272.13,2267.531,-0.1635756,-6.818189E-05,0.06479879,-0.364707589149475,-0.156935200095177,0.254483819007874,-0.451583757957464,-0.194303875259412,0.27955185809326,3
1.01999962329865,-0.205545112490654,2.87736797332764,1.29493653774261,-0.239451847229689,2.86278694008471,1.29108919029025,2274.653,2269.3,2265.015,2271.823,-0.1665403,-5.451249E-05,0.06601047,-0.37635263800621,-0.161939829587936,0.260207414627075,-0.465141204058494,-0.200137265565489,0.287944563060517,3
1.03999960422516,-0.213305175304413,2.8740291595459,1.30025768280029,-0.248890364392249,2.85872580983131,1.2969320820328,2287.831,2279.749,2262.888,2276.339,-0.1695779,-4.770158E-05,0.06720481,-0.388003826141357,-0.166935920715332,0.266057431697845,-0.478713164192651,-0.205976900854545,0.296346252905679,3
1.05999958515167,-0.221298605203629,2.87059044837952,1.30569815635681,-0.258600399165891,2.85454785313518,1.30294305611079,2292.654,2287.956,2270.292,2282.002,-0.1728077,-5.165401E-05,0.06842681,-0.399672389030457,-0.171938747167587,0.272023528814316,-0.492291672438868,-0.211819353613287,0.304751996344136,3
1.07999956607819,-0.229526489973068,2.86705088615417,1.31125998497009,-0.268582003756762,2.85025304753347,1.3091221448423,2291.004,2293.091,2285.746,2289.223,-0.1762091,-6.307211E-05,0.06969497,-0.411392718553543,-0.17697349190712,0.278090298175812,-0.505868871255825,-0.2176612429612,0.313156929183504,3
1.09999966621399,-0.237990409135818,2.86340975761414,1.31694483757019,-0.278835136225848,2.84584141107139,1.3154693222651,2288.072,2296.257,2303.633,2297.299,-0.179651,-7.558915E-05,0.07099271,-0.423197150230408,-0.182058170437813,0.284242928028107,-0.519437092312213,-0.22349926942955,0.32155630436141,3
1.1199996471405,-0.246692299842834,2.8596658706665,1.32275426387787,-0.289359416585141,2.84131310724714,1.3219843531485,2289.4,2299.449,2317.267,2305.361,-0.1829735,-8.190048E-05,0.07228208,-0.435094505548477,-0.187192693352699,0.290471643209457,-0.532988533043588,-0.229330075792835,0.329945291718775,3
1.13999962806702,-0.255633562803268,2.85581874847412,1.3286896944046,-0.3001544956463,2.83666828630672,1.32866702132829,2297.386,2304.475,2323.276,2312.549,-0.186082,-7.882967E-05,0.07352623,-0.44706404209137,-0.1923588514328,0.296773314476013,-0.546515741955651,-0.235150455881228,0.338319278425664,3
1.15999960899353,-0.264814883470535,2.85186815261841,1.33475267887115,-0.311219814352623,2.8319071887966,1.33551698072173,2310.583,2311.948,2322.662,2318.678,-0.1889918,-6.901945E-05,0.07470935,-0.45906674861908,-0.197531059384346,0.30314913392067,-0.560011295026715,-0.240957215345602,0.346673668658998,3
1.17999958992004,-0.27423620223999,2.84781432151794,1.340944647789,-0.32255466625091,2.82703011868387,1.34253379400064,2324.632,2321.066,2320.25,2324.065,-0.1918088,-5.850099E-05,0.0758426,-0.47106546163559,-0.202689677476883,0.309599936008453,-0.573467876614841,-0.246747206469604,0.355003933687925,3
1.19999957084656,-0.283897072076797,2.84365773200989,1.34726703166962,-0.334158199659061,2.82203744242354,1.34971693393324,2335.194,2330.173,2321.294,2329.429,-0.194659,-5.38225E-05,0.07695498,-0.483042061328888,-0.207830354571342,0.316121906042099,-0.586878279457835,-0.252517328169661,0.363305611873816,3
1.21999955177307,-0.293797075748444,2.83939838409424,1.35372114181519,-0.346029419833664,2.81692958802591,1.35706578472596,2340.347,2337.79,2328.576,2335.375,-0.1976161,-5.68389E-05,0.07807484,-0.495002388954163,-0.212963461875916,0.322705686092377,-0.60023540467325,-0.258264525994975,0.37157430867027,3
1.23999953269958,-0.303936421871185,2.835036277771,1.36030793190002,-0.358167191137591,2.8117070441239,1.36457964336532,2341.382,2343.433,2341.126,2342.047,-0.2006633,-6.582989E-05,0.07921431,-0.506966769695282,-0.218105390667915,0.329338401556015,-0.613532261758385,-0.263985792127526,0.379805696623111,3
1.2599995136261,-0.314315527677536,2.830570936203,1.36702811717987,-0.370570239207589,2.80637035904043,1.37225772095976,2341.79,2347.669,2355.033,2349.279,-0.2037126,-7.501955E-05,0.08036459,-0.518953800201416,-0.223267301917076,0.33600789308548,-0.626761968590286,-0.269678165382072,0.387995515370391,3
1.27999949455261,-0.324934870004654,2.8260018825531,1.37388217449188,-0.383237153121874,2.80092013985572,1.38009914408149,2345.02,2351.868,2366.034,2356.498,-0.2066602,-7.920872E-05,0.08150239,-0.530966579914093,-0.228447556495667,0.342705965042114,-0.639917751425747,-0.275338731206147,0.396139571642386,3
1.29999959468842,-0.335794627666473,2.82132911682129,1.3808708190918,-0.396166465410552,2.79535701798107,1.38810300429674,2352.559,2357.206,2371.885,2363.268,-0.209447,-7.656746E-05,0.08260471,-0.542988955974579,-0.233632415533066,0.349429607391357,-0.652993022582349,-0.280964655104045,0.404233787349864,3
1.31999957561493,-0.346894502639771,2.81655311584473,1.38799440860748,-0.409356344400193,2.78968178153439,1.3962681677124,2363.325,2364.096,2373.378,2369.446,-0.2120846,-6.91894E-05,0.08366126,-0.554993093013763,-0.238803371787071,0.356178879737854,-0.665981069175534,-0.286553048709076,0.412274006897505,3
1.33999955654144,-0.358233571052551,2.81167411804199,1.3952534198761,-0.422805058782351,2.78389517544933,1.40459356256606,2374.433,2371.975,2373.773,2375.204,-0.2146455,-6.154028E-05,0.08467829,-0.566953003406525,-0.243946567177773,0.362953305244446,-0.678875520783022,-0.292101171006504,0.420256286690452,3
1.35999953746796,-0.36981064081192,2.80669283866882,1.40264844894409,-0.43651067307629,2.77799803250919,1.41307799070296,2383.112,2379.896,2376.546,2380.769,-0.2172106,-5.846192E-05,0.08567256,-0.578855335712433,-0.249058678746223,0.369749158620834,-0.691670037181239,-0.297606293975249,0.428176701828286,3
1.37999951839447,-0.381624698638916,2.80160999298096,1.41017961502075,-0.45047112608072,2.77199123959129,1.4217201761413,2388.258,2386.841,2383.395,2386.546,-0.2198258,-6.092837E-05,0.08666191,-0.59070235490799,-0.254146575927734,0.376558363437653,-0.704358386526357,-0.303065736227009,0.436031394502814,3
1.39999949932098,-0.393674790859222,2.79642558097839,1.41784703731537,-0.464684233041386,2.76587573673435,1.43051876641413,2390.795,2392.406,2393.61,2392.713,-0.2224789,-6.756946E-05,0.08765473,-0.602505445480347,-0.259220719337463,0.383370578289032,-0.716934445354295,-0.30847686300626,0.443816573998067,3
1.4199994802475,-0.405960291624069,2.79113984107971,1.42565059661865,-0.47914768781867,2.75965251620584,1.43947233391117,2392.993,2397.077,2404.606,2399.081,-0.2251101,-7.421482E-05,0.08864571,-0.614274680614471,-0.264287650585175,0.390176147222519,-0.729392198580716,-0.313837086190255,0.451528516690305,3
1.43999946117401,-0.418480485677719,2.78575301170349,1.43358993530273,-0.493859065055175,2.75332262156927,1.44857937722065,2397.069,2401.619,2413.538,2405.497,-0.2276518,-7.702299E-05,0.08962123,-0.62600964307785,-0.269345223903656,0.396968483924866,-0.741725739501034,-0.319143864289024,0.459163566048012,3
1.45999944210052,-0.431234389543533,2.78026533126831,1.44166481494904,-0.508815822343323,2.7468871467516,1.45783832247117,2403.906,2406.832,2418.985,2411.684,-0.2300673,-7.488355E-05,0.09056716,-0.637697637081146,-0.274383008480072,0.403744757175446,-0.753929269790406,-0.324394702445373,0.466718132631899,3
1.47999942302704,-0.444220781326294,2.77467751502991,1.44987487792969,-0.524015302392944,2.74034723511057,1.46724752467353,2412.683,2413.014,2421.607,2417.489,-0.2323667,-6.939143E-05,0.09147647,-0.649318695068359,-0.279387772083282,0.410504341125488,-0.765997099503737,-0.329587152434887,0.474188694094901,3
1.49999952316284,-0.457437872886658,2.7689905166626,1.45821976661682,-0.539454827934603,2.7337040386004,1.47680532647041,2421.534,2419.806,2423.533,2422.994,-0.2345973,-6.436567E-05,0.09235279,-0.660854279994965,-0.284349322319031,0.417246013879776,-0.777923717731525,-0.334718843067164,0.481571838921516,3
1.51999950408936,-0.470883727073669,2.7632052898407,1.46669912338257,-0.555131334348531,2.72695887584137,1.48650983071619,2428.746,2426.559,2426.959,2428.353,-0.2368125,-6.223183E-05,0.09320637,-0.67229425907135,-0.289265185594559,0.423966258764267,-0.789703509085649,-0.339787358197571,0.488864090918999,3
1.53999948501587,-0.484556525945663,2.75732254981995,1.47531223297119,-0.571041924015683,2.72011299359802,1.49635924364665,2433.579,2432.634,2433.11,2433.7,-0.2390405,-6.439735E-05,0.09404783,-0.683638632297516,-0.294139534235001,0.430658489465714,-0.801331180275272,-0.344790420270939,0.496062173288168,3
1.55999946594238,-0.498454391956329,2.75134301185608,1.48405849933624,-0.587183501790833,2.71316772362485,1.50635164921945,2436.707,2437.82,2441.416,2439.132,-0.2412728,-6.924533E-05,0.09488233,-0.694893419742584,-0.298978984355927,0.437314450740814,-0.812801474874933,-0.34972576759424,0.503162832051264,3
1.5799994468689,-0.512575685977936,2.74526715278625,1.4929370880127,-0.603552868484143,2.70612444244388,1.51648506698368,2439.664,2442.355,2450.086,2444.654,-0.2434683,-7.375479E-05,0.09570725,-0.706063330173492,-0.303787261247635,0.443926632404327,-0.824109244838915,-0.35459118510722,0.510162880322752,3
1.59999942779541,-0.526918530464172,2.73909592628479,1.50194692611694,-0.620146723028754,2.69898457041196,1.52675745342171,2443.83,2446.76,2457.312,2450.156,-0.2455839,-7.578217E-05,0.09651472,-0.717146217823029,-0.308561980724335,0.450489640235901,-0.835249450501249,-0.359384504382406,0.517059198309326,3
1.61999940872192,-0.541481137275696,2.73283004760742,1.51108694076538,-0.636961664648381,2.69174957078812,1.53716670329101,2449.77,2451.515,2462.109,2455.569,-0.2475957,-7.423265E-05,0.09729628,-0.728132009506226,-0.313295304775238,0.457001000642776,-0.846217160575712,-0.364103603625099,0.523848733309903,3
1.63999938964844,-0.556261301040649,2.72647047042847,1.52035617828369,-0.653994195024907,2.68442094880091,1.54771065096602,2456.843,2456.804,2465.067,2460.744,-0.2495126,-7.043884E-05,0.09804729,-0.739006042480469,-0.31797730922699,0.463459461927414,-0.857007552155828,-0.368746407673381,0.530528499715628,3
1.65999937057495,-0.571256399154663,2.72001838684082,1.52975344657898,-0.67124072046597,2.67700025071577,1.55838707177998,2463.846,2462.461,2467.563,2465.664,-0.2513657,-6.691743E-05,0.09876925,-0.749754965305328,-0.322600990533829,0.469863653182983,-0.867615910714866,-0.373310887998107,0.53709557900987,3
1.67999935150146,-0.586463749408722,2.71347498893738,1.53927767276764,-0.688697554072563,2.66948906290232,1.56919368336676,2469.667,2468.07,2471.073,2470.367,-0.2531905,-6.576278E-05,0.09946815,-0.760371148586273,-0.327164232730865,0.476210236549377,-0.878037630105846,-0.377795062702911,0.543547119768228,3
1.69999945163727,-0.601880848407745,2.70684170722961,1.54892754554749,-0.706361023796448,2.66188896534035,1.5801282125536,2473.902,2473.202,2476.299,2474.969,-0.2550035,-6.769266E-05,0.1001509,-0.770853281021118,-0.331669390201569,0.482493817806244,-0.888268272962199,-0.382197022512927,0.549880375049414,3
1.71999943256378,-0.617504835128784,2.70011925697327,1.55870175361633,-0.724227052244719,2.65420171241811,1.59118813524004,2477.051,2477.655,2482.805,2479.605,-0.2567985,-7.118222E-05,0.1008211,-0.781203866004944,-0.336120665073395,0.488708078861237,-0.898303327916801,-0.386514826312912,0.556092552102273,3
1.7399994134903,-0.633333384990692,2.69330883026123,1.56859874725342,-0.742291790573715,2.64642896018551,1.60237106880851,2480.028,2481.679,2489.547,2484.133,-0.2585487,-7.456556E-05,0.1014769,-0.791424691677094,-0.340519845485687,0.494847118854523,-0.90813857551568,-0.390746658589701,0.562181038883795,2
1.75999939441681,-0.64936363697052,2.6864116191864,1.57861685752869,-0.760551200733267,2.63857244610272,1.6136745135136,2483.77,2485.498,2495.22,2488.692,-0.260226,-7.585937E-05,0.1021142,-0.801512837409973,-0.344864726066589,0.500906705856323,-0.917769843131486,-0.394890723978315,0.56814325233888,2
1.77999937534332,-0.665592849254608,2.6794285774231,1.58875453472137,-0.779001162304534,2.63063394307086,1.62509591861977,2488.617,2489.517,2499.215,2493.134,-0.2618148,-7.487725E-05,0.1027271,-0.811460375785828,-0.349149286746979,0.506884515285492,-0.927193066516615,-0.398945273746551,0.573976676504655,2
1.79999935626984,-0.682017982006073,2.67236113548279,1.59901010990143,-0.797637474667596,2.62261525849933,1.63663268374317,2494.112,2493.84,2501.967,2497.365,-0.2633222,-7.215567E-05,0.1033129,-0.821256458759308,-0.353366613388062,0.512779295444489,-0.93640428980321,-0.402908605794985,0.579678862510473,2
1.81999933719635,-0.698635816574097,2.66521096229553,1.60938191413879,-0.816455859169051,2.61451823337315,1.64828216019354,2499.473,2498.333,2504.375,2501.394,-0.2647688,-6.969819E-05,0.1038726,-0.830891251564026,-0.357511341571808,0.518589377403259,-0.945399665503159,-0.406779064656968,0.58524742857791,2
1.83999931812286,-0.715442895889282,2.65797924995422,1.61986815929413,-0.835451961289599,2.60634474132034,1.660041652316,2503.996,2502.692,2507.388,2505.269,-0.2661771,-6.915825E-05,0.1044101,-0.840358734130859,-0.361581712961197,0.5243119597435,-0.954175454508099,-0.410555041498632,0.590680060020772,2
1.85999929904938,-0.732436060905457,2.65066766738892,1.63046705722809,-0.854621352811647,2.5980966876792,1.6719084188329,2507.401,2506.73,2511.527,2508.927,-0.2675593,-7.042915E-05,0.1049291,-0.849657297134399,-0.365579068660736,0.529942691326141,-0.962728026089412,-0.414234974118882,0.595974509245088,2
1.87999927997589,-0.749611854553223,2.64327764511108,1.64117658138275,-0.87395953398689,2.58977600856573,1.68387967418569,2510.03,2510.241,2516.474,2512.54,-0.2689095,-7.308485E-05,0.1054321,-0.858787596225739,-0.369505882263184,0.535476624965668,-0.971053857898228,-0.417817346949402,0.601128595749115,2
1.89999938011169,-0.766966819763184,2.63581037521362,1.6519947052002,-0.893462052427636,2.58138461971797,1.6959526621343,2512.549,2513.406,2521.424,2516.06,-0.2702102,-7.543432E-05,0.105918,-0.867749631404877,-0.373362869024277,0.540909171104431,-0.979149583526931,-0.421300711519042,0.606140235566175,2
1.91999936103821,-0.784497559070587,2.62826752662659,1.6629194021225,-0.913124039316749,2.57292461605191,1.70812436864899,2515.54,2516.46,2525.575,2519.463,-0.2714421,-7.635821E-05,0.1063839,-0.876540422439575,-0.377148151397705,0.546237111091614,-0.987011800861963,-0.424683603993382,0.61100732262591,2
1.93999934196472,-0.802200615406036,2.62065029144287,1.67394852638245,-0.932940909077627,2.56439797061305,1.72039195503939,2519.165,2519.505,2528.607,2522.795,-0.2725969,-7.565753E-05,0.1068271,-0.885153710842133,-0.3808573782444,0.551458537578583,-0.99463736163763,-0.427964669761646,0.615727908001882,2
1.95999932289124,-0.82007223367691,2.61296057701111,1.68507993221283,-0.952907897514699,2.55580673330166,1.7327524720415,2523.125,2522.701,2530.778,2525.927,-0.2736787,-7.386964E-05,0.1072455,-0.893581569194794,-0.384485363960266,0.556572079658508,-1.00202317702469,-0.431142579786905,0.620300079561653,2
1.97999930381775,-0.838108599185944,2.60520005226135,1.69631147384644,-0.973020179739669,2.54715298013237,1.74520293281962,2526.942,2525.918,2532.623,2528.928,-0.2747013,-7.237271E-05,0.1076401,-0.901816725730896,-0.388028234243393,0.561576128005981,-1.00916626657366,-0.434216051665007,0.624721992265008,2
1.99999928474426,-0.856305658817291,2.59737038612366,1.70764088630676,-0.993272872339099,2.53843881230157,1.75774031430821,2530.124,2529.003,2534.858,2531.719,-0.2756798,-7.209462E-05,0.1080125,-0.909854650497437,-0.391484528779984,0.566468298435211,-1.01606375821479,-0.437183849624576,0.62899186816396,2
2.01999926567078,-0.874659478664398,2.58947324752808,1.71906578540802,-1.01366103554201,2.52966635525469,1.77036155855371,2532.52,2531.818,2537.758,2534.306,-0.276622,-7.32853E-05,0.1083653,-0.917693495750427,-0.394854873418808,0.57124525308609,-1.02271288825808,-0.440044784527016,0.633107996402746,1
2.03999924659729,-0.893166124820709,2.58151054382324,1.73058378696442,-1.03417967538748,2.52083775775362,1.78306357405642,2534.349,2534.27,2541.138,2536.745,-0.2775232,-7.541226E-05,0.1086997,-0.925332903862,-0.398140639066696,0.575903236865997,-1.02911100139329,-0.442797713866505,0.637068733217831,1
2.0599992275238,-0.911821603775024,2.57348370552063,1.74219250679016,-1.05482374589221,2.511955190944,1.7958432371123,2536.066,2536.4,2544.425,2539.104,-0.2783722,-7.708005E-05,0.1090157,-0.932772219181061,-0.40134209394455,0.580438792705536,-1.03525555068989,-0.44544154177,0.640872501937905,1
2.07999920845032,-0.930621683597565,2.56539463996887,1.75388944149017,-1.07558815121816,2.50302084742257,1.80869739315486,2538.016,2538.384,2547.162,2541.315,-0.2791568,-7.756434E-05,0.1093112,-0.940008699893951,-0.404457688331604,0.584849536418915,-1.04114409759714,-0.447975218997234,0.644517792983883,1
2.09999918937683,-0.94956248998642,2.55724501609802,1.76567208766937,-1.09646774784009,2.49403694030456,1.82162285809696,2540.359,2540.344,2549.023,2543.418,-0.2798705,-7.73215E-05,0.1095847,-0.947037577629089,-0.407484233379364,0.589133679866791,-1.04677431194403,-0.45039774294072,0.648003163868908,1
2.11999917030334,-0.968639552593231,2.54903674125671,1.77753794193268,-1.11745734671321,2.48500570229096,1.83461641967267,2542.83,2542.277,2550.305,2545.373,-0.2805177,-7.623585E-05,0.109835,-0.953853070735931,-0.410417944192886,0.593290150165558,-1.05214397193928,-0.452708157625744,0.651327239198348,0
2.13999915122986,-0.987848520278931,2.54077172279358,1.78948426246643,-1.13855171544072,2.47592938473595,1.84767483877913,2545.136,2544.203,2551.313,2547.147,-0.2811068,-7.526878E-05,0.1100624,-0.960449993610382,-0.413256198167801,0.597317576408386,-1.05725096417139,-0.454905553710372,0.654488710669797,0
2.15999913215637,-1.0071849822998,2.53245186805725,1.80150854587555,-1.15974558044144,2.46681025671419,1.86079485081838,2546.944,2545.975,2552.549,2548.717,-0.2816485,-7.5171E-05,0.1102681,-0.966824948787689,-0.415997743606567,0.601213991641998,-1.06209328360857,-0.456989068485446,0.657486337073075,0
2.17999911308289,-1.02664458751678,2.52407908439636,1.81360805034637,-1.18103362911738,2.45765060408816,1.87397316703917,2548.177,2547.491,2554.157,2550.11,-0.2821465,-7.612533E-05,0.1104536,-0.972976267337799,-0.418642848730087,0.604976892471313,-1.0666690335988,-0.458957885874587,0.660318944290228,0
2.19999933242798,-1.04622256755829,2.51565527915955,1.82578015327454,-1.20241076736204,2.44845261870959,1.88720663394693,2548.985,2548.704,2556.013,2551.345,-0.2825981,-7.757641E-05,0.1106198,-0.978903412818909,-0.421192407608032,0.608603596687317,-1.07097647561163,-0.460811257836709,0.662985456088088,0
2.21999931335449,-1.06591463088989,2.50718235969543,1.83802199363708,-1.22387110132782,2.43921883653644,1.90049160296922,2549.709,2549.738,2557.668,2552.404,-0.2829955,-7.883751E-05,0.1107662,-0.984605371952057,-0.423646211624146,0.612091541290283,-1.07501382704219,-0.462548417366737,0.665484768949324,0
2.23999929428101,-1.08571624755859,2.49866223335266,1.85033071041107,-1.24540946868523,2.42995147877487,1.91382487837818,2550.478,2550.495,2558.999,2553.374,-0.283331,-7.935446E-05,0.1108925,-0.990079939365387,-0.426003217697144,0.615438997745514,-1.07877956933011,-0.464168711070571,0.667815942812731,0
2.25999927520752,-1.10562288761139,2.49009704589844,1.86270356178284,-1.26702042244467,2.42065288911233,1.92720308822777,2551.436,2551.21,2559.682,2554.199,-0.2836011,-7.908134E-05,0.1109972,-0.995323777198792,-0.428261041641235,0.618644654750824,-1.08227223934366,-0.465671509403495,0.669978071930061,0
2.27999925613403,-1.12562942504883,2.4814887046814,1.87513768672943,-1.28869848743772,2.41132542336085,1.94062284312791,2552.455,2551.844,2559.855,2554.903,-0.2838078,-7.855349E-05,0.1110795,-1.00033283233643,-0.430417090654373,0.621707558631897,-1.08549048233082,-0.46705622945357,0.671970317645288,0
2.29999923706055,-1.1457314491272,2.47283935546875,1.88763022422791,-1.31043816248474,2.40197144852433,1.95408073758635,2553.309,2552.479,2559.789,2555.362,-0.2839569,-7.809899E-05,0.1111389,-1.00510334968567,-0.432469397783279,0.624626755714417,-1.08843305191934,-0.468322334941636,0.673791908394614,0
2.31999921798706,-1.16592407226563,2.46415090560913,1.90017819404602,-1.33223392256247,2.39259334186593,1.9675733513505,2553.748,2552.889,2559.861,2555.669,-0.2840559,-7.821184E-05,0.1111771,-1.00963282585144,-0.434417188167572,0.627400875091553,-1.09109881011673,-0.469469336221307,0.675442139706467,0
2.33999919891357,-1.18620252609253,2.45542573928833,1.91277873516083,-1.35408022097161,2.38319348997539,1.98109725074927,2553.727,2553.102,2560.153,2555.762,-0.2841076,-7.88359E-05,0.1111947,-1.01392018795013,-0.436260730028152,0.630028188228607,-1.09348672731021,-0.470496790278978,0.676920374201502,0
2.35999917984009,-1.20656180381775,2.44666576385498,1.92542886734009,-1.37597149150444,2.37377428783641,1.99464899003492,2553.393,2553.025,2560.504,2555.745,-0.2841097,-7.978967E-05,0.1111926,-1.01796495914459,-0.438000351190567,0.632506608963013,-1.09559588226677,-0.471404300733819,0.678226041592597,0
2.3799991607666,-1.2269971370697,2.43787312507629,1.93812561035156,-1.39790215061238,2.36433813789396,2.0082251127249,2552.927,2552.762,2560.712,2555.538,-0.2840565,-8.086245E-05,0.1111701,-1.02176654338837,-0.439636200666428,0.634834587574005,-1.09742546213314,-0.472191517837776,0.679358638684859,0
2.39999914169312,-1.24750375747681,2.4290497303009,1.95086586475372,-1.41986659957358,2.35488744912162,2.02182215294369,2552.477,2552.315,2560.566,2555.197,-0.2839436,-8.121681E-05,0.1111267,-1.0253232717514,-0.441167414188385,0.637010931968689,-1.09897476243581,-0.472858138475575,0.68031772937562,0
2.41999912261963,-1.26807641983032,2.4201979637146,1.96364653110504,-1.44185922666057,2.34542463608896,2.03543663676465,2552.068,2551.764,2559.997,2554.69,-0.2837678,-8.116609E-05,0.1110618,-1.02863299846649,-0.442592442035675,0.639034807682037,-1.100243187081,-0.473403906164717,0.681102944654437,0
2.43999910354614,-1.28871011734009,2.41131973266602,1.97646462917328,-1.46387440930777,2.33595211802887,2.04906508355185,2551.671,2551.132,2558.97,2554.059,-0.2835313,-8.086365E-05,0.1109749,-1.03169286251068,-0.443909645080566,0.640905618667603,-1.10123024835468,-0.473828611055482,0.681713982603094,0
2.45999908447266,-1.30940020084381,2.40241742134094,1.98931705951691,-1.48590651627916,2.32647231790489,2.06270400730194,2551.075,2550.411,2557.799,2553.211,-0.2832378,-8.055411E-05,0.1108662,-1.03450059890747,-0.445117622613907,0.642622768878937,-1.10193556692257,-0.474132089930926,0.682150608395601,0
2.47999906539917,-1.33014118671417,2.39349317550659,2.00220084190369,-1.50794990983581,2.31698766147859,2.07634991798596,2550.141,2549.43,2556.667,2552.272,-0.2828927,-8.077685E-05,0.1107369,-1.03705477714539,-0.446215957403183,0.644185483455658,-1.10235887183014,-0.474314226206882,0.682412654298194,0
2.49999904632568,-1.35092830657959,2.38454914093018,2.01511263847351,-1.52999894790352,2.30750057637687,2.08999932289122,2548.889,2548.334,2555.551,2551.102,-0.2824964,-8.150748E-05,0.1105864,-1.03935492038727,-0.447204798460007,0.645592570304871,-1.10250000050259,-0.47437494993196,0.682500019669334,0
2.5199990272522,-1.37175631523132,2.37558746337891,2.02804946899414,-1.55204798624038,2.29801349115933,2.10364872796309,2547.329,2546.969,2554.523,2549.778,-0.282049,-8.22668E-05,0.1104153,-1.04140079021454,-0.448084533214569,0.646842837333679,-1.1023588987449,-0.474314237787549,0.68241267095971,0
2.53999900817871,-1.39262020587921,2.36661028862,2.04100823402405,-1.5740913806044,2.28852883438564,2.11729463914691,2545.651,2545.46,2553.298,2548.272,-0.2815462,-8.30178E-05,0.1102233,-1.04319226741791,-0.448855370283127,0.647935390472412,-1.10193562074175,-0.474132113087814,0.682150641712234,0
2.55999898910522,-1.4135148525238,2.35762000083923,2.05398559570313,-1.59612348892105,2.27904903368284,2.13093356372978,2543.936,2543.777,2551.788,2546.622,-0.2809843,-8.336978E-05,0.1100102,-1.04472851753235,-0.449516952037811,0.648869693279266,-1.10123032905761,-0.473828645779696,0.681714032562048,0
2.57999897003174,-1.43443489074707,2.34861874580383,2.06697845458984,-1.61813867345089,2.2695765148127,2.14456201168243,2542.228,2541.952,2549.89,2544.86,-0.2803616,-8.334996E-05,0.1097758,-1.04600822925568,-0.450068235397339,0.649645268917084,-1.10024329463667,-0.473403952442914,0.681103011236517,0
2.59999918937683,-1.45537567138672,2.33960866928101,2.07998371124268,-1.64013156497321,2.26011358800091,2.15817665920145,2540.465,2540.046,2547.67,2542.927,-0.2796798,-8.320376E-05,0.1095198,-1.04702985286713,-0.450508147478104,0.650262117385864,-1.09897488000713,-0.472858189063228,0.680317802157866,0
2.61999917030334,-1.47633147239685,2.33059191703796,2.09299802780151,-1.66209601652007,2.25066289811603,2.17177370102089,2538.496,2537.965,2545.34,2540.859,-0.2789422,-8.319973E-05,0.1092423,-1.04779231548309,-0.45083612203598,0.650719940662384,-1.09742560311921,-0.472191578500142,0.679358725961952,0
2.63999915122986,-1.4972972869873,2.3215708732605,2.10601830482483,-1.68402667868143,2.24122674685977,2.18534982560108,2536.234,2535.769,2543.015,2538.569,-0.2781512,-8.347634E-05,0.1089433,-1.04829525947571,-0.451052069664001,0.651018440723419,-1.09559604661333,-0.471404371447551,0.678226143330945,0
2.65999913215637,-1.51826810836792,2.31254768371582,2.11904144287109,-1.70591795273427,2.23180754320623,2.19890156706579,2533.72,2533.371,2540.641,2536.166,-0.2773086,-8.389493E-05,0.1086236,-1.04853880405426,-0.451156377792358,0.651157259941101,-1.09348691495395,-0.470496871016837,0.676920490361915,0
2.67999911308289,-1.53923845291138,2.30352473258972,2.1320641040802,-1.72776425512866,2.22240768960096,2.21242546893162,2530.981,2530.769,2538.242,2533.601,-0.2764122,-8.452507E-05,0.1082831,-1.04852330684662,-0.451149463653564,0.651135802268982,-1.0910990209853,-0.469469426952161,0.675442270244156,0
2.6999990940094,-1.56020355224609,2.29450416564941,2.14508318901062,-1.74956001965534,2.2130295810283,2.22591808544988,2528.151,2528.032,2535.614,2530.887,-0.2754593,-8.504521E-05,0.1079216,-1.04824900627136,-0.451031476259232,0.650953710079193,-1.08843328593135,-0.468322435630462,0.673792053259191,0
2.71999907493591,-1.58115768432617,2.28548812866211,2.15809535980225,-1.77129969961328,2.20367560407874,2.23937598294842,2525.222,2525.099,2532.809,2528.042,-0.2744489,-8.558601E-05,0.1075388,-1.04771590232849,-0.45080229640007,0.650611102581024,-1.08549073939581,-0.467056340061457,0.671970476780766,0
2.73999905586243,-1.60209631919861,2.2764790058136,2.17109751701355,-1.79297776997733,2.19434813601627,2.25279574117346,2522.266,2522.138,2529.667,2524.996,-0.2733799,-8.552743E-05,0.107134,-1.04692375659943,-0.450461745262146,0.650108098983765,-1.08227251936216,-0.465671629887637,0.669978245274857,0
2.75999903678894,-1.6230137348175,2.26747870445251,2.18408632278442,-1.81458872956577,2.18504954384568,2.26617395463148,2519.165,2518.937,2526.391,2521.882,-0.2722539,-8.554206E-05,0.1067079,-1.0458722114563,-0.45000946521759,0.649444937705994,-1.0787798721936,-0.464168841384272,0.667816130299661,0
2.77999901771545,-1.6439049243927,2.25848960876465,2.19705867767334,-1.83612710320793,2.17578218337996,2.27950723393099,2515.916,2515.725,2522.931,2518.53,-0.2710725,-8.556225E-05,0.10626,-1.04456126689911,-0.449445277452469,0.648621797561646,-1.07501415263309,-0.462548557459409,0.665484970505605,0
2.79999899864197,-1.66476476192474,2.24951410293579,2.21001148223877,-1.85758744391174,2.16654839830762,2.29279220712445,2512.467,2512.305,2519.39,2515.095,-0.2698363,-8.589722E-05,0.1057914,-1.04299139976501,-0.448769569396973,0.647639036178589,-1.07097682380333,-0.460811407653873,0.662985671635341,0
2.81999897956848,-1.6855880022049,2.24055433273315,2.22294139862061,-1.87896433503139,2.15735051926004,2.30602552105005,2508.813,2508.698,2515.788,2511.544,-0.2685468,-8.62994E-05,0.105302,-1.04116332530975,-0.447982758283615,0.646496832370758,-1.06666945720677,-0.458958068141266,0.660319206523745,0
2.839998960495,-1.70636940002441,2.23161292076111,2.23584532737732,-1.90025239243486,2.1481908628788,2.31920384267361,2504.977,2504.957,2512.112,2507.828,-0.2672029,-8.672818E-05,0.1047916,-1.03907823562622,-0.447085291147232,0.645195305347443,-1.06209373272561,-0.456989261727965,0.657486615097922,0
2.85999894142151,-1.72710418701172,2.22269105911255,2.2487199306488,-1.92144626667155,2.13907173088305,2.33232386043035,2501.048,2501.047,2508.237,2504.024,-0.2658048,-8.723461E-05,0.1042598,-1.03673708438873,-0.446077734231949,0.643734753131866,-1.05725143862179,-0.454905757853127,0.6544890043772,0
2.87999892234802,-1.74778699874878,2.21379232406616,2.26156234741211,-1.94254064513985,2.12999540913685,2.34538228556683,2496.905,2497.062,2504.403,2499.926,-0.2643507,-8.753403E-05,0.103706,-1.03414070606232,-0.444960385560989,0.642115771770477,-1.052144471537,-0.452708372588685,0.651327548473136,0
2.89999890327454,-1.76841294765472,2.20491743087769,2.27436900138855,-1.96353025425476,2.1209641667165,2.3583758534827,2492.845,2492.897,2500.046,2495.916,-0.2628385,-8.788409E-05,0.103131,-1.031289935112,-0.443733781576157,0.640338838100433,-1.04677483649268,-0.45039796863935,0.64800348858951,0
2.91999888420105,-1.78897666931152,2.19606947898865,2.28713703155518,-1.98440986161545,2.1119802549779,2.3713013250726,2488.535,2488.712,2495.824,2491.522,-0.261271,-8.812092E-05,0.1025336,-1.02818524837494,-0.442397892475128,0.638404846191406,-1.04114464689001,-0.447975455342608,0.644518133022331,0
2.93999886512756,-1.80947327613831,2.18725037574768,2.29986333847046,-2.00517427817288,2.10304590662387,2.38415548806798,2484.224,2484.378,2491.194,2487.172,-0.259647,-8.809243E-05,0.1019154,-1.02482759952545,-0.440953433513641,0.636314570903778,-1.03525612450991,-0.445441788668724,0.640872857159832,0
2.95999884605408,-1.82989764213562,2.178462266922,2.31254482269287,-2.02581836039739,2.09416333477156,2.39693515837897,2479.711,2479.888,2486.582,2482.66,-0.2579692,-8.846459E-05,0.1012765,-1.02121829986572,-0.439400553703308,0.634068727493286,-1.02911159951308,-0.442797971220741,0.637069103482473,0
2.97999882698059,-1.85024476051331,2.16970753669739,2.3251781463623,-2.04633701244627,2.0853347320197,2.40963718143616,2475.024,2475.25,2481.893,2478.053,-0.2562382,-8.89144E-05,0.1006171,-1.01735889911652,-0.437739968299866,0.631668090820313,-1.02271351043992,-0.440045052234476,0.633108381562939,0
2.99999904632568,-1.8705096244812,2.16098809242249,2.33776044845581,-2.06672543057999,2.07656216528323,2.42225858349598,2470.188,2470.452,2477.123,2473.357,-0.2544544,-8.930027E-05,0.09993711,-1.01325130462646,-0.435972422361374,0.629113376140594,-1.01606432346125,-0.437184092834336,0.628992218078444,0
3.0199990272522,-1.89068746566772,2.1523060798645,2.35028862953186,-2.08697813469083,2.06784799249938,2.43479597211068,2465.232,2465.59,2472.248,2468.484,-0.2526173,-8.970215E-05,0.09923557,-1.0088974237442,-0.434098869562149,0.626405656337738,-1.00916685243125,-0.434216303743162,0.624722354938765,0
3.03999900817871,-1.91077351570129,2.14366364479065,2.36275959014893,-2.1070904288371,2.05919423420069,2.44724644026866,2460.124,2460.566,2467.333,2463.499,-0.250726,-9.011519E-05,0.09851273,-1.00429892539978,-0.432120144367218,0.623545825481415,-1.00202378325828,-0.431142840632279,0.62030045484912,0
3.05999898910522,-1.93076252937317,2.13506293296814,2.37517023086548,-2.12705742960057,2.0506029915856,2.45960696490139,2454.979,2455.471,2462.19,2458.405,-0.2487787,-9.03568E-05,0.09776817,-0.999457716941833,-0.430036991834641,0.620534956455231,-0.994637988003018,-0.427964939269174,0.615728295751895,0
3.07999897003174,-1.95065021514893,2.12650561332703,2.38751769065857,-2.14687431208796,2.04207634067088,2.47187455917011,2449.812,2450.333,2456.811,2453.177,-0.246776,-9.049544E-05,0.09700196,-0.994375228881836,-0.427850127220154,0.617374420166016,-0.987012447105925,-0.424683882054105,0.611007722681707,0
3.09999895095825,-1.97043120861053,2.11799454689026,2.39979910850525,-2.16653631209854,2.03361633135901,2.48404627380761,2444.487,2445.059,2451.424,2447.827,-0.2447195,-9.071468E-05,0.09621486,-0.989053130149841,-0.425560146570206,0.614065527915955,-0.979150249387196,-0.421300998020112,0.606140647765399,0
3.11999893188477,-1.99010109901428,2.10953092575073,2.41201138496399,-2.18603872829175,2.02522498650551,2.49611919846012,2439.162,2439.688,2445.716,2442.482,-0.2426092,-9.090982E-05,0.09540728,-0.983493506908417,-0.423167943954468,0.610609650611877,-0.971054592046769,-0.41781766283301,0.601129050222034,0
3.13999891281128,-2.0096549987793,2.1011176109314,2.42415165901184,-2.20537692435472,2.01690430098627,2.50809046302913,2433.566,2434.207,2440.206,2436.923,-0.2404488,-9.129487E-05,0.09457921,-0.977698683738708,-0.420674502849579,0.607008159160614,-0.962728780664334,-0.41423529879139,0.595974976362911,0
3.15999889373779,-2.02908849716187,2.09275603294373,2.43621683120728,-2.22454633116994,2.00865624076491,2.51995723901323,2427.908,2428.568,2434.49,2431.405,-0.2382368,-9.167017E-05,0.09373122,-0.971671342849731,-0.418081015348434,0.603262305259705,-0.954176229199323,-0.410555374826624,0.590680539591543,0
3.17999887466431,-2.04839706420898,2.08444833755493,2.44820427894592,-2.2435424489828,2.00048274196013,2.53171674084998,2422.062,2422.845,2428.863,2425.699,-0.2359742,-9.207313E-05,0.09286232,-0.96541428565979,-0.415388584136963,0.599373459815979,-0.945400459990917,-0.406779406502856,0.585247920403679,0
3.19999885559082,-2.06757569313049,2.07619619369507,2.46011114120483,-2.26236084956923,1.99238570991304,2.54336622725771,2416.173,2417.038,2423.064,2419.932,-0.2336588,-9.243668E-05,0.09197247,-0.958930313587189,-0.412598669528961,0.595343351364136,-0.936405103758047,-0.402908956017012,0.579679366387291,0
3.21999883651733,-2.08662009239197,2.06800198554993,2.47193455696106,-2.28099717840322,1.98436701825452,2.55490300257741,2410.27,2411.272,2417.09,2413.968,-0.2312907,-9.276759E-05,0.09106131,-0.952221870422363,-0.409712463617325,0.591173589229584,-0.927193899599382,-0.398945632198791,0.573977192222574,0
3.23999881744385,-2.10552573204041,2.05986762046814,2.48367190361023,-2.29944715682451,1.97642850797257,2.56632441811454,2404.353,2405.344,2410.935,2408.033,-0.2288699,-9.282211E-05,0.09013038,-0.94529139995575,-0.406730741262436,0.586865901947021,-0.917770694993346,-0.394891090510675,0.568143779681951,0
3.25999879837036,-2.12428879737854,2.05179452896118,2.49532032012939,-2.31770658420609,1.96857198647962,2.57762787348089,2398.38,2399.331,2404.669,2402.032,-0.2263985,-9.312832E-05,0.08917977,-0.938141584396362,-0.4036545753479,0.582422256469727,-0.908139445798107,-0.390747033047917,0.562181577630074,0
3.27999877929688,-2.14290428161621,2.04378461837769,2.50687718391418,-2.33577134012187,1.96079922667992,2.58881081793642,2392.19,2393.196,2398.537,2395.933,-0.2238786,-9.326371E-05,0.08820935,-0.930775463581085,-0.400485187768936,0.577844500541687,-0.898304216251578,-0.386515208538549,0.556093102023818,0
3.29999876022339,-2.16136789321899,2.03584051132202,2.51833987236023,-2.3536373865142,1.95311196603685,2.59987075173108,2385.962,2387.106,2392.233,2389.712,-0.2213098,-9.356938E-05,0.08721894,-0.923196494579315,-0.397224098443985,0.573134362697601,-0.888269178971418,-0.382197412343383,0.54988093591228,0
3.3199987411499,-2.17967629432678,2.02796292304993,2.52970576286316,-2.37130076986152,1.9455119056403,2.61080522744671,2379.717,2380.845,2385.79,2383.547,-0.2186924,-9.390007E-05,0.08620944,-0.91540789604187,-0.393872857093811,0.568293929100037,-0.878038614955035,-0.377795486456005,0.543547729436792,0
3.33999872207642,-2.19782423973083,2.02015447616577,2.5409722328186,-2.38875762334595,1.93800070927398,2.62161185133883,2373.218,2374.51,2379.607,2377.189,-0.2160287,-9.434351E-05,0.0851802,-0.907413244247437,-0.390432864427567,0.563325166702271,-0.867616913579587,-0.37331131950278,0.537096199830905,0
3.35999870300293,-2.2158088684082,2.01241588592529,2.55213689804077,-2.40600416902084,1.93058000248278,2.63228828467848,2366.871,2368.226,2372.995,2370.819,-0.2133155,-9.452786E-05,0.0841313,-0.899216055870056,-0.38690596818924,0.558230102062225,-0.857008572601967,-0.368746846742847,0.530529131420399,0
3.37999868392944,-2.23362517356873,2.00475001335144,2.56319713592529,-2.42303671997839,1.92325137164014,2.64283224509413,2360.296,2361.802,2366.647,2364.32,-0.2105548,-9.478316E-05,0.08306347,-0.890819668769836,-0.38329342007637,0.553011000156403,-0.846218198158826,-0.364104050068127,0.523849375623278,0
3.39999890327454,-2.25126957893372,1.99715828895569,2.57415056228638,-2.43985188165647,1.91601627733129,2.65324163119009,2353.931,2355.376,2359.807,2357.897,-0.2077457,-9.506455E-05,0.08197729,-0.882227718830109,-0.379596799612045,0.547670125961304,-0.835250372983481,-0.35938490130074,0.517059769369773,0
3.41999888420105,-2.26873874664307,1.98964190483093,2.58499479293823,-2.45644575479329,1.90887639729967,2.66351402913758,2347.469,2348.872,2353.033,2351.391,-0.2048914,-9.513239E-05,0.08087266,-0.87344354391098,-0.37581729888916,0.542209923267365,-0.824110181511089,-0.35459158813109,0.510163460167449,0
3.43999886512756,-2.2860279083252,1.9822028875351,2.59572744369507,-2.47281514035847,1.90183310799866,2.6736474585844,2340.795,2342.281,2346.447,2344.812,-0.2019944,-9.530464E-05,0.0797497,-0.864471256732941,-0.371956586837769,0.536632835865021,-0.81280242532103,-0.349726176544644,0.503163420422674,0
3.45999884605408,-2.30313444137573,1.97484254837036,2.60634636878967,-2.48895673727672,1.89488782978875,2.68363987600769,2334.194,2335.792,2339.601,2338.158,-0.1990537,-9.587713E-05,0.0786083,-0.855314970016479,-0.368016749620438,0.530941247940063,-0.801332144070227,-0.344790834964984,0.496062769923157,0
3.47999882698059,-2.32005405426025,1.96756231784821,2.61684918403625,-2.50486734634964,1.88804193919563,2.69348930095124,2327.412,2329.115,2332.966,2331.51,-0.196071,-9.612328E-05,0.07744969,-0.845978856086731,-0.363999754190445,0.525137662887573,-0.789704485795351,-0.33978777844847,0.488864695548832,0
3.4999988079071,-2.33678340911865,1.96036422252655,2.6272337436676,-2.5205438724232,1.88129676797762,2.70319381736728,2320.675,2322.538,2326.167,2324.753,-0.1930462,-9.61234E-05,0.07627366,-0.836467266082764,-0.359907388687134,0.519224524497986,-0.777924706912824,-0.334719268684242,0.481572451271862,0
3.51999878883362,-2.35331892967224,1.95324957370758,2.6374979019165,-2.53598332655545,1.87465360219292,2.71275157495833,2313.994,2315.82,2319.241,2318.095,-0.1899787,-9.648401E-05,0.07508156,-0.826784491539001,-0.35574147105217,0.513204514980316,-0.765998172218811,-0.329587613994215,0.474189358156633,0
3.53999876976013,-2.36965775489807,1.9462194442749,2.64763951301575,-2.55118282818402,1.86811368126707,2.72216079051909,2307.305,2309.122,2312.285,2311.358,-0.1868708,-9.653964E-05,0.07387291,-0.816934823989868,-0.351503640413284,0.507080554962158,-0.75393035488922,-0.324395169333078,0.466718804359755,0
3.55999875068665,-2.38579607009888,1.93927550315857,2.6576566696167,-2.56613960729377,1.86167819706018,2.73141974927822,2300.508,2302.38,2305.436,2304.585,-0.1837251,-9.667265E-05,0.07264811,-0.806922733783722,-0.347195774316788,0.500855445861816,-0.741726836479713,-0.319144336288304,0.459164245130071,0
3.57999873161316,-2.40173101425171,1.93241906166077,2.66754722595215,-2.58085100658435,1.85534829293436,2.74052680624022,2293.775,2295.705,2298.424,2297.779,-0.180541,-9.670497E-05,0.07140736,-0.7967529296875,-0.342820048332214,0.494531989097595,-0.729393306925695,-0.313837563080137,0.451529202808647,0
3.59999871253967,-2.4174599647522,1.92565131187439,2.67730951309204,-2.59531448363783,1.84912506282102,2.74948038752728,2286.971,2288.964,2291.5,2290.977,-0.1773213,-9.699688E-05,0.07015156,-0.78643012046814,-0.338378369808197,0.488113105297089,-0.716935564542318,-0.308477344561601,0.44381726682877,0
3.61999869346619,-2.43297910690308,1.91897392272949,2.68694162368774,-2.60952761308623,1.84300955028824,2.75827899172109,2280.115,2282.167,2284.628,2284.199,-0.1740669,-9.699142E-05,0.06888125,-0.775959253311157,-0.33387303352356,0.481601864099503,-0.704359516024482,-0.303066222218498,0.436032093715959,0
3.6399986743927,-2.44828605651855,1.9123877286911,2.69644165039063,-2.62348808877919,1.8370027476081,2.76692119120472,2273.398,2275.479,2277.547,2277.37,-0.1707779,-9.723359E-05,0.06759623,-0.765345394611359,-0.329306215047836,0.475001245737076,-0.691671176446824,-0.297606784169402,0.428177407087955,0
3.65999865531921,-2.46337795257568,1.90589439868927,2.70580792427063,-2.6371937259515,1.83110559482403,2.77540563350441,2266.585,2268.744,2270.628,2270.525,-0.1674569,-9.733242E-05,0.06629763,-0.754593372344971,-0.324679970741272,0.468314439058304,-0.678876669263746,-0.292101665165675,0.42025699765473,0
3.67999863624573,-2.47825193405151,1.89949440956116,2.71503877639771,-2.65064246339072,1.82531897881816,2.7837310426315,2259.853,2261.981,2263.599,2263.758,-0.1641045,-9.738736E-05,0.0649862,-0.743708550930023,-0.319996654987335,0.461544632911682,-0.665982226309379,-0.286553546591444,0.412274723218478,0
3.69999861717224,-2.49290585517883,1.89318919181824,2.72413277626038,-2.66383236560479,1.81964373237865,2.79189622042419,2253.067,2255.328,2256.68,2256.864,-0.1607239,-9.730274E-05,0.06366198,-0.732696175575256,-0.315258473157883,0.454695224761963,-0.652994187797613,-0.28096515646362,0.40423450867362,0
3.71999859809875,-2.50733709335327,1.88697957992554,2.73308825492859,-2.67676162498959,1.81408063326707,2.79990004788941,2246.304,2248.572,2249.757,2250.108,-0.1573151,-9.7193E-05,0.06232676,-0.721561670303345,-0.31046786904335,0.447769403457642,-0.639919002322075,-0.275339269431891,0.396140346006801,0
3.73999857902527,-2.52154350280762,1.88086724281311,2.74190378189087,-2.68942856399653,1.80863040328569,2.80774148654469,2239.572,2241.886,2242.84,2243.315,-0.1538801,-9.715336E-05,0.06098058,-0.710310697555542,-0.305627077817917,0.440770596265793,-0.626763226856143,-0.269678706778719,0.387996294296898,0
3.75999855995178,-2.53552222251892,1.87485241889954,2.75057792663574,-2.70183163730018,1.80329370734488,2.81541957975997,2232.94,2235.119,2235.844,2236.672,-0.1504201,-9.715506E-05,0.05962423,-0.698948860168457,-0.300738483667374,0.433702319860458,-0.613533526752946,-0.263986336419348,0.379806479715006,0
3.77999877929688,-2.54927206039429,1.86893630027771,2.75910925865173,-2.7139695770734,1.79807109095524,2.82293354268985,2226.324,2228.599,2228.901,2229.82,-0.1469378,-9.701872E-05,0.05825674,-0.687481760978699,-0.295804351568222,0.426568120718002,-0.60023651686137,-0.258265004538452,0.371574997167698,0
3.79999876022339,-2.56279015541077,1.86311960220337,2.76749658584595,-2.72584081954011,1.79296322696594,2.83028240728244,2219.669,2221.931,2222.081,2223.156,-0.1434352,-9.691777E-05,0.0568806,-0.675915122032166,-0.290827453136444,0.419371664524078,-0.586879396384989,-0.252517808752212,0.363306303304932,0
3.8199987411499,-2.57607555389404,1.85740327835083,2.77573895454407,-2.73744437532928,1.78797054107568,2.83746556106996,2213.1,2215.457,2215.219,2216.394,-0.1399145,-9.697633E-05,0.05549582,-0.66425496339798,-0.285810381174088,0.412116646766663,-0.573468997693175,-0.246747688838293,0.355004627688818,0
3.83999872207642,-2.58912563323975,1.85178828239441,2.7838351726532,-2.74877924968566,1.78309346129986,2.8444823882515,2206.512,2208.841,2208.488,2209.816,-0.1363778,-9.682689E-05,0.05410451,-0.652507424354553,-0.280755877494812,0.404806852340698,-0.56001241965933,-0.240957699243598,0.346674364860162,0
3.85999870300293,-2.60193920135498,1.84627509117126,2.79178404808044,-2.75984459091511,1.77833235409867,2.85133236158783,2200.104,2202.394,2201.62,2203.201,-0.1328257,-9.666851E-05,0.05270635,-0.640678763389587,-0.275666445493698,0.397446006536484,-0.546516869536602,-0.235150941047811,0.338319976451988,0
3.87999868392944,-2.61451458930969,1.84086394309998,2.79958486557007,-2.77063969255224,1.77368752344445,2.85801504374322,2193.667,2195.934,2194.921,2196.647,-0.1292624,-9.638152E-05,0.05130262,-0.628775060176849,-0.270544767379761,0.390038013458252,-0.532989662957891,-0.229330561963393,0.329945991189553,0
