t,x_s1,x_s2,x_s3,x_s_d1,x_s_d2,x_s_d3,propellers_rpms1,propellers_rpms2,propellers_rpms3,propellers_rpms4,rollRad,pitchRad,yawRad,v_s1,v_s2,v_s3,v_s_d1,v_s_d2,v_s_d3,insideCount
0,-0.0599999986588955,2.94000005722046,1.17999994754791,-0.0599999986588955,2.94000005722046,1.17999994754791,0,0,0,0,0,0,0,0,0,0,-1.06581410364015E-15,4.44089209850063E-16,4.44089209850063E-16,0
0.019989013671875,-0.0599999986588955,2.94000005722046,1.17729234695435,-0.0600018659130177,2.93999925379318,1.18000110346716,0,0,0,0,0.0163538,-0.002474609,-2.024222E-05,3.71994488546079E-08,3.50004931704007E-08,-0.135377958416939,-0.000279680311988734,-0.000120338624884473,0.000173135436141649,5
0.0399932861328125,-0.0599999986588955,2.94000005722046,1.17105865478516,-0.060014863945674,2.93999366110285,1.18000914986856,0,0,0,0,0.03270752,-0.004950816,-5.430172E-05,3.48044650877455E-08,3.30428591155396E-08,-0.311683237552643,-0.00111059898697896,-0.000477859717552347,0.000687513678106196,6
0.05999755859375,-0.0600004307925701,2.94013142585754,1.16552257537842,-0.0600498857373401,2.93997859220429,1.18003083002592,3161.891,2810.291,1469.237,2738.728,0.03139007,-0.004977981,-0.01632784,-2.15879354072968E-05,0.00656352238729596,-0.276805400848389,-0.00247936261166862,-0.00106680046642749,0.00153484356504269,6
0.0800018310546875,-0.0599182695150375,2.94037842750549,1.16100025177002,-0.0601175574246769,2.93994947496775,1.18007272202403,3028.767,3011.964,2083.611,1979.162,0.01920914,-0.004419782,-0.04309314,0.00410812301561236,0.0123493764549494,-0.226118445396423,-0.00437268608126799,-0.00188144466206175,0.00270690098422899,6
0.0999908447265625,-0.0596519447863102,2.94066071510315,1.15742909908295,-0.0602281370710988,2.93990189563514,1.18014117609281,2572.785,3764.099,2528.449,1069.481,-0.005661348,-0.003074353,-0.0691037,0.0133161973208189,0.0141138583421707,-0.178559631109238,-0.00677536694902951,-0.00291525111632684,0.0041942748969354,6
0.1199951171875,-0.0591363087296486,2.94084787368774,1.15462076663971,-0.0603918861403606,2.93983143898525,1.18024254456713,1989.392,4003.997,3075.886,694.9622,-0.03991279,-0.0007062703,-0.08793811,0.0257818512618542,0.00936003215610981,-0.14041568338871,-0.00967801353495435,-0.00416417885169243,0.00599115140585487,5
0.139999389648438,-0.058361142873764,2.94078660011292,1.15244734287262,-0.0606185767455666,2.93973390035084,1.18038287685052,1381.798,3936.851,3640.956,663.8734,-0.07574776,0.002034242,-0.09641069,0.0387583822011948,-0.00306391436606646,-0.108671709895134,-0.0130660253322238,-0.00562194567796536,0.00808849210174802,4
0.159988403320313,-0.0573622137308121,2.94033217430115,1.1509200334549,-0.0609175312885481,2.93960526856281,1.18056794395381,1009.765,3669.333,3950.086,872.1702,-0.1041243,0.00383389,-0.0947867,0.0499464981257915,-0.022720992565155,-0.0763651430606842,-0.0169234294955564,-0.00728167892605071,0.0104764090324936,4
0.17999267578125,-0.0561951771378517,2.93938517570496,1.1501237154007,-0.0612985250199726,2.93944133760391,1.18080379722281,1010.592,3363.156,3835.662,1161.351,-0.1193426,0.003851131,-0.08597217,0.0583519041538239,-0.0473479628562927,-0.039818063378334,-0.0212433804254414,-0.00914043312572283,0.0131506644458931,3
0.199996948242188,-0.0549091473221779,2.93791794776917,1.15011012554169,-0.0617704296168641,2.93923829023936,1.18109592864822,1333.497,3132.988,3353.175,1401.456,-0.1214061,0.002340425,-0.07415732,0.064301460981369,-0.0733606517314911,-0.00068189948797226,-0.0260104776919234,-0.0111915819022102,0.0161017247421801,3
0.220001220703125,-0.0535362288355827,2.93597269058228,1.15082979202271,-0.0623420644491781,2.93899233174064,1.18144979784016,1790.228,3014.999,2724.001,1532.995,-0.115121,0.0002797181,-0.06327671,0.0686458945274353,-0.0972623080015182,0.0359821766614914,-0.03121219533433,-0.0134297356845702,0.019321835755004,3
0.239990234375,-0.0520961880683899,2.93363213539124,1.15212380886078,-0.0630214373585105,2.93870001655724,1.18187036203406,2171.746,2982.552,2212.743,1547.11,-0.1071565,-0.001339037,-0.055814,0.0720020979642868,-0.117023855447769,0.0647012740373611,-0.0368316683029241,-0.015847637913056,0.022800557215184,3
0.259994506835938,-0.0506041124463081,2.93098092079163,1.15377116203308,-0.0638179029240226,2.93835731967507,1.18236341216003,2346.8,2985.564,2005.563,1459.933,-0.1029093,-0.001918541,-0.05235668,0.0746037438511848,-0.132566332817078,0.08236925303936,-0.0428651747123285,-0.0184436871643672,0.0265355850983733,3
0.279998779296875,-0.0490743592381477,2.92807555198669,1.15557217597961,-0.0647390625194898,2.93796097043536,1.18293365383054,2309.198,2995.726,2122.697,1298.953,-0.1047139,-0.001324124,-0.05185281,0.0764877423644066,-0.145272329449654,0.0900534093379974,-0.0492963837173861,-0.0212108567320638,0.030516809833474,3
0.29998779296875,-0.0475228056311607,2.92493557929993,1.15741109848022,-0.0657918945890516,2.93750796620855,1.18358540703494,2137.971,3011.588,2441.807,1105.639,-0.1118757,0.0001965693,-0.05227785,0.0775777623057365,-0.156995415687561,0.0919458270072937,-0.0561078595514081,-0.0241416444928383,0.0347334378503248,3
0.319992065429688,-0.0459695085883141,2.92155075073242,1.15926575660706,-0.0669855955880233,2.93699435001684,1.18432436481717,1942.289,3019.274,2793.024,937.9802,-0.1218188,0.002154616,-0.05160727,0.0776647999882698,-0.169246062636375,0.0927356109023094,-0.0632980253096114,-0.0272353719486164,0.0391844929697465,3
0.339996337890625,-0.0444396957755089,2.91789555549622,1.1611762046814,-0.068326768706371,2.93641728069206,1.18515461486636,1804.503,3000.852,3047.354,841.8995,-0.1314973,0.004015843,-0.04861388,0.0764904692769051,-0.182759344577789,0.0955216735601425,-0.0708499516420146,-0.0304847548730522,0.0438594951176439,3
0.360000610351563,-0.0429614037275314,2.91394662857056,1.1632034778595,-0.0698225328270578,2.93577369517774,1.1860805641102,1757.387,2956.232,3148.058,829.751,-0.1384998,0.005408357,-0.04314854,0.07391457259655,-0.197444528341293,0.101364597678185,-0.0787518717320621,-0.0338847303337087,0.0487511600740379,3
0.379989624023438,-0.0415610149502754,2.90969395637512,1.1654018163681,-0.0714784451857985,2.93506120235061,1.1871056527423,1802.695,2905.022,3096.916,875.258,-0.1417483,0.006225682,-0.03593883,0.0700195655226707,-0.212630808353424,0.109918713569641,-0.0869857157641562,-0.0374275233937465,0.0538483017622888,3
0.399993896484375,-0.0402596704661846,2.90514612197876,1.16779732704163,-0.0733036822025899,2.9342758538535,1.18823556140379,1907.647,2870.968,2946.33,936.6756,-0.1416733,0.006603612,-0.02807771,0.0650671944022179,-0.227397352457047,0.119775600731373,-0.0955525119207663,-0.0411135764513579,0.0591515566763244,3
0.419998168945313,-0.0390726029872894,2.90032696723938,1.17038202285767,-0.0753034649285836,2.93341540321397,1.18947352217404,2025.962,2857.44,2769.551,988.7673,-0.1397132,0.006794291,-0.02060168,0.0593534074723721,-0.240962147712708,0.129237234592438,-0.104434660908044,-0.0449353170220673,0.0646500300148815,3
0.44000244140625,-0.0380105897784233,2.89526891708374,1.17311799526215,-0.077483988232608,2.93247718495301,1.19082336997196,2111.338,2860.148,2639.267,1014.906,-0.1375635,0.007042575,-0.0141531,0.0531007312238216,-0.25290310382843,0.136796623468399,-0.113620829717891,-0.048887868829098,0.0703367061060819,3
0.459991455078125,-0.0370823442935944,2.89000391960144,1.17595684528351,-0.0798493430620752,2.93145943885026,1.19228763728888,2147.643,2866.71,2591.28,1012.89,-0.1364721,0.007497986,-0.008927449,0.0464122295379639,-0.263251483440399,0.141943737864494,-0.123092454730403,-0.0529632444654124,0.0762000931848968,3
0.479995727539063,-0.0362962074577808,2.88455724716187,1.17885673046112,-0.0824088828700873,2.93035814037613,1.19387211435783,2139.937,2876.5,2626.588,978.6534,-0.1370026,0.008198307,-0.004676511,0.039306715130806,-0.272337287664413,0.144994392991066,-0.132852887402757,-0.0571628859694044,0.0822422659629699,4
0.5,-0.0356614217162132,2.87894463539124,1.18179607391357,-0.085166398670376,2.92917165836334,1.1955791479969,2109.736,2883.669,2713.079,927.5165,-0.1390282,0.009086701,-0.0009384979,0.0317393131554127,-0.280631572008133,0.146966367959976,-0.142884000065179,-0.0614789935111996,0.0884520025491718,4
0.519989013671875,-0.0351883955299854,2.87317395210266,1.18477118015289,-0.0881248588203387,2.92789871561062,1.19741057576073,2072.86,2889.033,2817.715,871.9931,-0.1420029,0.01006211,0.00281133,0.0236512888222933,-0.288533478975296,0.148754745721817,-0.153166947611899,-0.0659034585682559,0.0948176369253132,4
0.539993286132813,-0.0348888114094734,2.86724758148193,1.18779492378235,-0.091293865515634,2.92653518056143,1.19937234186584,2045.79,2885.295,2905.662,834.8256,-0.1451396,0.01101709,0.006906525,0.0149790113791823,-0.296319723129272,0.15118932723999,-0.163706645289342,-0.0704383960337938,0.101342211863077,4
0.55999755859375,-0.0347745902836323,2.86116600036621,1.19088888168335,-0.094676112580471,2.92507989413848,1.20146611391775,2042.539,2880.688,2955.619,812.3626,-0.1478278,0.01187054,0.01146942,0.00571129005402327,-0.304082632064819,0.154698997735977,-0.17448465888317,-0.0750758741803766,0.108014315705644,4
0.580001831054688,-0.0348566249012947,2.85493111610413,1.19407200813293,-0.0982762614093182,2.92353085067394,1.20369477754168,2056.632,2876.548,2968.848,806.9462,-0.1497522,0.01259277,0.01643417,-0.00410168338567019,-0.311745941638947,0.159153550863266,-0.185490414529404,-0.0798113433697334,0.11482740272751,4
0.599990844726563,-0.0351442843675613,2.84854769706726,1.19735872745514,-0.102095761416081,2.92188742652551,1.20605922999388,2083.93,2872.73,2951.826,817.0259,-0.1508734,0.01319789,0.02157552,-0.0143827740103006,-0.319175869226456,0.16433584690094,-0.19670480600515,-0.0846365827279185,0.121769645266545,4
0.6199951171875,-0.0356447473168373,2.84202361106873,1.20075392723083,-0.106144683970236,2.92014528826426,1.20856570593183,2115.727,2875.613,2923.804,826.0585,-0.151454,0.01372783,0.02667848,-0.0250230487436056,-0.326206386089325,0.169761762022972,-0.208134604141382,-0.0895545055543457,0.128845234789665,4
0.639999389648438,-0.0363635532557964,2.83536863327026,1.20425796508789,-0.110424235525481,2.91830391678686,1.21121495220784,2146.194,2879.982,2895.448,836.1306,-0.1518375,0.01422936,0.0315352,-0.0359404496848583,-0.332751661539078,0.17520435154438,-0.219761081350814,-0.0945570538913933,0.136042578028218,4
0.659988403320313,-0.0373046100139618,2.82859349250793,1.20786273479462,-0.114934715429503,2.91636318329238,1.21400715413238,2166.335,2889.476,2886.419,833.0897,-0.1524138,0.01474328,0.03609005,-0.0470529273152351,-0.338757514953613,0.180240258574486,-0.231565018351745,-0.0996359582190702,0.143349777331291,4
0.67999267578125,-0.0384716056287289,2.8217077255249,1.21156215667725,-0.119686638739014,2.91431856344567,1.21694882102647,2174.759,2893.1,2895.623,831.9558,-0.1533166,0.01529423,0.04031155,-0.0583501756191254,-0.344290018081665,0.184968426823616,-0.243554411173546,-0.104794659005432,0.150771782621969,4
0.699996948242188,-0.0398680828511715,2.8147189617157,1.21535277366638,-0.124680083855354,2.91217002351282,1.22004000142426,2182.47,2900.835,2919.109,815.1372,-0.1546418,0.0158815,0.04428317,-0.0698235705494881,-0.34944224357605,0.189531087875366,-0.255710395848158,-0.11002503961202,0.158296916205407,4
0.720001220703125,-0.0414975807070732,2.80763268470764,1.21923291683197,-0.129918284978346,2.90991617190799,1.22328269744952,2183.952,2905.843,2954.481,796.7255,-0.156334,0.01649609,0.04811868,-0.0814749896526337,-0.354310274124146,0.194008201360703,-0.268023157655716,-0.11532287703907,0.16591910230247,4
0.739990234375,-0.0433641970157623,2.800452709198,1.22320663928986,-0.135400001298574,2.90755754251682,1.2266761409821,2186.129,2907.096,2989.974,782.531,-0.1582056,0.01712288,0.05188887,-0.0933308750391006,-0.359003841876984,0.198687493801117,-0.280473432677602,-0.12067988256057,0.173626415629864,5
0.759994506835938,-0.0454718731343746,2.79318118095398,1.22727870941162,-0.14113644597991,2.90508931062815,1.2302272735046,2192.274,2910.24,3023.31,764.7023,-0.1601194,0.01774585,0.05567455,-0.105383932590485,-0.363572120666504,0.203601017594337,-0.293070637251543,-0.126100107763583,0.181424685349205,5
0.779998779296875,-0.047824751585722,2.78581976890564,1.23145878314972,-0.147126184485884,2.90251209348295,1.23393520697061,2204.937,2911.262,3042.792,756.7049,-0.1619266,0.01835382,0.05945871,-0.117643609642982,-0.368073225021362,0.209003239870071,-0.305795832832518,-0.131575403921268,0.189302187598958,5
0.79998779296875,-0.0504257194697857,2.77837038040161,1.23575007915497,-0.153366821193532,2.89982692185086,1.2377984583754,2220.027,2917.44,3060.683,741.7134,-0.163664,0.01894238,0.06327528,-0.130048871040344,-0.372468739748001,0.214562624692917,-0.318629798715703,-0.137097500901303,0.197247023847227,5
0.819992065429688,-0.0532778315246105,2.77083492279053,1.24015867710114,-0.159870162197751,2.89702871589906,1.2418243362541,2232.621,2916.451,3070.255,745.2573,-0.1652284,0.01952239,0.06703196,-0.142604917287827,-0.376778990030289,0.220432907342911,-0.33158286215529,-0.142670842232658,0.205265587156312,5
0.839996337890625,-0.0563830099999905,2.76321530342102,1.24468791484833,-0.166633637018892,2.89411858163313,1.24601124935738,2253.543,2924.29,3077.13,734.0582,-0.1667544,0.0200941,0.07071993,-0.155260324478149,-0.380975544452667,0.226463720202446,-0.344636106234817,-0.148287288494656,0.213346167053785,5
0.860000610351563,-0.0597426779568195,2.75551438331604,1.24933815002441,-0.173659158941841,2.89109569582005,1.2503603820997,2267.931,2928.752,3087.24,729.6691,-0.1683075,0.02066918,0.07430879,-0.167982831597328,-0.385045409202576,0.23251236975193,-0.357780475378537,-0.153942943326036,0.221483157706883,5
0.879989624023438,-0.0633579641580582,2.7477343082428,1.25411021709442,-0.18094280014554,2.88796174849148,1.25486930297274,2281.322,2932.532,3099.938,725.0142,-0.1699187,0.02125646,0.07777204,-0.180764392018318,-0.389002770185471,0.238603889942169,-0.370996904517929,-0.159629603560431,0.229664756929996,5
0.899993896484375,-0.0672296136617661,2.73987722396851,1.25900304317474,-0.18849723509595,2.8847112861788,1.25954585807468,2293.458,2937.388,3119.421,714.0004,-0.1716343,0.02185894,0.08113117,-0.193583443760872,-0.392848938703537,0.244642570614815,-0.384296738353309,-0.165352150505452,0.237897987633041,5
0.919998168945313,-0.071358934044838,2.73194432258606,1.2640209197998,-0.196318384305134,2.8813460641717,1.26438752200817,2307.352,2940.588,3134.876,707.843,-0.1734213,0.02247796,0.08436495,-0.206464901566505,-0.396641790866852,0.250891983509064,-0.397661187980262,-0.171102499820431,0.246171218589148,5
0.939987182617188,-0.0757459700107574,2.72393727302551,1.26916086673737,-0.204401181418416,2.87786826238106,1.26939115845832,2320.562,2947.82,3160.553,687.5126,-0.1753734,0.02310765,0.08755505,-0.219351872801781,-0.40035492181778,0.256999492645264,-0.411071375662203,-0.176872528942697,0.254472763580097,5
0.959991455078125,-0.080392062664032,2.71585607528687,1.27442753314972,-0.212759000778906,2.87427212620069,1.27456504678061,2328.031,2945.305,3181.25,688.8544,-0.1773021,0.0237579,0.09064359,-0.23230442404747,-0.404061079025269,0.263335943222046,-0.424539267042903,-0.182667386354485,0.262810029909387,5
0.979995727539063,-0.0852976590394974,2.7077009677887,1.27982258796692,-0.22138664033507,2.87055989392801,1.27990596665734,2346.992,2953.225,3202.342,667.3832,-0.1793021,0.02441471,0.09369517,-0.245280265808105,-0.407749623060226,0.26975417137146,-0.438046240701377,-0.188479059778567,0.271171490030365,5
1,-0.0904633402824402,2.69947218894958,1.28534841537476,-0.230284798736574,2.86673126495361,1.28541435058594,2358.657,2954.54,3222.033,661.4116,-0.1813043,0.02508326,0.09669152,-0.258284658193588,-0.411441653966904,0.276288956403732,-0.451584000205995,-0.194303979492187,0.279552008056641,5
1.01998901367188,-0.0958894193172455,2.69116950035095,1.2910064458847,-0.239446912293295,2.86278906344998,1.29108613532954,2373.453,2957.959,3241.634,650.2686,-0.183308,0.02576251,0.09963853,-0.271304100751877,-0.415136992931366,0.282900512218475,-0.46513400752272,-0.200134169097193,0.287940108062054,5
1.03999328613281,-0.101576060056686,2.6827929019928,1.29679787158966,-0.248887339851819,2.85872711120656,1.2969302096982,2386.987,2960.173,3261.523,641.3288,-0.1852873,0.02645452,0.1025303,-0.284331887960434,-0.418835341930389,0.289573818445206,-0.478708875293167,-0.205975055460915,0.29634359787259,5
1.05999755859375,-0.107523649930954,2.67434167861938,1.30272734165192,-0.258599401509697,2.85454828239877,1.30294243851408,2404.911,2964.195,3274.564,633.3448,-0.1872431,0.02715843,0.1053434,-0.297379076480865,-0.422563284635544,0.29647159576416,-0.492290296490434,-0.211818761581115,0.30475114456651,5
1.08000183105469,-0.113731175661087,2.66581630706787,1.30879151821136,-0.268583149539609,2.85025255453512,1.30912285413647,2421.043,2970.238,3296.317,615.6229,-0.1892831,0.02786967,0.1081282,-0.310376912355423,-0.426269948482513,0.303211212158203,-0.50587040849135,-0.217661904390701,0.313157880805523,5
1.09999084472656,-0.120199054479599,2.65721583366394,1.31499528884888,-0.278830554044452,2.84584338265603,1.31546648567654,2432.014,2968.824,3310.631,619.1248,-0.1912645,0.0286037,0.1108044,-0.323395162820816,-0.430018723011017,0.310186058282852,-0.519431110871131,-0.223496695782555,0.321552601564445,5
1.1199951171875,-0.126925900578499,2.64854121208191,1.32133340835571,-0.289357002179081,2.84131414609862,1.32198285851614,2449.823,2976.052,3337.629,593.313,-0.193345,0.02934438,0.1134665,-0.336340814828873,-0.433733254671097,0.316905289888382,-0.532985466132485,-0.229328756186667,0.329943393154705,5
1.13999938964844,-0.13391275703907,2.63979053497314,1.32781589031219,-0.300154365346813,2.83666834237095,1.3286669406667,2462.067,2973.899,3345.894,602.9366,-0.1953098,0.03011234,0.1159909,-0.349342942237854,-0.437535315752029,0.324123054742813,-0.546515580872639,-0.235150386571708,0.338319178707607,5
1.15998840332031,-0.141156822443008,2.63096523284912,1.33443188667297,-0.31121353909136,2.83190988886621,1.33551309603608,2484.293,2985.982,3378.182,561.8171,-0.1974984,0.03087374,0.1185621,-0.362203508615494,-0.441268891096115,0.330797702074051,-0.560003743914979,-0.240953966313175,0.346668994161124,6
1.17999267578125,-0.148659825325012,2.62206292152405,1.34119343757629,-0.322550701230474,2.8270318247214,1.34253133946411,2486.128,2975.52,3387.133,589.9041,-0.1994527,0.03167607,0.1209618,-0.375151753425598,-0.445116609334946,0.338077425956726,-0.573463232144024,-0.246745208083563,0.355001058539242,6
1.19999694824219,-0.156418800354004,2.6130850315094,1.34809041023254,-0.334156660511822,2.8220381046756,1.34971598112778,2516.802,2992.023,3418.276,537.0129,-0.2016412,0.03246454,0.1234236,-0.387949198484421,-0.448899626731873,0.34484875202179,-0.58687652428584,-0.252516572968185,0.36330452533874,6
1.22000122070313,-0.164435476064682,2.60402894020081,1.35513556003571,-0.346030421585499,2.81692915700008,1.35706640485806,2518.448,2982.145,3424.042,567.7653,-0.2036024,0.03329231,0.125718,-0.400832325220108,-0.452810108661652,0.352258056402206,-0.600236516861372,-0.258265004538453,0.371574997167698,6
1.239990234375,-0.172705799341202,2.5948965549469,1.36231410503387,-0.358161486344149,2.81170949873715,1.36457611182642,2547.027,2997.257,3461.371,511.6362,-0.2058288,0.03410229,0.1281011,-0.41351655125618,-0.456622153520584,0.358926802873611,-0.613526094901141,-0.263983138701136,0.379801879044709,6
1.25999450683594,-0.181232571601868,2.58568453788757,1.36964356899261,-0.3705671011502,2.80637170925886,1.37225577835275,2544.883,2983.553,3463.068,554.5543,-0.2077026,0.03496322,0.130274,-0.426339268684387,-0.460596531629562,0.366473436355591,-0.626758665639206,-0.269676744214496,0.387993470686331,6
1.27999877929688,-0.190010875463486,2.57639575004578,1.37710630893707,-0.383236695417198,2.80092033679326,1.3800988607405,2582.552,3004.623,3501.695,481.3717,-0.2099237,0.03579101,0.1325769,-0.43891379237175,-0.464441567659378,0.373138189315796,-0.639917282339435,-0.275338529371412,0.396139281255613,6
1.29998779296875,-0.199044108390808,2.56702589988708,1.38472390174866,-0.396158759015336,2.79536033382764,1.388098233671,2575.705,2988.394,3495.712,539.3458,-0.2117437,0.03667751,0.1346347,-0.451662510633469,-0.468486815690994,0.380880326032639,-0.652985332144132,-0.280961346123326,0.404229026602261,6
1.31999206542969,-0.208324998617172,2.55757975578308,1.3924674987793,-0.409351342777246,2.78968393359302,1.39626507146953,2614.074,3010.389,3550.021,447.4703,-0.2140319,0.03751484,0.1368969,-0.46404629945755,-0.472303599119186,0.387178093194962,-0.665976209205206,-0.286550957599616,0.412270998344359,6
1.33999633789063,-0.217860847711563,2.54805040359497,1.40037631988525,-0.422802873722428,2.78389611561957,1.40459220990988,2600.068,2987.314,3522.367,542.8673,-0.2156388,0.03844402,0.1387749,-0.476791262626648,-0.476462244987488,0.395438581705093,-0.678873453515705,-0.29210028151913,0.420255006953505,6
1.36000061035156,-0.227639019489288,2.5384464263916,1.40839946269989,-0.436511415158101,2.77799771321212,1.41307845008695,2658.301,3024.632,3600.445,389.0648,-0.218131,0.03926858,0.1410545,-0.488910406827927,-0.480202853679657,0.401156485080719,-0.691670720740693,-0.297606588091785,0.42817712498415,6
1.37998962402344,-0.237672671675682,2.52875638008118,1.41660094261169,-0.450464156928423,2.77199423822282,1.42171586190405,2614.605,2980.956,3544.623,565.65,-0.2194588,0.04025097,0.1427217,-0.501682102680206,-0.484499454498291,0.410071223974228,-0.704352136620515,-0.303063047067127,0.436027525513373,6
1.39999389648438,-0.247941389679909,2.5189950466156,1.4248960018158,-0.464680216184654,2.76587746507559,1.43051627978847,2704.322,3038.861,3665.35,312.8848,-0.2222301,0.04104681,0.1450827,-0.513436138629913,-0.48806968331337,0.414752006530762,-0.716930938559026,-0.308475354130225,0.443814403124744,7
1.41999816894531,-0.258469492197037,2.50914263725281,1.43339765071869,-0.47914673136562,2.75965292774086,1.43947174182117,2622.162,2969.556,3548.667,619.5359,-0.2230083,0.04211099,0.1464327,-0.526404321193695,-0.492618471384048,0.425082057714462,-0.729391385793766,-0.313836736470737,0.451528013536465,7
1.43998718261719,-0.269220978021622,2.4992253780365,1.4419561624527,-0.49384995777978,2.75332654017544,1.44857373938334,2770.715,3066.532,3744.718,185.4129,-0.2263921,0.04282421,0.1490355,-0.537573933601379,-0.495865792036057,0.427923560142517,-0.741718206886022,-0.319140623215221,0.459158903000492,7
1.45999145507813,-0.280239969491959,2.48920917510986,1.45076620578766,-0.508809800712713,2.74688973769103,1.45783459479497,2602.763,2943.645,3531.144,737.4941,-0.226268,0.04402224,0.149915,-0.550948798656464,-0.500814020633698,0.440501749515533,-0.753924423002454,-0.324392617007921,0.466715132239272,7
1.47999572753906,-0.291465014219284,2.47913837432861,1.4595752954483,-0.524012471663969,2.74034845309416,1.46724577231745,2849.423,3114.406,3845.937,0,-0.2305658,0.04463031,0.152986,-0.561254918575287,-0.50353866815567,0.440453916788101,-0.765994882555672,-0.329586198544069,0.474187321698441,7
1.5,-0.302973687648773,2.46895480155945,1.46871411800385,-0.539455198877605,2.73370387899399,1.4768055561018,2561.829,2902.714,3463.821,944.262,-0.2289924,0.0460702,0.1531335,-0.575432002544403,-0.509181141853333,0.456943660974503,-0.777924000354858,-0.334718964672088,0.481572013878822,7
1.51998901367188,-0.314677089452744,2.45871162414551,1.4778538942337,-0.555123050061237,2.72696244033876,1.48650470234772,2722.584,3368.018,3761.11,0,-0.2328918,0.047456,0.1573567,-0.585173010826111,-0.512160778045654,0.456991285085678,-0.789697369743256,-0.339784716610053,0.488860290373601,7
1.53999328613281,-0.32665166258812,2.44836235046387,1.48728346824646,-0.571036956668503,2.72011513090874,1.49635616862212,2653.617,2796.597,3453.223,1010.392,-0.2312071,0.04954758,0.1573024,-0.598725616931915,-0.517458140850067,0.471477508544922,-0.801327600455846,-0.344788879974649,0.496059957209413,7
1.55999755859375,-0.338813275098801,2.43796372413635,1.49669086933136,-0.587181951496087,2.71316839067337,1.50635068951315,2821.182,3278.406,3801.818,0,-0.2351779,0.05136519,0.160412,-0.60808253288269,-0.519935488700867,0.470369398593903,-0.812800388649436,-0.349725300221754,0.503162159625937,7
1.58000183105469,-0.351241439580917,2.42746806144714,1.50638210773468,-0.60355483331529,2.70612359703193,1.51648628330776,2725.805,2796.379,3511.047,931.2629,-0.2340812,0.05373321,0.1593542,-0.62140691280365,-0.524785935878754,0.484560906887054,-0.824110582941666,-0.354591760855452,0.510163708672098,7
1.59999084472656,-0.363854169845581,2.41692280769348,1.51607418060303,-0.620139554045575,2.69898765502515,1.52675301547962,2791.055,3347.781,3810.619,0,-0.2383492,0.05600285,0.1619573,-0.630636930465698,-0.527264058589935,0.484602600336075,-0.835244706287931,-0.359382463079953,0.517056261415284,7
1.6199951171875,-0.376713693141937,2.40629363059998,1.52598941326141,-0.636958033083316,2.69175113334911,1.53716445517924,2809.899,2777.063,3644.826,769.4389,-0.2387343,0.05851884,0.1608356,-0.642977774143219,-0.53145557641983,0.495759725570679,-0.846214826007804,-0.364102599125749,0.523847288101157,7
1.63999938964844,-0.389759540557861,2.39561629295349,1.53591895103455,-0.653994195024907,2.68442094880091,1.54771065096602,2864.881,3214.252,3917.35,0,-0.2431823,0.06074356,0.1623676,-0.652290880680084,-0.533871412277222,0.496476233005524,-0.857007552155828,-0.368746407673381,0.530528499715628,7
1.65998840332031,-0.403043568134308,2.38485860824585,1.54605233669281,-0.67123120513297,2.67700434489773,1.55838118133557,2860.275,2816.188,3789.464,574.6604,-0.2444441,0.06301519,0.1612663,-0.664203822612762,-0.537879586219788,0.506671488285065,-0.867610144209785,-0.373308406832068,0.537092009268528,7
1.67999267578125,-0.416518032550812,2.37404417991638,1.55623352527618,-0.688691692550512,2.66949158495151,1.56919005480539,2866.759,3187.641,3983.386,0,-0.2485033,0.06505412,0.1626917,-0.673723220825195,-0.540724158287048,0.509062051773071,-0.878034183119987,-0.377793579561193,0.543544985919778,8
1.69999694824219,-0.430219978094101,2.36314868927002,1.56659364700317,-0.706358800111611,2.66188992212981,1.58012683598675,2909.351,2840.405,3895.715,426.8885,-0.2500516,0.06698513,0.1622406,-0.685097873210907,-0.544769465923309,0.518004775047302,-0.888267004546665,-0.382196476749158,0.549879589839776,8
1.72000122070313,-0.444113999605179,2.35218977928162,1.57701694965363,-0.724228658537036,2.6542010212754,1.5911891296115,2929.643,3099.776,4045.902,0,-0.2534775,0.06857159,0.163597,-0.694699943065643,-0.547941505908966,0.521164059638977,-0.898304216251578,-0.386515208538549,0.556093102023817,8
1.739990234375,-0.45823085308075,2.34114551544189,1.58761739730835,-0.74228345468553,2.64643254688532,1.60236590849663,2928.497,2882.828,3948.75,346.4695,-0.2546493,0.07004926,0.1636768,-0.705842137336731,-0.552210032939911,0.530022919178009,-0.908134108040217,-0.390744736359816,0.562178273303667,8
1.75999450683594,-0.472537755966187,2.33003234863281,1.59829020500183,-0.760546715064628,2.63857437616062,1.61367173667103,2954.222,3089.788,4066.199,0,-0.2573604,0.07120703,0.1654127,-0.715345203876495,-0.555654644966125,0.53363835811615,-0.917767514700581,-0.394889722119545,0.568141810929231,8
1.77999877929688,-0.48706328868866,2.31883001327515,1.60914289951324,-0.779000609654483,2.63063418086074,1.62509557650306,2941.035,2911.087,3949.331,339.1955,-0.2578979,0.07232706,0.1660051,-0.726281523704529,-0.560115456581116,0.542636454105377,-0.927192788821983,-0.398945154262308,0.57397650459845,8
1.79998779296875,-0.50177264213562,2.3075590133667,1.6200612783432,-0.797626646773287,2.62261991743975,1.63662598076079,2985.26,3089.986,4069.489,0,-0.260136,0.07313547,0.1681202,-0.73546975851059,-0.563554704189301,0.545921981334686,-0.936399026186941,-0.402906341007953,0.579675604081262,8
1.81999206542969,-0.516698002815247,2.29619836807251,1.63116383552551,-0.816448984455027,2.61452119137054,1.64827790441807,2939.14,2926.689,3934.303,377.5069,-0.2600236,0.07403143,0.16896,-0.746265769004822,-0.568026959896088,0.555129051208496,-0.945396434568188,-0.406777674475912,0.585245428475252,8
1.83999633789063,-0.531800270080566,2.28477334976196,1.64232325553894,-0.835449117627072,2.60634596486888,1.66003989195343,3000.949,3114.013,4065.992,0,-0.261924,0.07466144,0.1713767,-0.755114495754242,-0.571255266666412,0.557973086833954,-0.954174163352093,-0.410554485950274,0.590679260733698,8
1.86000061035156,-0.547116458415985,2.27326202392578,1.65367233753204,-0.854622615239374,2.59809614449182,1.6719092003358,2948.118,2934.469,3913.177,420.3489,-0.261352,0.0754739,0.172266,-0.765809714794159,-0.575567364692688,0.567453026771545,-0.962728579444532,-0.414235212212131,0.595974851798267,8
1.87998962402344,-0.5626021027565,2.26169395446777,1.66506493091583,-0.873950157556149,2.58978004298193,1.6838738697284,3004.576,3144.151,4068.751,0,-0.2631161,0.07608072,0.1748711,-0.774278283119202,-0.578400790691376,0.569631040096283,-0.971049893464309,-0.417815641164241,0.601126141575667,8
1.89999389648438,-0.578299641609192,2.25004649162292,1.67664921283722,-0.893456683142228,2.58138692997148,1.69594933829086,2958.703,2927.856,3908.008,459.81,-0.2621957,0.07693549,0.1756349,-0.784879803657532,-0.582367718219757,0.579211890697479,-0.979147395688901,-0.421299770153459,0.606138881190213,8
1.91999816894531,-0.594161450862885,2.23835110664368,1.68827188014984,-0.913122862707269,2.57292512231409,1.70812364027167,3009.825,3172.844,4071.037,0,-0.2638149,0.07763588,0.1782361,-0.793088853359222,-0.584765136241913,0.581134378910065,-0.987011339258123,-0.424683405378145,0.611007036871143,9
1.93998718261719,-0.610231041908264,2.22658634185791,1.70008087158203,-0.932928814964021,2.56440317437226,1.72038446820694,2988.066,2922.378,3917.595,461.3876,-0.2628604,0.07856624,0.1788211,-0.803480565547943,-0.58823698759079,0.590452551841736,-0.994632798067981,-0.427962706185118,0.615725082934877,9
1.95999145507813,-0.626459658145905,2.21478390693665,1.71192169189453,-0.952900013794853,2.55581012544606,1.73274759164336,3016.089,3180.031,4091.029,0,-0.2644348,0.07936511,0.1812518,-0.811431527137756,-0.590121030807495,0.592039346694946,-1.00202031904361,-0.431141350077486,0.620298310335216,9
1.97999572753906,-0.642892122268677,2.20292234420776,1.72394478321075,-0.973016570682103,2.54715453300902,1.74520069864106,3015.747,2918.352,3941.001,445.8884,-0.2635011,0.08035886,0.1816062,-0.821622848510742,-0.593076944351196,0.601155400276184,-1.00916501115878,-0.434215511495054,0.624721215103391,9
2,-0.659480035305023,2.19103097915649,1.73600208759308,-0.993273599084619,2.53843849960327,1.7577407641983,3020.388,3194.282,4102.083,0,-0.2650016,0.08125761,0.1838578,-0.829394519329071,-0.594564437866211,0.602867603302002,-1.01606400046349,-0.437183953857422,0.628992018127441,9
2.01998901367188,-0.67626279592514,2.17909288406372,1.74822199344635,-1.01365055070775,2.52967086658596,1.77035506794184,3049.038,2912.861,3986.005,398.1654,-0.2643256,0.08225767,0.1841301,-0.839133977890015,-0.59690934419632,0.610994756221771,-1.02270954399163,-0.440043345582587,0.633105926142498,9
2.03999328613281,-0.693198025226593,2.16713333129883,1.76047742366791,-1.03417354141348,2.52084039703127,1.78305977683431,3043.113,3163.634,4135.957,0,-0.2657089,0.08312333,0.1860413,-0.846767604351044,-0.597974181175232,0.612774074077606,-1.02910913225408,-0.442796909628122,0.637067576131623,9
2.05999755859375,-0.710321128368378,2.15513706207275,1.77288448810577,-1.05482201812353,2.5119559343546,1.79584216754118,3076.156,2923.596,4032.974,334.9176,-0.2651981,0.08401181,0.1862703,-0.856154322624207,-0.599818110466003,0.62035471200943,-1.03525504859546,-0.445441325732794,0.640872191117535,9
2.08000183105469,-0.727594554424286,2.1431245803833,1.78533470630646,-1.07559088172821,2.50301967256038,1.80869908347065,3053.837,3155.29,4154.516,0,-0.2663965,0.08477388,0.1880463,-0.863668859004974,-0.600620090961456,0.622508823871613,-1.04114485287423,-0.447975543971863,0.644518260536375,9
2.09999084472656,-0.745045363903046,2.13108491897583,1.79791617393494,-1.09645901288412,2.49404069871208,1.82161745074311,3097.063,2931.731,4081.027,273.6058,-0.2660429,0.08548327,0.1884437,-0.872539699077606,-0.601982831954956,0.629076302051544,-1.04677201701582,-0.450396755497224,0.648001743199023,9
2.1199951171875,-0.762643158435822,2.11903548240662,1.81054186820984,-1.11745308225396,2.48500753716864,1.83461377976925,3079.495,3114.686,4186.813,0,-0.2669686,0.08601236,0.1900664,-0.879895746707916,-0.602473258972168,0.63128650188446,-1.0521429102862,-0.45270770082608,0.651326581984514,9
2.13999938964844,-0.780412495136261,2.10696506500244,1.82329452037811,-1.138551967509,2.47592927627801,1.8476749948214,3105.49,2952.77,4107.898,231.6475,-0.2664642,0.08647755,0.1906211,-0.888463914394379,-0.603517591953278,0.637635707855225,-1.05725102347782,-0.454905579228273,0.654488747383304,9
2.15998840332031,-0.798324227333069,2.09488940238953,1.83609354496002,-1.15973418543027,2.46681515966915,1.86078779676364,3086.55,3114.723,4192.97,0,-0.2670676,0.08677658,0.192368,-0.895591378211975,-0.603788018226624,0.639954090118408,-1.06209075728,-0.456987981476842,0.657484773155346,9
2.17999267578125,-0.816399037837982,2.08279967308044,1.84900808334351,-1.18102676265167,2.45765355853653,1.8739689163698,3105.437,2963.34,4122.232,217.4909,-0.2663172,0.08702469,0.1931815,-0.903738498687744,-0.604489326477051,0.645730078220367,-1.06666760390386,-0.458957270716794,0.660318059240953,10
2.19999694824219,-0.83461058139801,2.07071113586426,1.86196446418762,-1.20240821395574,2.44845371736898,1.88720505326679,3110.757,3092.595,4202.224,0,-0.2665915,0.08705579,0.1949648,-0.910573780536652,-0.604418277740479,0.647818028926849,-1.07097597819164,-0.460811043810786,0.662985148161421,10
2.22000122070313,-0.852980315685272,2.0586142539978,1.87503898143768,-1.22387315175433,2.43921795429519,1.90049287228091,3099.06,2984.968,4110.721,224.5723,-0.2654698,0.08709542,0.1959064,-0.918487429618835,-0.604851126670837,0.653724372386932,-1.07501419914593,-0.462548577472581,0.665484999299265,10
2.239990234375,-0.871477663516998,2.04652643203735,1.88814413547516,-1.24539969505118,2.42995568409656,1.91381882803312,3104.374,3110.211,4199.205,0,-0.2655092,0.08694817,0.1979335,-0.924874603748322,-0.60439258813858,0.65525758266449,-1.07877792518082,-0.464168003639063,0.667814925005999,10
2.25999450683594,-0.890129566192627,2.03443574905396,1.901371717453,-1.26701526177039,2.4206551096063,1.92719989352455,3083.261,2990.07,4083.299,271.8439,-0.2638575,0.08690845,0.1989339,-0.932588458061218,-0.604538142681122,0.661381244659424,-1.08227143928024,-0.465671165158559,0.669977576652695,10
2.27999877929688,-0.908899009227753,2.02236342430115,1.91461634635925,-1.28869796983554,2.41132564607061,1.9406225227075,3100.552,3133.041,4186.555,0,-0.26367,0.08669737,0.2011496,-0.938476324081421,-0.60361123085022,0.662233650684357,-1.08549040888332,-0.467056197851165,0.67197027217779,10
2.29998779296875,-0.927819669246674,2.01029491424561,1.92799150943756,-1.31042570636616,2.40197680804417,1.95407302665558,3074.546,2992.601,4039.255,329.8777,-0.2615437,0.08667991,0.2020443,-0.946024596691132,-0.603429675102234,0.66875809431076,-1.08843144721369,-0.468321644481621,0.673790915005368,10
2.31999206542969,-0.946844875812531,1.99825644493103,1.94136226177216,-1.33222611841886,2.3925966997709,1.96756852021384,3080.163,3168.691,4174.736,0,-0.2612827,0.08653246,0.2044229,-0.951270401477814,-0.601920604705811,0.66853803396225,-1.09109790637238,-0.469468947365361,0.675441580245663,10
2.33999633789063,-0.96601927280426,1.98622894287109,1.95487606525421,-1.35407709248145,2.38319483607731,1.98109531406483,3064.643,2983.837,3986.824,406.8327,-0.2586675,0.08667189,0.2050229,-0.958717167377472,-0.601378738880157,0.675689816474915,-1.09348640563071,-0.470496651869278,0.67692017506657,10
2.36000061035156,-0.98528516292572,1.97424292564392,1.96836650371552,-1.37597305876702,2.37377361348711,1.99464996024512,3052.448,3222.822,4148.73,0,-0.2584353,0.08674285,0.2075007,-0.963300049304962,-0.599298894405365,0.674520313739777,-1.09559602313537,-0.471404361345641,0.678226128796969,10
2.37998962402344,-1.00469350814819,1.96227824687958,1.98199784755707,-1.39789168475144,2.36434264106153,2.00821863385843,3066.216,2961.022,3951.654,464.4,-0.2556454,0.08711812,0.2077359,-0.970413982868195,-0.598231971263885,0.681564509868622,-1.09742465646102,-0.47219117117957,0.679358139935436,10
2.39999389648438,-1.02418100833893,1.95036792755127,1.99558687210083,-1.41986083522252,2.35488992936084,2.02181858453579,3035.058,3246.058,4140.565,0,-0.2555314,0.08743472,0.2100397,-0.974370062351227,-0.595513164997101,0.679453670978546,-1.09897439291323,-0.472857979480329,0.680317500623536,10
2.41999816894531,-1.04380333423615,1.93849039077759,2.0093138217926,-1.44185817738692,2.34542508756209,2.03543598721428,3076.486,2942.22,3936.091,485.5665,-0.252783,0.08801641,0.2098307,-0.981123924255371,-0.593874454498291,0.686351597309113,-1.10024313330221,-0.473403883025206,0.681102911362803,10
2.43998718261719,-1.06349456310272,1.92667746543884,2.02298951148987,-1.46386128162322,2.33595776650478,2.04905695688976,3013.142,3272.615,4129.29,0,-0.2528416,0.08856935,0.2119162,-0.984559059143066,-0.590645730495453,0.683782160282135,-1.10122974390336,-0.473828394004169,0.681713670323692,10
2.45999145507813,-1.08330714702606,1.91491079330444,2.03677940368652,-1.48589810917879,2.32647593524532,2.06269880290633,3092.524,2916.807,3960.134,460.5691,-0.2504581,0.08926548,0.2114327,-0.99063104391098,-0.58833259344101,0.689493656158447,-1.10193535162022,-0.474131997292339,0.68215047511319,10
2.47999572753906,-1.10318183898926,1.90321755409241,2.05051708221436,-1.50794623031618,2.31698924467309,2.07634764018804,3020.504,3245.192,4139.404,0,-0.2506077,0.08987211,0.2130651,-0.993735730648041,-0.584660708904266,0.686879456043243,-1.10235882472314,-0.474314205938057,0.682412625136718,11
2.5,-1.12316370010376,1.89158260822296,2.06434440612793,-1.52999999932945,2.30750012397766,2.08999997377396,3111.401,2913.105,4006.098,383.9468,-0.2487387,0.09046072,0.21247,-0.999093353748322,-0.581752777099609,0.691360771656036,-1.10250000050292,-0.474374949932098,0.682500019669533,11
2.51998901367188,-1.14320266246796,1.88002669811249,2.07812309265137,-1.5520369476803,2.29801824074336,2.10364189456856,3021.743,3209.523,4158.981,0,-0.2488815,0.09092073,0.2137972,-1.00194811820984,-0.577792942523956,0.68893438577652,-1.10235904000526,-0.474314298567936,0.682412758406603,11
2.53999328613281,-1.16333436965942,1.86853814125061,2.091965675354,-1.57408507527774,2.28853154739156,2.11729073584934,3114.456,2915.322,4061.247,302.9024,-0.2473171,0.09124092,0.2133648,-1.00658822059631,-0.574429750442505,0.692130863666534,-1.10193578218388,-0.474132182551855,0.682150741652607,11
2.55999755859375,-1.18352043628693,1.85713171958923,2.10576844215393,-1.59612191359838,2.27904971150017,2.13093258853001,3037.329,3159.214,4175.125,0,-0.2471808,0.09135839,0.2145236,-1.00929665565491,-0.570317804813385,0.690141439437866,-1.10123038958312,-0.473828671822132,0.681714070030222,11
2.57998657226563,-1.20378708839417,1.84579801559448,2.11961817741394,-1.61812503288753,2.26958238396605,2.14455356752391,3107.498,2935.375,4092.635,234.9142,-0.2456361,0.09126994,0.2144474,-1.01333594322205,-0.566691815853119,0.692482054233551,-1.1002439936861,-0.473404253224357,0.681103443981416,11
2.59999084472656,-1.22410213947296,1.83454918861389,2.13342666625977,-1.64012239440973,2.26011753383818,2.15817098218581,3044.775,3116.381,4188.067,0,-0.245111,0.09091495,0.2157077,-1.01575422286987,-0.562433779239655,0.690426290035248,-1.09897546783438,-0.47285844198887,0.680318166050934,11
2.6199951171875,-1.24449288845062,1.82337379455566,2.14728713035583,-1.66209156852628,2.2506648119635,2.17177094750084,3072.949,2962.327,4072.809,239.1048,-0.2429932,0.09044239,0.215991,-1.01953101158142,-0.558772027492523,0.693017721176147,-1.09742594550583,-0.472191725819537,0.679358937915576,11
2.63999938964844,-1.26492214202881,1.81228649616241,2.16109609603882,-1.68402693989188,2.24122663446822,2.18534998730279,3033.455,3122.02,4168.412,0,-0.2420164,0.08969273,0.2176856,-1.02146089076996,-0.554369688034058,0.690444648265839,-1.09559602313537,-0.471404361345641,0.67822612879697,11
2.65998840332031,-1.28542459011078,1.80127167701721,2.17497205734253,-1.70590622088595,2.23181259109281,2.19889430449282,3023.226,2979.346,3999.139,322.7965,-0.2389596,0.0890166,0.2182142,-1.02512514591217,-0.550736129283905,0.693795502185822,-1.09348812118877,-0.470497390025984,0.676921237078733,10
2.67999267578125,-1.30594980716705,1.79035234451294,2.1887674331665,-1.72775723139253,2.2224107117184,2.21242112090437,3008.127,3151.688,4137.343,0,-0.2376243,0.08806113,0.2204159,-1.02626883983612,-0.545979976654053,0.689772427082062,-1.09109983431736,-0.469469776906228,0.675442773735451,9
2.69999694824219,-1.32655358314514,1.77950382232666,2.20266962051392,-1.74955768413056,2.21303058593937,2.22591663964878,2965.312,2988.735,3864.191,486.5544,-0.2333036,0.08747125,0.2207905,-1.03018069267273,-0.542405605316162,0.695109665393829,-1.08843358680109,-0.468322565086308,0.673792239511893,9
2.72000122070313,-1.34715819358826,1.76876068115234,2.21644878387451,-1.77130202882336,2.20367460188472,2.23937742484041,2942.3,3250.949,4074.931,0,-0.2318804,0.08669752,0.2236332,-1.030233502388,-0.537163913249969,0.688961982727051,-1.08549040888332,-0.467056197851165,0.671970272177789,8
2.739990234375,-1.36784636974335,1.75809073448181,2.23037600517273,-1.79296822271738,2.1943522439355,2.25278983096475,2913.159,2964.738,3696.6,710.3666,-0.2263634,0.08658928,0.2234474,-1.0344078540802,-0.533495366573334,0.696361601352692,-1.08227399942825,-0.465672266718727,0.669979161506271,8
2.75999450683594,-1.38850927352905,1.74753975868225,2.24412441253662,-1.81458384274179,2.18505164650952,2.26617092945464,2858.351,3368.102,4010.975,0,-0.2251665,0.08640502,0.2266977,-1.03314423561096,-0.527556657791138,0.68742161989212,-1.07878069424208,-0.464169195088763,0.667816639186824,7
2.77999877929688,-1.40926122665405,1.73706817626953,2.25806498527527,-1.83612684690458,2.17578229366013,2.27950707526701,2884.249,2914.345,3524.019,941.129,-0.2187457,0.08710939,0.2254466,-1.03760147094727,-0.523584246635437,0.697029292583466,-1.07501419914593,-0.462548577472581,0.665484999299265,6
2.79998779296875,-1.42996120452881,1.72672927379608,2.27177429199219,-1.85757544288233,2.1665535620153,2.29278477791556,2752.642,3515.816,3934.864,0,-0.2181459,0.08790073,0.228848,-1.03499209880829,-0.516931176185608,0.685462176799774,-1.07097916161324,-0.460812413548163,0.662987118851036,5
2.81999206542969,-1.45074474811554,1.71648335456848,2.28568553924561,-1.87895695992541,2.1573536925621,2.30602095550813,2891.697,2824.23,3413.672,1105.521,-0.2116435,0.08957924,0.2263104,-1.03917706012726,-0.512294232845306,0.695565521717072,-1.06667099276523,-0.458958728849171,0.660320157107579,5
2.83999633789063,-1.47145485877991,1.70638430118561,2.29933142662048,-1.90024960698239,2.14819206138118,2.31920211834584,2680.973,3602.993,3882.731,0,-0.2118752,0.09141368,0.2291787,-1.03550827503204,-0.504944980144501,0.682295083999634,-1.06209435025759,-0.456989527434725,0.657486997379635,4
2.86000061035156,-1.4922297000885,1.69639694690704,2.31314992904663,-1.9214480311499,2.13907097167731,2.33232495272651,2944.742,2731.929,3412.73,1107.067,-0.2064424,0.09382013,0.2254067,-1.03874433040619,-0.499377250671387,0.690922260284424,-1.05725102347782,-0.454905579228273,0.654488747383304,3
2.87998962402344,-1.51291942596436,1.68656599521637,2.32670044898987,-1.94253086194772,2.12999961857111,2.34537622930486,2645.161,3608.434,3872.75,0,-0.2075993,0.09638534,0.2272139,-1.03448927402496,-0.491540282964706,0.677521407604218,-1.05214690704168,-0.452709420518306,0.651329056166547,2
2.89999389648438,-1.53363943099976,1.67686665058136,2.34034442901611,-1.96352501326936,2.1209664217661,2.35837260906308,3018.863,2653.75,3558.281,913.9404,-0.2042203,0.09894281,0.2227835,-1.03599202632904,-0.484967648983002,0.682204127311707,-1.04677621342161,-0.450398561093403,0.648004340974112,1
2.91999816894531,-1.55427694320679,1.66732656955719,2.35376167297363,-1.98440911693069,2.11198057539494,2.37130086407726,2683.35,3484.456,3915.572,0,-0.2059055,0.1015044,0.2231165,-1.03187966346741,-0.477003812789917,0.670866847038269,-1.04114485287423,-0.447975543971863,0.644518260536375,0
2.93998718261719,-1.57490086555481,1.65793347358704,2.36716294288635,-2.00516218376194,2.10305111051103,2.38414800105147,3095.298,2637.283,3819.239,530.0085,-0.2051135,0.1033252,0.2190115,-1.03120303153992,-0.46966090798378,0.670062363147736,-1.03525963910674,-0.445443300901551,0.640875032862689,0
2.95999145507813,-1.59545660018921,1.64869356155396,2.38040471076965,-2.02581075424974,2.0941666074844,2.39693044981124,2775.765,3244.283,4017.057,0,-0.2066773,0.1048627,0.218027,-1.02778553962708,-0.461988717317581,0.662087917327881,-1.02911391720548,-0.442798968459032,0.637070538244476,0
2.97999572753906,-1.61596274375916,1.63960480690002,2.39353609085083,-2.04633384260397,2.08533609591429,2.40963521915279,3117.098,2699.569,4101.246,96.52685,-0.2077276,0.1051141,0.2153246,-1.02529513835907,-0.454437345266342,0.656571388244629,-1.02271452148052,-0.440045487257004,0.633109007445237,0
3,-1.63642013072968,1.63065457344055,2.40658330917358,-2.06672639957428,2.07656174835205,2.42225918334961,2884.295,2985.367,4117.694,0,-0.2082565,0.1047591,0.2139365,-1.0228750705719,-0.447514474391937,0.652363061904907,-1.01606400046349,-0.437183953857422,0.628992018127441,0
3.01998901367188,-1.65682649612427,1.62183248996735,2.41954493522644,-2.0869680292999,2.06785234056679,2.43478971639231,2889.372,2947.221,4117.457,0,-0.2079732,0.1037522,0.2136487,-1.02031266689301,-0.441106110811234,0.648083031177521,-1.00917036754089,-0.434217816196637,0.624724530959079,0
3.03999328613281,-1.6771787405014,1.61313319206238,2.4324107170105,-2.10708469520508,2.05919670122237,2.4472428908773,2923.059,2877.807,4124.911,0,-0.2067204,0.1019469,0.2139605,-1.01761400699615,-0.434969186782837,0.643294274806976,-1.00202586176059,-0.431143734953757,0.620301741541063,0
3.05999755859375,-1.69748473167419,1.60454845428467,2.44521284103394,-2.12705600675913,2.05060360379452,2.45960608409476,2903.553,2888.789,4053.085,58.93481,-0.2040732,0.09946686,0.2146665,-1.0153124332428,-0.429245948791504,0.640110731124878,-0.994638524886308,-0.427965170275055,0.615728628108227,0
3.07998657226563,-1.7177357673645,1.59607768058777,2.45792698860168,-2.14686207530873,2.04208160581513,2.47186698402085,2883.228,2942.209,4022.964,29.89784,-0.2008993,0.09630445,0.2162942,-1.01255416870117,-0.423535466194153,0.63571172952652,-0.987017247723776,-0.424685947625853,0.611010694492843,0
3.09999084472656,-1.73794960975647,1.58771061897278,2.47062468528748,-2.16652837486666,2.03361974652815,2.48404136028297,2771.824,2985.967,3830.013,274.9089,-0.1957253,0.09303331,0.2181369,-1.01069188117981,-0.418351858854294,0.634888231754303,-0.979153483542501,-0.421302389586788,0.606142649861596,0
3.1199951171875,-1.75808823108673,1.57946479320526,2.48317408561707,-2.18603502400946,2.02522658035469,2.49611690533293,2846.814,3002.564,3912.93,68.95776,-0.1916549,0.08907136,0.2211455,-1.00692820549011,-0.412282824516296,0.627473413944244,-0.971056158224178,-0.417818336715394,0.601130019760458,0
3.13999938964844,-1.77822065353394,1.5713152885437,2.49582648277283,-2.20537738341953,2.01690410346351,2.50809074721212,2589.687,3051.178,3453.972,742.4045,-0.1832787,0.08597525,0.2227971,-1.0066169500351,-0.407474368810654,0.632621049880981,-0.962728579444533,-0.414235212212131,0.595974851798267,0
3.15998840332031,-1.79823243618011,1.56330895423889,2.50818371772766,-2.22453632143911,2.00866054767245,2.51995104251302,2726.473,3216.139,3839.32,0,-0.1797149,0.08220541,0.2276471,-1.00059843063354,-0.400325566530228,0.617858827114105,-0.954180774018563,-0.410557330335374,0.590683353051152,0
3.17999267578125,-1.81830358505249,1.55539131164551,2.52087807655334,-2.24353658854737,2.00048526354177,2.53171311296128,2362.75,3035.473,2873.031,1555.232,-0.1667948,0.08081403,0.2273747,-1.00355076789856,-0.395873337984085,0.63472306728363,-0.945403214201559,-0.406780591562751,0.585249625391267,0
3.19999694824219,-1.83819484710693,1.54763579368591,2.53309416770935,-2.2623590635174,1.99238647840124,2.54336512160655,2312.773,3785.418,3626.534,0,-0.1638451,0.07963907,0.2350626,-0.994566440582275,-0.387782216072083,0.610806524753571,-0.936405971974636,-0.402909329586355,0.579679903854719,0
3.22000122070313,-1.85820651054382,1.5399796962738,2.54586267471313,-2.28099938900442,1.98436606709459,2.55490437104486,2288.102,2804.411,2187.925,2530.176,-0.1464882,0.08197216,0.2312265,-1.00059723854065,-0.382816582918167,0.638424873352051,-0.927192788821982,-0.398945154262308,0.573976504598449,0
3.239990234375,-1.87797296047211,1.53250980377197,2.55794167518616,-2.2994392795179,1.97643189735754,2.5663195416865,1917.482,4379.333,3364.723,0,-0.1453937,0.08522143,0.2401578,-0.988322913646698,-0.373491108417511,0.603951096534729,-0.917774783907129,-0.394892849856044,0.568146310914365,0
3.25999450683594,-1.89788639545441,1.52518224716187,2.57068157196045,-2.31770268688992,1.96857366338589,2.57762546085652,2397.377,2411.077,1688.191,3284.235,-0.1265369,0.09215139,0.230866,-0.995673358440399,-0.366377890110016,0.636999666690826,-0.90814153446928,-0.390747931744771,0.562182870617026,0
3.27999877929688,-1.91751050949097,1.51806592941284,2.58261871337891,-2.33577134012187,1.96079922667992,2.58881081793642,1596.465,4917.359,3080.04,0,-0.1289934,0.10057,0.2384893,-0.98119056224823,-0.355801999568939,0.596853256225586,-0.898304216251578,-0.386515208538549,0.556093102023818,0
3.29998779296875,-1.9372056722641,1.51115882396698,2.59501981735229,-2.35362764460945,1.95311615770631,2.59986472102797,2743.687,1896.104,1823.751,3244.208,-0.1152723,0.1109727,0.2240591,-0.984770834445953,-0.345361471176147,0.620051860809326,-0.888274735793772,-0.382199803288803,0.549884375850026,0
3.31999206542969,-1.95661127567291,1.50449192523956,2.60671639442444,-2.37129490830989,1.94551442770222,2.61080159886703,1700.719,4828.382,3007.2,0,-0.1219957,0.122509,0.2255403,-0.970284283161163,-0.333354145288467,0.584826588630676,-0.878042061913513,-0.37779696958594,0.54354986326829,0
3.33999633789063,-1.97590482234955,1.4980880022049,2.61835813522339,-2.38875555478454,1.93800159931817,2.62161057080077,3238.34,1603.219,2866.649,1875.971,-0.121454,0.1324809,0.2089997,-0.964679002761841,-0.320186674594879,0.58208292722702,-0.867618167158097,-0.373311858882592,0.53709697585572,0
3.36000061035156,-1.99495315551758,1.49193823337555,2.62962198257446,-2.406005803634,1.93057929915441,2.6322892965819,2234.966,3857.974,3403.792,0,-0.1310856,0.1423297,0.2009672,-0.952412605285645,-0.30748987197876,0.563192009925842,-0.857007552155826,-0.36874640767338,0.530528499715627,0
3.37998962402344,-2.01374316215515,1.48604297637939,2.64045810699463,-2.42302905329872,1.92325467039821,2.6428274990542,3219.01,2170.753,4054.03,0,-0.1433047,0.1488111,0.1884042,-0.939489662647247,-0.294762760400772,0.54180771112442,-0.846223126656603,-0.364106170663035,0.523852426598178,0
3.39999389648438,-2.03233170509338,1.48035395145416,2.6511664390564,-2.43984769972619,1.91601807669906,2.65323904237604,2628.165,2716.225,4081.08,0,-0.1526998,0.1540146,0.1768221,-0.929427325725555,-0.284461885690689,0.535412132740021,-0.835253140422974,-0.35938609205264,0.51706148254665,0
3.41999816894531,-2.05072212219238,1.47480249404907,2.66182041168213,-2.45644516534361,1.90887665092339,2.66351366424015,2090.533,3366.935,3893.677,0,-0.159461,0.1595946,0.1720585,-0.919536471366882,-0.277564316987991,0.532697200775146,-0.824110582941664,-0.354591760855451,0.510163708672097,0
3.43998718261719,-2.06888484954834,1.46936178207397,2.67223954200745,-2.47280564474684,1.90183719369507,2.67364158034846,2413.747,2823.128,4037.587,0,-0.1640156,0.1643303,0.1698833,-0.908133327960968,-0.272034615278244,0.520952641963959,-0.812809078412023,-0.349729039183832,0.50316753900293,0
3.45999145507813,-2.08683967590332,1.46401977539063,2.68244600296021,-2.48895081463434,1.8948903781363,2.68363620960993,2858.666,2256.152,4136.269,0,-0.1647996,0.1668528,0.1653518,-0.897732734680176,-0.26708248257637,0.510327219963074,-0.80133641229185,-0.344792671461508,0.496065412155666,0
3.47999572753906,-2.1046187877655,1.45874810218811,2.69261622428894,-2.50486489870395,1.88804299234919,2.69348778574196,2668.661,2706.232,3856.622,0,-0.162317,0.1679571,0.1616286,-0.888959527015686,-0.263593941926956,0.5085129737854,-0.789706299681989,-0.339788558913217,0.488865818431069,0
3.5,-2.12220144271851,1.45352864265442,2.70270872116089,-2.5205447997813,1.88129636896134,2.70319439144611,2469.321,3078.047,3628.33,0,-0.1595564,0.1683048,0.161534,-0.879145383834839,-0.260984152555466,0.504620850086212,-0.777924000354857,-0.334718964672089,0.481572013878822,0
3.51998901367188,-2.13955926895142,1.44837164878845,2.71256399154663,-2.53597583877076,1.87465682397749,2.71274693966292,2757.9,2648.225,3724.851,0,-0.15769,0.1668751,0.1615202,-0.867892026901245,-0.257845133543015,0.492763042449951,-0.766004036374581,-0.329590137176618,0.474192988348404,0
3.53999328613281,-2.15670442581177,1.44328570365906,2.7222011089325,-2.55117869390181,1.86811546013321,2.72215823120146,2899.197,2417.973,3806.942,0.3113983,-0.1555707,0.1631568,0.1597416,-0.857243835926056,-0.254294276237488,0.481854647397995,-0.753933682518821,-0.324396601119134,0.466720864320997,0
3.55999755859375,-2.17365550994873,1.43826270103455,2.73171973228455,-2.56613872308604,1.86167857751006,2.73141920191151,2619.323,2803.007,3694.275,0,-0.1529927,0.1580293,0.1594655,-0.847558259963989,-0.251148551702499,0.475928455591202,-0.741727567798258,-0.319144650954242,0.459164697851087,0
3.57998657226563,-2.19040584564209,1.43330144882202,2.74107432365417,-2.58084213759183,1.85535210901407,2.74052131591136,2464.359,2949.545,3675.529,0,-0.1507216,0.1518884,0.1621656,-0.837522804737091,-0.248072072863579,0.467727661132813,-0.72940084364523,-0.31384080592,0.451533868397061,0
3.59999084472656,-2.20697116851807,1.42840361595154,2.75027632713318,-2.59530884290342,1.84912748987145,2.74947689564398,2475.839,2736.803,3644.053,224.2231,-0.1466512,0.1447843,0.165433,-0.828281819820404,-0.244884088635445,0.460095167160034,-0.716940488958392,-0.308479463400265,0.4438203152769,0
3.6199951171875,-2.22336935997009,1.42357468605042,2.75935649871826,-2.60952509409627,1.84301063413925,2.75827743234631,2406.068,2815.694,3563.342,294.0965,-0.1406687,0.1370047,0.1695851,-0.819905042648315,-0.24144384264946,0.454003185033798,-0.704361775018033,-0.303067194200314,0.436033492140578,0
3.63999938964844,-2.23961544036865,1.41882348060608,2.7683424949646,-2.6234885835008,1.83700253474321,2.76692149746096,2359.039,2877.423,3434.618,404.0836,-0.132872,0.1288148,0.1745151,-0.812304794788361,-0.237559661269188,0.449299275875092,-0.691670720740692,-0.297606588091786,0.428177124984152,0
3.65998840332031,-2.25572204589844,1.41416347026825,2.7772479057312,-2.63718676607487,1.8311085894645,2.77540132500924,2313.896,2924.206,3283.979,546.7213,-0.1234993,0.1204815,0.179849,-0.805317759513855,-0.232996746897697,0.445272207260132,-0.678883253871145,-0.292104498338286,0.420261073840379,0
3.67999267578125,-2.27169919013977,1.40961265563965,2.78607821464539,-2.65063849381582,1.82532068681534,2.78372858527554,2273.517,2961.636,3126.9,699.122,-0.1128941,0.1122405,0.1850917,-0.798840403556824,-0.227534115314484,0.441512584686279,-0.665986083416798,-0.286555206197011,0.41227711095171,0
3.69999694824219,-2.28755259513855,1.40519309043884,2.79482650756836,-2.66383127580226,1.81964420129024,2.79189554578451,2247.772,2996.853,2987.469,819.2293,-0.1017013,0.1042236,0.1898557,-0.792698562145233,-0.220981478691101,0.437420189380646,-0.65299527533123,-0.280965624398954,0.404235181908735,0
3.72000122070313,-2.30328869819641,1.40092825889587,2.8034839630127,-2.6767633032417,1.81407991116207,2.79990108680742,2215.027,3027.042,2869.883,927.4011,-0.09043509,0.09653926,0.1938326,-0.786803543567657,-0.21325695514679,0.43287456035614,-0.639917282339434,-0.275338529371411,0.396139281255611,0
3.739990234375,-2.31890821456909,1.39684092998505,2.81203126907349,-2.68942333385363,1.80863265367006,2.80773824883709,2186.525,3051.29,2794.635,991.3106,-0.07966793,0.08921263,0.1969169,-0.780959129333496,-0.204348161816597,0.427361786365509,-0.62676873176137,-0.26968107538565,0.387999702095468,0
3.75999450683594,-2.33441209793091,1.39295387268066,2.8204619884491,-2.70182915057228,1.80329477731443,2.81541804035694,2145.563,3067.41,2733.234,1059.915,-0.06951223,0.0823106,0.1989959,-0.775206983089447,-0.194358855485916,0.421533644199371,-0.613536214864365,-0.263987493038594,0.379808143784027,0
3.77999877929688,-2.34979677200317,1.38928556442261,2.82874989509583,-2.7139695770734,1.79807109095524,2.82293354268985,2123.945,3078.418,2725.382,1055.195,-0.06043618,0.07575322,0.2002532,-0.769228279590607,-0.18341164290905,0.41439613699913,-0.60023651686137,-0.258265004538452,0.371574997167698,0
3.79998779296875,-2.36506414413452,1.38585162162781,2.83691048622131,-2.72583438304408,1.79296599641037,2.83027842278479,2071.662,3080.148,2682.096,1126.029,-0.05187838,0.06966965,0.2005473,-0.763371765613556,-0.171712175011635,0.408035129308701,-0.586886736182787,-0.252520966862155,0.36331084698941,0
3.81999206542969,-2.38020038604736,1.38266253471375,2.84488964080811,-2.73744054699573,1.78797218830065,2.83746319114912,2072.766,3078.715,2747.037,1028.407,-0.04470968,0.06380075,0.2004132,-0.756817162036896,-0.159422978758812,0.398956477642059,-0.573473482003301,-0.246749618311662,0.355007403690404,0
3.83999633789063,-2.39521956443787,1.37972867488861,2.85277414321899,-2.74877791451009,1.78309403578861,2.84448156171422,1988.774,3071.006,2623.617,1220.191,-0.03694443,0.05857999,0.1991397,-0.750964105129242,-0.146716639399529,0.394219815731049,-0.560014026276881,-0.240958390526246,0.346675359432959,0
3.86000061035156,-2.4100821018219,1.37705183029175,2.86039352416992,-2.75984563331209,1.77833190558438,2.85133300688122,2070.941,3071.659,2844.934,866.0317,-0.03186472,0.05314077,0.1983169,-0.743123054504395,-0.133830964565277,0.380974441766739,-0.546515580872635,-0.235150386571708,0.338319178707605,0
3.87998962402344,-2.42484378814697,1.37463879585266,2.86805415153503,-2.7706348636882,1.77368960116974,2.85801205444635,1856.926,3049.307,2418.626,1520.596,-0.02306617,0.04900649,0.1952112,-0.738071739673615,-0.120633885264397,0.383029401302338,-0.532995796775444,-0.22933320117373,0.329949788314816,0
3.89999389648438,-2.43938636779785,1.37248063087463,2.87519121170044,-2.78116151864576,1.76916027562219,2.86452855531919,2176.016,3079.343,3153.271,345.9189,-0.02190503,0.04338002,0.1949784,-0.727128803730011,-0.107923358678818,0.356852054595947,-0.519441457145543,-0.223501147495394,0.321559006401168,0
3.91999816894531,-2.45390129089355,1.37059581279755,2.88282203674316,-2.79141684911929,1.7647476934202,2.87087709341145,1548.422,3008.81,1762.911,2490.035,-0.00771358,0.0412314,0.1883872,-0.725745797157288,-0.0942477136850357,0.381539553403854,-0.505870408491346,-0.2176619043907,0.313157880805522,0
3.93998718261719,-2.46812677383423,1.36893200874329,2.88958811759949,-2.80139308531637,1.76045519768837,2.87705285885147,1537.56,3949.088,3137.422,0,-0.009462744,0.0388586,0.1940819,-0.711274564266205,-0.0831859037280083,0.338299453258514,-0.492300656572426,-0.211823219234969,0.304757557950781,0
3.95999145507813,-2.48240566253662,1.36755704879761,2.89727377891541,-2.81110535421031,1.75627627971269,2.88306521595634,1462.314,2466.979,809.2727,4022.662,0.01311267,0.04196136,0.1827152,-0.713935434818268,-0.068742536008358,0.384280622005463,-0.478719233391147,-0.205979512261105,0.296350010028665,0
