t,x_s1,x_s2,x_s3,x_s_d1,x_s_d2,x_s_d3,propellers_rpms1,propellers_rpms2,propellers_rpms3,propellers_rpms4,rollRad,pitchRad,yawRad,v_s1,v_s2,v_s3,v_s_d1,v_s_d2,v_s_d3,insideCount
0,-0.0599999986588955,2.94000005722046,1.17999994754791,-0.0599999986588955,2.94000005722046,1.17999994754791,0,0,0,0,0,0,0,0,0,0,-1.06581410364015E-15,4.44089209850063E-16,4.44089209850063E-16,0
0.019989013671875,-0.0599999986588955,2.94000005722046,1.17729234695435,-0.0600018659130177,2.93999925379318,1.18000110346716,0,0,0,0,0.0163538,-0.002474609,-2.024222E-05,3.71994488546079E-08,3.50004931704007E-08,-0.135377958416939,-0.000279680311988734,-0.000120338624884473,0.000173135436141649,5
0.0399932861328125,-0.0599999986588955,2.94000005722046,1.17105865478516,-0.060014863945674,2.93999366110285,1.18000914986856,0,0,0,0,0.03270752,-0.004950816,-5.430172E-05,3.48044650877455E-08,3.30428591155396E-08,-0.311683237552643,-0.00111059898697896,-0.000477859717552347,0.000687513678106196,6
0.05999755859375,-0.0600004307925701,2.94013142585754,1.16552257537842,-0.0600498857373401,2.93997859220429,1.18003083002592,3161.891,2810.291,1469.237,2738.728,0.03139007,-0.004977981,-0.01632784,-2.15879354072968E-05,0.00656352238729596,-0.276805400848389,-0.00247936261166862,-0.00106680046642749,0.00153484356504269,6
0.079986572265625,-0.0599182695150375,2.94037842750549,1.16100025177002,-0.0601174907153006,2.93994950367094,1.18007268072775,3028.767,3011.964,2083.611,1979.162,0.01920914,-0.004419782,-0.04309314,0.00410812301561236,0.0123493764549494,-0.226118445396423,-0.00437104534358026,-0.00188073869847162,0.00270588528944111,6
0.0999908447265625,-0.0596519522368908,2.94066071510315,1.15742897987366,-0.0602281370710988,2.93990189563514,1.18014117609281,2572.463,3764.018,2528.687,1069.631,-0.005658152,-0.003073821,-0.06910317,0.0133159477263689,0.0141137456521392,-0.178565442562103,-0.00677536694902951,-0.00291525111632684,0.0041942748969354,6
0.1199951171875,-0.059136301279068,2.94084787368774,1.154620885849,-0.0603918861403606,2.93983143898525,1.18024254456713,1990.079,4004.024,3075.48,694.6837,-0.03991013,-0.0007068029,-0.08793917,0.0257825404405594,0.00936014950275421,-0.140405654907227,-0.00967801353495435,-0.00416417885169243,0.00599115140585487,5
0.139999389648438,-0.0583611205220222,2.94078660011292,1.15244746208191,-0.0606185767455666,2.93973390035084,1.18038287685052,1381.589,3936.982,3640.941,663.9172,-0.07574829,0.002034014,-0.09641176,0.0387589633464813,-0.00306249037384987,-0.10867241024971,-0.0130660253322238,-0.00562194567796536,0.00808849210174802,4
0.159988403320313,-0.0573621802031994,2.94033217430115,1.1509200334549,-0.0609175312885481,2.93960526856281,1.18056794395381,1009.606,3669.273,3950.202,872.2739,-0.1041259,0.003834042,-0.09478776,0.049947015941143,-0.0227195657789707,-0.0763688385486603,-0.0169234294955564,-0.00728167892605071,0.0104764090324936,4
0.17999267578125,-0.0561951361596584,2.93938517570496,1.15012359619141,-0.0612985250199726,2.93944133760391,1.18080379722281,1010.528,3363.177,3835.764,1161.309,-0.1193448,0.003851383,-0.0859727,0.0583522766828537,-0.0473472401499748,-0.0398209132254124,-0.0212433804254414,-0.00914043312572283,0.0131506644458931,3
0.199996948242188,-0.0549091026186943,2.93791794776917,1.15010988712311,-0.0617704296168641,2.93923829023936,1.18109592864822,1333.461,3132.982,3353.235,1401.451,-0.1214082,0.002340466,-0.07415732,0.0643016397953033,-0.0733606666326523,-0.00068342313170433,-0.0260104776919234,-0.0111915819022102,0.0161017247421801,3
0.219985961914063,-0.0535361841320992,2.93597269058228,1.15082955360413,-0.0623415882203848,2.93899253664859,1.18144950303185,1790.231,3014.977,2723.998,1533.027,-0.1151215,0.0002796745,-0.06327564,0.0686458647251129,-0.0972629487514496,0.0359824076294899,-0.031208065114187,-0.0134279585662277,0.0193192789519858,3
0.239990234375,-0.0520961582660675,2.93363213539124,1.15212345123291,-0.0630214373585105,2.93870001655724,1.18187036203406,2171.18,2982.482,2213.053,1547.41,-0.1071507,-0.001339037,-0.05581133,0.0720013305544853,-0.117023587226868,0.0646937340497971,-0.0368316683029241,-0.015847637913056,0.022800557215184,3
0.259994506835938,-0.050604086369276,2.93098068237305,1.15377128124237,-0.0638179029240226,2.93835731967507,1.18236341216003,2348.052,2985.428,2004.737,1459.693,-0.1029024,-0.001919606,-0.05235828,0.0746035575866699,-0.132567808032036,0.0823894515633583,-0.0428651747123285,-0.0184436871643672,0.0265355850983733,3
0.279998779296875,-0.0490743145346642,2.92807531356812,1.1555722951889,-0.0647390625194898,2.93796097043536,1.18293365383054,2308.813,2996.331,2122.762,1298.568,-0.104715,-0.001325189,-0.05185175,0.0764886140823364,-0.145269840955734,0.0900497883558273,-0.0492963837173861,-0.0212108567320638,0.030516809833474,3
0.29998779296875,-0.0475227534770966,2.92493534088135,1.15741109848022,-0.0657918945890516,2.93750796620855,1.18358540703494,2137.771,3011.009,2441.948,1106.295,-0.1118762,0.0001962706,-0.05227945,0.0775781720876694,-0.156993091106415,0.0919411033391953,-0.0561078595514081,-0.0241416444928383,0.0347334378503248,3
0.319992065429688,-0.0459694527089596,2.92155051231384,1.15926575660706,-0.0669855955880233,2.93699435001684,1.18432436481717,1942.211,3019.506,2793.195,937.6761,-0.121821,0.002154565,-0.05160833,0.0776651427149773,-0.169244155287743,0.0927309617400169,-0.0632980253096114,-0.0272353719486164,0.0391844929697465,3
0.339996337890625,-0.0444396436214447,2.91789531707764,1.16117608547211,-0.068326768706371,2.93641728069206,1.18515461486636,1804.478,3000.83,3047.453,841.8662,-0.1315,0.004015743,-0.04861441,0.0764905735850334,-0.182758346199989,0.0955193638801575,-0.0708499516420146,-0.0304847548730522,0.0438594951176439,3
0.360000610351563,-0.0429613515734673,2.91394639015198,1.16320335865021,-0.0698225328270578,2.93577369517774,1.1860805641102,1757.362,2956.232,3148.103,829.7418,-0.1385014,0.005408102,-0.04314747,0.0739144533872604,-0.197444245219231,0.101363845169544,-0.0787518717320621,-0.0338847303337087,0.0487511600740379,3
0.379989624023438,-0.0415609702467918,2.90969371795654,1.16540169715881,-0.0714784451857985,2.93506120235061,1.1871056527423,1802.713,2904.996,3096.888,875.2996,-0.1417483,0.006225294,-0.03593723,0.0700192674994469,-0.212631076574326,0.109919771552086,-0.0869857157641562,-0.0374275233937465,0.0538483017622888,3
0.399993896484375,-0.0402596332132816,2.90514588356018,1.16779720783234,-0.0733036822025899,2.9342758538535,1.18823556140379,1907.69,2870.969,2946.264,936.6967,-0.1416722,0.006603077,-0.02807611,0.0650668442249298,-0.227397605776787,0.119777396321297,-0.0955525119207663,-0.0411135764513579,0.0591515566763244,3
0.419998168945313,-0.039072573184967,2.9003267288208,1.17038202285767,-0.0753034649285836,2.93341540321397,1.18947352217404,2026.008,2857.43,2769.47,988.8079,-0.139711,0.006793837,-0.02060062,0.0593530647456646,-0.240962132811546,0.129239216446877,-0.104434660908044,-0.0449353170220673,0.0646500300148815,3
0.439987182617188,-0.0380105674266815,2.89526867866516,1.17311799526215,-0.0774822545706558,2.93247793089932,1.19082229675263,2111.371,2860.161,2639.213,1014.909,-0.1375619,0.007042162,-0.01415257,0.0531005039811134,-0.25290259718895,0.136797785758972,-0.113613709720558,-0.0488848052931553,0.0703322984885602,3
0.459991455078125,-0.0370823293924332,2.89000368118286,1.17595648765564,-0.0798493430620752,2.93145943885026,1.19228763728888,2146.717,2866.586,2592.013,1013.153,-0.1364636,0.007498463,-0.008924252,0.0464118421077728,-0.26324799656868,0.141925632953644,-0.123092454730403,-0.0529632444654124,0.0762000931848968,3
0.479995727539063,-0.0362962260842323,2.88455700874329,1.17885708808899,-0.0824088828700873,2.93035814037613,1.19387211435783,2141.733,2876.212,2625.016,978.825,-0.1369893,0.008196983,-0.004682902,0.0393049754202366,-0.272339344024658,0.145032703876495,-0.132852887402757,-0.0571628859694044,0.0822422659629699,4
0.5,-0.035661369562149,2.87894439697266,1.18179607391357,-0.085166398670376,2.92917165836334,1.1955791479969,2109.338,2885.099,2713.681,925.686,-0.1390383,0.009086188,-0.0009353022,0.0317427106201649,-0.280625373125076,0.146948635578156,-0.142884000065179,-0.0614789935111996,0.0884520025491718,4
0.519989013671875,-0.0351883322000504,2.87317371368408,1.18477118015289,-0.0881248588203387,2.92789871561062,1.19741057576073,2072.079,2887.389,2817.714,874.509,-0.1420035,0.01006223,0.002806309,0.0236520878970623,-0.288530886173248,0.148753643035889,-0.153166947611899,-0.0659034585682559,0.0948176369253132,4
0.539993286132813,-0.0348887145519257,2.86724734306335,1.18779468536377,-0.091293865515634,2.92653518056143,1.19937234186584,2045.987,2886.232,2906.144,833.2031,-0.1451471,0.01101754,0.006905869,0.0149806356057525,-0.296316087245941,0.15117709338665,-0.163706645289342,-0.0704383960337938,0.101342211863077,4
0.55999755859375,-0.0347744897007942,2.86116576194763,1.19088864326477,-0.094676112580471,2.92507989413848,1.20146611391775,2042.394,2880.206,2955.62,813.0453,-0.1478305,0.01187089,0.01146777,0.00571135338395834,-0.304081797599792,0.154699504375458,-0.17448465888317,-0.0750758741803766,0.108014315705644,4
0.579986572265625,-0.0348565131425858,2.85493087768555,1.19407165050507,-0.0982734311149,2.92353206847056,1.2036930254546,2056.747,2876.86,2968.982,806.3805,-0.1497554,0.01259287,0.01643565,-0.00410142261534929,-0.311745196580887,0.159150838851929,-0.185481935470438,-0.0798076950675377,0.114822153786096,4
0.599990844726563,-0.0351441726088524,2.84854745864868,1.19735789299011,-0.102095761416081,2.92188742652551,1.20605922999388,2082.802,2872.289,2952.751,817.6205,-0.1508643,0.0131985,0.02158044,-0.014382928609848,-0.319172620773315,0.164313986897469,-0.19670480600515,-0.0846365827279185,0.121769645266545,4
0.6199951171875,-0.0356447249650955,2.84202313423157,1.2007542848587,-0.106144683970236,2.92014528826426,1.20856570593183,2117.879,2875.442,2921.426,826.5971,-0.1514337,0.01372666,0.02667206,-0.0250276178121567,-0.326212078332901,0.169819876551628,-0.208134604141382,-0.0895545055543457,0.128845234789665,4
0.639999389648438,-0.0363634265959263,2.83536815643311,1.20425772666931,-0.110424235525481,2.91830391678686,1.21121495220784,2146.016,2881.866,2896.501,833.0837,-0.1518508,0.01422799,0.03154429,-0.035934753715992,-0.33274444937706,0.175174936652184,-0.219761081350814,-0.0945570538913933,0.136042578028218,4
0.659988403320313,-0.0373044982552528,2.82859301567078,1.20786285400391,-0.114934715429503,2.91636318329238,1.21400715413238,2165.068,2886.979,2885.758,837.6799,-0.1524063,0.01474332,0.03608341,-0.0470537021756172,-0.338757574558258,0.180254966020584,-0.231565018351745,-0.0996359582190702,0.143349777331291,4
0.67999267578125,-0.0384714268147945,2.82170724868774,1.21156167984009,-0.119686638739014,2.91431856344567,1.21694882102647,2175.478,2894.902,2896.574,828.3983,-0.1533262,0.01529432,0.0403141,-0.0583463720977306,-0.344284266233444,0.184943869709969,-0.243554411173546,-0.104794659005432,0.150771782621969,4
0.699996948242188,-0.0398679114878178,2.81471848487854,1.2153525352478,-0.124680083855354,2.91217002351282,1.22004000142426,2181.92,2899.557,2918.706,817.4942,-0.1546391,0.01588216,0.04427843,-0.0698244720697403,-0.349442034959793,0.189541310071945,-0.255710395848158,-0.11002503961202,0.158296916205407,4
0.719985961914063,-0.0414973795413971,2.80763244628906,1.21923243999481,-0.129914195341611,2.90991793156443,1.22328016576956,2184.409,2906.89,2955.057,794.5876,-0.1563419,0.01649624,0.04812135,-0.0814729034900665,-0.354306906461716,0.193994358181953,-0.2680137084949,-0.11531881132915,0.165913252821798,4
0.739990234375,-0.0433639772236347,2.80045247077942,1.22320568561554,-0.135400001298574,2.90755754251682,1.2266761409821,2184.542,2905.917,2990.99,784.2708,-0.1581944,0.01712408,0.0518915,-0.0933305397629738,-0.358999252319336,0.198664009571075,-0.280473432677602,-0.12067988256057,0.173626415629864,5
0.759994506835938,-0.0454717911779881,2.7931809425354,1.22727906703949,-0.14113644597991,2.90508931062815,1.2302272735046,2194.798,2910.671,3020.46,764.745,-0.1600981,0.01774529,0.0556664,-0.105390787124634,-0.363578259944916,0.203670546412468,-0.293070637251543,-0.126100107763583,0.181424685349205,5
0.779998779296875,-0.0478244833648205,2.78581976890564,1.23145830631256,-0.147126184485884,2.90251209348295,1.23393520697061,2204.823,2913.137,3044.406,752.9814,-0.1619468,0.01835178,0.05947007,-0.11763472110033,-0.368063777685165,0.208960056304932,-0.305795832832518,-0.131575403921268,0.189302187598958,5
0.79998779296875,-0.0504255257546902,2.77837038040161,1.23575019836426,-0.153366821193532,2.89982692185086,1.2377984583754,2218.204,2914.454,3059.385,748.0566,-0.1636523,0.0189429,0.0632654,-0.13005168735981,-0.37247109413147,0.214592754840851,-0.318629798715703,-0.137097500901303,0.197247023847227,5
0.819992065429688,-0.0532774664461613,2.77083492279053,1.2401579618454,-0.159870162197751,2.89702871589906,1.2418243362541,2233.973,2918.908,3071.958,739.5782,-0.165246,0.01952174,0.0670377,-0.142597451806068,-0.376770526170731,0.220389813184738,-0.33158286215529,-0.142670842232658,0.205265587156312,5
0.839996337890625,-0.056382741779089,2.76321530342102,1.24468779563904,-0.166633637018892,2.89411858163313,1.24601124935738,2252.376,2922.201,3075.97,738.6972,-0.1667458,0.02009531,0.07071117,-0.155263930559158,-0.380978256464005,0.226492494344711,-0.344636106234817,-0.148287288494656,0.213346167053785,5
0.860000610351563,-0.0597422905266285,2.75551462173462,1.24933731555939,-0.173659158941841,2.89109569582005,1.2503603820997,2269.071,2930.71,3088.633,725.02,-0.1683235,0.02066871,0.07431533,-0.167977049946785,-0.385039299726486,0.232478410005569,-0.357780475378537,-0.153942943326036,0.221483157706883,5
0.879989624023438,-0.0633576512336731,2.74773454666138,1.25410997867584,-0.18094280014554,2.88796174849148,1.25486930297274,2280.229,2930.672,3098.673,729.417,-0.1699091,0.02125743,0.07776569,-0.180769145488739,-0.389007151126862,0.23863573372364,-0.370996904517929,-0.159629603560431,0.229664756929996,5
0.899993896484375,-0.0672292411327362,2.73987770080566,1.25900220870972,-0.18849723509595,2.8847112861788,1.25954585807468,2294.581,2939.136,3120.63,709.7565,-0.1716471,0.02185799,0.0811386,-0.193578541278839,-0.392844527959824,0.244613274931908,-0.384296738353309,-0.165352150505452,0.237897987633041,5
0.919998168945313,-0.0713586360216141,2.73194479942322,1.26402068138123,-0.196318384305134,2.8813460641717,1.26438752200817,2306.304,2938.892,3133.511,712.1205,-0.1734091,0.02247881,0.08435912,-0.206470310688019,-0.396647185087204,0.250925898551941,-0.397661187980262,-0.171102499820431,0.246171218589148,5
0.939987182617188,-0.0757455676794052,2.72393774986267,1.26916003227234,-0.204401181418416,2.87786826238106,1.26939115845832,2321.708,2949.506,3161.769,683.2944,-0.1753846,0.02310636,0.08756225,-0.219346642494202,-0.400350719690323,0.256969690322876,-0.411071375662203,-0.176872528942697,0.254472763580097,5
0.959991455078125,-0.0803917646408081,2.71585631370544,1.27442741394043,-0.212759000778906,2.87427212620069,1.27456504678061,2326.9,2943.662,3179.882,693.1691,-0.1772893,0.02375869,0.09063707,-0.232309848070145,-0.404066532850266,0.263369709253311,-0.424539267042903,-0.182667386354485,0.262810029909387,5
0.979995727539063,-0.0852972418069839,2.70770144462585,1.27982175350189,-0.22138664033507,2.87055989392801,1.27990596665734,2348.163,2954.898,3203.761,662.9493,-0.1793154,0.02441348,0.09370224,-0.245273992419243,-0.407744586467743,0.26971971988678,-0.438046240701377,-0.188479059778567,0.271171490030365,5
1,-0.0904630571603775,2.69947242736816,1.28534829616547,-0.230284798736574,2.86673126495361,1.28541435058594,2357.405,2952.823,3220.52,666.0864,-0.181291,0.02508461,0.09668368,-0.258290946483612,-0.411447674036026,0.276326477527618,-0.451584000205995,-0.194303979492187,0.279552008056641,5
1.01998901367188,-0.0958889871835709,2.69116973876953,1.29100549221039,-0.239446912293295,2.86278906344998,1.29108613532954,2374.787,2959.756,3243.342,645.2342,-0.1833245,0.02576119,0.09964635,-0.271296590566635,-0.415130943059921,0.28285938501358,-0.46513400752272,-0.200134169097193,0.287940108062054,5
1.03999328613281,-0.101575762033463,2.6827929019928,1.29679787158966,-0.248887339851819,2.85872711120656,1.2969302096982,2385.492,2958.256,3259.76,646.7311,-0.1852719,0.02645606,0.1025213,-0.284339845180511,-0.418842494487762,0.289617717266083,-0.478708875293167,-0.205975055460915,0.29634359787259,5
1.05999755859375,-0.107523202896118,2.67434167861938,1.3027263879776,-0.258599401509697,2.85454828239877,1.30294243851408,2406.555,2966.233,3276.592,627.4033,-0.1872618,0.02715698,0.105353,-0.297370195388794,-0.422556132078171,0.296423047780991,-0.492290296490434,-0.211818761581115,0.30475114456651,5
1.07998657226563,-0.113730937242508,2.66581606864929,1.30879175662994,-0.268575430648764,2.85025587575821,1.30911807577533,2419.222,2968.035,3294.114,622.1169,-0.1892639,0.0278718,0.1081179,-0.310387313365936,-0.42627888917923,0.303265869617462,-0.50586005237609,-0.217657448443621,0.313151469876847,5
1.09999084472656,-0.120198488235474,2.65721607208252,1.31499314308167,-0.278830554044452,2.84584338265603,1.31546648567654,2432.747,2970.58,3315.556,611.2903,-0.1912794,0.0286018,0.1108232,-0.323377341032028,-0.429998844861984,0.310068696737289,-0.519431110871131,-0.223496695782555,0.321552601564445,5
1.1199951171875,-0.12692603468895,2.64854073524475,1.32133543491364,-0.289357002179081,2.84131414609862,1.32198285851614,2449.503,2973.49,3328.994,605.4962,-0.1932746,0.02934918,0.1134351,-0.33637747168541,-0.433761656284332,0.317113757133484,-0.532985466132485,-0.229328756186667,0.329943393154705,5
1.13999938964844,-0.133911952376366,2.63979077339172,1.32781374454498,-0.300154365346813,2.83666834237095,1.3286669406667,2466.502,2980.205,3354.407,582.5887,-0.1953903,0.03010246,0.1160333,-0.349298119544983,-0.437499612569809,0.32391282916069,-0.546515580872639,-0.235150386571708,0.338319178707607,5
1.15998840332031,-0.141156926751137,2.63096475601196,1.33443439006805,-0.31121353909136,2.83190988886621,1.33551309603608,2475.774,2976.98,3368.498,590.1657,-0.1974143,0.0308828,0.1185151,-0.362247288227081,-0.441304594278336,0.331029891967773,-0.560003743914979,-0.240953966313175,0.346668994161124,6
1.17999267578125,-0.148658737540245,2.62206339836121,1.3411899805069,-0.322550701230474,2.8270318247214,1.34253133946411,2495.658,2985.313,3399.354,557.0959,-0.1995624,0.03166468,0.1210132,-0.375090956687927,-0.445067167282104,0.337780594825745,-0.573463232144024,-0.246745208083563,0.355001058539242,6
1.19999694824219,-0.156419068574905,2.61308431625366,1.34809362888336,-0.334156660511822,2.8220381046756,1.34971598112778,2505.697,2980.811,3404.46,574.7386,-0.201523,0.03247879,0.1233582,-0.388016700744629,-0.448952347040176,0.345183104276657,-0.58687652428584,-0.252516572968185,0.36330452533874,6
1.21998596191406,-0.164434015750885,2.60402941703796,1.35513055324554,-0.34602126278068,2.81693309777792,1.35706073512159,2531.859,2995.23,3441.145,522.3489,-0.2037553,0.0332756,0.1257929,-0.400747239589691,-0.452741742134094,0.351845741271973,-0.600226348268632,-0.258260629277074,0.371568702324394,6
1.239990234375,-0.172706246376038,2.59489560127258,1.36231768131256,-0.358161486344149,2.81170949873715,1.36457611182642,2529.512,2981.124,3443.637,565.0978,-0.2056456,0.03412315,0.1280181,-0.413611441850662,-0.456689834594727,0.359356880187988,-0.613526094901141,-0.263983138701136,0.379801879044709,6
1.25999450683594,-0.181231066584587,2.58568525314331,1.36963820457458,-0.3705671011502,2.80637170925886,1.37225577835275,2566.472,3002.01,3481.468,493.8148,-0.2078704,0.03494056,0.1303651,-0.426241815090179,-0.460517644882202,0.366028487682343,-0.626758665639206,-0.269676744214496,0.387993470686331,6
1.27999877929688,-0.19001179933548,2.57639455795288,1.37711274623871,-0.383236695417198,2.80092033679326,1.3800988607405,2560.839,2986.333,3477.076,548.4474,-0.2097159,0.03581444,0.1324749,-0.439035624265671,-0.464537262916565,0.373726367950439,-0.639917282339435,-0.275338529371412,0.396139281255613,6
1.29998779296875,-0.199041813611984,2.56702733039856,1.38471555709839,-0.396158759015336,2.79536033382764,1.388098233671,2598.987,3008.528,3526.378,462.0949,-0.2120084,0.03664455,0.1347667,-0.451499849557877,-0.468361556529999,0.380139857530594,-0.652985332144132,-0.280961346123326,0.404229026602261,6
1.31999206542969,-0.208326667547226,2.55757832527161,1.39247727394104,-0.409351342777246,2.78968393359302,1.39626507146953,2584.364,2985.395,3512.045,544.1672,-0.213707,0.0375559,0.136731,-0.464243859052658,-0.472455590963364,0.388087928295135,-0.665976209205206,-0.286550957599616,0.412270998344359,6
1.33999633789063,-0.217857256531715,2.54805302619934,1.40036261081696,-0.422802873722428,2.78389611561957,1.40459220990988,2637.943,3018.077,3571.199,420.4543,-0.2160591,0.03839118,0.1389801,-0.476531326770782,-0.476261854171753,0.394267231225967,-0.678873453515705,-0.29210028151913,0.420255006953505,6
1.36000061035156,-0.227642089128494,2.53844404220581,1.40841543674469,-0.436511415158101,2.77799771321212,1.41307845008695,2610.084,2986.591,3538.428,543.6946,-0.2176064,0.03933719,0.1407902,-0.489242076873779,-0.480455309152603,0.402641981840134,-0.691670720740693,-0.297606588091785,0.42817712498415,6
1.37998962402344,-0.237667039036751,2.5287606716156,1.41657841205597,-0.450464156928423,2.77199423822282,1.42171586190405,2676.741,3028.382,3625.013,367.6263,-0.2201449,0.04016139,0.1430577,-0.501247823238373,-0.484168171882629,0.408149033784866,-0.704352136620515,-0.303063047067127,0.436027525513373,6
1.39999389648438,-0.247947186231613,2.51899075508118,1.42492341995239,-0.464680216184654,2.76587746507559,1.43051627978847,2623.706,2979.08,3560.888,568.1978,-0.2213486,0.04116495,0.1446468,-0.514006018638611,-0.488501220941544,0.417248755693436,-0.716930938559026,-0.308475354130225,0.443814403124744,7
1.41999816894531,-0.258460134267807,2.50914978981018,1.43335962295532,-0.47914673136562,2.75965292774086,1.43947174182117,2727.893,3045.285,3685.768,287.4038,-0.2241657,0.04195376,0.1469988,-0.525650024414063,-0.492048710584641,0.42181122303009,-0.729391385793766,-0.313836736470737,0.451528013536465,7
1.43998718261719,-0.269231766462326,2.49921727180481,1.44200456142426,-0.49384995777978,2.75332654017544,1.44857373938334,2631.581,2969.498,3563.47,620.6404,-0.2248709,0.04303287,0.148289,-0.538578927516937,-0.496621966362,0.43224561214447,-0.741718206886022,-0.319140623215221,0.459158903000492,7
1.45999145507813,-0.280223608016968,2.4892213344574,1.45069944858551,-0.508809800712713,2.74688973769103,1.45783459479497,2788.382,3068.236,3773.004,161.8922,-0.2282947,0.04373739,0.1508958,-0.549593806266785,-0.499797850847244,0.434745192527771,-0.753924423002454,-0.324392617007921,0.466715132239272,7
1.47999572753906,-0.291484445333481,2.47912430763245,1.45965790748596,-0.524012471663969,2.74034845309416,1.46724577231745,2612.216,2943.92,3532.456,752.2521,-0.2279586,0.04496684,0.1516506,-0.563040196895599,-0.504847764968872,0.447924554347992,-0.765994882555672,-0.329586198544069,0.474187321698441,7
1.5,-0.302948266267776,2.46897196769714,1.46861624717712,-0.539455198877605,2.73370387899399,1.4768055561018,2833.654,3157.018,3842.314,0,-0.2321493,0.04570763,0.1548913,-0.573193073272705,-0.507612407207489,0.447918117046356,-0.777924000354858,-0.334718964672088,0.481572013878822,7
1.51998901367188,-0.314692556858063,2.4587082862854,1.47789657115936,-0.555123050061237,2.72696244033876,1.48650470234772,2586.961,2887.83,3473.477,947.0558,-0.2305445,0.04726216,0.1549959,-0.587214529514313,-0.51318746805191,0.464016735553741,-0.789697369743256,-0.339784716610053,0.488860290373601,7
1.53999328613281,-0.326629042625427,2.44838690757751,1.48717355728149,-0.571036956668503,2.72011513090874,1.49635616862212,2741.926,3354.826,3779.029,0,-0.2343736,0.04874269,0.159022,-0.596822798252106,-0.516069412231445,0.463852137327194,-0.801327600455846,-0.344788879974649,0.496059957209413,7
1.55999755859375,-0.33883535861969,2.4379608631134,1.49674201011658,-0.587181951496087,2.71316839067337,1.50635068951315,2678.994,2799.052,3466.538,993.4672,-0.2327235,0.05090364,0.1587585,-0.610316932201385,-0.521304845809937,0.478424668312073,-0.812800388649436,-0.349725300221754,0.503162159625937,7
1.57998657226563,-0.351226329803467,2.42748546600342,1.50629115104675,-0.603542258451077,2.7061290076447,1.51647849886779,2815.492,3301.483,3807.473,0,-0.2367002,0.05285018,0.1618061,-0.619547545909882,-0.523765504360199,0.477454543113708,-0.82410201904291,-0.354588076049064,0.510158407210813,7
1.59999084472656,-0.363878577947617,2.41691660881042,1.51611006259918,-0.620139554045575,2.69898765502515,1.52675301547962,2751.415,2788.303,3544.027,901.6054,-0.2358272,0.05528998,0.1606957,-0.632613301277161,-0.528445780277252,0.490943610668182,-0.835244706287931,-0.359382463079953,0.517056261415284,7
1.6199951171875,-0.376714557409286,2.40629911422729,1.52593338489532,-0.636958033083316,2.69175113334911,1.53716445517924,2814.377,3323.122,3835.072,0,-0.2400643,0.0575957,0.1630168,-0.64179939031601,-0.530878603458405,0.491166621446609,-0.846214826007804,-0.364102599125749,0.523847288101157,7
1.63999938964844,-0.38979360461235,2.39559984207153,1.53597283363342,-0.653994195024907,2.68442094880091,1.54771065096602,2835.042,2787.054,3682.118,717.8635,-0.240697,0.06008707,0.1618439,-0.65395313501358,-0.53495854139328,0.501973927021027,-0.857007552155828,-0.368746407673381,0.530528499715628,7
1.65998840332031,-0.403058052062988,2.38485169410706,1.54603230953217,-0.67123120513297,2.67700434489773,1.55838118133557,2870.273,3207.672,3939.929,0,-0.2450918,0.0623049,0.1632716,-0.663225710391998,-0.537402868270874,0.502976596355438,-0.867610144209785,-0.373308406832068,0.537092009268528,7
1.67999267578125,-0.416556417942047,2.37402534484863,1.55628526210785,-0.688691692550512,2.66949158495151,1.56919005480539,2878.821,2820.17,3830.5,529.7805,-0.2464894,0.06452216,0.162261,-0.674915790557861,-0.541317045688629,0.512646853923798,-0.878034183119987,-0.377793579561193,0.543544985919778,8
1.69999694824219,-0.43024554848671,2.36314082145691,1.56659424304962,-0.706358800111611,2.66188992212981,1.58012683598675,2889.822,3165.038,4003.514,0,-0.2503766,0.06648012,0.1635609,-0.684455394744873,-0.544223248958588,0.515447378158569,-0.888267004546665,-0.382196476749158,0.549879589839776,8
1.71998596191406,-0.444157600402832,2.35217714309692,1.57707214355469,-0.724214951560321,2.65420691900456,1.59118064433996,2926.872,2853.58,3932.479,377.1732,-0.2520261,0.06828985,0.1632597,-0.695606470108032,-0.54818856716156,0.523892641067505,-0.898296635743475,-0.386511946857687,0.556088409328192,8
1.739990234375,-0.458261460065842,2.34114956855774,1.5876168012619,-0.74228345468553,2.64643254688532,1.60236590849663,2947.585,3076.129,4070.812,0,-0.2552459,0.06973426,0.1645685,-0.705189943313599,-0.551378786563873,0.527235209941864,-0.908134108040217,-0.390744736359816,0.562178273303667,8
1.75999450683594,-0.472586274147034,2.33003640174866,1.59833955764771,-0.760546715064628,2.63857437616062,1.61367173667103,2938.763,2898.652,3966.675,320.3766,-0.2562898,0.07107378,0.1647865,-0.716242015361786,-0.555659711360931,0.536138296127319,-0.917767514700581,-0.394889722119545,0.568141810929231,8
1.77999877929688,-0.487099766731262,2.3188533782959,1.60913813114166,-0.779000609654483,2.63063418086074,1.62509557650306,2963.352,3093.476,4071.055,0,-0.258798,0.0721136,0.1666412,-0.725671470165253,-0.559146523475647,0.539928078651428,-0.927192788821983,-0.398945154262308,0.57397650459845,8
1.79998779296875,-0.501828372478485,2.30758213996887,1.62011134624481,-0.797626646773287,2.62261991743975,1.63662598076079,2947.982,2917.97,3959.894,331.5759,-0.2592049,0.07313208,0.1674009,-0.736435949802399,-0.563557982444763,0.548659920692444,-0.936399026186941,-0.402906341007953,0.579675604081262,8
1.81999206542969,-0.51673835515976,2.2962441444397,1.63114655017853,-0.816448984455027,2.61452119137054,1.64827790441807,3000.803,3077.623,4083.897,0,-0.2612518,0.07382595,0.1695525,-0.745499193668365,-0.566902577877045,0.551758050918579,-0.945396434568188,-0.406777674475912,0.585245428475252,8
1.83999633789063,-0.531864404678345,2.2848162651062,1.642373919487,-0.835449117627072,2.60634596486888,1.66003989195343,2944.517,2938.053,3927.31,386.2598,-0.260871,0.074651,0.17041,-0.756300926208496,-0.571380198001862,0.561367809772491,-0.954174163352093,-0.410554485950274,0.590679260733698,8
1.8599853515625,-0.547163367271423,2.27332615852356,1.65365421772003,-0.854607925216182,2.59810246519841,1.67190010651166,2993.118,3141.621,4062.621,0,-0.2626436,0.07527301,0.1730219,-0.764951825141907,-0.57451319694519,0.564013302326202,-0.962722140342816,-0.41423244164655,0.595970865687568,8
1.87998962402344,-0.562674045562744,2.26175212860107,1.66512227058411,-0.873950157556149,2.58978004298193,1.6838738697284,2953.755,2928.023,3909.237,442.0046,-0.26185,0.07610825,0.1739215,-0.775532126426697,-0.578702032566071,0.573404908180237,-0.971049893464309,-0.417815641164241,0.601126141575667,8
1.89999389648438,-0.578350841999054,2.25012516975403,1.67662990093231,-0.893456683142228,2.58138692997148,1.69594933829086,3016.952,3147.191,4070.148,0,-0.2635054,0.07673532,0.1764963,-0.783839285373688,-0.581346154212952,0.575384020805359,-0.979147395688901,-0.421299770153459,0.606138881190213,8
1.91999816894531,-0.594237625598907,2.23842239379883,1.68832921981812,-0.913122862707269,2.57292512231409,1.70812364027167,2971.675,2929.874,3906.308,463.3842,-0.2625286,0.07761371,0.1771578,-0.794341027736664,-0.585133075714111,0.584967017173767,-0.987011339258123,-0.424683405378145,0.611007036871143,9
1.93998718261719,-0.610284864902496,2.22667598724365,1.70006251335144,-0.932928814964021,2.56440317437226,1.72038446820694,3008.002,3185.649,4075.696,0,-0.2641526,0.07836644,0.1797302,-0.80236542224884,-0.587317049503326,0.586667716503143,-0.994632798067981,-0.427962706185118,0.615725082934877,9
1.95999145507813,-0.626536786556244,2.21486520767212,1.71197688579559,-0.952900013794853,2.55581012544606,1.73274759164336,2998.038,2916.74,3930.553,459.0515,-0.2632077,0.07933914,0.1802247,-0.81259673833847,-0.590538203716278,0.595716893672943,-1.00202031904361,-0.431141350077486,0.620298310335216,9
1.97999572753906,-0.642946183681488,2.20302033424377,1.72392523288727,-0.973016570682103,2.54715453300902,1.74520069864106,3026.242,3180.011,4095.841,0,-0.2647459,0.08017775,0.1825181,-0.820467352867126,-0.592248499393463,0.597416162490845,-1.00916501115878,-0.434215511495054,0.624721215103391,9
2,-0.659553945064545,2.19112253189087,1.73604333400726,-0.993273599084619,2.53843849960327,1.7577407641983,3032.45,2918.703,3968.778,413.4529,-0.2640087,0.08115739,0.1828492,-0.830389201641083,-0.594891130924225,0.605905830860138,-1.01606400046349,-0.437183953857422,0.628992018127441,9
2.01998901367188,-0.676316201686859,2.17919874191284,1.74819791316986,-1.01365055070775,2.52967086658596,1.77035506794184,3035.73,3172.884,4121.566,0,-0.2654708,0.08201104,0.1848995,-0.838117301464081,-0.596194744110107,0.607726693153381,-1.02270954399163,-0.440043345582587,0.633105926142498,9
2.03999328613281,-0.693269073963165,2.16723299026489,1.76050579547882,-1.03417354141348,2.52084039703127,1.78305977683431,3059.369,2920.49,4020.345,356.5244,-0.2649233,0.08292393,0.1852038,-0.847637534141541,-0.598272740840912,0.615396976470947,-1.02910913225408,-0.442796909628122,0.637067576131623,9
2.05999755859375,-0.710374772548676,2.15524816513062,1.77285730838776,-1.05482201812353,2.5119559343546,1.79584216754118,3057.208,3149.183,4147.582,0,-0.266176,0.08368504,0.1870093,-0.855288684368134,-0.599253177642822,0.617574214935303,-1.03525504859546,-0.445441325732794,0.640872191117535,9
2.07998657226563,-0.727662444114685,2.14323091506958,1.78534758090973,-1.07557499515204,2.50302650811029,1.80868924892322,3085.398,2934.745,4065.231,290.0374,-0.2657904,0.08442559,0.187409,-0.864384055137634,-0.600857555866241,0.624514937400818,-1.04114045847258,-0.4479736531836,0.644515540192423,9
2.09999084472656,-0.745099604129791,2.13120031356812,1.7978823184967,-1.09645901288412,2.49404069871208,1.82161745074311,3071.51,3123.844,4177.418,0,-0.2668083,0.08499672,0.1891167,-0.871858775615692,-0.601523518562317,0.626738965511322,-1.04677201701582,-0.450396755497224,0.648001743199023,9
2.1199951171875,-0.76271265745163,2.11914443969727,1.81055116653442,-1.11745308225396,2.48500753716864,1.83461377976925,3095.087,2950.265,4090.546,255.3868,-0.2662708,0.08553696,0.189653,-0.880652785301208,-0.602801144123077,0.63344395160675,-1.0521429102862,-0.45270770082608,0.651326581984514,9
2.13999938964844,-0.780470371246338,2.10707998275757,1.82326567173004,-1.138551967509,2.47592927627801,1.8476749948214,3080.537,3122.451,4184.653,0,-0.2669808,0.08591732,0.1914485,-0.887890577316284,-0.60322493314743,0.635726273059845,-1.05725102347782,-0.454905579228273,0.654488747383304,9
2.15998840332031,-0.798396348953247,2.09499645233154,1.83610475063324,-1.15973418543027,2.46681515966915,1.86078779676364,3099.621,2960.197,4102.229,241.8094,-0.2662234,0.08627392,0.1921794,-0.896291971206665,-0.604165196418762,0.64195591211319,-1.06209075728,-0.456987981476842,0.657484773155346,9
2.17999267578125,-0.816460072994232,2.08291220664978,1.84898221492767,-1.18102676265167,2.45765355853653,1.8739689163698,3095.41,3107.493,4197.216,0,-0.266632,0.08644389,0.1940259,-0.903193473815918,-0.604223608970642,0.643873870372772,-1.06666760390386,-0.458957270716794,0.660318059240953,10
2.19999694824219,-0.834687888622284,2.07081437110901,1.8619886636734,-1.20240821395574,2.44845371736898,1.88720505326679,3096.035,2975.429,4090.381,254.3159,-0.2654612,0.08664713,0.1948235,-0.911391913890839,-0.604897439479828,0.650322079658508,-1.07097597819164,-0.460811043810786,0.662985148161421,10
2.21998596191406,-0.853045284748077,2.05872201919556,1.87502551078796,-1.22385674836213,2.4392250122166,1.90048271779974,3090.824,3132.038,4186.75,0,-0.2656402,0.08669952,0.1968788,-0.917866826057434,-0.604601144790649,0.651845097541809,-1.07501122224684,-0.462547296596067,0.665483156456917,10
2.239990234375,-0.871559739112854,2.04662418365479,1.88818645477295,-1.24539969505118,2.42995568409656,1.91381882803312,3089.304,2975.547,4075.467,285.1211,-0.2641179,0.08683865,0.197732,-0.925723910331726,-0.604898512363434,0.658046782016754,-1.07877792518082,-0.464168003639063,0.667814925005999,10
2.25999450683594,-0.890194773674011,2.03454160690308,1.90136611461639,-1.26701526177039,2.4206551096063,1.92719989352455,3100.058,3134.254,4183.436,0,-0.2641249,0.08680339,0.1998101,-0.931752741336823,-0.604117929935455,0.658982574939728,-1.08227143928024,-0.465671165158559,0.669977576652695,10
2.27999877929688,-0.908982455730438,2.0224609375,1.91467320919037,-1.28869796983554,2.41132564607061,1.9406225227075,3085.089,2983.025,4051.37,314.437,-0.2623128,0.08690675,0.2005651,-0.939380824565887,-0.60403710603714,0.665353059768677,-1.08549040888332,-0.467056197851165,0.67197027217779,10
2.29998779296875,-0.927879989147186,2.01040625572205,1.92798435688019,-1.31042570636616,2.40197680804417,1.95407302665558,3083.744,3162.077,4176.851,0,-0.2622606,0.08687488,0.2027554,-0.944880485534668,-0.602748990058899,0.665556848049164,-1.08843144721369,-0.468321644481621,0.673790915005368,10
2.31999206542969,-0.946924924850464,1.99836146831512,1.9414234161377,-1.33222611841886,2.3925966997709,1.96756852021384,3077.553,2975.659,4029.745,356.2702,-0.2601408,0.08703295,0.2033687,-0.952248156070709,-0.602241098880768,0.671953678131104,-1.09109790637238,-0.469468947365361,0.675441580245663,10
2.33999633789063,-0.966070115566254,1.98635256290436,1.95485460758209,-1.35407709248145,2.38319483607731,1.98109531406483,3074.502,3183.582,4166.898,0,-0.2600023,0.0870699,0.2055632,-0.957256138324738,-0.600436806678772,0.671558737754822,-1.09348640563071,-0.470496651869278,0.67692017506657,10
2.3599853515625,-0.985356330871582,1.97436320781708,1.96841275691986,-1.37595634130987,2.37378080654189,1.99463961134278,3080.521,2969.488,4007.593,383.4593,-0.2577194,0.08730376,0.2059714,-0.964315414428711,-0.599467515945435,0.677906453609467,-1.09559452046326,-0.471403714787811,0.678225198571351,10
2.37998962402344,-1.00473177433014,1.96242105960846,1.98194706439972,-1.39789168475144,2.36434264106153,2.00821863385843,3057.35,3201.834,4164.246,0,-0.2575847,0.08743543,0.2081256,-0.968764662742615,-0.597109973430634,0.676717877388,-1.09742465646102,-0.47219117117957,0.679358139935436,10
2.39999389648438,-1.02424252033234,1.95050716400146,1.99561011791229,-1.41986083522252,2.35488992936084,2.02181858453579,3080.401,2959.599,3985.981,413.3752,-0.2551207,0.08777519,0.2082626,-0.975546300411224,-0.595698058605194,0.68315577507019,-1.09897439291323,-0.472857979480329,0.680317500623536,10
2.41999816894531,-1.04383182525635,1.93864965438843,2.00923848152161,-1.44185817738692,2.34542508756209,2.03543598721428,3037.652,3230.353,4149.938,0,-0.2550051,0.08804407,0.2103728,-0.979463398456573,-0.592872977256775,0.681418001651764,-1.10024313330221,-0.473403883025206,0.681102911362803,10
2.43998718261719,-1.06354677677155,1.92683076858521,2.02298378944397,-1.46386128162322,2.33595776650478,2.04905695688976,3085.858,2942.703,3980.522,423.0966,-0.2525715,0.08847772,0.2102955,-0.985747754573822,-0.590940117835999,0.68727058172226,-1.10122974390336,-0.473828394004169,0.681713670323692,10
2.45999145507813,-1.08333015441895,1.91507828235626,2.03668332099915,-1.48589810917879,2.32647593524532,2.06269880290633,3031.272,3225.773,4152.228,0,-0.2524746,0.08881593,0.2121916,-0.989171206951141,-0.587623775005341,0.684979021549225,-1.10193535162022,-0.474131997292339,0.68215047511319,10
2.47999572753906,-1.1032303571701,1.90337407588959,2.05049228668213,-1.50794623031618,2.31698924467309,2.07634764018804,3091.414,2935.813,3982.388,411.8246,-0.2501054,0.08926407,0.2119014,-0.99500572681427,-0.585214793682098,0.690454423427582,-1.10235882472314,-0.474314205938057,0.682412625136718,10
2.5,-1.12319004535675,1.89174330234528,2.06425094604492,-1.52999999932945,2.30750012397766,2.08999997377396,3018.145,3232.11,4146.086,0,-0.2500192,0.08962093,0.213669,-0.997993052005768,-0.581537246704102,0.687928915023804,-1.10250000050292,-0.474374949932098,0.682500019669533,11
2.51998901367188,-1.14325416088104,1.88017010688782,2.07810044288635,-1.5520369476803,2.29801824074336,2.10364189456856,3094.34,2926.023,3997.821,387.0116,-0.2478125,0.09001081,0.2133297,-1.00320279598236,-0.578652679920197,0.692474126815796,-1.10235904000526,-0.474314298567936,0.682412758406603,11
2.53999328613281,-1.163370013237,1.86867785453796,2.09189367294312,-1.57408507527774,2.28853154739156,2.11729073584934,3019.246,3205.444,4155.575,0,-0.2476495,0.0902586,0.2149026,-1.00579345226288,-0.574618816375732,0.689667642116547,-1.10193578218388,-0.474132182551855,0.682150741652607,11
2.55999755859375,-1.18358039855957,1.85725033283234,2.10576939582825,-1.59612191359838,2.27904971150017,2.13093258853001,3090.366,2929.755,4007.131,359.2314,-0.2454412,0.09049405,0.2145624,-1.0105254650116,-0.571378767490387,0.693780779838562,-1.10123038958312,-0.473828671822132,0.681714070030222,11
2.57998657226563,-1.20383501052856,1.84590816497803,2.11958646774292,-1.61812503288753,2.26958238396605,2.14455356752391,3010.592,3199.497,4150.213,0,-0.2451296,0.0905741,0.2161366,-1.01273095607758,-0.567108035087585,0.690853774547577,-1.1002439936861,-0.473404253224357,0.681103443981416,11
2.59999084472656,-1.22417294979095,1.83463716506958,2.13347125053406,-1.64012239440973,2.26011753383818,2.15817098218581,3076.728,2929.69,4013.153,344.2959,-0.2428196,0.09061869,0.2159415,-1.01689946651459,-0.56354284286499,0.694237112998962,-1.09897546783438,-0.47285844198887,0.680318166050934,11
2.6199951171875,-1.24454748630524,1.82345700263977,2.14729237556458,-1.66209156852628,2.2506648119635,2.17177094750084,3017.96,3172.284,4147.891,0,-0.2422736,0.09043632,0.2174853,-1.01872026920319,-0.559006094932556,0.691059172153473,-1.09742594550583,-0.472191725819537,0.679358937915576,11
2.63999938964844,-1.26499783992767,1.81235229969025,2.16118025779724,-1.68402693989188,2.24122663446822,2.18534998730279,3055.387,2944.785,3993.729,346.6602,-0.2396925,0.09024879,0.2174108,-1.0225191116333,-0.55522882938385,0.694389343261719,-1.09559602313537,-0.471404361345641,0.67822612879697,11
2.65998840332031,-1.28547406196594,1.80134415626526,2.17499136924744,-1.70590622088595,2.23181259109281,2.19889430449282,3000.179,3175.139,4137.315,0,-0.2389447,0.08982468,0.2191643,-1.02380311489105,-0.550416648387909,0.690551042556763,-1.09348812118877,-0.470497390025984,0.676921237078733,10
2.67999267578125,-1.30602169036865,1.79041409492493,2.18887782096863,-1.72775723139253,2.2224107117184,2.21242112090437,3016.961,2950.703,3945.063,403.6868,-0.2357563,0.08951619,0.2191606,-1.02739417552948,-0.546505272388458,0.694318234920502,-1.09109983431736,-0.469469776906228,0.675442773735451,9
2.69999694824219,-1.32658231258392,1.77958655357361,2.2026686668396,-1.74955768413056,2.21303058593937,2.22591663964878,2975.165,3199.783,4109.934,0,-0.2347672,0.08897348,0.2212174,-1.02803444862366,-0.541374027729034,0.689537525177002,-1.08843358680109,-0.468322565086308,0.673792239511893,9
2.71998596191406,-1.3472136259079,1.76883947849274,2.21655416488647,-1.77128546553625,2.20368172860443,2.23936717137667,2979.783,2952.072,3857.445,502.6112,-0.2308263,0.0887007,0.221105,-1.03156018257141,-0.537358999252319,0.694272816181183,-1.08549275912543,-0.467057209094684,0.671971727089609,8
2.739990234375,-1.36783969402313,1.75820374488831,2.23031044006348,-1.79296822271738,2.1943522439355,2.25278983096475,2927.285,3250.916,4076.061,0,-0.2297562,0.08823423,0.2235232,-1.03130209445953,-0.531780779361725,0.687811613082886,-1.08227399942825,-0.465672266718727,0.669979161506271,8
2.75999450683594,-1.38853883743286,1.74765074253082,2.24419450759888,-1.81458384274179,2.18505164650952,2.26617092945464,2938.212,2938.122,3734.842,656.2421,-0.2248858,0.08824968,0.2229839,-1.03496158123016,-0.52765828371048,0.694208979606628,-1.07878069424208,-0.464169195088763,0.667816639186824,7
2.77999877929688,-1.40921187400818,1.73721885681152,2.25791072845459,-1.83612684690458,2.17578229366013,2.27950707526701,2856.131,3346.516,4018.05,0,-0.2239244,0.08816908,0.225774,-1.03365159034729,-0.521596550941467,0.685810923576355,-1.07501419914593,-0.462548577472581,0.665484999299265,6
2.79998779296875,-1.42995727062225,1.72687494754791,2.27177810668945,-1.85757544288233,2.1665535620153,2.29278477791556,2911.561,2896.109,3610.542,821.6337,-0.2183845,0.08871597,0.2245484,-1.03727328777313,-0.517194151878357,0.693369090557098,-1.07097916161324,-0.460812413548163,0.662987118851036,5
2.81999206542969,-1.45065438747406,1.71666419506073,2.28543519973755,-1.87895695992541,2.1573536925621,2.30602095550813,2785.741,3431.257,3967.833,0,-0.2177614,0.08923788,0.2273924,-1.03485178947449,-0.51053911447525,0.682851850986481,-1.06667099276523,-0.458958728849171,0.660320157107579,5
2.83999633789063,-1.47142016887665,1.70655035972595,2.29925966262817,-1.90024960698239,2.14819206138118,2.31920211834584,2907.396,2840.907,3510.63,949.6478,-0.2119802,0.09041827,0.2252173,-1.03829157352448,-0.505684196949005,0.691227376461029,-1.06209435025759,-0.456989527434725,0.657486997379635,4
2.8599853515625,-1.4921178817749,1.69658017158508,2.31284332275391,-1.92143189875059,2.13907791299805,2.33231496600284,2712.32,3516.98,3916.234,0,-0.2119274,0.09166377,0.2278666,-1.0348836183548,-0.49851131439209,0.679183900356293,-1.05725481901126,-0.454907212340279,0.654491096999312,3
2.87998962402344,-1.51286900043488,1.68672072887421,2.32657432556152,-1.94253086194772,2.12999961857111,2.34537622930486,2928.323,2765.733,3487.532,987.2824,-0.206665,0.09339599,0.2248122,-1.03755879402161,-0.492977678775787,0.686554670333862,-1.05214690704168,-0.452709420518306,0.651329056166547,2
2.89999389648438,-1.5335396528244,1.67701303958893,2.3400559425354,-1.96352501326936,2.1209664217661,2.35837260906308,2684.417,3523.75,3896.035,0,-0.2072072,0.0951673,0.226731,-1.03352975845337,-0.485375970602036,0.674080610275269,-1.04677621342161,-0.450398561093403,0.648004340974112,0
2.91999816894531,-1.55423891544342,1.66743123531342,2.3536365032196,-1.98440911693069,2.11198057539494,2.37130086407726,2973.73,2710.624,3556.969,879.4083,-0.2032514,0.09704215,0.2230958,-1.03496730327606,-0.479098498821259,0.679025232791901,-1.04114485287423,-0.447975543971863,0.644518260536375,0
2.93998718261719,-1.57485365867615,1.65800523757935,2.36698412895203,-2.00516218376194,2.10305111051103,2.38414800105147,2687.379,3457.861,3914.583,0,-0.2042623,0.09887253,0.2240738,-1.03072941303253,-0.471302568912506,0.66738098859787,-1.03525963910674,-0.445443300901551,0.640875032862689,0
2.95999145507813,-1.59546566009521,1.64871668815613,2.38035845756531,-2.02581075424974,2.0941666074844,2.39693044981124,3012.736,2684.468,3714.032,652.8662,-0.2019262,0.1003375,0.2205047,-1.03059589862823,-0.464414298534393,0.668716192245483,-1.02911391720548,-0.442798968459032,0.637070538244476,0
2.97999572753906,-1.61599814891815,1.6395822763443,2.39354276657104,-2.04633384260397,2.08533609591429,2.40963521915279,2738.258,3310.848,3964.113,0,-0.2028929,0.1015672,0.2205643,-1.02663624286652,-0.456735223531723,0.659215450286865,-1.02271452148052,-0.440045487257004,0.633109007445237,0
3,-1.63649821281433,1.63059067726135,2.40668225288391,-2.06672639957428,2.07656174835205,2.42225918334961,3029.9,2713.694,3897.885,361.0215,-0.2019299,0.102007,0.2178323,-1.02500283718109,-0.449578911066055,0.656969010829926,-1.01606400046349,-0.437183953857422,0.628992018127441,0
3.01998901367188,-1.65692853927612,1.62174510955811,2.41967797279358,-2.0869680292999,2.06785234056679,2.43478971639231,2809.152,3123.548,4031.13,0,-0.2023033,0.101964,0.2174539,-1.0215106010437,-0.442276954650879,0.649787485599518,-1.00917036754089,-0.434217816196637,0.624724530959079,0
3.03999328613281,-1.67730808258057,1.61303889751434,2.43258929252625,-2.10708469520508,2.05919670122237,2.4472428908773,2984.852,2790.375,4028.086,138.9509,-0.201548,0.1010025,0.2161503,-1.0189722776413,-0.435311198234558,0.645566999912262,-1.00202586176059,-0.431143734953757,0.620301741541063,0
3.05999755859375,-1.69762516021729,1.60446834564209,2.44539141654968,-2.12705600675913,2.05060360379452,2.45960608409476,2868.685,2976.274,4067.415,0,-0.2007145,0.09933934,0.2161801,-1.01587104797363,-0.428526729345322,0.640103161334991,-0.994638524886308,-0.427965170275055,0.615728628108227,0
3.07998657226563,-1.71789145469666,1.59602463245392,2.45812392234802,-2.14686207530873,2.04208160581513,2.47186698402085,2879.408,2894.757,4009.285,105.3013,-0.1985866,0.09702656,0.2164687,-1.01330590248108,-0.422187805175781,0.636631071567535,-0.987017247723776,-0.424685947625853,0.611010694492843,0
3.09999084472656,-1.73809194564819,1.5877091884613,2.47074031829834,-2.16652837486666,2.03361974652815,2.48404136028297,2867.567,2937.085,4040.726,14.0484,-0.1962505,0.09394919,0.2178112,-1.01002180576324,-0.415760666131973,0.630824863910675,-0.979153483542501,-0.421302389586788,0.606142649861596,0
3.1199951171875,-1.758260846138,1.5795042514801,2.48336935043335,-2.18603502400946,2.02522658035469,2.49611690533293,2721.574,2984.59,3785.819,355.0508,-0.1910701,0.09093689,0.2191152,-1.00844442844391,-0.410258173942566,0.631449043750763,-0.971056158224178,-0.417818336715394,0.601130019760458,0
3.13999938964844,-1.77834010124207,1.57143104076385,2.49580883979797,-2.20537738341953,2.01690410346351,2.50809074721212,2810.278,3042.985,3952.352,0,-0.1877097,0.08716965,0.2223497,-1.00396168231964,-0.40365406870842,0.621977210044861,-0.962728579444533,-0.414235212212131,0.595974851798267,0
3.15998840332031,-1.79843008518219,1.5634526014328,2.50842142105103,-2.22453632143911,2.00866054767245,2.51995104251302,2523.714,3028.097,3336.851,930.9913,-0.1782619,0.08463605,0.2233103,-1.00451266765594,-0.39892303943634,0.630633175373077,-0.954180774018563,-0.410557330335374,0.590683353051152,0
3.17999267578125,-1.81838476657867,1.55561947822571,2.52070331573486,-2.24353658854737,2.00048526354177,2.53171311296128,2584.771,3381.641,3782.931,0,-0.1746,0.08176284,0.2289436,-0.997728168964386,-0.391656637191772,0.614092886447906,-0.945403214201559,-0.406780591562751,0.585249625391267,0
3.19999694824219,-1.83840751647949,1.5478767156601,2.53336691856384,-2.2623590635174,1.99238647840124,2.54336512160655,2368.26,2951.218,2707.431,1774.102,-0.1604773,0.08141125,0.2277572,-1.00113534927368,-0.387142837047577,0.633180022239685,-0.936405971974636,-0.402909329586355,0.579679903854719,0
3.21998596191406,-1.85823178291321,1.54030025005341,2.54550242424011,-2.280985241111,1.98437215453788,2.55489561282487,2237.802,3901.138,3549.851,0,-0.1578179,0.08135904,0.2354589,-0.99120956659317,-0.378809571266174,0.606779277324677,-0.927199897745278,-0.398948213033402,0.573980905360615,0
3.239990234375,-1.87817430496216,1.53283405303955,2.55820417404175,-2.2994392795179,1.97643189735754,2.5663195416865,2324.287,2707.172,2071.242,2678.115,-0.140273,0.08474495,0.2301657,-0.997126817703247,-0.373316466808319,0.635084688663483,-0.917774783907129,-0.394892849856044,0.568146310914365,0
3.25999450683594,-1.89785778522491,1.52555847167969,2.57019257545471,-2.31770268688992,1.96857366338589,2.57762546085652,1846.061,4495.042,3282.54,0,-0.1401446,0.08914726,0.2385416,-0.984181463718414,-0.363778412342072,0.599419116973877,-0.90814153446928,-0.390747931744771,0.562182870617026,0
3.27999877929688,-1.91765904426575,1.51844143867493,2.58277440071106,-2.33577134012187,1.96079922667992,2.58881081793642,2478.744,2288.813,1742.307,3229.534,-0.122981,0.09672623,0.2280602,-0.990061044692993,-0.355857074260712,0.629089951515198,-0.898304216251578,-0.386515208538549,0.556093102023818,0
3.29998779296875,-1.93716943264008,1.51154017448425,2.59458136558533,-2.35362764460945,1.95311615770631,2.59986472102797,1632.231,4859.961,3067.091,0,-0.126636,0.1056616,0.2340226,-0.975517868995667,-0.345071196556091,0.590342819690704,-0.888274735793772,-0.382199803288803,0.549884375850026,0
3.31999206542969,-1.9566957950592,1.50485920906067,2.60670566558838,-2.37129490830989,1.94551442770222,2.61080159886703,2848.465,1827.348,2121.003,2858.815,-0.1164446,0.1156544,0.2193087,-0.976323306560516,-0.334041506052017,0.606212019920349,-0.878042061913513,-0.37779696958594,0.54354986326829,0
3.33999633789063,-1.97594583034515,1.49841892719269,2.6182222366333,-2.38875555478454,1.93800159931817,2.62161057080077,1856.348,4547.264,3105.25,0,-0.1237656,0.126419,0.2183608,-0.962504863739014,-0.32201886177063,0.575828075408936,-0.867618167158097,-0.373311858882592,0.53709697585572,0
3.3599853515625,-1.99502789974213,1.49223971366882,2.62952661514282,-2.40599272667425,1.93058492580486,2.63228120132087,3310.984,1689.936,3296.933,1228.526,-0.1273689,0.1346678,0.2031397,-0.954089105129242,-0.308962255716324,0.565221965312958,-0.857015715678588,-0.368749920209162,0.530533553325099,0
3.37998962402344,-2.01388454437256,1.48630118370056,2.64055752754211,-2.42302905329872,1.92325467039821,2.6428274990542,2405.806,3440.417,3624.079,0,-0.136561,0.1423379,0.193547,-0.942827165126801,-0.296913206577301,0.551549136638641,-0.846223126656603,-0.364106170663035,0.523852426598178,0
3.39999389648438,-2.03250670433044,1.48057889938354,2.65130376815796,-2.43984769972619,1.91601807669906,2.65323904237604,2765.142,2685.399,3955.705,0,-0.146851,0.1481938,0.1841314,-0.931107223033905,-0.286114782094955,0.537306427955627,-0.835253140422974,-0.35938609205264,0.51706148254665,0
3.41999816894531,-2.05091428756714,1.47503101825714,2.66186189651489,-2.45644516534361,1.90887665092339,2.66351366424015,2550.184,2743.925,4070.127,0,-0.1547984,0.152885,0.176221,-0.920387744903564,-0.277390956878662,0.527911365032196,-0.824110582941664,-0.354591760855451,0.510163708672097,0
3.43998718261719,-2.06912159919739,1.46961188316345,2.67229890823364,-2.47280564474684,1.90183719369507,2.67364158034846,2391.8,2909.367,4011.883,0,-0.1594957,0.1568985,0.1714191,-0.910352468490601,-0.270964771509171,0.521851122379303,-0.812809078412023,-0.349729039183832,0.50316753900293,0
3.45999145507813,-2.0871250629425,1.4642915725708,2.68258738517761,-2.48895081463434,1.8948903781363,2.68363620960993,2481.46,2799.702,3978.09,0,-0.1613263,0.1599233,0.1687698,-0.900181412696838,-0.266020596027374,0.514421284198761,-0.80133641229185,-0.344792671461508,0.496065412155666,0
3.47999572753906,-2.10492897033691,1.45905482769012,2.6927216053009,-2.50486489870395,1.88804299234919,2.69348778574196,2686.245,2595.093,3939.994,0,-0.1606419,0.1613507,0.1662798,-0.890198647975922,-0.261841982603073,0.50671660900116,-0.789706299681989,-0.339788558913217,0.488865818431069,0
3.49998474121094,-2.12253999710083,1.45388889312744,2.70273756980896,-2.52053292953407,1.8813014763971,2.70318704319762,2704.527,2669.223,3817.227,0,-0.1582301,0.1611886,0.1642322,-0.880553424358368,-0.258289664983749,0.500803172588348,-0.777933044257461,-0.334722856010721,0.481577612485354,0
3.51998901367188,-2.13995242118835,1.44878721237183,2.71262359619141,-2.53597583877076,1.87465682397749,2.71274693966292,2652.88,2794.903,3707.804,0,-0.1554125,0.1596061,0.1634992,-0.870607018470764,-0.255079507827759,0.494302988052368,-0.766004036374581,-0.329590137176618,0.474192988348404,0
3.53999328613281,-2.15715622901917,1.44375228881836,2.72232842445374,-2.55117869390181,1.86811546013321,2.72215823120146,2701.813,2718.941,3704.054,0,-0.1529256,0.1563879,0.1634568,-0.860194563865662,-0.251746773719788,0.485245913267136,-0.753933682518821,-0.324396601119134,0.466720864320997,0
3.55999755859375,-2.17415428161621,1.43878853321075,2.73183965682983,-2.56613872308604,1.86167857751006,2.73141920191151,2724.996,2643.928,3738.998,0,-0.1505405,0.1513838,0.1636074,-0.849907577037811,-0.248188048601151,0.475564152002335,-0.741727567798258,-0.319144650954242,0.459164697851087,0
3.57998657226563,-2.19096064567566,1.43389463424683,2.74120283126831,-2.58084213759183,1.85535210901407,2.74052131591136,2592.466,2752.463,3691.832,61.46317,-0.1474768,0.1450093,0.1647712,-0.840333461761475,-0.244703769683838,0.468160182237625,-0.72940084364523,-0.31384080592,0.451533868397061,0
3.59999084472656,-2.20758056640625,1.42907202243805,2.75040936470032,-2.59530884290342,1.84912748987145,2.74947689564398,2485.372,2845.49,3670.921,81.2682,-0.1438752,0.1375553,0.1678049,-0.830989480018616,-0.241129785776138,0.460323929786682,-0.716940488958392,-0.308479463400265,0.4438203152769,0
3.6199951171875,-2.22404193878174,1.42431688308716,2.7595477104187,-2.60952509409627,1.84301063413925,2.75827743234631,2321.433,2883.216,3471.042,404.1823,-0.1374425,0.1297912,0.1718347,-0.823075473308563,-0.237748727202415,0.456914097070694,-0.704361775018033,-0.303067194200314,0.436033492140578,0
3.63999938964844,-2.24033284187317,1.41964626312256,2.76851010322571,-2.6234885835008,1.83700253474321,2.76692149746096,2368.75,2911.04,3503.232,278.554,-0.1308177,0.1214226,0.1774744,-0.814538359642029,-0.233533203601837,0.448124527931213,-0.691670720740692,-0.297606588091786,0.428177124984152,0
3.65998840332031,-2.25651693344116,1.41505670547485,2.77754330635071,-2.63718676607487,1.8311085894645,2.77540132500924,2143.325,2929.988,3026.279,978.381,-0.1188622,0.1138648,0.181904,-0.809214472770691,-0.229473620653152,0.451658964157104,-0.678883253871145,-0.292104498338286,0.420261073840379,0
3.67999267578125,-2.27250790596008,1.41059541702271,2.78620481491089,-2.65063849381582,1.82532068681534,2.78372858527554,2489.816,2975.135,3481.61,83.42144,-0.1122325,0.1049954,0.1887769,-0.799547553062439,-0.223074078559875,0.433073282241821,-0.665986083416798,-0.286555206197011,0.41227711095171,0
3.69999694824219,-2.28849792480469,1.4062385559082,2.79533720016479,-2.66383127580226,1.81964420129024,2.79189554578451,1798.583,2999.109,2177.213,2123.689,-0.09286229,0.09926145,0.1899187,-0.799505829811096,-0.217849001288414,0.456621468067169,-0.65299527533123,-0.280965624398954,0.404235181908735,0
3.71998596191406,-2.30424499511719,1.40203928947449,2.80382513999939,-2.67675353880252,1.81408411252746,2.79989504215442,1885.482,3909.232,3170.874,0,-0.08753544,0.09366565,0.2015673,-0.787355899810791,-0.209945052862167,0.424401193857193,-0.639927289491732,-0.275342835169479,0.396145476159594,0
3.739990234375,-2.32009029388428,1.39799427986145,2.81311869621277,-2.68942333385363,1.80863265367006,2.80773824883709,1637.38,2617.178,1141.607,3698.686,-0.06075203,0.0933572,0.1975176,-0.792259514331818,-0.202270090579987,0.464674323797226,-0.62676873176137,-0.26968107538565,0.387999702095468,0
3.75999450683594,-2.33564019203186,1.39413559436798,2.82143425941467,-2.70182915057228,1.80329477731443,2.81541804035694,1294.983,4809.314,2783.926,0,-0.05784066,0.09442015,0.2113463,-0.777484714984894,-0.192922651767731,0.415773987770081,-0.613536214864365,-0.263987493038594,0.379808143784027,0
3.77999877929688,-2.35133719444275,1.3905246257782,2.83070349693298,-2.7139695770734,1.79807109095524,2.82293354268985,1857.135,1943.174,426.017,4845.112,-0.02811819,0.1011374,0.1987951,-0.784868001937866,-0.180556729435921,0.463458359241486,-0.60023651686137,-0.258265004538452,0.371574997167698,0
3.79998779296875,-2.36671590805054,1.38713419437408,2.83884334564209,-2.72583438304408,1.79296599641037,2.83027842278479,854.0753,5618.652,2338.102,0,-0.03008147,0.1100713,0.2102794,-0.768929123878479,-0.169507727026939,0.406987845897675,-0.586886736182787,-0.252520966862155,0.36331084698941,0
3.81999206542969,-2.38213133811951,1.38407969474792,2.84754395484924,-2.73744054699573,1.78797218830065,2.83746319114912,2465.415,1123.881,801.8003,4590.129,-0.008819857,0.1217742,0.1899238,-0.770769357681274,-0.152739122509956,0.435034602880478,-0.573473482003301,-0.246749618311662,0.355007403690404,0
3.83999633789063,-2.3972339630127,1.3813042640686,2.85535001754761,-2.74877791451009,1.78309403578861,2.84448156171422,1219.043,5307.09,2241.514,0,-0.01667671,0.1345595,0.1901685,-0.755133271217346,-0.13877010345459,0.390308409929276,-0.560014026276881,-0.240958390526246,0.346675359432959,0
3.8599853515625,-2.41211414337158,1.37886691093445,2.862872838974,-2.75983729406747,1.77833549372837,2.85132784449154,3173.333,962.0535,2505.322,2184.285,-0.01753319,0.1445775,0.1675696,-0.744008004665375,-0.121859230101109,0.376141130924225,-0.546525890176286,-0.235154822377061,0.338325560657667,0
3.87998962402344,-2.426677942276,1.37673676013947,2.87001419067383,-2.7706348636882,1.77368960116974,2.85801205444635,2096.033,3671.56,2996.118,0,-0.03002075,0.1533349,0.1530391,-0.728187680244446,-0.106505930423737,0.357065945863724,-0.532995796775444,-0.22933320117373,0.329949788314816,0
3.89999389648438,-2.4408872127533,1.37486600875854,2.87670850753784,-2.78116151864576,1.76916027562219,2.86452855531919,2535.581,2530.063,3627.515,0,-0.04652276,0.1592354,0.1386791,-0.710478901863098,-0.0935384631156921,0.334715127944946,-0.519441457145543,-0.223501147495394,0.321559006401168,0
3.91999816894531,-2.45475816726685,1.37319767475128,2.88314080238342,-2.79141684911929,1.7647476934202,2.87087709341145,2190.927,2578.413,3896.028,0,-0.0605965,0.1631205,0.1265044,-0.693541586399078,-0.0834081694483757,0.321615368127823,-0.505870408491346,-0.2176619043907,0.313157880805522,0
3.93998718261719,-2.46831297874451,1.37166523933411,2.88946437835693,-2.80139308531637,1.76045519768837,2.87705285885147,1824.355,2970.764,3822.017,0,-0.07029787,0.1659604,0.1203764,-0.677745223045349,-0.0766289159655571,0.316182464361191,-0.492300656572426,-0.211823219234969,0.304757557950781,0
3.95999145507813,-2.48155903816223,1.37021958827972,2.89561033248901,-2.81110535421031,1.75627627971269,2.88306521595634,1935.649,2766.632,3850.466,0,-0.07570089,0.1673167,0.1187301,-0.662300229072571,-0.0722869709134102,0.307292938232422,-0.478719233391147,-0.205979512261105,0.296350010028665,0
