t,x_s1,x_s2,x_s3,x_s_d1,x_s_d2,x_s_d3,propellers_rpms1,propellers_rpms2,propellers_rpms3,propellers_rpms4,rollRad,pitchRad,yawRad,v_s1,v_s2,v_s3,v_s_d1,v_s_d2,v_s_d3,insideCount
0,-0.0599999986588955,2.94000005722046,1.17999994754791,-0.0599999986588955,2.94000005722046,1.17999994754791,0,0,0,0,0,0,0,0,0,0,-1.06581410364015E-15,4.44089209850063E-16,4.44089209850063E-16,0
0.019989013671875,-0.0599999986588955,2.94000005722046,1.17729234695435,-0.0600018659130177,2.93999925379318,1.18000110346716,0,0,0,0,0.0163538,-0.002474609,-2.024222E-05,3.71994488546079E-08,3.50004931704007E-08,-0.135377958416939,-0.000279680311988734,-0.000120338624884473,0.000173135436141649,5
0.040008544921875,-0.0599999986588955,2.94000005722046,1.17105865478516,-0.060014880898484,2.93999365380853,1.18000916036316,0,0,0,0,0.03270752,-0.004950816,-5.430172E-05,3.48044650877455E-08,3.30428591155396E-08,-0.311683237552643,-0.00111143977225461,-0.000478221483967637,0.00068803416424398,6
0.05999755859375,-0.0600004307925701,2.94013142585754,1.16552269458771,-0.0600498857373401,2.93997859220429,1.18003083002592,3162.118,2810.405,1468.991,2738.646,0.03138779,-0.004977981,-0.01632837,-2.15885829675244E-05,0.00656371656805277,-0.276799470186234,-0.00247936261166862,-0.00106680046642749,0.00153484356504269,6
0.08001708984375,-0.0599182732403278,2.94037842750549,1.16100013256073,-0.0601176241590912,2.9399494462538,1.18007276333581,3028.271,3011.831,2084.035,1979.336,0.01920705,-0.004419782,-0.04309208,0.0041077951900661,0.0123486928641796,-0.226128965616226,-0.00437432711648753,-0.0018821507536715,0.00270791686320324,6
0.100006103515625,-0.0596519447863102,2.94066071510315,1.15742909908295,-0.0602282404704493,2.93990185114529,1.18014124010193,2573.259,3764.178,2528.208,1069.238,-0.005664544,-0.003074353,-0.06910264,0.0133163575083017,0.0141128152608871,-0.178552597761154,-0.00677739276378709,-0.00291612276782231,0.00419552897277328,6
0.1199951171875,-0.0591363199055195,2.94084787368774,1.15462076663971,-0.0603918861403606,2.93983143898525,1.18024254456713,1989.21,4004.015,3075.946,695.0491,-0.03991706,-0.0007062703,-0.08793651,0.025781337171793,0.00935879349708557,-0.140416368842125,-0.00967801353495435,-0.00416417885169243,0.00599115140585487,5
0.1400146484375,-0.0583611838519573,2.94078660011292,1.15244722366333,-0.0606187761383957,2.93973381455767,1.18038300028418,1381.257,3936.756,3641.292,664.1779,-0.07574776,0.002035033,-0.09640803,0.0387568697333336,-0.00306561589241028,-0.108678638935089,-0.0130687916036232,-0.00562313592726786,0.00809020455552005,4
0.160003662109375,-0.0573622733354568,2.94033217430115,1.15092015266418,-0.0609177895434042,2.93960515744296,1.18056810382587,1010.689,3669.222,3949.695,871.8065,-0.1041237,0.003833847,-0.09478617,0.0499456338584423,-0.0227241571992636,-0.0763536170125008,-0.0169265510445065,-0.00728302204135792,0.0104783414199936,4
0.17999267578125,-0.056195255368948,2.93938517570496,1.15012383460999,-0.0612985250199726,2.93944133760391,1.18080379722281,1010.365,3363.408,3835.662,1161.292,-0.1193453,0.00385136,-0.0859711,0.058350957930088,-0.0473495349287987,-0.0398168824613094,-0.0212433804254414,-0.00914043312572283,0.0131506644458931,3
0.20001220703125,-0.0549092665314674,2.93791794776917,1.1501100063324,-0.0617708265342762,2.93923811945689,1.181096174359,1332.856,3132.791,3353.524,1401.935,-0.121405,0.002341104,-0.07415572,0.0642994493246078,-0.0733616426587105,-0.000689033418893814,-0.0260142813927851,-0.0111932185284278,0.0161040794142088,3
0.220001220703125,-0.0535363778471947,2.93597269058228,1.15082991123199,-0.0623420644491781,2.93899233174064,1.18144979784016,1791.277,3014.93,2723.49,1532.591,-0.1151205,0.000279787,-0.0632783,0.0686444342136383,-0.0972655117511749,0.0359966047108173,-0.03121219533433,-0.0134297356845702,0.019321835755004,3
0.239990234375,-0.0520963668823242,2.93363213539124,1.15212368965149,-0.0630214373585105,2.93870001655724,1.18187036203406,2170.783,2982.914,2213.248,1547.13,-0.1071571,-0.001338505,-0.05581187,0.0720006078481674,-0.117023810744286,0.0646899193525314,-0.0368316683029241,-0.015847637913056,0.022800557215184,3
0.260009765625,-0.0506043322384357,2.93098068237305,1.15377116203308,-0.0638185570309634,2.93835703823113,1.18236381708338,2347.222,2984.981,2005.388,1460.328,-0.1029045,-0.001918009,-0.05235828,0.0746017470955849,-0.132568255066872,0.0823755115270615,-0.0428699302682246,-0.0184457333472145,0.0265385290140116,3
0.279998779296875,-0.0490745902061462,2.92807531356812,1.15557253360748,-0.0647390625194898,2.93796097043536,1.18293365383054,2309.964,2996.326,2122.175,1298.107,-0.1047171,-0.001324656,-0.05185441,0.0764871090650558,-0.145273983478546,0.0900672376155853,-0.0492963837173861,-0.0212108567320638,0.030516809833474,3
0.300018310546875,-0.0475230552256107,2.92493534088135,1.15741109848022,-0.0657936070281142,2.93750722939386,1.1835864671163,2136.657,3011.542,2442.588,1106.14,-0.1118799,0.000197646,-0.05227572,0.0775767788290977,-0.156994134187698,0.091927170753479,-0.0561185469977389,-0.0241462430024218,0.0347400538887172,3
0.32000732421875,-0.0459697768092155,2.92155027389526,1.1592663526535,-0.0669865614821475,2.93699393441958,1.18432496275165,1944.128,3018.766,2791.981,937.8547,-0.1218268,0.002154105,-0.05161313,0.0776640102267265,-0.169250816106796,0.0927634611725807,-0.0633036493784043,-0.0272377918282996,0.0391879745362408,3
0.339996337890625,-0.0444399788975716,2.91789507865906,1.1611762046814,-0.068326768706371,2.93641728069206,1.18515461486636,1802.575,3002.034,3048.682,841.1904,-0.131517,0.004017324,-0.04860748,0.0764898434281349,-0.182758584618568,0.0954906642436981,-0.0708499516420146,-0.0304847548730522,0.0438594951176439,3
0.360015869140625,-0.0429617837071419,2.9139461517334,1.16320335865021,-0.0698237345322385,2.93577317811757,1.18608130802295,1756.668,2954.548,3148.539,831.8207,-0.1384956,0.005409494,-0.04314534,0.0739096701145172,-0.197449743747711,0.101357683539391,-0.0787580297418618,-0.0338873799532906,0.0487549721754506,3
0.3800048828125,-0.041561484336853,2.90969324111938,1.16540241241455,-0.0714797725314022,2.93506063123087,1.18710647443246,1804.762,2905.847,3095.769,873.5948,-0.1417425,0.006224846,-0.03593669,0.0700150653719902,-0.212640136480331,0.109951362013817,-0.0869921272359981,-0.0374302820709642,0.0538522707687797,3
0.399993896484375,-0.0402601882815361,2.90514516830444,1.16779792308807,-0.0733036822025899,2.9342758538535,1.18823556140379,1907.355,2871.513,2946.339,936.2937,-0.141677,0.00660301,-0.02807078,0.0650649294257164,-0.227401182055473,0.119777366518974,-0.0955525119207663,-0.0411135764513579,0.0591515566763244,3
0.420013427734375,-0.0390731953084469,2.90032577514648,1.17038238048553,-0.0753050585276311,2.93341471753282,1.18947450868777,2024.731,2856.463,2770.118,990.3967,-0.1397057,0.006794808,-0.02059742,0.0593495145440102,-0.240964278578758,0.129225879907608,-0.104441553474511,-0.0449382827008623,0.0646542968418633,3
0.44000244140625,-0.0380112752318382,2.89526748657227,1.17311894893646,-0.077483988232608,2.93247718495301,1.19082336997196,2113.115,2860.312,2638.03,1014.313,-0.1375549,0.007041961,-0.0141563,0.0530960857868195,-0.252909332513809,0.136829778552055,-0.113620829717891,-0.048887868829098,0.0703367061060819,3
0.459991455078125,-0.037083063274622,2.89000248908997,1.17595720291138,-0.0798493430620752,2.93145943885026,1.19228763728888,2146.287,2867.687,2592.554,1011.812,-0.1364753,0.007498847,-0.008920524,0.0464108921587467,-0.263248294591904,0.141913652420044,-0.123092454730403,-0.0529632444654124,0.0762000931848968,3
0.480010986328125,-0.0362970307469368,2.88455557823181,1.17885744571686,-0.0824109101018722,2.93035726811493,1.19387336931088,2140.203,2874.756,2625.907,980.9636,-0.1369871,0.008198594,-0.00468237,0.0393015705049038,-0.272340178489685,0.145014122128487,-0.132860437136906,-0.0571661344090936,0.082246939608052,4
0.5,-0.0356622785329819,2.87894296646118,1.18179714679718,-0.085166398670376,2.92917165836334,1.1955791479969,2111.279,2885.538,2712.418,924.7087,-0.139034,0.009086159,-0.0009400959,0.0317376330494881,-0.280632227659225,0.146983623504639,-0.142884000065179,-0.0614789935111996,0.0884520025491718,4
0.519989013671875,-0.0351892486214638,2.87317228317261,1.18477153778076,-0.0881248588203387,2.92789871561062,1.19741057576073,2070.662,2888.362,2819.23,873.235,-0.1420115,0.01006333,0.002815018,0.0236512385308743,-0.288528442382813,0.148718610405922,-0.153166947611899,-0.0659034585682559,0.0948176369253132,4
0.540008544921875,-0.0348897650837898,2.86724591255188,1.18779563903809,-0.0912963635428427,2.92653410573011,1.19937388826368,2046.163,2884.235,2905.147,836.1986,-0.1451284,0.01101796,0.006900911,0.0149742169305682,-0.296321958303452,0.151205345988274,-0.163714777034477,-0.0704418948965508,0.101347245800684,4
0.55999755859375,-0.0347755812108517,2.86116433143616,1.19089007377625,-0.094676112580471,2.92507989413848,1.20146611391775,2044.337,2882.392,2954.809,809.6357,-0.1478353,0.01186972,0.01146863,0.00570946652442217,-0.30408450961113,0.154720336198807,-0.17448465888317,-0.0750758741803766,0.108014315705644,4
0.58001708984375,-0.0348576009273529,2.85492944717407,1.1940723657608,-0.0982790918331175,2.92352963282165,1.20369652970884,2054.336,2875.955,2970.51,808.0381,-0.1497623,0.01259349,0.01644099,-0.00410094764083624,-0.311741203069687,0.159113973379135,-0.185498893714783,-0.0798149917263209,0.114832651747179,4
0.600006103515625,-0.0351453833281994,2.84854578971863,1.19736003875732,-0.102098762959148,2.92188613504538,1.20606108809202,2085.395,2871.62,2949.866,818.8902,-0.1508654,0.01319773,0.02156681,-0.0143892932683229,-0.319183975458145,0.164386689662933,-0.196713446836865,-0.0846403006364086,0.121774994352997,4
0.6199951171875,-0.0356457978487015,2.84202170372009,1.20075452327728,-0.106144683970236,2.92014528826426,1.20856570593183,2115.787,2878.045,2925.264,821.8852,-0.151479,0.0137275,0.02668883,-0.025020744651556,-0.326203167438507,0.169726938009262,-0.208134604141382,-0.0895545055543457,0.128845234789665,4
0.6400146484375,-0.036364708095789,2.83536672592163,1.20425844192505,-0.110427588881679,2.91830247393137,1.21121702809507,2143.865,2877.061,2895.986,841.0051,-0.1518289,0.01423103,0.0315353,-0.0359454639256001,-0.332754224538803,0.175195500254631,-0.21977002223474,-0.0945609009039674,0.136048112861281,4
0.660003662109375,-0.0373059213161469,2.82859134674072,1.20786416530609,-0.114938248900541,2.91636166293851,1.21400934151928,2169.246,2891.081,2884.726,830.3798,-0.1524074,0.01474306,0.03608799,-0.0470603182911873,-0.338765740394592,0.180285573005676,-0.231574097577923,-0.0996398647564507,0.143355397804799,4
0.67999267578125,-0.0384729169309139,2.82170557975769,1.21156311035156,-0.119686638739014,2.91431856344567,1.21694882102647,2174.196,2893.892,2896.463,830.7131,-0.1533331,0.01529355,0.04032087,-0.0583502948284149,-0.344290137290955,0.184949696063995,-0.243554411173546,-0.104794659005432,0.150771782621969,4
0.70001220703125,-0.0398694835603237,2.81471681594849,1.21535336971283,-0.124683985757554,2.91216834463331,1.22004241688759,2180.313,2898.765,2920.003,818.5518,-0.1546333,0.01588298,0.04428569,-0.069828025996685,-0.349443554878235,0.189513504505157,-0.255719729227087,-0.11002905550423,0.158302694011575,4
0.720001220703125,-0.0414991788566113,2.80763053894043,1.21923470497131,-0.129918284978346,2.90991617190799,1.22328269744952,2186.734,2906.839,2952.266,795.3299,-0.1563217,0.01649592,0.04811308,-0.0814847499132156,-0.354319751262665,0.194066405296326,-0.268023157655716,-0.11532287703907,0.16591910230247,4
0.739990234375,-0.043365728110075,2.80045056343079,1.22320711612701,-0.135400001298574,2.90755754251682,1.2266761409821,2184.614,2908.244,2992.771,779.7776,-0.1582195,0.01712274,0.05190348,-0.0933273211121559,-0.358996003866196,0.198621317744255,-0.280473432677602,-0.12067988256057,0.173626415629864,5
0.760009765625,-0.0454736612737179,2.79317903518677,1.22728037834167,-0.141140917956636,2.9050873864615,1.23023004187122,2191.746,2907.195,3020.878,771.0482,-0.1600842,0.01774728,0.05566202,-0.105397067964077,-0.363581269979477,0.203664809465408,-0.293080296154222,-0.126104263719567,0.181430664670081,5
0.779998779296875,-0.0478265173733234,2.78581762313843,1.23146045207977,-0.147126184485884,2.90251209348295,1.23393520697061,2208.253,2915.353,3042.767,749.0652,-0.1619431,0.01835165,0.05946481,-0.117642939090729,-0.368071258068085,0.20900397002697,-0.305795832832518,-0.131575403921268,0.189302187598958,5
0.800018310546875,-0.0504274778068066,2.7783682346344,1.23575103282928,-0.153376545303595,2.89982273783796,1.23780447806275,2216.128,2914.628,3062.234,746.8415,-0.1636678,0.0189432,0.0632771,-0.130047827959061,-0.37246373295784,0.214526236057281,-0.318649478366155,-0.137105968505107,0.197259206488328,5
0.82000732421875,-0.0532798133790493,2.77083230018616,1.24016165733337,-0.159875221826383,2.89702653888221,1.24182746840525,2236.124,2917.172,3066.238,745.4016,-0.1652294,0.01952226,0.06701495,-0.142616912722588,-0.376793384552002,0.220532774925232,-0.331592781842754,-0.14267511039705,0.205271727915392,5
0.839996337890625,-0.0563846491277218,2.76321315765381,1.24468791484833,-0.166633637018892,2.89411858163313,1.24601124935738,2251.426,2926.564,3083.385,727.1455,-0.1668225,0.02009323,0.0707441,-0.155242279171944,-0.380958735942841,0.226313456892967,-0.344636106234817,-0.148287288494656,0.213346167053785,5
0.860015869140625,-0.0597447194159031,2.75551199913025,1.2493394613266,-0.173664618315387,2.89109334680413,1.25036376171199,2264.205,2922.342,3084.927,742.8542,-0.168266,0.02067517,0.07428801,-0.168003365397453,-0.385061413049698,0.232579335570335,-0.357790534090669,-0.153947271308859,0.221489384528856,5
0.8800048828125,-0.0633600652217865,2.74773192405701,1.25411140918732,-0.180948461186242,2.88795931270381,1.25487280742661,2288.032,2939.271,3100.406,710.8126,-0.1699379,0.02125526,0.07778534,-0.180767327547073,-0.389005184173584,0.238599196076393,-0.371007022483504,-0.159633957038354,0.229671020432672,5
0.899993896484375,-0.0672319680452347,2.73987460136414,1.25900518894196,-0.18849723509595,2.8847112861788,1.25954585807468,2290.252,2934.006,3117.626,722.508,-0.1716274,0.02185922,0.08113036,-0.193595141172409,-0.392862021923065,0.244691342115402,-0.384296738353309,-0.165352150505452,0.237897987633041,5
0.920013427734375,-0.0713611841201782,2.73194193840027,1.26402139663696,-0.196324452211266,2.88134345332121,1.26439127833112,2306.953,2941.745,3138.354,703.3285,-0.1734314,0.02247776,0.08438268,-0.206460684537888,-0.396635890007019,0.250812441110611,-0.397671404529394,-0.171106895716105,0.246177543119742,5
0.94000244140625,-0.0757487714290619,2.72393441200256,1.26916444301605,-0.204407453948074,2.87786556348678,1.26939504145298,2321.597,2945.763,3154.594,695.0256,-0.1753265,0.02310997,0.08753436,-0.219379529356956,-0.400380223989487,0.257149487733841,-0.411081631631503,-0.176876941799768,0.254479112513653,5
0.959991455078125,-0.0803944766521454,2.7158534526825,1.27442872524261,-0.212759000778906,2.87427212620069,1.27456504678061,2330.361,2950.442,3186.408,675.5198,-0.177358,0.02375335,0.09067254,-0.232286125421524,-0.404046416282654,0.263211816549301,-0.424539267042903,-0.182667386354485,0.262810029909387,5
0.980010986328125,-0.0853005200624466,2.70769810676575,1.27982532978058,-0.221393324468958,2.87055701793193,1.27991010445463,2340.694,2945.978,3199.504,684.3898,-0.1792542,0.02442011,0.093674,-0.24530154466629,-0.407765001058578,0.269829571247101,-0.438056556301695,-0.188483498293199,0.271177875878363,5
1,-0.0904661417007446,2.69946932792664,1.28535056114197,-0.230284798736574,2.86673126495361,1.28541435058594,2365.603,2961.017,3223.333,646.3614,-0.1813304,0.02508107,0.09670231,-0.258281886577606,-0.411438256502151,0.276261180639267,-0.451584000205995,-0.194303979492187,0.279552008056641,5
1.01998901367188,-0.0958923846483231,2.691166639328,1.29100847244263,-0.239446912293295,2.86278906344998,1.29108613532954,2368.213,2953.841,3242.043,659.3212,-0.1832969,0.02576457,0.09963588,-0.271310091018677,-0.415138334035873,0.282895654439926,-0.46513400752272,-0.200134169097193,0.287940108062054,5
1.04000854492188,-0.10157909989357,2.68279004096985,1.29680001735687,-0.248894644448595,2.85872396824263,1.29693473159157,2389.157,2961.56,3261.446,637.8325,-0.1852745,0.02645542,0.1025301,-0.284338504076004,-0.418835401535034,0.289580315351486,-0.47871923339115,-0.205979512261105,0.296350010028666,5
1.05999755859375,-0.107526957988739,2.67433857917786,1.3027309179306,-0.258599401509697,2.85454828239877,1.30294243851408,2406.396,2964.895,3271.543,634.2469,-0.1872362,0.02715831,0.1053369,-0.297391802072525,-0.422573745250702,0.296546012163162,-0.492290296490434,-0.211818761581115,0.30475114456651,5
1.08001708984375,-0.113734126091003,2.66581344604492,1.30879259109497,-0.268590868588476,2.85024923324404,1.30912763259543,2419.021,2970.41,3301.685,611.6582,-0.1893177,0.02786732,0.1081481,-0.310358077287674,-0.426250994205475,0.303082674741745,-0.505880764601332,-0.21766636033551,0.313164291730931,5
1.10000610351563,-0.120202735066414,2.65721249580383,1.31500005722046,-0.278838480013141,2.84583997233313,1.31547139222872,2431.426,2965.833,3302.994,631.1129,-0.1912134,0.028609,0.1107714,-0.323430985212326,-0.430047959089279,0.310373425483704,-0.519441457145546,-0.223501147495394,0.321559006401169,5
1.1199951171875,-0.126928776502609,2.64853835105896,1.32133400440216,-0.289357002179081,2.84131414609862,1.32198285851614,2454.317,2982.411,3346.338,572.8145,-0.1934382,0.02933693,0.1135057,-0.336302220821381,-0.433703184127808,0.316695719957352,-0.532985466132485,-0.229328756186667,0.329943393154705,5
1.1400146484375,-0.133916437625885,2.63978695869446,1.32781970500946,-0.300162704591434,2.83666475422696,1.32867210305637,2452.74,2964.452,3339.542,629.1161,-0.1952353,0.03012243,0.1159534,-0.349383056163788,-0.437564015388489,0.324283272027969,-0.54652589017629,-0.235154822377061,0.338325560657667,5
1.16000366210938,-0.141160026192665,2.63096189498901,1.33443307876587,-0.311222084148811,2.83190621216671,1.33551838583369,2495.276,2995.632,3383.679,534.9072,-0.1975639,0.03086709,0.1185942,-0.362180322408676,-0.44124960899353,0.330668777227402,-0.560014026276883,-0.240958390526247,0.34667535943296,6
1.17999267578125,-0.148663863539696,2.6220588684082,1.34119820594788,-0.322550701230474,2.8270318247214,1.34253133946411,2477.876,2968.152,3379.795,613.6551,-0.1994015,0.03168272,0.120933,-0.375191301107407,-0.445150762796402,0.338258326053619,-0.573463232144024,-0.246745208083563,0.355001058539242,6
1.20001220703125,-0.156421884894371,2.61308169364929,1.34808957576752,-0.334165615614823,2.82203425154496,1.34972152476313,2522.074,2997.922,3430.083,513.0023,-0.2017217,0.03245673,0.1234731,-0.387902319431305,-0.448858886957169,0.34456929564476,-0.586886736182789,-0.252520966862155,0.363310846989412,6
1.22000122070313,-0.164440274238586,2.60402417182922,1.35514295101166,-0.346030421585499,2.81692915700008,1.35706640485806,2512.125,2974.242,3407.222,600.4332,-0.2034682,0.03330717,0.1256525,-0.400919705629349,-0.452879220247269,0.352668195962906,-0.600236516861372,-0.258265004538453,0.371574997167698,6
1.239990234375,-0.172708585858345,2.59489345550537,1.36231100559235,-0.358161486344149,2.81170949873715,1.36457611182642,2558.368,3009.644,3483.31,463.7129,-0.2059992,0.03408238,0.1281987,-0.41341507434845,-0.456538677215576,0.358401715755463,-0.613526094901141,-0.263983138701136,0.379801879044709,6
1.260009765625,-0.181238293647766,2.58567929267883,1.36965358257294,-0.37057666480527,2.80636759428526,1.37226169871082,2526.333,2965.723,3436.021,620.7956,-0.2074501,0.03499202,0.1301599,-0.426484107971191,-0.460703700780869,0.367128312587738,-0.626768731761373,-0.26968107538565,0.387999702095469,6
1.27999877929688,-0.190013527870178,2.57639288902283,1.37710225582123,-0.383236695417198,2.80092033679326,1.3800988607405,2609.741,3028.76,3530.829,397.5021,-0.2101937,0.0357577,0.1327162,-0.438762694597244,-0.464324146509171,0.372436046600342,-0.639917282339435,-0.275338529371412,0.396139281255613,6
1.30001831054688,-0.199050441384315,2.56702041625977,1.38473641872406,-0.396178686849666,2.79535175943725,1.38811056994974,2541.755,2960.541,3461.362,639.2648,-0.2114294,0.03671809,0.1344842,-0.451847732067108,-0.468626171350479,0.381706058979034,-0.653005218467598,-0.280969902652754,0.404241337183804,6
1.32000732421875,-0.208327323198318,2.55757737159729,1.39246165752411,-0.409361504843077,2.78967956113998,1.39627136227237,2653.488,3042.269,3588.023,333.9645,-0.2144052,0.03747214,0.1370719,-0.463842868804932,-0.472152411937714,0.386263787746429,-0.6659860834168,-0.286555206197011,0.41227711095171,6
1.33999633789063,-0.217868119478226,2.54804420471191,1.40039205551147,-0.422802873722428,2.78389611561957,1.40459220990988,2554.775,2952.5,3477.35,673.0246,-0.2152612,0.03850137,0.1385778,-0.477039277553558,-0.476655542850494,0.396520167589188,-0.678873453515705,-0.29210028151913,0.420255006953505,6
1.36001586914063,-0.227639883756638,2.53844523429871,1.40838491916656,-0.4365219692899,2.77799317206405,1.4130849835973,2705.53,3061.428,3663.959,235.5461,-0.2186434,0.0392115,0.1413177,-0.488591551780701,-0.479950904846191,0.399643868207932,-0.691680442442074,-0.297610771068296,0.428183143180414,6
1.3800048828125,-0.237683042883873,2.52874803543091,1.4166271686554,-0.450474904562636,2.77198961381608,1.4217225152016,2556.636,2936.704,3459.58,761.2495,-0.2187489,0.04035305,0.1423854,-0.50215619802475,-0.484856069087982,0.412110328674316,-0.704361775018035,-0.303067194200314,0.436033492140578,6
1.39999389648438,-0.247940376400948,2.51899528503418,1.4248708486557,-0.464680216184654,2.76587746507559,1.43051627978847,2784.427,3100.628,3772.774,52.67247,-0.2231436,0.04093724,0.1455594,-0.51286768913269,-0.487640261650085,0.412184715270996,-0.716930938559026,-0.308475354130225,0.443814403124744,7
1.42001342773438,-0.258484601974487,2.50913071632385,1.43343949317932,-0.479157861067077,2.75964813894125,1.43947863163655,2508.929,2890.946,3407.981,966.062,-0.2217817,0.04229578,0.1458872,-0.527209937572479,-0.493222713470459,0.428435266017914,-0.729400843645231,-0.313840805920001,0.451533868397062,7
1.44000244140625,-0.269231766462326,2.49920749664307,1.44200527667999,-0.493861275572861,2.75332167044526,1.4485807456364,2711.586,3322.977,3720.084,0,-0.2260816,0.04345338,0.1500974,-0.537359595298767,-0.496163070201874,0.428287774324417,-0.741727567798258,-0.319144650954242,0.459164697851088,7
1.45999145507813,-0.280258327722549,2.48917531967163,1.45087397098541,-0.508809800712713,2.74688973769103,1.45783459479497,2573.911,2799.964,3393.215,1052.279,-0.2244699,0.04535617,0.1501928,-0.551329970359802,-0.501605451107025,0.443435817956924,-0.753924423002454,-0.324392617007921,0.466715132239272,7
1.48001098632813,-0.2914799451828,2.47909164428711,1.45971739292145,-0.524024159888143,2.74034342397783,1.467253007885,2769.31,3282.137,3753.437,0,-0.2287405,0.04696595,0.1536965,-0.56107884645462,-0.504181385040283,0.4421726167202,-0.766004036374583,-0.329590137176618,0.474192988348404,7
1.5,-0.302978724241257,2.46890425682068,1.46886587142944,-0.539455198877605,2.73370387899399,1.4768055561018,2647.477,2786.22,3425.119,1013.264,-0.2273951,0.04920569,0.152886,-0.574937343597412,-0.509363889694214,0.457426100969315,-0.777924000354858,-0.334718964672088,0.481572013878822,7
1.51998901367188,-0.314667910337448,2.45866584777832,1.4780033826828,-0.555123050061237,2.72696244033876,1.48650470234772,2741.635,3358.15,3754.781,0,-0.231891,0.05132844,0.1560044,-0.5844606757164,-0.511926233768463,0.456876546144485,-0.789697369743256,-0.339784716610053,0.488860290373601,7
1.54000854492188,-0.326617836952209,2.44833517074585,1.48739337921143,-0.571049184024557,2.72010986981902,1.49636373793799,2729.815,2756.657,3535.531,891.345,-0.2317344,0.05382406,0.1549707,-0.597495198249817,-0.516533493995667,0.469497442245483,-0.801336412291853,-0.344792671461508,0.496065412155667,7
1.55999755859375,-0.33875897526741,2.43795418739319,1.49678719043732,-0.587181951496087,2.71316839067337,1.50635068951315,2814.216,3254.015,3836.91,0,-0.2364349,0.0560366,0.1570099,-0.607058167457581,-0.519052267074585,0.469688385725021,-0.812800388649436,-0.349725300221754,0.503162159625937,7
1.58001708984375,-0.351149618625641,2.42748713493347,1.50640201568604,-0.603567408310176,2.70611818636293,1.51649406782863,2787.702,2787.398,3683.541,696.9732,-0.2373734,0.05839683,0.1559019,-0.619532287120819,-0.523347496986389,0.48073935508728,-0.824119146742882,-0.35459544561987,0.510169010073001,7
1.60000610351563,-0.36373582482338,2.41696286201477,1.51605379581451,-0.620152298932711,2.69898217125626,1.52676090517188,2837.025,3202.89,3911.983,0,-0.2418715,0.06046496,0.1575186,-0.629309713840485,-0.52621454000473,0.482586354017258,-0.835253140422976,-0.35938609205264,0.51706148254665,7
1.6199951171875,-0.376560270786285,2.40635347366333,1.52589774131775,-0.636958033083316,2.69175113334911,1.53716445517924,2838.255,2821.403,3810.844,521.4901,-0.2434209,0.06250293,0.1569423,-0.641224682331085,-0.530473172664642,0.492198914289474,-0.846214826007804,-0.364102599125749,0.523847288101157,7
1.6400146484375,-0.389582812786102,2.39567995071411,1.53579652309418,-0.654007271984653,2.68441532215046,1.54771874622704,2886.237,3113.863,3993.728,0,-0.2473592,0.06415954,0.1584299,-0.651128470897675,-0.533678412437439,0.494936794042587,-0.857015715678588,-0.368749920209162,0.530533553325099,7
1.66000366210938,-0.402841359376907,2.38491415977478,1.54589521884918,-0.671244443874359,2.67699864863716,1.55838937674714,2865.528,2868.199,3864.457,432.0433,-0.248572,0.06577114,0.1583592,-0.662926137447357,-0.538285136222839,0.504934847354889,-0.867618167158098,-0.373311858882592,0.53709697585572,7
1.67999267578125,-0.416295528411865,2.3740770816803,1.55605816841125,-0.688691692550512,2.66949158495151,1.56919005480539,2897.013,3120.6,4013.57,0,-0.2518322,0.06707128,0.1603519,-0.672706723213196,-0.541858673095703,0.508148312568665,-0.878034183119987,-0.377793579561193,0.543544985919778,7
1.70001220703125,-0.429980844259262,2.36314344406128,1.56641864776611,-0.706372354049449,2.66188409024902,1.58013522651994,2879.202,2882.066,3875.614,429.8463,-0.252359,0.06839118,0.1608128,-0.684266746044159,-0.546683371067047,0.518024384975433,-0.888274735793774,-0.382199803288802,0.549884375850026,7
1.72000122070313,-0.443857431411743,2.35213661193848,1.57684254646301,-0.724228658537036,2.6542010212754,1.5911891296115,2947.569,3106.154,4016.094,0,-0.2550483,0.06936898,0.1630391,-0.693829298019409,-0.550337493419647,0.52119654417038,-0.898304216251578,-0.386515208538549,0.556093102023817,8
1.739990234375,-0.457961022853851,2.34103322029114,1.58746290206909,-0.74228345468553,2.64643254688532,1.60236590849663,2890.53,2904.52,3871.674,439.6994,-0.2550952,0.07044946,0.1637402,-0.705179393291473,-0.555165231227875,0.531019687652588,-0.908134108040217,-0.390744736359816,0.562178273303667,8
1.760009765625,-0.472249329090118,2.32986068725586,1.59813666343689,-0.760560719141003,2.63856835059778,1.61368040586141,2965.101,3116.989,4027.268,0,-0.2574755,0.07122381,0.1661877,-0.714416921138763,-0.558627486228943,0.533689618110657,-0.91777478390713,-0.394892849856044,0.568146310914365,8
1.77999877929688,-0.486764550209045,2.31859230995178,1.6090202331543,-0.779000609654483,2.63063418086074,1.62509557650306,2902.546,2918.631,3848.948,478.6205,-0.2570462,0.07220305,0.1668995,-0.72576117515564,-0.563424229621887,0.544176876544952,-0.927192788821983,-0.398945154262308,0.57397650459845,8
1.80001831054688,-0.501456379890442,2.30726027488708,1.61994445323944,-0.797655223615693,2.62260762162281,1.63664367118754,2953.603,3168.477,4026.228,0,-0.2593013,0.07299286,0.1696759,-0.734592974185944,-0.566600680351257,0.546209573745728,-0.936412917636689,-0.402912318110697,0.579684203550397,8
1.82000732421875,-0.516373157501221,2.29583740234375,1.63108015060425,-0.816463410111527,2.61451498441355,1.64828683458664,2918.319,2903.878,3839.935,527.9201,-0.2584987,0.07405502,0.1702817,-0.74583888053894,-0.571149110794067,0.556783854961395,-0.94540321420156,-0.406780591562751,0.585249625391268,8
1.83999633789063,-0.531460642814636,2.28435873985291,1.64224791526794,-0.835449117627072,2.60634596486888,1.66003989195343,2961.313,3194.321,4032.575,0,-0.2606116,0.07497934,0.1730496,-0.754375219345093,-0.57392954826355,0.558389008045197,-0.954174163352093,-0.410554485950274,0.590679260733698,8
1.86001586914063,-0.546768844127655,2.27279901504517,1.65361869335175,-0.854637305360818,2.59808982374295,1.67191829422076,2949.238,2890.396,3861.869,527.7793,-0.2597243,0.07615329,0.1734349,-0.765406787395477,-0.577985882759094,0.568538784980774,-0.962735018414262,-0.414237982720922,0.595978837827261,8
1.8800048828125,-0.562245547771454,2.26119112968445,1.66502702236176,-0.873964974649439,2.58977366760063,1.68388304221498,2987.126,3199.789,4040.381,0,-0.2617483,0.07718856,0.1758922,-0.77383691072464,-0.580396354198456,0.570414543151855,-0.971056158224177,-0.417818336715394,0.601130019760457,8
1.89999389648438,-0.577933311462402,2.24951553344727,1.67661321163177,-0.893456683142228,2.58138692997148,1.69594933829086,2990.831,2891.597,3919.398,461.2976,-0.2613099,0.07836184,0.1761666,-0.784391760826111,-0.58378279209137,0.579311311244965,-0.979147395688901,-0.421299770153459,0.606138881190213,8
1.92001342773438,-0.593788623809814,2.23780035972595,1.68823945522308,-0.913137923350175,2.5729186421402,1.70813296352707,3015.155,3158.614,4089.135,0,-0.2632854,0.0793469,0.1781787,-0.792759954929352,-0.585760116577148,0.581313967704773,-0.987017247723777,-0.424685947625853,0.611010694492843,9
1.94000244140625,-0.609850585460663,2.22602558135986,1.70003998279572,-0.932943991899774,2.5643966441608,1.72039386345315,3022.936,2911.872,3969.637,390.0475,-0.2630825,0.08039987,0.1783759,-0.803099989891052,-0.588725984096527,0.590024054050446,-0.994638524886308,-0.427965170275055,0.615728628108227,9
1.95999145507813,-0.62607753276825,2.2142162322998,1.71188640594482,-0.952900013794853,2.55581012544606,1.73274759164336,3008.738,3166.47,4116.993,0,-0.2648951,0.08133024,0.1803819,-0.811348915100098,-0.590480029582977,0.592322766780853,-1.00202031904361,-0.431141350077486,0.620298310335216,9
1.98001098632813,-0.642503440380096,2.20235538482666,1.72389042377472,-0.973031969359004,2.54714790738853,1.74521023115561,3045.247,2910.491,4021.453,342.1193,-0.2646868,0.08227332,0.1807437,-0.821291863918304,-0.593029201030731,0.600200891494751,-1.00917036754089,-0.434217816196637,0.624724530959079,9
2,-0.659093379974365,2.19046401977539,1.73594963550568,-0.993273599084619,2.53843849960327,1.7577407641983,3049.725,3131.403,4137.914,0,-0.2661467,0.0830313,0.1825517,-0.829502403736115,-0.594581365585327,0.602960467338562,-1.01606400046349,-0.437183953857422,0.628992018127441,9
2.01998901367188,-0.675872981548309,2.17853021621704,1.74814796447754,-1.01365055070775,2.52967086658596,1.77035506794184,3068.245,2930.164,4069.58,273.235,-0.2660173,0.08373822,0.1831114,-0.838981151580811,-0.596694946289063,0.609916508197784,-1.02270954399163,-0.440043345582587,0.633105926142498,9
2.04000854492188,-0.69281405210495,2.16657114028931,1.76040303707123,-1.03418924440916,2.52083364047092,1.78306949773667,3075.801,3095.5,4170.892,0,-0.2671502,0.08421762,0.1848186,-0.847052812576294,-0.597958326339722,0.612752437591553,-1.02911391720548,-0.442798968459032,0.637070538244476,9
2.05999755859375,-0.709940969944,2.15457367897034,1.77280187606812,-1.05482201812353,2.5119559343546,1.79584216754118,3077.33,2959.863,4078.795,246.3114,-0.2667742,0.08467017,0.1855409,-0.856349647045135,-0.599869608879089,0.619942367076874,-1.03525504859546,-0.445441325732794,0.640872191117535,9
2.08001708984375,-0.727222442626953,2.14255619049072,1.78525137901306,-1.07560676837143,2.50301283698163,1.80870891805959,3067.707,3114.678,4178.089,0,-0.2676296,0.08495729,0.187545,-0.86406672000885,-0.600877106189728,0.622472584247589,-1.0411492471255,-0.447977434695423,0.644520980787238,9
2.10000610351563,-0.744685649871826,2.13050436973572,1.79784739017487,-1.09647498538954,2.49403382618922,1.82162733848484,3072.955,2964.335,4064.905,278.8649,-0.266739,0.08529885,0.1884142,-0.873159945011139,-0.602592170238495,0.62980192899704,-1.04677621342161,-0.450398561093403,0.648004340974112,9
2.1199951171875,-0.762294411659241,2.11843967437744,1.81048250198364,-1.11745308225396,2.48500753716864,1.83461377976925,3072.363,3130.083,4174.993,0,-0.267285,0.08549573,0.1906219,-0.880443096160889,-0.603231012821198,0.631755709648132,-1.0521429102862,-0.45270770082608,0.651326581984514,9
2.1400146484375,-0.780080616474152,2.10634756088257,1.82326507568359,-1.13856809990831,2.47592233495728,1.84768498154507,3071.843,2963.545,4046.856,316.6739,-0.2658937,0.08581191,0.1914709,-0.88931006193161,-0.604611575603485,0.639130830764771,-1.05725481901126,-0.454907212340279,0.654491096999312,9
2.16000366210938,-0.798004686832428,2.09425091743469,1.83608067035675,-1.15975039167652,2.46680818657414,1.86079782920208,3084.845,3151.108,4157.502,0,-0.2662527,0.0859848,0.1937055,-0.896201968193054,-0.604830980300903,0.640782177448273,-1.0620943502576,-0.456989527434725,0.657486997379635,9
2.17999267578125,-0.816097319126129,2.0821373462677,1.84903168678284,-1.18102676265167,2.45765355853653,1.8739689163698,3079.058,2964.53,4043.711,326.2484,-0.2648056,0.086279,0.1944941,-0.904631018638611,-0.605680048465729,0.647548794746399,-1.06666760390386,-0.458957270716794,0.660318059240953,10
2.20001220703125,-0.834319293498993,2.07003116607666,1.86200249195099,-1.20242455577657,2.44844668594002,1.88721516963236,3092.159,3142.924,4172.199,0,-0.2651331,0.08640493,0.1965914,-0.9110968708992,-0.605312287807465,0.648541271686554,-1.07097916161324,-0.460812413548163,0.662987118851036,10
2.22000122070313,-0.852707028388977,2.05791568756104,1.87511706352234,-1.22387315175433,2.43921795429519,1.90049287228091,3081.9,2974.69,4028.731,342.1094,-0.2635224,0.08668887,0.1971816,-0.919385850429535,-0.60577654838562,0.655731320381165,-1.07501419914593,-0.462548577472581,0.665484999299265,10
2.239990234375,-0.871213972568512,2.04581689834595,1.88823938369751,-1.24539969505118,2.42995568409656,1.91381882803312,3060.228,3186.525,4169.46,0,-0.2638324,0.08689957,0.1994411,-0.925350606441498,-0.604941785335541,0.656118929386139,-1.07877792518082,-0.464168003639063,0.667814925005999,10
2.260009765625,-0.889880120754242,2.03371810913086,1.90149986743927,-1.26703177594152,2.42064800401982,1.92721011658316,3082.948,2955.663,4024.333,372.8853,-0.2619752,0.0872846,0.199908,-0.933310925960541,-0.604937434196472,0.663023054599762,-1.08227399942825,-0.465672266718726,0.669979161506271,10
2.27999877929688,-0.908658504486084,2.02164506912231,1.91476392745972,-1.28869796983554,2.41132564607061,1.9406225227075,3071.789,3191.138,4160.472,0,-0.2621627,0.08756991,0.2020115,-0.938919067382813,-0.603653848171234,0.663200318813324,-1.08549040888332,-0.467056197851165,0.67197027217779,10
2.30001831054688,-0.927585422992706,2.00958395004272,1.92814803123474,-1.31045892272318,2.4019625159737,1.95409358916289,3098.488,2950.146,4040.303,350.9461,-0.2604342,0.0879574,0.2023497,-0.94633948802948,-0.603041768074036,0.669206857681274,-1.08843572622736,-0.468323485621664,0.673793563918671,10
2.32000732421875,-0.946618020534515,1.99755859375,1.94153165817261,-1.33224276726637,2.39258953623693,1.96757882664355,3084.958,3170.645,4171.766,0,-0.2606031,0.08819323,0.2041567,-0.95162433385849,-0.601271390914917,0.669182360172272,-1.09109983431736,-0.469469776906228,0.675442773735451,10
2.33999633789063,-0.965789079666138,1.98555624485016,1.95502197742462,-1.35407709248145,2.38319483607731,1.98109531406483,3105.595,2957.019,4066.012,311.5551,-0.2590558,0.08847193,0.2044266,-0.958558201789856,-0.600114941596985,0.674516499042511,-1.09348640563071,-0.470496651869278,0.67692017506657,10
2.36001586914063,-0.985059440135956,1.97359752655029,1.96850872039795,-1.3759897762471,2.37376642042246,1.99466030916165,3078.49,3159.492,4188.368,0,-0.2591155,0.08859848,0.2061327,-0.963522374629974,-0.59793895483017,0.674335956573486,-1.09559752564474,-0.471405007833448,0.678227058921845,10
2.3800048828125,-1.00446200370789,1.96166849136353,1.98210144042969,-1.39790843013262,2.36433543599182,2.00822900004707,3107.52,2966.586,4066.489,296.1406,-0.2574723,0.08875485,0.2064254,-0.970131278038025,-0.596455037593842,0.679633736610413,-1.09742594550583,-0.472191725819537,0.679358937915576,10
2.39999389648438,-1.02395451068878,1.94978976249695,1.99568045139313,-1.41986083522252,2.35488992936084,2.02181858453579,3061.811,3166.665,4191.725,0,-0.2573738,0.08878518,0.2082611,-0.974626660346985,-0.593939185142517,0.678949594497681,-1.09897439291323,-0.472857979480329,0.680317500623536,10
2.42001342773438,-1.04357254505157,1.93794667720795,2.00936317443848,-1.44187496577138,2.34541786398928,2.035446380024,3094.265,2961.395,4056.019,318.4425,-0.2553279,0.08888486,0.2085809,-0.980901300907135,-0.592156231403351,0.684130787849426,-1.1002439936861,-0.473404253224357,0.681103443981416,10
2.44000244140625,-1.063272356987,1.92615985870361,2.02302765846252,-1.46387808506052,2.33595053645515,2.04906735901791,3066.304,3173.598,4172.171,0,-0.254971,0.08883323,0.2104541,-0.984984159469604,-0.589336693286896,0.683222055435181,-1.10123038958312,-0.473828671822132,0.681714070030222,10
2.45999145507813,-1.08308720588684,1.91441690921783,2.03678345680237,-1.48589810917879,2.32647593524532,2.06269880290633,3089.471,2962.505,4044.541,323.6712,-0.2527723,0.08884065,0.210804,-0.990740120410919,-0.587151288986206,0.687791764736176,-1.10193535162022,-0.474131997292339,0.68215047511319,10
2.48001098632813,-1.10297322273254,1.90273952484131,2.05050683021545,-1.5079630509786,2.31698200721197,2.07635805297935,3068.606,3158.21,4174.584,0,-0.252294,0.0886438,0.2126153,-0.994304358959198,-0.583869278430939,0.686170220375061,-1.10235904000526,-0.474314298567936,0.682412758406602,10
2.5,-1.12297117710114,1.89111042022705,2.06433391571045,-1.52999999932945,2.30750012397766,2.08999997377396,3073.038,2977.147,4003.204,356.8503,-0.2497608,0.08857647,0.2128483,-0.999890327453613,-0.581452310085297,0.691353142261505,-1.10250000050292,-0.474374949932098,0.682500019669533,11
2.51998901367188,-1.14302623271942,1.87955486774445,2.07810831069946,-1.5520369476803,2.29801824074336,2.10364189456856,3024.849,3203.402,4157.739,0,-0.2492458,0.08838423,0.2149624,-1.00275540351868,-0.577774882316589,0.688721895217896,-1.10235904000526,-0.474314298567936,0.682412758406603,11
2.54000854492188,-1.16318845748901,1.86805284023285,2.09199333190918,-1.57410188948011,2.28852431271001,2.11730114464159,3046.541,2960.515,3953.227,436.7003,-0.2461533,0.08842705,0.2150597,-1.00811648368835,-0.575103759765625,0.694247901439667,-1.10193535162022,-0.474131997292339,0.682150475113189,11
2.55999755859375,-1.18339550495148,1.85663259029388,2.10580945014954,-1.59612191359838,2.27904971150017,2.13093258853001,3009.604,3234.829,4124.888,0,-0.2455424,0.08834154,0.2172613,-1.01034462451935,-0.571016132831573,0.690801739692688,-1.10123038958312,-0.473828671822132,0.681714070030222,11
2.58001708984375,-1.20370149612427,1.84527373313904,2.11973214149475,-1.6181586096433,2.26956793682606,2.14457435313522,3037.13,2945.14,3911.714,486.8827,-0.2422188,0.0885083,0.2171131,-1.01530051231384,-0.567936301231384,0.696139872074127,-1.10024227275454,-0.473403512755585,0.681102378642802,11
2.60000610351563,-1.22403883934021,1.83400702476501,2.13356733322144,-1.64013916343638,2.26011031859448,2.15818136301212,2994.731,3247.988,4107.793,0,-0.2416872,0.0885196,0.2191978,-1.01687467098236,-0.56333988904953,0.691753923892975,-1.09897439291323,-0.472857979480329,0.680317500623536,11
2.6199951171875,-1.24446821212769,1.82281041145325,2.14750838279724,-1.66209156852628,2.2506648119635,2.17177094750084,3026.996,2934.565,3880.365,520.1738,-0.2382959,0.08878835,0.2187249,-1.02146053314209,-0.559828519821167,0.69705867767334,-1.09742594550583,-0.472191725819537,0.679358937915576,11
2.6400146484375,-1.26491570472717,1.8117151260376,2.16134428977966,-1.68404365734903,2.24121944141343,2.18536033620513,2957.647,3272.771,4097.221,0,-0.2378608,0.08893441,0.2207696,-1.02238309383392,-0.554761171340942,0.691797614097595,-1.09559452046326,-0.471403714787811,0.678225198571351,11
2.66000366210938,-1.28544938564301,1.80069661140442,2.17529296875,-1.70592290617745,2.23180541187802,2.19890463348308,3020.74,2920.587,3837.906,560.2285,-0.2343369,0.08934298,0.2199748,-1.02668559551239,-0.550929367542267,0.697436928749084,-1.09348640563071,-0.470496651869278,0.67692017506657,10
2.67999267578125,-1.30598700046539,1.78978717327118,2.18911552429199,-1.72775723139253,2.2224107117184,2.21242112090437,2912.105,3307.261,4080.724,0,-0.2340205,0.08968057,0.2220698,-1.02687633037567,-0.545466125011444,0.691132009029388,-1.09109983431736,-0.469469776906228,0.675442773735451,9
2.70001220703125,-1.32660245895386,1.77896165847778,2.20304870605469,-1.74957429229274,2.21302343991116,2.22592692089233,3009.698,2889.078,3807.971,605.7236,-0.2302889,0.09027936,0.2209473,-1.03077518939972,-0.541279196739197,0.696660995483398,-1.08843144721369,-0.468321644481621,0.673790915005369,9
2.72000122070313,-1.34721064567566,1.76825141906738,2.21684718132019,-1.77130202882336,2.20367460188472,2.23937742484041,2893.915,3326.34,4050.217,0,-0.2299996,0.09079283,0.2228856,-1.03041088581085,-0.535506129264832,0.689929604530334,-1.08549040888332,-0.467056197851165,0.671970272177789,8
2.739990234375,-1.36788189411163,1.75763463973999,2.23073387145996,-1.79296822271738,2.1943522439355,2.25278983096475,3015.973,2864.291,3807.76,591.9581,-0.2265248,0.09144396,0.2215336,-1.03356659412384,-0.53083735704422,0.694334268569946,-1.08227399942825,-0.465672266718727,0.669979161506271,8
2.760009765625,-1.3885360956192,1.74714064598083,2.24447703361511,-1.81460030360772,2.18504456385877,2.26618111951479,2889.506,3296.994,4051.746,0,-0.2263335,0.09193567,0.2231073,-1.03270196914673,-0.524702131748199,0.687161684036255,-1.07877792518082,-0.464168003639063,0.667814925005998,7
2.77999877929688,-1.40924227237701,1.7367467880249,2.25830054283142,-1.83612684690458,2.17578229366013,2.27950707526701,3014.167,2863.282,3808.147,559.5833,-0.2231074,0.09247666,0.2215775,-1.03531396389008,-0.519700288772583,0.691179811954498,-1.07501419914593,-0.462548577472581,0.665484999299265,6
2.80001831054688,-1.42992103099823,1.72647929191589,2.27197337150574,-1.85760812647542,2.16653949917827,2.29280501061661,2854.995,3298.316,4047.955,0,-0.2229833,0.09288144,0.2231267,-1.03393721580505,-0.513373672962189,0.683646380901337,-1.07097279461286,-0.460809674005774,0.6629831773745,6
2.82000732421875,-1.45064115524292,1.71631598472595,2.28571653366089,-1.87897323600723,2.1573466894188,2.30603103117811,2996.74,2850.292,3806.601,552.8315,-0.2197316,0.09330174,0.2216206,-1.03599858283997,-0.508164942264557,0.687152802944183,-1.06666760390385,-0.458957270716794,0.660318059240952,5
2.83999633789063,-1.47132432460785,1.70628190040588,2.29930257797241,-1.90024960698239,2.14819206138118,2.31920211834584,2840.343,3281.555,4040.368,0,-0.2194381,0.09355059,0.2231683,-1.03416633605957,-0.501705944538116,0.679301857948303,-1.06209435025759,-0.456989527434725,0.657486997379635,3
2.86001586914063,-1.49203884601593,1.69635534286499,2.31295013427734,-1.9214641634913,2.13906403038149,2.33233493941432,2975.948,2843.27,3798.214,548.6722,-0.2159504,0.09379377,0.2217389,-1.03572034835815,-0.496320188045502,0.682381749153137,-1.05724722779031,-0.454903946049977,0.654486397671922,2
2.8800048828125,-1.51270890235901,1.6865599155426,2.32643938064575,-1.94254691640495,2.12999271078668,2.34538616777867,2839.407,3266.797,4015.572,0,-0.2154178,0.09379525,0.2232864,-1.03350353240967,-0.489763677120209,0.674464881420135,-1.0521429102862,-0.45270770082608,0.651326581984514,1
2.89999389648438,-1.53339850902557,1.67687630653381,2.33997774124146,-1.96352501326936,2.1209664217661,2.35837260906308,2949.987,2847.261,3781.752,544.6668,-0.2117852,0.09377771,0.2220133,-1.03448331356049,-0.48419114947319,0.676917254924774,-1.04677621342161,-0.450398561093403,0.648004340974112,0
2.92001342773438,-1.5540337562561,1.66732776165009,2.35334515571594,-1.98442500350686,2.11197373984504,2.37131069862469,2832.816,3238.062,4008.594,0,-0.2110646,0.09343663,0.2235963,-1.0317645072937,-0.477426767349243,0.668373703956604,-1.04114045847258,-0.4479736531836,0.644515540192422,0
2.94000244140625,-1.5746865272522,1.65789067745209,2.36678075790405,-2.00517798053537,2.10304431360073,2.38415778000673,2905.186,2866.827,3716.469,594.6567,-0.2068845,0.09320163,0.2223599,-1.0326372385025,-0.471850514411926,0.671780407428741,-1.03525504859546,-0.445441325732794,0.640872191117535,0
2.95999145507813,-1.59527003765106,1.64859235286713,2.38002014160156,-2.02581075424974,2.0941666074844,2.39693044981124,2774.087,3280.857,3978.505,0,-0.2060205,0.09270587,0.2244547,-1.02917516231537,-0.464916825294495,0.661967217922211,-1.02911391720548,-0.442798968459032,0.637070538244476,0
2.98001098632813,-1.61587226390839,1.63940501213074,2.39335560798645,-2.04634944795115,2.08532938136936,2.40964487960608,2843.409,2854.546,3608.467,736.111,-0.2007778,0.09255599,0.2231194,-1.03011512756348,-0.459378480911255,0.666777491569519,-1.02270954399162,-0.440043345582586,0.633105926142498,0
3,-1.63638889789581,1.63036060333252,2.40646386146545,-2.06672639957428,2.07656174835205,2.42225918334961,2723.125,3345.094,3918.353,0,-0.1997419,0.09217451,0.2256656,-1.02582049369812,-0.45220422744751,0.655413091182709,-1.01606400046349,-0.437183953857422,0.628992018127441,0
3.01998901367188,-1.65692448616028,1.62142992019653,2.41969513893127,-2.0869680292999,2.06785234056679,2.43478971639231,2798.754,2828.891,3475.129,898.9523,-0.1935591,0.09233233,0.2239082,-1.0267927646637,-0.446549236774445,0.661561727523804,-1.00917036754089,-0.434217816196637,0.624724530959079,0
3.04000854492188,-1.67735409736633,1.61265087127686,2.4326548576355,-2.10709998486405,2.05919012250926,2.44725235590455,2654.872,3420.183,3862.97,0,-0.192635,0.09230293,0.2267162,-1.02146625518799,-0.438947170972824,0.647990584373474,-1.00202031904361,-0.431141350077486,0.620298310335216,0
3.05999755859375,-1.6978063583374,1.6039891242981,2.44577884674072,-2.12705600675913,2.05060360379452,2.45960608409476,2765.64,2793.631,3317.698,1083.824,-0.1856591,0.09299769,0.2241223,-1.02262568473816,-0.433087289333344,0.656200587749481,-0.994638524886308,-0.427965170275055,0.615728628108227,0
3.08001708984375,-1.71812844276428,1.59548819065094,2.4585816860199,-2.14689219650438,2.04206864550612,2.47188563047583,2544.005,3547.449,3794.058,0,-0.1852149,0.09366604,0.2272319,-1.01610922813416,-0.425060987472534,0.640146434307098,-0.987005430654711,-0.424680863071165,0.611003379164165,0
3.10000610351563,-1.73847186565399,1.58711171150208,2.47157144546509,-2.16654331551667,2.03361331798384,2.48405060925705,2749.316,2714.413,3187.145,1264.346,-0.1778107,0.09514526,0.2235789,-1.0171571969986,-0.418819934129715,0.649482667446136,-0.979147395688901,-0.421299770153459,0.606138881190213,0
3.1199951171875,-1.75866389274597,1.5789041519165,2.48420166969299,-2.18603502400946,2.02522658035469,2.49611690533293,2454.266,3647.908,3729.25,0,-0.1779929,0.09670199,0.226535,-1.00959885120392,-0.410377591848373,0.631507217884064,-0.971056158224178,-0.417818336715394,0.601130019760458,0
3.1400146484375,-1.77886188030243,1.57083404064178,2.49700212478638,-2.20539207344272,2.01689778275692,2.50809984103626,2774.074,2616.011,3146.088,1326.397,-0.1710293,0.0988782,0.2217756,-1.00990855693817,-0.403493821620941,0.640019059181213,-0.962722140342815,-0.41423244164655,0.595970865687568,0
3.16000366210938,-1.79889738559723,1.56293964385986,2.50943922996521,-2.22455088103183,2.00865428308644,2.51996005559448,2420.787,3673.631,3682.428,0,-0.1719459,0.1011092,0.2238939,-1.00176811218262,-0.394729793071747,0.621859848499298,-0.954174163352092,-0.410554485950274,0.590679260733698,0
3.17999267578125,-1.8189058303833,1.55519819259644,2.52197265625,-2.24353658854737,2.00048526354177,2.53171311296128,2833.454,2537.042,3246.848,1181.92,-0.1667757,0.1034326,0.2184711,-1.00043070316315,-0.38706973195076,0.62666928768158,-0.945403214201559,-0.406780591562751,0.585249625391267,0
3.20001220703125,-1.83875024318695,1.54763555526733,2.53417253494263,-2.26237335188561,1.99238033051557,2.54337396678712,2455.274,3555.763,3711.075,0,-0.1683134,0.1056194,0.2191591,-0.992212891578674,-0.37812402844429,0.609996557235718,-0.93639902618694,-0.402906341007952,0.579675604081262,0
3.22000122070313,-1.85853016376495,1.54023623466492,2.54638051986694,-2.28099938900442,1.98436606709459,2.55490437104486,2886.132,2527.935,3453.27,861.6389,-0.1654942,0.1072653,0.2138577,-0.988994836807251,-0.369964212179184,0.610400855541229,-0.927192788821982,-0.398945154262308,0.573976504598449,0
3.239990234375,-1.87815296649933,1.53301119804382,2.5583131313324,-2.2994392795179,1.97643189735754,2.5663195416865,2512.465,3367.66,3784.936,0,-0.167148,0.1085564,0.2134439,-0.981148302555084,-0.361257672309875,0.596633553504944,-0.917774783907129,-0.394892849856044,0.568146310914365,0
3.260009765625,-1.89767789840698,1.52594900131226,2.57016825675964,-2.31771654397337,1.96856770107001,2.57763403905129,2884.903,2574.82,3695.852,498.7761,-0.1660444,0.1088311,0.2093565,-0.976233243942261,-0.353101521730423,0.592758238315582,-0.908134108040216,-0.390744736359816,0.562178273303667,0
3.27999877929688,-1.91706013679504,1.51904916763306,2.5818178653717,-2.33577134012187,1.96079922667992,2.58881081793642,2615.492,3123.268,3868.474,0,-0.1668588,0.1084067,0.2084442,-0.969115972518921,-0.345000624656677,0.582480847835541,-0.898304216251578,-0.386515208538549,0.556093102023818,0
3.29998779296875,-1.93632626533508,1.5123016834259,2.59334802627563,-2.35362764460945,1.95311615770631,2.59986472102797,2817.539,2691.588,3851.903,222.2822,-0.1659746,0.1068372,0.2063291,-0.963302731513977,-0.337370216846466,0.576505899429321,-0.888274735793772,-0.382199803288803,0.549884375850026,0
3.32000732421875,-1.95546019077301,1.50570249557495,2.60471153259277,-2.37130830610839,1.94550866300381,2.61080989274252,2692.871,2927.149,3927.105,0,-0.1652252,0.1042684,0.2060381,-0.956700682640076,-0.329971820116043,0.568169951438904,-0.878034183119985,-0.377793579561194,0.543544985919778,0
3.33999633789063,-1.97448909282684,1.49923515319824,2.61600971221924,-2.38875555478454,1.93800159931817,2.62161057080077,2661.053,2841.776,3775.818,245.9614,-0.1621013,0.1010534,0.2058682,-0.951443552970886,-0.323352694511414,0.564911127090454,-0.867618167158097,-0.373311858882592,0.53709697585572,0
3.36001586914063,-1.99337983131409,1.49290585517883,2.62711501121521,-2.40601888046917,1.93057367255756,2.63229739176581,2667.461,2931.365,3884.378,0,-0.1595857,0.09681531,0.2076537,-0.944541394710541,-0.316475242376328,0.555260956287384,-0.856999388527103,-0.368742895092007,0.53052344604056,0
3.3800048828125,-2.01220321655273,1.48668670654297,2.63829898834229,-2.42304196557559,1.92324911460621,2.64283549236868,2436.052,2937.688,3406.75,700.6559,-0.1518529,0.09307577,0.2084558,-0.941163837909698,-0.310953080654144,0.559199452400208,-0.846214826007803,-0.364102599125748,0.523847288101157,0
3.39999389648438,-2.03085947036743,1.48060655593872,2.64917659759521,-2.43984769972619,1.91601807669906,2.65323904237604,2524.422,3163.5,3729.938,0,-0.1480062,0.08856803,0.213043,-0.932813227176666,-0.303996354341507,0.543878436088562,-0.835253140422974,-0.35938609205264,0.51706148254665,0
3.42001342773438,-2.04950761795044,1.47462677955627,2.66035199165344,-2.45645774020782,1.90887124031063,2.66352144868012,2217.813,2926.557,2769.823,1539.342,-0.1344449,0.08607809,0.2127909,-0.932402968406677,-0.298999130725861,0.558774888515472,-0.824102019042908,-0.354588076049064,0.510158407210813,0
3.44000244140625,-2.06793832778931,1.46879982948303,2.67102670669556,-2.47281804716281,1.90183185728196,2.67364925803476,2222.507,3651.635,3476.249,0,-0.1306206,0.08341876,0.2201921,-0.921536147594452,-0.291335582733154,0.533741116523743,-0.812800388649434,-0.349725300221754,0.503162159625937,0
3.45999145507813,-2.08642554283142,1.46308755874634,2.68223142623901,-2.48895081463434,1.8948903781363,2.68363620960993,2094.345,2741.966,2011.393,2585.039,-0.1119236,0.08417355,0.2164669,-0.924344182014465,-0.285616666078568,0.560235381126404,-0.80133641229185,-0.344792671461508,0.496065412155666,0
3.48001098632813,-2.1046359539032,1.45755004882813,2.69270157814026,-2.50487694859767,1.88803780761656,2.69349524520019,1793.184,4303.041,3183.206,0,-0.1100083,0.0855938,0.2256798,-0.910518646240234,-0.276866793632507,0.523503422737122,-0.789697369743255,-0.339784716610052,0.488860290373601,0
3.5,-2.12293910980225,1.45217335224152,2.70384097099304,-2.5205447997813,1.88129636896134,2.70319439144611,2159.665,2344.347,1417.454,3481.543,-0.08906996,0.09094635,0.2164712,-0.915166914463043,-0.268849611282349,0.556968092918396,-0.777924000354857,-0.334718964672089,0.481572013878822,0
3.51998901367188,-2.14092421531677,1.44699501991272,2.7140941619873,-2.53597583877076,1.87465682397749,2.71274693966292,1411.423,4913.44,2883.179,0,-0.09082285,0.09769685,0.2250313,-0.89924818277359,-0.258909344673157,0.512662291526794,-0.766004036374581,-0.329590137176618,0.474192988348404,0
3.54000854492188,-2.15894603729248,1.4420417547226,2.72485661506653,-2.55119019794619,1.86811051026429,2.72216535275294,2478.017,1786.039,1461.492,3611.529,-0.07394054,0.1070044,0.2102598,-0.901103794574738,-0.247665077447891,0.538126170635223,-0.753924423002452,-0.324392617007921,0.466715132239272,0
3.55999755859375,-2.17664813995361,1.4373185634613,2.73481917381287,-2.56613872308604,1.86167857751006,2.73141920191151,1468.72,4933.734,2750.497,0,-0.07992999,0.1174381,0.2130228,-0.885094225406647,-0.236167818307877,0.498132765293121,-0.741727567798258,-0.319144650954242,0.459164697851087,0
3.58001708984375,-2.1942150592804,1.43286335468292,2.74477052688599,-2.58086439685043,1.85534253147694,2.74053509545279,2981.958,1458.78,2449.243,2330.669,-0.07600182,0.1268799,0.195653,-0.878354787826538,-0.222768425941467,0.497571647167206,-0.729381927869994,-0.313832666990361,0.451522158631107,0
3.60000610351563,-2.21148920059204,1.42866063117981,2.75424957275391,-2.59531978247425,1.84912278287974,2.74948366775945,2026.106,3984.876,3111.125,0,-0.08522861,0.1360143,0.1883653,-0.863705813884735,-0.210122063755989,0.473954230546951,-0.716930938559024,-0.308475354130224,0.443814403124743,0
3.6199951171875,-2.22844886779785,1.42471635341644,2.7631824016571,-2.60952509409627,1.84301063413925,2.75827743234631,3314.029,1802.886,3964.101,0,-0.09783548,0.1405739,0.1740723,-0.847984373569489,-0.197221636772156,0.446645766496658,-0.704361775018033,-0.303067194200314,0.436033492140578,0
3.6400146484375,-2.24516153335571,1.42098677158356,2.77201318740845,-2.62349913748426,1.83699799365897,2.76692803087948,2526.527,2636.114,3922.573,0,-0.1074191,0.1433236,0.1607479,-0.835638225078583,-0.186469942331314,0.441544145345688,-0.691660998977508,-0.297602405088683,0.428171106749629,0
3.66000366210938,-2.26162576675415,1.41739678382874,2.78081727027893,-2.63719712493647,1.83110413233575,2.77540773763803,1724.526,3621.062,3656.676,0,-0.1151253,0.1466955,0.1572535,-0.823196887969971,-0.179508909583092,0.440207451581955,-0.678873453515702,-0.29210028151913,0.420255006953505,0
3.67999267578125,-2.27780389785767,1.41391611099243,2.7892951965332,-2.65063849381582,1.82532068681534,2.78372858527554,2204.604,2743.958,3966.682,0,-0.1210108,0.1488795,0.1568723,-0.808901250362396,-0.174029186367989,0.423901498317719,-0.665986083416798,-0.286555206197011,0.41227711095171,0
3.70001220703125,-2.29374170303345,1.41053223609924,2.79756450653076,-2.66384123964357,1.81963991412768,2.79190171387692,2725.021,1984.977,4052.865,150.4382,-0.1207291,0.1484081,0.152431,-0.796901345252991,-0.169190943241119,0.41346263885498,-0.65298533214413,-0.280961346123326,0.404229026602262,0
3.72000122070313,-2.30947208404541,1.40721940994263,2.80582880973816,-2.6767633032417,1.81407991116207,2.79990108680742,2432.996,2758.173,3706.588,0,-0.1168835,0.1463542,0.1500758,-0.786524772644043,-0.165647640824318,0.413220942020416,-0.639917282339434,-0.275338529371411,0.396139281255611,0
3.739990234375,-2.32497477531433,1.40396571159363,2.81400227546692,-2.68942333385363,1.80863265367006,2.80773824883709,2323.371,3015.745,3497.717,0,-0.1129186,0.1431181,0.1516298,-0.775118589401245,-0.162682741880417,0.408677101135254,-0.62676873176137,-0.26968107538565,0.387999702095468,0
3.760009765625,-2.34023761749268,1.40077936649323,2.8219633102417,-2.70183851231475,1.80329074921818,2.81542383572149,2612.353,2526.094,3532.939,126.9795,-0.1087912,0.1378137,0.1524911,-0.763157248497009,-0.159311950206757,0.398056298494339,-0.613526094901139,-0.263983138701136,0.379801879044709,0
3.77999877929688,-2.35529971122742,1.39765596389771,2.82989239692688,-2.7139695770734,1.79807109095524,2.82293354268985,2346.112,2710.57,3202.315,540.6869,-0.1015064,0.1316415,0.1525531,-0.753100872039795,-0.156178444623947,0.396450132131577,-0.60023651686137,-0.258265004538452,0.371574997167698,0
3.79998779296875,-2.37011575698853,1.39461207389832,2.83753252029419,-2.72583438304408,1.79296599641037,2.83027842278479,2407.651,2942.582,3404.79,0,-0.09810979,0.1238942,0.1557052,-0.740792036056519,-0.152181446552277,0.382007211446762,-0.586886736182787,-0.252520966862155,0.36331084698941,0
3.82000732421875,-2.38477420806885,1.39163565635681,2.8453094959259,-2.73744929742843,1.78796842323393,2.8374686080838,1969.72,2849.399,2732.26,1231.249,-0.08752052,0.1170024,0.156701,-0.732928574085236,-0.148828417062759,0.38884899020195,-0.573463232144022,-0.246745208083563,0.355001058539243,0
3.83999633789063,-2.39917182922363,1.38875603675842,2.85262417793274,-2.74877791451009,1.78309403578861,2.84448156171422,2153.603,3258.133,3297.574,0,-0.08476096,0.1091649,0.1635999,-0.719890654087067,-0.143976211547852,0.365731090307236,-0.560014026276881,-0.240958390526246,0.346675359432959,0
3.86001586914063,-2.41348791122437,1.38596129417419,2.86034083366394,-2.7598539723994,1.77832831750807,2.85133816917351,1678.208,2716.334,2089.624,2305.519,-0.06763311,0.1040974,0.1630693,-0.715790867805481,-0.139735952019691,0.385827630758286,-0.546505271550556,-0.235145950758426,0.338312796746137,0
3.8800048828125,-2.42753028869629,1.3832870721817,2.86741042137146,-2.77064299647982,1.77368610185671,2.85801708903178,1771.713,3863.464,3031.743,0,-0.06453212,0.09912308,0.1733524,-0.702125370502472,-0.133722990751266,0.353477954864502,-0.532985466132484,-0.229328756186666,0.329943393154704,0
3.89999389648438,-2.44155526161194,1.38074684143066,2.87507486343384,-2.78116151864576,1.76916027562219,2.86452855531919,1687.226,2352.193,1428.241,3321.221,-0.0419075,0.09795399,0.1686973,-0.701241075992584,-0.12701441347599,0.383217185735703,-0.519441457145543,-0.223501147495394,0.321559006401168,0
3.92001342773438,-2.4552948474884,1.3783597946167,2.88191556930542,-2.79142456801014,1.76474437219711,2.87088187177258,1490.092,4406.923,2723.154,0,-0.03996925,0.097487,0.1789692,-0.686975836753845,-0.119339093565941,0.342038750648499,-0.505860052376089,-0.217657448443621,0.313151469876846,0
3.94000244140625,-2.46902823448181,1.376180768013,2.88935828208923,-2.8014005971492,1.76045196555656,2.87705750903383,1933.755,1907.526,1110.573,3810.732,-0.01731428,0.1004434,0.1682263,-0.68666684627533,-0.108960032463074,0.372141391038895,-0.492290296490434,-0.211818761581115,0.30475114456651,0
3.95999145507813,-2.48247051239014,1.37419247627258,2.89593529701233,-2.81110535421031,1.75627627971269,2.88306521595634,1354.692,4731.704,2486.606,0,-0.01897875,0.1042587,0.1746845,-0.672118008136749,-0.0994076207280159,0.32884818315506,-0.478719233391147,-0.205979512261105,0.296350010028665,0
