t,x_s1,x_s2,x_s3,x_s_d1,x_s_d2,x_s_d3,propellers_rpms1,propellers_rpms2,propellers_rpms3,propellers_rpms4,rollRad,pitchRad,yawRad,v_s1,v_s2,v_s3,v_s_d1,v_s_d2,v_s_d3,insideCount
0,-0.0599999986588955,2.94000005722046,1.17999994754791,-0.0599999986588955,2.94000005722046,1.17999994754791,0,0,0,0,0,0,0,0,0,0,-1.06581410364015E-15,4.44089209850063E-16,4.44089209850063E-16,0
0.019989013671875,-0.0599999986588955,2.94000005722046,1.17729234695435,-0.0600018659130177,2.93999925379318,1.18000110346716,0,0,0,0,0.0163538,-0.002474609,-2.024222E-05,3.71994488546079E-08,3.50004931704007E-08,-0.135377958416939,-0.000279680311988734,-0.000120338624884473,0.000173135436141649,5
0.03997802734375,-0.0599999986588955,2.94000005722046,1.17105865478516,-0.060014847005691,2.93999366839165,1.1800091393819,0,0,0,0,0.03270752,-0.004950816,-5.430172E-05,3.48044650877455E-08,3.30428591155396E-08,-0.311683237552643,-0.00110975851463131,-0.000477498085781228,0.000686993385685745,6
0.05999755859375,-0.0600004307925701,2.94013142585754,1.16552245616913,-0.0600498857373401,2.93997859220429,1.18003083002592,3161.665,2810.177,1469.483,2738.809,0.03139236,-0.004977448,-0.01632784,-2.15872878470691E-05,0.00656332680955529,-0.276811391115189,-0.00247936261166862,-0.00106680046642749,0.00153484356504269,6
0.079986572265625,-0.0599182620644569,2.94037842750549,1.16100025177002,-0.0601174907153006,2.93994950367094,1.18007268072775,3029.263,3012.096,2083.188,1978.987,0.01921124,-0.004420847,-0.04309367,0.00410851323977113,0.012350045144558,-0.226107984781265,-0.00437104534358026,-0.00188073869847162,0.00270588528944111,6
0.0999755859375,-0.0596519410610199,2.94066071510315,1.15742897987366,-0.0602280337026576,2.93990194011169,1.18014111210282,2572.313,3764.024,2528.687,1069.723,-0.005658685,-0.003073821,-0.06910424,0.0133159887045622,0.0141149908304214,-0.178566589951515,-0.00677334142420609,-0.00291437958958193,0.00419302100058057,6
0.1199951171875,-0.0591362975537777,2.94084787368774,1.15462064743042,-0.0603918861403606,2.93983143898525,1.18024254456713,1989.572,4003.968,3075.829,694.8874,-0.039908,-0.0007062703,-0.08793917,0.0257822386920452,0.00936126708984375,-0.140414983034134,-0.00967801353495435,-0.00416417885169243,0.00599115140585487,5
0.139984130859375,-0.0583611018955708,2.94078660011292,1.15244734287262,-0.0606183773949454,2.93973398612584,1.18038275344299,1382.336,3936.955,3640.624,663.5607,-0.07574776,0.002033685,-0.09641389,0.0387598723173141,-0.00306209269911051,-0.108664862811565,-0.0130632593357409,-0.00562075554695178,0.00808677981816243,4
0.15997314453125,-0.0573621541261673,2.94033217430115,1.15091979503632,-0.0609172730813211,2.93960537966217,1.18056778411123,1008.859,3669.438,3950.467,872.5331,-0.1041243,0.003834171,-0.09478776,0.0499473735690117,-0.0227177143096924,-0.0763763338327408,-0.0169203082141145,-0.00728033592584475,0.0104744768105937,4
0.17999267578125,-0.0561950989067554,2.93938517570496,1.15012335777283,-0.0612985250199726,2.93944133760391,1.18080379722281,1010.813,3362.915,3835.663,1161.406,-0.1193394,0.00385109,-0.08597376,0.058352816849947,-0.0473462715744972,-0.039819099009037,-0.0212433804254414,-0.00914043312572283,0.0131506644458931,3
0.199981689453125,-0.0549090281128883,2.93791794776917,1.15010988712311,-0.0617700327574899,2.93923846099686,1.18109568297336,1334.129,3133.179,3352.833,1400.986,-0.1214077,0.002339809,-0.07415945,0.0643034726381302,-0.0733595788478851,-0.000674765557050705,-0.0260066742439309,-0.011189945384795,0.0160993702266893,3
0.220001220703125,-0.0535360798239708,2.93597269058228,1.15082919597626,-0.0623420644491781,2.93899233174064,1.18144979784016,1789.185,3015.066,2724.515,1533.396,-0.1151215,0.0002799455,-0.06327511,0.0686473548412323,-0.0972590446472168,0.0359679199755192,-0.03121219533433,-0.0134297356845702,0.019321835755004,3
0.239990234375,-0.0520960092544556,2.93363213539124,1.15212345123291,-0.0630214373585105,2.93870001655724,1.18187036203406,2172.711,2982.188,2212.237,1547.095,-0.1071555,-0.001340103,-0.05581613,0.0720035508275032,-0.117023795843124,0.0647130012512207,-0.0368316683029241,-0.015847637913056,0.022800557215184,3
0.259979248046875,-0.0506038963794708,2.93098092079163,1.15377068519592,-0.0638172488896441,2.93835760108779,1.18236300728159,2346.382,2986.148,2005.732,1459.544,-0.1029141,-0.001919074,-0.05235508,0.0746056586503983,-0.132564276456833,0.0823635458946228,-0.0428604193878216,-0.0184416410810803,0.0265326413259761,3
0.279998779296875,-0.0490741319954395,2.92807555198669,1.15557146072388,-0.0647390625194898,2.93796097043536,1.18293365383054,2308.404,2995.158,2123.243,1299.771,-0.1047112,-0.001324124,-0.05185068,0.0764883160591125,-0.145270317792892,0.090039387345314,-0.0492963837173861,-0.0212108567320638,0.030516809833474,3
0.29998779296875,-0.047522559762001,2.92493557929993,1.15741074085236,-0.0657918945890516,2.93750796620855,1.18358540703494,2139.308,3011.59,2441.008,1105.184,-0.1118703,0.0001954132,-0.05227998,0.0775785595178604,-0.156996384263039,0.0919654667377472,-0.0561078595514081,-0.0241416444928383,0.0347334378503248,3
0.319976806640625,-0.0459692254662514,2.92155075073242,1.15926539897919,-0.0669846297797139,2.93699476557717,1.18432376693582,1941.944,3019.939,2793.117,937.4782,-0.121822,0.002153939,-0.05160567,0.0776666700839996,-0.169243603944778,0.0927317142486572,-0.0632924014512957,-0.0272329521594955,0.0391810115335476,3
0.339996337890625,-0.0444394052028656,2.91789555549622,1.16117548942566,-0.068326768706371,2.93641728069206,1.18515461486636,1803.441,3000.153,3047.964,843.0396,-0.131493,0.004015926,-0.04861228,0.0764908939599991,-0.182756140828133,0.0955059453845024,-0.0708499516420146,-0.0304847548730522,0.0438594951176439,3
0.3599853515625,-0.0429611057043076,2.91394662857056,1.16320323944092,-0.0698213312158394,2.93577421219747,1.18607982025561,1758.91,2956.218,3147.17,829.226,-0.138494,0.005407246,-0.04315227,0.0739151909947395,-0.197445392608643,0.101386286318302,-0.0787457139191101,-0.0338820807988248,0.0487473480944833,3
0.379974365234375,-0.0415606759488583,2.9096941947937,1.16540122032166,-0.0714771179380247,2.93506177342824,1.1871048311127,1801.476,2905.812,3097.766,874.691,-0.1417483,0.006226061,-0.03593456,0.0700215771794319,-0.212624967098236,0.10989623516798,-0.0869793044824472,-0.0374247647983375,0.0538443328734993,3
0.399993896484375,-0.0402593277394772,2.90514636039734,1.16779696941376,-0.0733036822025899,2.9342758538535,1.18823556140379,1908.02,2869.711,2945.828,938.1471,-0.1416599,0.006603256,-0.02808197,0.0650674030184746,-0.2273960262537,0.119787231087685,-0.0955525119207663,-0.0411135764513579,0.0591515566763244,3
0.41998291015625,-0.0390721969306469,2.90032720565796,1.17038202285767,-0.075301871434707,2.93341608884986,1.18947253572543,2027.22,2858.68,2768.856,986.9161,-0.1397142,0.006793327,-0.02060488,0.0593564659357071,-0.240959450602531,0.129251837730408,-0.104427768518458,-0.0449323514193797,0.064645763297398,3
0.44000244140625,-0.0380101017653942,2.8952693939209,1.17311728000641,-0.077483988232608,2.93247718495301,1.19082336997196,2109.504,2859.853,2640.482,1015.697,-0.1375683,0.007043134,-0.01415151,0.0531048811972141,-0.252894788980484,0.136763900518417,-0.113620829717891,-0.048887868829098,0.0703367061060819,3
0.459991455078125,-0.0370818302035332,2.8900043964386,1.17595672607422,-0.0798493430620752,2.93145943885026,1.19228763728888,2148.942,2865.818,2590.125,1013.813,-0.1364684,0.00749734,-0.008936503,0.0464135035872459,-0.263251572847366,0.141970932483673,-0.123092454730403,-0.0529632444654124,0.0762000931848968,3
0.47998046875,-0.0362955927848816,2.88455772399902,1.17885613441467,-0.082406855753501,2.93035901258777,1.1938708594761,2139.581,2878.236,2627.427,976.2863,-0.1370196,0.008198135,-0.004673315,0.0393119603395462,-0.272331297397614,0.144971206784248,-0.132845337826091,-0.057159637597476,0.0822375924153778,4
0.5,-0.0356607735157013,2.87894511222839,1.18179500102997,-0.085166398670376,2.92917165836334,1.1955791479969,2108.088,2881.835,2713.936,930.2056,-0.1390261,0.009087579,-0.0009384979,0.031740989536047,-0.280628263950348,0.146945208311081,-0.142884000065179,-0.0614789935111996,0.0884520025491718,4
0.519989013671875,-0.0351877585053444,2.87317442893982,1.18477082252502,-0.0881248588203387,2.92789871561062,1.19741057576073,2075.001,2889.639,2816.284,870.8002,-0.141996,0.01006116,0.002807173,0.0236509814858437,-0.288536846637726,0.148789957165718,-0.153166947611899,-0.0659034585682559,0.0948176369253132,4
0.53997802734375,-0.0348880812525749,2.86724805831909,1.1877943277359,-0.0912913676125048,2.92653625533937,1.19937079554481,2045.436,2886.38,2906.187,833.4006,-0.1451513,0.01101612,0.006912904,0.0149832712486386,-0.296316385269165,0.151174142956734,-0.16369851368286,-0.0704348972306956,0.101337178011302,4
0.55999755859375,-0.0347738415002823,2.86116647720337,1.19088792800903,-0.094676112580471,2.92507989413848,1.20146611391775,2040.771,2878.959,2956.358,815.1511,-0.1478193,0.01187084,0.01147158,0.00571242719888687,-0.304080009460449,0.154680132865906,-0.17448465888317,-0.0750758741803766,0.108014315705644,4
0.579986572265625,-0.0348559021949768,2.85493159294128,1.19407188892365,-0.0982734311149,2.92353206847056,1.2036930254546,2058.969,2877.143,2967.1,805.884,-0.14974,0.01259158,0.01642893,-0.00410308036953211,-0.311749696731567,0.159195482730865,-0.185481935470438,-0.0798076950675377,0.114822153786096,4
0.5999755859375,-0.0351434387266636,2.84854817390442,1.19735765457153,-0.102092760004862,2.92188871794891,1.20605737197736,2082.494,2873.824,2953.685,815.2366,-0.1508782,0.01319776,0.02158532,-0.0143768424168229,-0.319166451692581,0.164287224411964,-0.196696165293826,-0.0846328648712294,0.121764296254622,4
0.6199951171875,-0.0356439463794231,2.84202408790588,1.20075356960297,-0.106144683970236,2.92014528826426,1.20856570593183,2115.677,2873.219,2922.326,830.19,-0.1514263,0.01372788,0.02666909,-0.0250256452709436,-0.326207548379898,0.169796600937843,-0.208134604141382,-0.0895545055543457,0.128845234789665,4
0.639984130859375,-0.0363626629114151,2.83536911010742,1.2042578458786,-0.110420882305709,2.91830535958365,1.21121287640506,2148.523,2882.866,2894.861,831.3448,-0.1518433,0.01422783,0.03153528,-0.0359357967972755,-0.332746833562851,0.175214067101479,-0.219752140575416,-0.0945532069255159,0.136037043262338,4
0.65997314453125,-0.0373035781085491,2.82859420776367,1.20786166191101,-0.114931182097002,2.91636470358665,1.21400496683125,2163.429,2887.927,2888.148,835.6976,-0.1524191,0.01474374,0.03609224,-0.0470456406474113,-0.338746577501297,0.180193841457367,-0.231555939228262,-0.0996320517258771,0.143344156921357,4
0.67999267578125,-0.0384705737233162,2.82170844078064,1.21156144142151,-0.119686638739014,2.91431856344567,1.21694882102647,2175.278,2892.264,2894.805,833.2631,-0.1532985,0.01529531,0.040302,-0.0583501905202866,-0.344287216663361,0.184986531734467,-0.243554411173546,-0.104794659005432,0.150771782621969,4
0.699981689453125,-0.0398669578135014,2.81471967697144,1.21535241603851,-0.124676182095571,2.91217170233105,1.22003758604909,2184.624,2902.928,2918.264,811.6519,-0.1546498,0.01588026,0.04428061,-0.0698191300034523,-0.349438071250916,0.189547404646873,-0.25570106256044,-0.110021023759057,0.158291138455704,4
0.720001220703125,-0.0414962619543076,2.80763363838196,1.21923136711121,-0.129918284978346,2.90991617190799,1.22328269744952,2181.155,2904.83,2956.702,798.1489,-0.1563457,0.01649628,0.04812427,-0.0814654231071472,-0.354298055171967,0.193949744105339,-0.268023157655716,-0.11532287703907,0.16591910230247,4
0.739990234375,-0.0433629564940929,2.80045342445374,1.22320640087128,-0.135400001298574,2.90755754251682,1.2266761409821,2187.656,2905.954,2987.156,785.2848,-0.1581907,0.01712316,0.05187418,-0.0933345705270767,-0.359009087085724,0.198753967881203,-0.280473432677602,-0.12067988256057,0.173626415629864,5
0.759979248046875,-0.045470368117094,2.7931821346283,1.22727715969086,-0.141131974150567,2.90509123473139,1.23022450522921,2192.782,2913.313,3025.796,758.2872,-0.1601545,0.01774439,0.05568763,-0.105370685458183,-0.363560318946838,0.20353576540947,-0.293060978423328,-0.126095951839638,0.181418706074426,5
0.779998779296875,-0.0478232614696026,2.78582072257996,1.23145723342896,-0.147126184485884,2.90251209348295,1.23393520697061,2201.615,2907.102,3042.739,764.5049,-0.1619085,0.01835579,0.05945257,-0.117644511163235,-0.368072956800461,0.209004268050194,-0.305795832832518,-0.131575403921268,0.189302187598958,5
0.79998779296875,-0.0504242591559887,2.77837133407593,1.23574924468994,-0.153366821193532,2.89982692185086,1.2377984583754,2223.969,2920.344,3059.167,736.4028,-0.1636603,0.01894134,0.06327401,-0.130049720406532,-0.37247109413147,0.214597940444946,-0.318629798715703,-0.137097500901303,0.197247023847227,5
0.819976806640625,-0.0532762221992016,2.77083587646484,1.24015748500824,-0.159865102720482,2.89703089285078,1.24182120419666,2231.558,2916.391,3070.911,745.5695,-0.1652427,0.01952082,0.06703874,-0.142598390579224,-0.376775175333023,0.220413371920586,-0.331572942526109,-0.142666574093344,0.205259446433311,5
0.839996337890625,-0.0563813485205173,2.76321649551392,1.24468612670898,-0.166633637018892,2.89411858163313,1.24601124935738,2251.342,2922.568,3078.43,736.7109,-0.1667453,0.02009511,0.0707225,-0.155256569385529,-0.380970418453217,0.226430863142014,-0.344636106234817,-0.148287288494656,0.213346167053785,5
0.8599853515625,-0.0597411505877972,2.75551533699036,1.24933791160583,-0.173653699721778,2.89109804476993,1.25035700258242,2270.783,2929.529,3084.129,729.3626,-0.1682867,0.02066911,0.07429864,-0.167990058660507,-0.385053306818008,0.232586517930031,-0.357770416714212,-0.153938615363784,0.221476930914505,5
0.879974365234375,-0.0633561015129089,2.74773573875427,1.25410783290863,-0.180937139259224,2.88796418421271,1.25486579861444,2280.122,2934.152,3104.102,719.9609,-0.1699406,0.02125469,0.07779102,-0.180747598409653,-0.388984888792038,0.238499000668526,-0.370986786595025,-0.159625250100867,0.229658493453734,5
0.899993896484375,-0.0672280639410019,2.73987865447998,1.25900268554688,-0.18849723509595,2.8847112861788,1.25954585807468,2291.984,2933.299,3115.255,724.2222,-0.17158,0.02186163,0.08110958,-0.193597838282585,-0.39285883307457,0.244742691516876,-0.384296738353309,-0.165352150505452,0.237897987633041,5
0.91998291015625,-0.0713570713996887,2.73194599151611,1.26401972770691,-0.196312316554895,2.88134867495511,1.26438376578173,2312.21,2946.439,3136.279,695.2371,-0.1734506,0.02247379,0.08437783,-0.206450685858727,-0.396629363298416,0.25085124373436,-0.397650971463704,-0.171098103938772,0.246164894078718,5
0.94000244140625,-0.0757440328598022,2.72393894195557,1.26915943622589,-0.204407453948074,2.87786556348678,1.26939504145298,2314.91,2942.923,3160.875,697.8707,-0.1753612,0.02310876,0.08754835,-0.219347879290581,-0.400349110364914,0.256987303495407,-0.411081631631503,-0.176876941799768,0.254479112513653,5
0.959991455078125,-0.0803901851177216,2.71585750579834,1.2744277715683,-0.212759000778906,2.87427212620069,1.27456504678061,2333.01,2948.158,3177.688,684.778,-0.1773111,0.02375688,0.09062966,-0.232308030128479,-0.404069066047668,0.263417303562164,-0.424539267042903,-0.182667386354485,0.262810029909387,5
0.97998046875,-0.0852952003479004,2.70770287513733,1.27981960773468,-0.221379956358585,2.87056276985637,1.27990182895749,2343.964,2953.677,3208.907,662.942,-0.1793698,0.02441235,0.09371587,-0.245250642299652,-0.407727062702179,0.26959165930748,-0.438035925118965,-0.188474621271639,0.271165104193453,5
1,-0.0904611945152283,2.69947385787964,1.28534662723541,-0.230284798736574,2.86673126495361,1.28541435058594,2354.796,2948.95,3219.577,674.0479,-0.1812595,0.02508995,0.09666771,-0.258300721645355,-0.411452949047089,0.27635332942009,-0.451584000205995,-0.194303979492187,0.279552008056641,5
1.01998901367188,-0.0958871841430664,2.69117116928101,1.29100430011749,-0.239446912293295,2.86278906344998,1.29108613532954,2380.907,2964.549,3242.314,635.2236,-0.1833283,0.02576008,0.09965058,-0.271299004554749,-0.415133416652679,0.28288522362709,-0.46513400752272,-0.200134169097193,0.287940108062054,5
1.03997802734375,-0.101573958992958,2.68279433250427,1.29679679870605,-0.248880035413094,2.85873025410248,1.29692568790267,2383.168,2956.817,3259.268,650.8926,-0.1852761,0.02645477,0.1025266,-0.284339278936386,-0.41884571313858,0.289627611637115,-0.478698517198992,-0.205970598662363,0.296337185718871,5
1.05999755859375,-0.107521206140518,2.67434334754944,1.30272400379181,-0.258599401509697,2.85454828239877,1.30294243851408,2404.913,2965.352,3279.015,627.365,-0.1872564,0.0271568,0.1053632,-0.297362208366394,-0.42254838347435,0.296363264322281,-0.492290296490434,-0.211818761581115,0.30475114456651,5
1.07998657226563,-0.113729372620583,2.66581749916077,1.30879199504852,-0.268575430648764,2.85025587575821,1.30911807577533,2421.338,2967.971,3288.522,626.0381,-0.1892197,0.02787378,0.1081003,-0.310408115386963,-0.426297932863235,0.303398668766022,-0.50586005237609,-0.217657448443621,0.313151469876847,5
1.0999755859375,-0.120196342468262,2.65721797943115,1.31499087810516,-0.278822628233634,2.845846792911,1.31546157922208,2434.554,2974.156,3320.552,600.2441,-0.1913306,0.02859584,0.1108489,-0.323349297046661,-0.429979175329208,0.309942454099655,-0.519420764586993,-0.223492244065532,0.321546196721701,5
1.1199951171875,-0.1269241720438,2.64854264259338,1.32133448123932,-0.289357002179081,2.84131414609862,1.32198285851614,2443.047,2967.195,3326.15,621.6593,-0.1932235,0.02935473,0.1134131,-0.336392432451248,-0.433771401643753,0.317181497812271,-0.532985466132485,-0.229328756186667,0.329943393154705,5
1.13998413085938,-0.133909940719604,2.63979291915894,1.32781207561493,-0.300146026259498,2.83667193044725,1.3286617783744,2473.858,2986.195,3355.612,567.7016,-0.1954132,0.03009927,0.1160416,-0.349286824464798,-0.437490612268448,0.323880642652512,-0.546505271550557,-0.235145950758426,0.338312796746137,5
1.15997314453125,-0.141154795885086,2.63096690177917,1.33443236351013,-0.311204994190806,2.83191356549821,1.33550780633558,2470.189,2973.08,3369.134,599.0726,-0.1974015,0.03088434,0.1185112,-0.362243950366974,-0.441298842430115,0.331012576818466,-0.559993461530388,-0.240949542090342,0.346662628875245,6
1.17999267578125,-0.148656621575356,2.622065782547,1.34118807315826,-0.322550701230474,2.8270318247214,1.34253133946411,2497.856,2986.512,3399.069,553.966,-0.1995448,0.03166525,0.12101,-0.375090390443802,-0.445061475038528,0.337785243988037,-0.573463232144024,-0.246745208083563,0.355001058539242,6
1.19998168945313,-0.156417086720467,2.61308670043945,1.3480931520462,-0.334147705564643,2.8220419577392,1.34971043758889,2507.327,2981.878,3401.247,575.2786,-0.201515,0.03247799,0.1233502,-0.388022571802139,-0.448958039283752,0.34525454044342,-0.586866312357874,-0.25251217906087,0.363298203668868,6
1.22000122070313,-0.164431348443031,2.60403251647949,1.35512709617615,-0.346030421585499,2.81692915700008,1.35706640485806,2529.809,2994.978,3447.211,518.0847,-0.203792,0.03327137,0.1258126,-0.400714159011841,-0.452713370323181,0.35169443488121,-0.600236516861372,-0.258265004538453,0.371574997167698,6
1.239990234375,-0.172704517841339,2.59489774703979,1.36231994628906,-0.358161486344149,2.81170949873715,1.36457611182642,2529.593,2979.164,3431.586,580.0238,-0.205588,0.03413031,0.1279711,-0.4136583507061,-0.456734269857407,0.359640389680862,-0.613526094901141,-0.263983138701136,0.379801879044709,6
1.25997924804688,-0.181227430701256,2.585688829422,1.36963176727295,-0.370557537648727,2.80637582416637,1.37224985808977,2570.787,3008.302,3499.457,463.6749,-0.2080344,0.03492534,0.1304326,-0.426147848367691,-0.46044996380806,0.365592241287231,-0.626748599474006,-0.269672413024826,0.387987239250554,6
1.27999877929688,-0.190010011196136,2.57639670372009,1.37711429595947,-0.383236695417198,2.80092033679326,1.3800988607405,2546.045,2972.425,3460.57,595.8386,-0.2095476,0.03583774,0.1323899,-0.439127773046494,-0.464605242013931,0.374126881361008,-0.639917282339435,-0.275338529371412,0.396139281255613,6
1.29998779296875,-0.199038118124008,2.56703090667725,1.38470840454102,-0.396158759015336,2.79536033382764,1.388098233671,2620.942,3026.331,3544.505,402.0653,-0.2121788,0.03662362,0.1348536,-0.451403915882111,-0.468287825584412,0.379704773426056,-0.652985332144132,-0.280961346123326,0.404229026602261,6
1.31997680664063,-0.208325505256653,2.55757975578308,1.39248204231262,-0.409341180862083,2.78968830598122,1.39625878075997,2562.623,2968.282,3487.227,610.2601,-0.213504,0.03758198,0.136633,-0.464371651411057,-0.472559452056885,0.388681143522263,-0.665966334939128,-0.286546708978778,0.412264885703281,6
1.33999633789063,-0.217852666974068,2.54805731773376,1.40035104751587,-0.422802873722428,2.78389611561957,1.40459220990988,2660.125,3036.406,3605.136,342.686,-0.2163195,0.03835856,0.1391248,-0.476356267929077,-0.476126819849014,0.393452346324921,-0.678873453515705,-0.29210028151913,0.420255006953505,6
1.3599853515625,-0.227642476558685,2.53844428062439,1.40842640399933,-0.436500861174643,2.77800225429635,1.41307191666844,2580.924,2962.966,3491.254,648.1608,-0.2172106,0.03938849,0.1406041,-0.489491403102875,-0.480649143457413,0.403767377138138,-0.69166099897751,-0.297602405088682,0.428171106749628,6
1.37997436523438,-0.237660795450211,2.52876591682434,1.41655969619751,-0.45045340944128,2.77199886256629,1.42170920869753,2718.221,3061.593,3686.929,224.8233,-0.2206424,0.04009765,0.1433229,-0.500916600227356,-0.483915269374847,0.406662970781326,-0.704342498157629,-0.303058899905815,0.436021558845703,7
1.39999389648438,-0.247949928045273,2.51898908615112,1.42494344711304,-0.464680216184654,2.76587746507559,1.43051627978847,2563.369,2934.809,3479.35,762.3495,-0.2206333,0.04126307,0.144321,-0.514454066753387,-0.488837063312531,0.419189542531967,-0.716930938559026,-0.308475354130225,0.443814403124744,7
1.41998291015625,-0.258451700210571,2.5091564655304,1.43333113193512,-0.479135601808478,2.75965771647838,1.43946485209513,2809.77,3105.91,3786.755,33.48705,-0.2250265,0.0418441,0.1474466,-0.525092363357544,-0.491631776094437,0.419387072324753,-0.729381927869995,-0.313832666990362,0.451522158631107,7
1.44000244140625,-0.269238352775574,2.49921274185181,1.4420393705368,-0.493861275572861,2.75332167044526,1.4485807456364,2520.873,2895.632,3429.878,951.9695,-0.2237156,0.04320749,0.1477709,-0.539332747459412,-0.497189104557037,0.435413032770157,-0.741727567798258,-0.319144650954242,0.459164697851088,7
1.45999145507813,-0.280226647853851,2.4892098903656,1.4507462978363,-0.508809800712713,2.74688973769103,1.45783459479497,2723.461,3318.544,3737.88,0,-0.2279309,0.0443754,0.151904,-0.549416363239288,-0.500137448310852,0.43534842133522,-0.753924423002454,-0.324392617007921,0.466715132239272,7
1.47998046875,-0.291492879390717,2.4790985584259,1.45975434780121,-0.524000783579472,2.74035348215039,1.46723853683636,2590.22,2806.688,3413.493,1033.379,-0.2263197,0.04628453,0.1519849,-0.56330817937851,-0.50556468963623,0.450401276350021,-0.76598572865452,-0.329582259876133,0.474181654997567,7
1.5,-0.302952587604523,2.46893548965454,1.4687397480011,-0.539455198877605,2.73370387899399,1.4768055561018,2778.622,3284.01,3766.878,0,-0.2304865,0.04791632,0.1554448,-0.572985291481018,-0.508153021335602,0.449272304773331,-0.777924000354858,-0.334718964672088,0.481572013878822,7
1.51998901367188,-0.314687311649323,2.45866942405701,1.47802686691284,-0.555123050061237,2.72696244033876,1.48650470234772,2665.206,2791.14,3443.647,995.5888,-0.229149,0.05016947,0.1546313,-0.586737811565399,-0.513299822807312,0.464354038238525,-0.789697369743256,-0.339784716610053,0.488860290373601,7
1.53997802734375,-0.326610863208771,2.44835257530212,1.48730409145355,-0.571024729446907,2.7201203919406,1.49634859938949,2754.101,3354.967,3769.446,0,-0.2335534,0.05231012,0.1576763,-0.596175611019135,-0.515846967697144,0.463862240314484,-0.801318788528229,-0.344785088448372,0.496054502206448,7
1.55999755859375,-0.338792890310287,2.43794441223145,1.49683105945587,-0.587181951496087,2.71316839067337,1.50635068951315,2746.631,2761.888,3553.835,874.0343,-0.2334037,0.05481508,0.1566152,-0.609101891517639,-0.520403802394867,0.476345747709274,-0.812800388649436,-0.349725300221754,0.503162159625937,7
1.57998657226563,-0.35116446018219,2.42748641967773,1.5063636302948,-0.603542258451077,2.7061290076447,1.51647849886779,2823.751,3255.134,3849.439,0,-0.2380195,0.05705046,0.1585924,-0.618579387664795,-0.522903382778168,0.476627975702286,-0.82410201904291,-0.354588076049064,0.510158407210813,7
1.5999755859375,-0.363782703876495,2.41694402694702,1.51611232757568,-0.620126809287134,2.69899313873865,1.52674512586702,2805.602,2791.051,3703.688,677.2279,-0.2389979,0.05941784,0.1574708,-0.630911767482758,-0.527118861675262,0.487437576055527,-0.835236272052476,-0.359378834064062,0.517051040221759,7
1.6199951171875,-0.376594483852386,2.40634560585022,1.5258971452713,-0.636958033083316,2.69175113334911,1.53716445517924,2844.19,3198.056,3931.777,0,-0.2433884,0.06150465,0.1590199,-0.640590310096741,-0.529923260211945,0.489241570234299,-0.846214826007804,-0.364102599125749,0.523847288101157,7
1.63998413085938,-0.389643847942352,2.39566206932068,1.5358794927597,-0.653981118189727,2.68442657539777,1.54770255578211,2859.337,2827.362,3816.282,510.9548,-0.2448787,0.06355421,0.158369,-0.652466416358948,-0.534180998802185,0.499119192361832,-0.856999388527105,-0.368742895092007,0.53052344604056,7
1.65997314453125,-0.402887850999832,2.3849151134491,1.5459144115448,-0.671217966514002,2.67701004110563,1.55837298599979,2878.973,3135.31,3999.797,0,-0.2487723,0.06528531,0.1599277,-0.662200927734375,-0.537350475788116,0.501747131347656,-0.86760212115283,-0.373304954734798,0.537087042614082,7
1.67999267578125,-0.416364133358002,2.37407851219177,1.5561408996582,-0.688691692550512,2.66949158495151,1.56919005480539,2881.093,2856.32,3884.698,427.7783,-0.2499419,0.066957,0.1598213,-0.673814296722412,-0.541828155517578,0.51132345199585,-0.878034183119987,-0.377793579561193,0.543544985919778,7
1.69998168945313,-0.430035412311554,2.36317110061646,1.56643748283386,-0.706345246291743,2.66189575395985,1.5801184455266,2923.017,3110.73,4018.716,0,-0.2530957,0.06829333,0.1616101,-0.683563768863678,-0.545372784137726,0.514828264713287,-0.88825927318574,-0.382193150160541,0.549874803759068,8
1.72000122070313,-0.443931758403778,2.35217189788818,1.57691490650177,-0.724228658537036,2.6542010212754,1.5911891296115,2903.299,2888.166,3913.379,380.2036,-0.2539079,0.06958507,0.1620736,-0.694817245006561,-0.549958825111389,0.523869633674622,-0.898304216251578,-0.386515208538549,0.556093102023817,8
1.739990234375,-0.45801916718483,2.34110116958618,1.58745944499969,-0.74228345468553,2.64643254688532,1.60236590849663,2971.679,3074.593,4044.241,0,-0.2565657,0.07048985,0.1640352,-0.70437079668045,-0.553537786006927,0.527225732803345,-0.908134108040217,-0.390744736359816,0.562178273303667,8
1.75997924804688,-0.472330212593079,2.32993650436401,1.59819400310516,-0.760532711099173,2.63858040167573,1.61366306754931,2904.213,2920.719,3910.435,389.2934,-0.2567884,0.07146431,0.1647829,-0.715550541877747,-0.558236420154572,0.536728203296661,-0.917760245372929,-0.394886594330938,0.568137310869129,8
1.77999877929688,-0.486825942993164,2.31870198249817,1.60898876190186,-0.779000609654483,2.63063418086074,1.62509557650306,2971.738,3108.861,4047.429,0,-0.2590345,0.07214463,0.1672093,-0.724787533283234,-0.561721682548523,0.539740145206451,-0.927192788821983,-0.398945154262308,0.57397650459845,8
1.79998779296875,-0.501545011997223,2.307373046875,1.61998701095581,-0.797626646773287,2.62261991743975,1.63662598076079,2913.983,2929.075,3877.204,444.7933,-0.2586079,0.07301339,0.1680973,-0.735956847667694,-0.566450357437134,0.549912452697754,-0.936399026186941,-0.402906341007953,0.579675604081262,8
1.81997680664063,-0.516439914703369,2.29598069190979,1.631028175354,-0.816434558901977,2.61452739828301,1.64826897431355,2970.539,3150.208,4044.885,0,-0.2606478,0.07367528,0.1708831,-0.744742572307587,-0.569614589214325,0.552057683467865,-0.945389654806995,-0.406774757334075,0.585241231480109,8
1.83999633789063,-0.531557261943817,2.28449869155884,1.6422780752182,-0.835449117627072,2.60634596486888,1.66003989195343,2922.106,2914.463,3859.018,510.5844,-0.259647,0.07462426,0.1716351,-0.755868673324585,-0.574101448059082,0.562496602535248,-0.954174163352093,-0.410554485950274,0.590679260733698,8
1.8599853515625,-0.546844780445099,2.27296090126038,1.65356719493866,-0.854607925216182,2.59810246519841,1.67190010651166,2984.173,3189.42,4031.368,0,-0.2615155,0.07541835,0.1744214,-0.764381885528564,-0.576891720294952,0.564453661441803,-0.962722140342816,-0.41423244164655,0.595970865687568,8
1.87997436523438,-0.562348186969757,2.26134490966797,1.66504919528961,-0.873935340558452,2.5897864183221,1.683864697301,2955.985,2904.922,3876.642,506.3421,-0.2606148,0.07646351,0.1749915,-0.775165259838104,-0.580798804759979,0.574099540710449,-0.971043628570469,-0.417812945555442,0.601122263307942,8
1.89999389648438,-0.578017354011536,2.24968433380127,1.67656326293945,-0.893456683142228,2.58138692997148,1.69594933829086,3005.792,3174.439,4062.869,0,-0.2624886,0.07733149,0.1774224,-0.783463597297668,-0.583033323287964,0.575706422328949,-0.979147395688901,-0.421299770153459,0.606138881190213,8
1.91998291015625,-0.59389990568161,2.23795509338379,1.68827164173126,-0.91310780215452,2.5729316024492,1.70811431707208,2988.485,2912.838,3902.42,476.5068,-0.2617312,0.0784108,0.1776976,-0.794122874736786,-0.586466670036316,0.585417866706848,-0.98700543065471,-0.424680863071164,0.611003379164165,9
1.94000244140625,-0.60994416475296,2.22618818283081,1.70001304149628,-0.932943991899774,2.5643966441608,1.72039386345315,2990.09,3205.335,4080.614,0,-0.2635997,0.07940684,0.1800623,-0.802214801311493,-0.588333904743195,0.587071180343628,-0.994638524886308,-0.427965170275055,0.615728628108227,9
1.95999145507813,-0.626194298267365,2.21436357498169,1.71193325519562,-0.952900013794853,2.55581012544606,1.73274759164336,3021.602,2900.459,3945.387,442.0112,-0.2630106,0.08053958,0.1802569,-0.812508583068848,-0.591243326663971,0.596010565757751,-1.00202031904361,-0.431141350077486,0.620298310335216,9
1.97998046875,-0.642603754997253,2.20250844955444,1.72388875484467,-0.973001172086935,2.54716115859433,1.74519116617712,3012.507,3182.287,4111.139,0,-0.2647219,0.08156426,0.1823231,-0.820473968982697,-0.592749297618866,0.597776532173157,-1.0091596546337,-0.434213206731958,0.624717899159203,9
2,-0.659210920333862,2.19060635566711,1.73600566387177,-0.993273599084619,2.53843849960327,1.7577407641983,3053.702,2902.507,4003.997,374.4217,-0.2642921,0.08262808,0.1824758,-0.830360054969788,-0.595113754272461,0.605845749378204,-1.01606400046349,-0.437183953857422,0.628992018127441,9
2.01998901367188,-0.675977349281311,2.17867827415466,1.74817204475403,-1.01365055070775,2.52967086658596,1.77035506794184,3044.433,3158.735,4129.012,0,-0.265768,0.0835468,0.1842354,-0.838322460651398,-0.596399188041687,0.608319699764252,-1.02270954399163,-0.440043345582587,0.633105926142498,9
2.03997802734375,-0.692928850650787,2.16671419143677,1.76047039031982,-1.03415783849082,2.52084715356021,1.78305005597715,3084.995,2918.763,4072.664,277.2162,-0.265743,0.08438118,0.1845881,-0.847573637962341,-0.598188877105713,0.614915907382965,-1.02910434715509,-0.442794850733705,0.637064613927399,9
2.05999755859375,-0.710038065910339,2.15473103523254,1.77282190322876,-1.05482201812353,2.5119559343546,1.79584216754118,3080.333,3095.567,4178.289,0,-0.2669803,0.08498502,0.1860665,-0.855463564395905,-0.599164247512817,0.617575109004974,-1.03525504859546,-0.445441325732794,0.640872191117535,9
2.07998657226563,-0.72732800245285,2.14271664619446,1.7853068113327,-1.07557499515204,2.50302650811029,1.80868924892322,3094.901,2954.071,4104.669,218.6641,-0.2668727,0.0854988,0.1866109,-0.864497363567352,-0.600721836090088,0.62424772977829,-1.04114045847258,-0.4479736531836,0.644515540192423,9
2.0999755859375,-0.74477082490921,2.13068580627441,1.79784548282623,-1.09644304044274,2.49404757120739,1.82160756304102,3070.193,3107.499,4192.759,0,-0.2677729,0.08584878,0.188388,-0.872139573097229,-0.601537823677063,0.626931071281433,-1.04676782045836,-0.450394949835787,0.647999145330045,9
2.1199951171875,-0.762388050556183,2.11862826347351,1.81051206588745,-1.11745308225396,2.48500753716864,1.83461377976925,3090.266,2959.665,4113.875,223.3107,-0.267187,0.08615978,0.1892524,-0.880863010883331,-0.602874994277954,0.633330702781677,-1.0521429102862,-0.45270770082608,0.651326581984514,9
2.13998413085938,-0.780152916908264,2.10655927658081,1.82323086261749,-1.13853583516761,2.47593621757383,1.84766500813359,3100.964,3095.035,4189.826,0,-0.2676488,0.08626235,0.1911467,-0.888244032859802,-0.603443741798401,0.635937511920929,-1.05724722779031,-0.454903946049977,0.654486397671922,9
2.15997314453125,-0.798085570335388,2.09447002410889,1.83607196807861,-1.15971797923886,2.46682213274057,1.86077776435915,3088.616,2976.722,4108.394,227.824,-0.2666937,0.08637106,0.1921926,-0.896628618240356,-0.604464292526245,0.642054080963135,-1.06208716414724,-0.456986435452193,0.657482548835001,9
2.17999267578125,-0.816157460212708,2.08237814903259,1.8489533662796,-1.18102676265167,2.45765355853653,1.8739689163698,3110.747,3092.159,4196.341,0,-0.266869,0.08625784,0.1942085,-0.903599381446838,-0.604590952396393,0.644071161746979,-1.06666760390386,-0.458957270716794,0.660318059240953,10
2.19998168945313,-0.834396362304688,2.07026982307434,1.86197352409363,-1.20239187218348,2.44846074877705,1.8871949369313,3079.344,2996.526,4066.042,274.7192,-0.265368,0.08626297,0.1952369,-0.911938488483429,-0.60542094707489,0.651006400585175,-1.07097279461286,-0.460809674005774,0.6629831773745,10
2.22000122070313,-0.852761924266815,2.05816841125488,1.87501442432404,-1.22387315175433,2.43921795429519,1.90049287228091,3081.503,3146.023,4181.365,0,-0.2654202,0.08614196,0.1976374,-0.918282747268677,-0.605076372623444,0.652046501636505,-1.07501419914593,-0.462548577472581,0.665484999299265,10
2.239990234375,-0.871292412281036,2.04605579376221,1.88820564746857,-1.24539969505118,2.42995568409656,1.91381882803312,3065.388,2985.401,4012.369,366.3398,-0.2632881,0.08626744,0.1985152,-0.926524519920349,-0.605633139610291,0.659561693668365,-1.07877792518082,-0.464168003639063,0.667814925005999,10
2.25997924804688,-0.889936566352844,2.03396153450012,1.90139603614807,-1.26699874763832,2.42066221517598,1.92718967049012,3063.338,3192.657,4161.335,0,-0.2632508,0.08631842,0.20108,-0.93221241235733,-0.604710280895233,0.659518361091614,-1.08226887897249,-0.465670063529659,0.669975991700231,10
2.27999877929688,-0.908741295337677,2.02186608314514,1.91473948955536,-1.28869796983554,2.41132564607061,1.9406225227075,3065.553,2964.681,3974.655,434.9524,-0.2607219,0.08666686,0.2016095,-0.940233588218689,-0.604776263237,0.667171239852905,-1.08549040888332,-0.467056197851165,0.67197027217779,10
2.29998779296875,-0.927649319171906,2.00980043411255,1.9280709028244,-1.31042570636616,2.40197680804417,1.95407302665558,3059.219,3229.305,4135.628,0,-0.2607389,0.08695199,0.2040248,-0.945399224758148,-0.603269755840302,0.666571855545044,-1.08843144721369,-0.468321644481621,0.673790915005368,10
2.31997680664063,-0.946706414222717,1.99774849414825,1.94153714179993,-1.33220946960077,2.39260386329221,1.96755821380235,3082.526,2946.823,3976.79,438.2469,-0.2584608,0.08746247,0.2042156,-0.952860355377197,-0.602609753608704,0.673309564590454,-1.09109597826566,-0.469468117754907,0.675440386655758,10
2.33999633789063,-0.965858161449432,1.98573958873749,1.9549800157547,-1.35407709248145,2.38319483607731,1.98109531406483,3058.982,3217.587,4151.053,0,-0.2586569,0.08787449,0.2062288,-0.957580506801605,-0.600446999073029,0.672142088413239,-1.09348640563071,-0.470496651869278,0.67692017506657,10
2.3599853515625,-0.985151469707489,1.97375535964966,1.96855282783508,-1.37595634130987,2.37378080654189,1.99463961134278,3098.655,2945.123,3989.693,411.7141,-0.2566675,0.08843783,0.2060852,-0.964668214321136,-0.599210977554321,0.678639888763428,-1.09559452046326,-0.471403714787811,0.678225198571351,10
2.37997436523438,-1.00453078746796,1.96182298660278,1.9820967912674,-1.39787493938994,2.36434984612278,2.00820826768196,3029.516,3235.394,4159.945,0,-0.2569737,0.08896439,0.2079798,-0.968970358371735,-0.596614837646484,0.677198350429535,-1.09742336725307,-0.472190616469403,0.679357341854299,10
2.39999389648438,-1.02404034137726,1.94992661476135,1.99575066566467,-1.41986083522252,2.35488992936084,2.02181858453579,3109.089,2924.418,4024.74,380.2991,-0.2551537,0.08955013,0.2077469,-0.97547310590744,-0.594816923141479,0.682695269584656,-1.09897439291323,-0.472857979480329,0.680317500623536,10
2.41998291015625,-1.04363167285919,1.93808841705322,2.00938200950623,-1.4418413890156,2.34543231112926,2.03542559441269,3048.605,3206.215,4164.326,0,-0.2553258,0.09003258,0.2093127,-0.979573726654053,-0.591918468475342,0.681565463542938,-1.10024227275454,-0.473403512755585,0.681102378642803,10
2.44000244140625,-1.06333768367767,1.92629766464233,2.02309226989746,-1.46387808506052,2.33595053645515,2.04906735901791,3126.706,2925.54,4077.872,296.4155,-0.2538946,0.09041878,0.2091664,-0.985295593738556,-0.58953869342804,0.685509622097015,-1.10123038958312,-0.473828671822132,0.681714070030222,10
2.45999145507813,-1.08312225341797,1.91457033157349,2.03678584098816,-1.48589810917879,2.32647593524532,2.06269880290633,3075.526,3147.188,4187.027,0,-0.2539095,0.09059848,0.2103939,-0.989234924316406,-0.586358785629272,0.684675812721252,-1.10193535162022,-0.474131997292339,0.68215047511319,10
2.47998046875,-1.1030091047287,1.90289878845215,2.05053853988647,-1.50792940965705,2.3169964821328,2.07633722739875,3123.875,2947.98,4123.718,216.0859,-0.252669,0.09060374,0.2105002,-0.994339942932129,-0.583577215671539,0.687635838985443,-1.10235860927677,-0.474314113237503,0.682412491765153,10
2.5,-1.12297022342682,1.89129495620728,2.06427693367004,-1.52999999932945,2.30750012397766,2.08999997377396,3079.575,3108.403,4207.598,0,-0.2523537,0.09036241,0.2117602,-0.998058021068573,-0.580198645591736,0.686924278736115,-1.10250000050292,-0.474374949932098,0.682500019669533,10
2.51998901367188,-1.14302778244019,1.8797482252121,2.07807850837708,-1.5520369476803,2.29801824074336,2.10364189456856,3102.633,2976.763,4114.247,201.8486,-0.2507206,0.08999765,0.212215,-1.00288355350494,-0.57733017206192,0.690077185630798,-1.10235904000526,-0.474314298567936,0.682412758406603,11
2.53997802734375,-1.1631498336792,1.86827313899994,2.09185338020325,-1.57406826106879,2.28853878207593,2.11728032705303,3063.474,3110.549,4203.07,0,-0.2500075,0.08939654,0.2139028,-1.00609946250916,-0.5737584233284,0.68873792886734,-1.10193621258339,-0.474132367740737,0.682151008090402,11
2.55999755859375,-1.18336641788483,1.85685515403748,2.10570597648621,-1.59612191359838,2.27904971150017,2.13093258853001,3056.655,2987.609,4056.356,279.0218,-0.2473949,0.08885585,0.2145863,-1.01083207130432,-0.570890247821808,0.69263219833374,-1.10123038958312,-0.473828671822132,0.681714070030222,11
2.57998657226563,-1.20363473892212,1.84551453590393,2.11951470375061,-1.61812503288753,2.26958238396605,2.14455356752391,3052.648,3143.771,4161.307,0,-0.2462572,0.08807337,0.2167164,-1.01341879367828,-0.567042768001556,0.690439403057098,-1.1002439936861,-0.473404253224357,0.681103443981416,11
2.5999755859375,-1.22399520874023,1.83423328399658,2.13341617584229,-1.64010562536668,2.26012474908893,2.15816060134934,3016.844,2993.133,3963.834,390.1177,-0.2427594,0.08753139,0.2173911,-1.01802587509155,-0.564055204391479,0.695073246955872,-1.09897654259203,-0.472858904427064,0.680318831377119,11
2.6199951171875,-1.24438917636871,1.82304048538208,2.14723801612854,-1.66209156852628,2.2506648119635,2.17177094750084,3022.838,3185.182,4128.929,0,-0.241497,0.08674987,0.219854,-1.01969718933105,-0.559641480445862,0.691088557243347,-1.09742594550583,-0.472191725819537,0.679358937915576,11
2.63998413085938,-1.26488077640533,1.81190896034241,2.16119503974915,-1.6840102224118,2.24123382753286,2.18533963838626,2972.847,2995.623,3823.638,558.3466,-0.2370022,0.08646814,0.2200763,-1.02457797527313,-0.556582093238831,0.6978560090065,-1.09559752564474,-0.471405007833448,0.678227058921845,11
2.65997314453125,-1.28538143634796,1.80087792873383,2.17502474784851,-1.70588953556828,2.23181977031887,2.19888397548635,2932.722,3305.517,4073.938,0,-0.2359241,0.08610631,0.223096,-1.02503681182861,-0.551550686359406,0.691480815410614,-1.09348983658457,-0.470498128112872,0.676922298990445,10
2.67999267578125,-1.30598306655884,1.78991317749023,2.18902373313904,-1.72775723139253,2.2224107117184,2.21242112090437,2935.215,2948.144,3680.095,770.6299,-0.2304748,0.08647754,0.2225589,-1.03007960319519,-0.548235952854156,0.699947535991669,-1.09109983431736,-0.469469776906228,0.675442773735451,9
2.69998168945313,-1.32657086849213,1.77906250953674,2.20285296440125,-1.74954107593572,2.21303773198162,2.22590635838503,2862.6,3418.551,4004.865,0,-0.229736,0.08686207,0.2257018,-1.0293904542923,-0.542533278465271,0.691464185714722,-1.08843572622736,-0.468323485621663,0.673793563918671,9
2.72000122070313,-1.34725368022919,1.76829051971436,2.21685838699341,-1.77130202882336,2.20367460188472,2.23937742484041,2939.879,2882.401,3583.179,906.7543,-0.2241497,0.08798419,0.2241437,-1.03414356708527,-0.538607776165009,0.700267136096954,-1.08549040888332,-0.467056197851165,0.671970272177789,8
2.739990234375,-1.36790287494659,1.75764656066895,2.23066139221191,-1.79296822271738,2.1943522439355,2.25278983096475,2806.822,3486.42,3964.031,0,-0.2240677,0.08915811,0.226852,-1.03246259689331,-0.532185733318329,0.690147280693054,-1.08227399942825,-0.465672266718727,0.669979161506271,8
2.75997924804688,-1.38863289356232,1.74709796905518,2.24462223052979,-1.81456738183361,2.18505872917844,2.26616073936833,2971.33,2814.854,3569.045,927.1835,-0.2191952,0.0908712,0.2242639,-1.03649628162384,-0.527432441711426,0.698037624359131,-1.07878346314437,-0.464170386470068,0.667818353269249,7
2.77999877929688,-1.40931618213654,1.73668873310089,2.25837063789368,-1.83612684690458,2.17578229366013,2.27950707526701,2761.737,3506.141,3956.155,0,-0.2197987,0.09266838,0.2262312,-1.03417026996613,-0.520466804504395,0.687421202659607,-1.07501419914593,-0.462548577472581,0.665484999299265,6
2.79998779296875,-1.43005764484406,1.72639036178589,2.27223467826843,-1.85757544288233,2.1665535620153,2.29278477791556,3024.917,2757.554,3636.109,823.5078,-0.2162444,0.09462507,0.2229808,-1.03707039356232,-0.514915466308594,0.693207859992981,-1.07097916161324,-0.460812413548163,0.662987118851036,5
2.81997680664063,-1.45074713230133,1.71623611450195,2.28589916229248,-1.87894068379188,2.15736069572766,2.30601087980613,2751.962,3455.025,3978.8,0,-0.2173475,0.09662703,0.2240575,-1.03447532653809,-0.50771290063858,0.683220505714417,-1.0666743814704,-0.458960186914335,0.660322254877504,5
2.83999633789063,-1.47146368026733,1.70620703697205,2.29960775375366,-1.90024960698239,2.14819206138118,2.31920211834584,3072.321,2718.409,3794.128,606.9374,-0.2153427,0.09831692,0.2207678,-1.03582453727722,-0.501461803913116,0.685427606105804,-1.06209435025759,-0.456989527434725,0.657486997379635,4
2.8599853515625,-1.49213469028473,1.69631922245026,2.31316232681274,-1.92143189875059,2.13907791299805,2.33231496600284,2809.451,3315.731,4020.096,0,-0.2164047,0.09986109,0.22083,-1.03355312347412,-0.494383245706558,0.677731513977051,-1.05725481901126,-0.454907212340279,0.654491096999312,2
2.87997436523438,-1.51279699802399,1.68656635284424,2.32667136192322,-1.94251480742951,2.13000652638179,2.34536629079331,3108.922,2735.957,4006.519,282.6153,-0.2160628,0.1005789,0.2183332,-1.03312683105469,-0.48764705657959,0.675455987453461,-1.05215090364426,-0.452711140144745,0.65133153025393,1
2.89999389648438,-1.53342592716217,1.6769483089447,2.3400776386261,-1.96352501326936,2.1209664217661,2.35837260906308,2901.321,3096.907,4103.967,0,-0.2165656,0.1008524,0.2176604,-1.03144145011902,-0.480894207954407,0.670319497585297,-1.04677621342161,-0.450398561093403,0.648004340974112,0
2.91998291015625,-1.55402600765228,1.6674633026123,2.35339379310608,-1.98439323028747,2.1119874109737,2.37129102948832,3085.514,2824.028,4162.813,5.324437,-0.2168047,0.1000851,0.2165791,-1.02999663352966,-0.474249273538589,0.665809094905853,-1.0411492471255,-0.447977434695422,0.644520980787238,0
2.94000244140625,-1.5746009349823,1.65810179710388,2.36664414405823,-2.00517798053537,2.10304431360073,2.38415778000673,2952.128,2944.946,4157.744,0,-0.2162034,0.09869426,0.2163182,-1.02874791622162,-0.468073070049286,0.662512421607971,-1.03525504859546,-0.445441325732794,0.640872191117535,0
2.95999145507813,-1.59514892101288,1.64885663986206,2.37983059883118,-2.02581075424974,2.0941666074844,2.39693044981124,2937.24,2959.04,4132.001,0,-0.2147898,0.09671252,0.2170132,-1.02740490436554,-0.46226441860199,0.659326612949371,-1.02911391720548,-0.442798968459032,0.637070538244476,0
2.97998046875,-1.61566984653473,1.63972234725952,2.39295625686646,-2.04631823718085,2.08534281049189,2.40962555865248,2915.398,2942.595,4086.966,60.36658,-0.2122353,0.09422468,0.2183267,-1.02605378627777,-0.456708937883377,0.656286001205444,-1.0227194988233,-0.440047628868552,0.633112088657521,0
3,-1.63616752624512,1.63069438934326,2.40604066848755,-2.06672639957428,2.07656174835205,2.42225918334961,2872.941,2977.994,3989.144,146.1297,-0.2083742,0.09142774,0.2201242,-1.02488350868225,-0.451407164335251,0.654226422309875,-1.01606400046349,-0.437183953857422,0.628992018127441,0
3.01998901367188,-1.65663433074951,1.62177467346191,2.41906595230103,-2.0869680292999,2.06785234056679,2.43478971639231,2865.257,3008.027,3921.218,170.8046,-0.2039465,0.08831403,0.2224489,-1.02333927154541,-0.445981413125992,0.651266872882843,-1.00917036754089,-0.434217816196637,0.624724530959079,0
3.03997802734375,-1.67707645893097,1.61296308040619,2.43206071853638,-2.10706940546153,2.05920327997188,2.4472334257977,2797.292,3032.913,3785.933,334.7327,-0.198357,0.08520226,0.2247746,-1.02211153507233,-0.440583407878876,0.649738609790802,-1.00203140433628,-0.431146119769234,0.620305172659443,0
3.05999755859375,-1.6974732875824,1.60427379608154,2.4449565410614,-2.12705600675913,2.05060360379452,2.45960608409476,2827.737,3048.363,3794.269,258.6208,-0.1933162,0.0817996,0.2274916,-1.0198301076889,-0.434450417757034,0.644793093204498,-0.994638524886308,-0.427965170275055,0.615728628108227,0
3.07998657226563,-1.71785664558411,1.5957008600235,2.45787286758423,-2.14686207530873,2.04208160581513,2.47186698402085,2696.187,3083.337,3544.29,600.881,-0.1863941,0.07886538,0.229365,-1.01916766166687,-0.428647309541702,0.645822167396545,-0.987017247723776,-0.424685947625853,0.611010694492843,0
3.0999755859375,-1.73814976215363,1.58728456497192,2.47054123878479,-2.16651343412374,2.03362617511243,2.48403211125138,2875.116,3063.539,3870.539,76.22675,-0.183218,0.07500114,0.2325646,-1.01466357707977,-0.42082205414772,0.633418679237366,-0.979159571260203,-0.421305008961644,0.606146418448853,0
3.1199951171875,-1.75849771499634,1.57897698879242,2.48347592353821,-2.18603502400946,2.02522658035469,2.49611690533293,2419.86,3135.389,3092.638,1267.778,-0.1727875,0.07318117,0.2325281,-1.01739406585693,-0.415378212928772,0.646734714508057,-0.971056158224178,-0.417818336715394,0.601130019760458,0
3.13998413085938,-1.77869701385498,1.57084095478058,2.49599480628967,-2.20536269329809,2.01691042421237,2.50808165332716,2449.157,3623.39,3752.149,0,-0.1705174,0.07133394,0.2390088,-1.0099732875824,-0.40680468082428,0.625938534736633,-0.962735018414262,-0.414237982720922,0.59597883782726,0
3.15997314453125,-1.79902076721191,1.5628080368042,2.5090229511261,-2.22452176174551,2.00866681230185,2.51994202936911,2284.6,2930.038,2431.676,2249.423,-0.1549693,0.07291179,0.2361779,-1.01618278026581,-0.401642560958862,0.651404142379761,-0.954187384555097,-0.410560174664568,0.590687445288169,0
3.17999267578125,-1.81912636756897,1.55496418476105,2.5214204788208,-2.24353658854737,2.00048526354177,2.53171311296128,2034.327,4207.998,3514.281,0,-0.1534918,0.0752477,0.2447103,-1.00528264045715,-0.39219343662262,0.619876801967621,-0.945403214201559,-0.406780591562751,0.585249625391267,0
3.19998168945313,-1.83940625190735,1.547248005867,2.53451442718506,-2.26234477504321,1.99239262633251,2.54335627636037,2361.04,2578.582,1774.936,3154.122,-0.1344598,0.08154383,0.236702,-1.0139969587326,-0.385803401470184,0.65470290184021,-0.936412917636688,-0.402912318110697,0.579684203550396,0
3.22000122070313,-1.85940587520599,1.53974080085754,2.54680514335632,-2.28099938900442,1.98436606709459,2.55490437104486,1625.529,4868.201,3186.598,0,-0.1358984,0.08935358,0.2452333,-0.999984800815582,-0.3753682076931,0.614530861377716,-0.927192788821982,-0.398945154262308,0.573976504598449,0
3.239990234375,-1.87954020500183,1.53242135047913,2.55971193313599,-2.2994392795179,1.97643189735754,2.5663195416865,2649.564,2046.75,1608.36,3501.219,-0.1192825,0.100066,0.2313877,-1.00670981407166,-0.365985751152039,0.645343959331512,-0.917774783907129,-0.394892849856044,0.568146310914365,0
3.25997924804688,-1.89937376976013,1.52533531188965,2.57182788848877,-2.31768882969315,1.96857962575054,2.57761688259161,1558.014,5078.53,2973.987,0,-0.125273,0.1123078,0.2353809,-0.9916712641716,-0.354283034801483,0.605793058872223,-0.908148960779607,-0.390751127078637,0.562187467856884,0
3.27999877929688,-1.91916966438293,1.51850378513336,2.58408784866333,-2.33577134012187,1.96079922667992,2.58881081793642,3145.768,1581.909,2408.909,2553.769,-0.1200526,0.1241937,0.2178432,-0.98980838060379,-0.341590851545334,0.613001227378845,-0.898304216251578,-0.386515208538549,0.556093102023818,0
3.29998779296875,-1.9387001991272,1.51192963123322,2.59584593772888,-2.35362764460945,1.95311615770631,2.59986472102797,2037.127,4334.28,3194.292,0,-0.1299484,0.1365076,0.212117,-0.976518988609314,-0.328716188669205,0.58790135383606,-0.888274735793772,-0.382199803288803,0.549884375850026,0
3.31997680664063,-1.95796680450439,1.50563859939575,2.60709381103516,-2.37128151039117,1.94552019245235,2.61079330491711,3635.494,1664.34,4033.867,200.3206,-0.142575,0.1442645,0.1962867,-0.963337182998657,-0.314554274082184,0.562390923500061,-0.878049940595779,-0.377800359562814,0.543554740547926,0
3.33999633789063,-1.9770427942276,1.49958157539368,2.61824703216553,-2.38875555478454,1.93800159931817,2.62161057080077,2682.595,2825.04,4021.879,0,-0.1533794,0.1508306,0.1817127,-0.953794836997986,-0.302843123674393,0.557660162448883,-0.867618167158097,-0.373311858882592,0.53709697585572,0
3.3599853515625,-1.99591827392578,1.49367797374725,2.62936186790466,-2.40599272667425,1.93058492580486,2.63228120132087,1965.431,3656.132,3814.435,0,-0.1628006,0.1583914,0.175973,-0.943775415420532,-0.295164436101913,0.555747747421265,-0.857015715678588,-0.368749920209162,0.530533553325099,0
3.37997436523438,-2.01454591751099,1.48790073394775,2.64017009735107,-2.42301614089521,1.92326022624472,2.64281950566132,2404.375,2824.397,4117.63,0,-0.1705669,0.1652049,0.1728676,-0.931394100189209,-0.288880497217178,0.540413081645966,-0.846231427202182,-0.364109742155906,0.523857565031302,0
3.39999389648438,-2.03296160697937,1.48223412036896,2.65073490142822,-2.43984769972619,1.91601807669906,2.65323904237604,2951.117,2081.623,4299.963,0,-0.173547,0.1695844,0.1661089,-0.920768320560455,-0.283331662416458,0.52824193239212,-0.835253140422974,-0.35938609205264,0.51706148254665,0
3.41998291015625,-2.05121350288391,1.47663187980652,2.66131830215454,-2.45643259034873,1.90888206159239,2.66350587971929,2612.617,2784.574,3918.923,0,-0.1720578,0.1728714,0.1608388,-0.912599682807922,-0.280107498168945,0.529170513153076,-0.824119146742881,-0.354595445619869,0.510169010073001,0
3.44000244140625,-2.06926965713501,1.47106766700745,2.67185091972351,-2.47281804716281,1.90183185728196,2.67364925803476,2362.491,3252.438,3629.959,0,-0.1700785,0.1758947,0.1606096,-0.90281480550766,-0.27821609377861,0.526629328727722,-0.812800388649434,-0.349725300221754,0.503162159625937,0
3.45999145507813,-2.08709073066711,1.4655556678772,2.68211841583252,-2.48895081463434,1.8948903781363,2.68363620960993,2831.589,2584.016,3776.758,0,-0.1690521,0.1770674,0.1598164,-0.891056776046753,-0.275589644908905,0.513375759124756,-0.80133641229185,-0.344792671461508,0.496065412155666,0
3.47998046875,-2.1046941280365,1.46010446548462,2.69216179847717,-2.50485284867397,1.88804817714046,2.69348032619939,3014.897,2306.995,3868.532,0,-0.1674484,0.1757634,0.1561841,-0.880165755748749,-0.272562086582184,0.50216943025589,-0.789715229532172,-0.33979240117828,0.488871346433721,0
3.5,-2.1221022605896,1.45469760894775,2.70212030410767,-2.5205447997813,1.88129636896134,2.70319439144611,2628.572,2874.219,3678.348,0,-0.1653152,0.1732332,0.1544059,-0.870394885540009,-0.270346432924271,0.497928708791733,-0.777924000354857,-0.334718964672089,0.481572013878822,0
3.51998901367188,-2.1392970085144,1.44933092594147,2.71192002296448,-2.53597583877076,1.87465682397749,2.71274693966292,2443.613,3067.198,3632.465,0,-0.1640907,0.169964,0.1563363,-0.859734952449799,-0.268347978591919,0.48998549580574,-0.766004036374581,-0.329590137176618,0.474192988348404,0
3.53997802734375,-2.15627074241638,1.44401967525482,2.72144675254822,-2.55116718971613,1.86812041006291,2.72215110956251,2708.45,2573.855,3844.013,0,-0.1630701,0.1649601,0.1582164,-0.848701179027557,-0.265553295612335,0.476337194442749,-0.753942941956194,-0.324400585196356,0.466726596353819,0
3.55999755859375,-2.17307686805725,1.43875670433044,2.73088955879211,-2.56613872308604,1.86167857751006,2.73141920191151,2555.905,2622.159,3689.894,278.0954,-0.158498,0.1589194,0.1594278,-0.840294182300568,-0.263148844242096,0.47213476896286,-0.741727567798258,-0.319144650954242,0.459164697851087,0
3.57998657226563,-2.189701795578,1.43355047702789,2.74017739295959,-2.58084213759183,1.85535210901407,2.74052131591136,2426.626,3009.487,3690.269,0,-0.1543467,0.1520727,0.1641051,-0.831245839595795,-0.260318398475647,0.464386373758316,-0.72940084364523,-0.31384080592,0.451533868397061,0
3.5999755859375,-2.20617866516113,1.42840385437012,2.74939870834351,-2.59529790318687,1.84913219692586,2.7494701234383,2453.754,2741.269,3514.31,418.19,-0.1471226,0.1446406,0.1683739,-0.823844730854034,-0.257322132587433,0.461067020893097,-0.716950039288888,-0.308483572640672,0.443826227386424,0
3.6199951171875,-2.22249126434326,1.42334175109863,2.75843691825867,-2.60952509409627,1.84301063413925,2.75827743234631,2514.699,2840.212,3595.375,162.3227,-0.1404253,0.1362014,0.173878,-0.815636157989502,-0.25310868024826,0.451915919780731,-0.704361775018033,-0.303067194200314,0.436033492140578,0
3.63998413085938,-2.2387101650238,1.41835832595825,2.76757764816284,-2.623478029369,1.83700707589127,2.76691496395061,2234.493,2909.205,3085.307,902.7576,-0.1284581,0.1283539,0.178071,-0.81094616651535,-0.24916335940361,0.457031190395355,-0.691680442442073,-0.297610771068296,0.428183143180413,0
3.65997314453125,-2.25474190711975,1.41350245475769,2.77636408805847,-2.63717640706374,1.8311130466576,2.77539491228788,2490.431,3056.643,3531.146,0,-0.1222231,0.1192824,0.1856027,-0.801593124866486,-0.242800265550613,0.439325988292694,-0.678893054168409,-0.29210871513241,0.420267140691237,0
3.67999267578125,-2.27077460289001,1.40874695777893,2.78560519218445,-2.65063849381582,1.82532068681534,2.78372858527554,1855.982,2956.342,2286.245,2045.555,-0.1033237,0.1131352,0.1873525,-0.801646292209625,-0.237780094146729,0.462050557136536,-0.665986083416798,-0.286555206197011,0.41227711095171,0
3.69998168945313,-2.28657793998718,1.40415024757385,2.79425120353699,-2.66382131180924,1.81964848851807,2.79188937759817,1925.944,3888.247,3204.652,0,-0.0976906,0.1071963,0.199321,-0.79015988111496,-0.229831710457802,0.432301342487335,-0.653005218467595,-0.280969902652754,0.404241337183804,0
3.72000122070313,-2.30247068405151,1.39970302581787,2.80363845825195,-2.6767633032417,1.81407991116207,2.79990108680742,1714.62,2608.639,1336.283,3479.758,-0.07182332,0.1060949,0.1963829,-0.794654130935669,-0.222366005182266,0.469361305236816,-0.639917282339434,-0.275338529371411,0.396139281255611,0
3.739990234375,-2.31808590888977,1.39544999599457,2.81212735176086,-2.68942333385363,1.80863265367006,2.80773824883709,1443.397,4659.113,2847.082,0,-0.0682419,0.1061328,0.209861,-0.780765295028687,-0.212646394968033,0.424444437026978,-0.62676873176137,-0.26968107538565,0.387999702095468,0
3.75997924804688,-2.33383965492249,1.391437292099,2.82150506973267,-2.70181978867538,1.80329880547712,2.81541224489679,1888.077,2040.425,652.7123,4536.501,-0.03964169,0.1114387,0.1989706,-0.787690222263336,-0.200633004307747,0.468884915113449,-0.6135463347885,-0.263991847359231,0.379814408499146,0
3.77999877929688,-2.34929013252258,1.38765549659729,2.82983160018921,-2.7139695770734,1.79807109095524,2.82293354268985,1013.126,5423.633,2437.234,0,-0.04066434,0.1186868,0.2103741,-0.772514939308167,-0.189102783799171,0.416327089071274,-0.60023651686137,-0.258265004538452,0.371574997167698,0
3.79998779296875,-2.36478781700134,1.38420176506042,2.8387279510498,-2.72583438304408,1.79296599641037,2.83027842278479,2406.066,1311.671,903.6148,4411.355,-0.01934733,0.128829,0.192118,-0.774890840053558,-0.172683626413345,0.444818764925003,-0.586886736182787,-0.252520966862155,0.36331084698941,0
3.81997680664063,-2.37998390197754,1.38103032112122,2.84674310684204,-2.73743179640664,1.78797595343468,2.83745777411762,1266.233,5217.746,2337.908,0,-0.02605903,0.1400278,0.1938039,-0.759791433811188,-0.15856359899044,0.400759637355804,-0.573483731835694,-0.246754028528195,0.355013748824923,0
3.83999633789063,-2.39499735832214,1.37820327281952,2.85458898544312,-2.74877791451009,1.78309403578861,2.84448156171422,3049.713,1084.026,2374.618,2377.436,-0.02404621,0.1492171,0.1728248,-0.750690698623657,-0.141355141997337,0.392296850681305,-0.560014026276881,-0.240958390526246,0.346675359432959,0
3.8599853515625,-2.40971183776855,1.37568759918213,2.86201190948486,-2.75983729406747,1.77833549372837,2.85132784449154,2030.203,3827.992,2946.107,0,-0.03515532,0.1574116,0.1610454,-0.735710859298706,-0.125785648822784,0.371147274971008,-0.546525890176286,-0.235154822377061,0.338325560657667,0
3.87997436523438,-2.42408752441406,1.37345027923584,2.86891865730286,-2.77062673073895,1.77369310055059,2.85800701976334,2815.52,2196.778,3729.572,0,-0.05034227,0.1618946,0.146409,-0.718786537647247,-0.111867368221283,0.345339149236679,-0.533006127404299,-0.22933764615472,0.329956183466192,0
3.89999389648438,-2.43815636634827,1.37144351005554,2.87562966346741,-2.78116151864576,1.76916027562219,2.86452855531919,2301.638,2550.167,3878.406,0,-0.06273875,0.1642022,0.1332863,-0.70344465970993,-0.100338280200958,0.335555166006088,-0.519441457145543,-0.223501147495394,0.321559006401168,0
3.91998291015625,-2.45193338394165,1.36959505081177,2.8822865486145,-2.79140913007042,1.76475101471128,2.87087231495249,1690.248,3287.366,3688.425,0,-0.07185209,0.1661112,0.1284794,-0.68886661529541,-0.0924315974116325,0.332841843366623,-0.505880764601328,-0.217666360335509,0.313164291730931,0
3.93997192382813,-2.46540951728821,1.36785793304443,2.88868880271912,-2.80138557332546,1.7604584298882,2.87704820857125,1951.885,2769.18,3864.835,0,-0.07778561,0.1666239,0.1280823,-0.673808395862579,-0.086864061653614,0.320117473602295,-0.492311016653647,-0.211827676888493,0.304763971334578,0
3.95999145507813,-2.47861075401306,1.36621594429016,2.89484596252441,-2.81110535421031,1.75627627971269,2.88306521595634,2552.421,1982.2,4031.358,0,-0.07823621,0.1638833,0.1251285,-0.66006475687027,-0.0820940732955933,0.307852536439896,-0.478719233391147,-0.205979512261105,0.296350010028665,0
