t,x_s1,x_s2,x_s3,x_s_d1,x_s_d2,x_s_d3,propellers_rpms1,propellers_rpms2,propellers_rpms3,propellers_rpms4,rollRad,pitchRad,yawRad,v_s1,v_s2,v_s3,v_s_d1,v_s_d2,v_s_d3,insideCount
0,-0.0599999986588955,2.94000005722046,1.17999994754791,-0.0599999986588955,2.94000005722046,1.17999994754791,0,0,0,0,0,0,0,0,0,0,-1.06581410364015E-15,4.44089209850063E-16,4.44089209850063E-16,0
0.019989013671875,-0.0599999986588955,2.94000005722046,1.17729234695435,-0.0600018659130177,2.93999925379318,1.18000110346716,0,0,0,0,0.0163538,-0.002474609,-2.024222E-05,3.71994488546079E-08,3.50004931704007E-08,-0.135377958416939,-0.000279680311988734,-0.000120338624884473,0.000173135436141649,5
0.0399932861328125,-0.0599999986588955,2.94000005722046,1.17105865478516,-0.060014863945674,2.93999366110285,1.18000914986856,0,0,0,0,0.03270752,-0.004950816,-5.430172E-05,3.48044650877455E-08,3.30428591155396E-08,-0.311683237552643,-0.00111059898697896,-0.000477859717552347,0.000687513678106196,6
0.05999755859375,-0.0600004307925701,2.94013142585754,1.16552257537842,-0.0600498857373401,2.93997859220429,1.18003083002592,3161.891,2810.291,1469.237,2738.728,0.03139007,-0.004977981,-0.01632784,-2.15879354072968E-05,0.00656352238729596,-0.276805400848389,-0.00247936261166862,-0.00106680046642749,0.00153484356504269,6
0.079986572265625,-0.0599182695150375,2.94037842750549,1.16100025177002,-0.0601174907153006,2.93994950367094,1.18007268072775,3028.767,3011.964,2083.611,1979.162,0.01920914,-0.004419782,-0.04309314,0.00410812301561236,0.0123493764549494,-0.226118445396423,-0.00437104534358026,-0.00188073869847162,0.00270588528944111,6
0.0999908447265625,-0.0596519522368908,2.94066071510315,1.15742897987366,-0.0602281370710988,2.93990189563514,1.18014117609281,2572.463,3764.018,2528.687,1069.631,-0.005658152,-0.003073821,-0.06910317,0.0133159477263689,0.0141137456521392,-0.178565442562103,-0.00677536694902951,-0.00291525111632684,0.0041942748969354,6
0.1199951171875,-0.059136301279068,2.94084787368774,1.154620885849,-0.0603918861403606,2.93983143898525,1.18024254456713,1990.079,4004.024,3075.48,694.6837,-0.03991013,-0.0007068029,-0.08793917,0.0257825404405594,0.00936014950275421,-0.140405654907227,-0.00967801353495435,-0.00416417885169243,0.00599115140585487,5
0.139999389648438,-0.0583611205220222,2.94078660011292,1.15244746208191,-0.0606185767455666,2.93973390035084,1.18038287685052,1381.589,3936.982,3640.941,663.9172,-0.07574829,0.002034014,-0.09641176,0.0387589633464813,-0.00306249037384987,-0.10867241024971,-0.0130660253322238,-0.00562194567796536,0.00808849210174802,4
0.159988403320313,-0.0573621802031994,2.94033217430115,1.1509200334549,-0.0609175312885481,2.93960526856281,1.18056794395381,1009.606,3669.273,3950.202,872.2739,-0.1041259,0.003834042,-0.09478776,0.049947015941143,-0.0227195657789707,-0.0763688385486603,-0.0169234294955564,-0.00728167892605071,0.0104764090324936,4
0.17999267578125,-0.0561951361596584,2.93938517570496,1.15012359619141,-0.0612985250199726,2.93944133760391,1.18080379722281,1010.528,3363.177,3835.764,1161.309,-0.1193448,0.003851383,-0.0859727,0.0583522766828537,-0.0473472401499748,-0.0398209132254124,-0.0212433804254414,-0.00914043312572283,0.0131506644458931,3
0.199996948242188,-0.0549091026186943,2.93791794776917,1.15010988712311,-0.0617704296168641,2.93923829023936,1.18109592864822,1333.461,3132.982,3353.235,1401.451,-0.1214082,0.002340466,-0.07415732,0.0643016397953033,-0.0733606666326523,-0.00068342313170433,-0.0260104776919234,-0.0111915819022102,0.0161017247421801,3
0.220001220703125,-0.0535361841320992,2.93597269058228,1.15082955360413,-0.0623420644491781,2.93899233174064,1.18144979784016,1790.231,3014.977,2723.998,1533.027,-0.1151215,0.0002796745,-0.06327564,0.0686458647251129,-0.0972629487514496,0.0359824076294899,-0.03121219533433,-0.0134297356845702,0.019321835755004,3
0.239990234375,-0.0520961470901966,2.93363213539124,1.1521235704422,-0.0630214373585105,2.93870001655724,1.18187036203406,2171.777,2982.547,2212.691,1547.139,-0.1071555,-0.00133957,-0.05581293,0.0720018967986107,-0.11702461540699,0.0647026523947716,-0.0368316683029241,-0.015847637913056,0.022800557215184,3
0.259994506835938,-0.0506040789186954,2.93098068237305,1.15377104282379,-0.0638179029240226,2.93835731967507,1.18236341216003,2346.847,2985.554,2005.488,1459.97,-0.1029077,-0.001918541,-0.05235562,0.0746034383773804,-0.132566943764687,0.0823710709810257,-0.0428651747123285,-0.0184436871643672,0.0265355850983733,3
0.279998779296875,-0.0490743331611156,2.92807531356812,1.15557217597961,-0.0647390625194898,2.93796097043536,1.18293365383054,2309.208,2995.762,2122.667,1298.93,-0.1047123,-0.001324656,-0.05185175,0.0764873921871185,-0.145272389054298,0.0900539606809616,-0.0492963837173861,-0.0212108567320638,0.030516809833474,3
0.29998779296875,-0.0475227870047092,2.92493534088135,1.15741109848022,-0.0657918945890516,2.93750796620855,1.18358540703494,2138.006,3011.541,2441.771,1105.688,-0.1118735,0.0001963263,-0.05227785,0.0775773376226425,-0.156995087862015,0.091946542263031,-0.0561078595514081,-0.0241416444928383,0.0347334378503248,3
0.319992065429688,-0.0459694974124432,2.92155051231384,1.15926575660706,-0.0669855955880233,2.93699435001684,1.18432436481717,1942.298,3019.302,2793.017,937.9485,-0.1218172,0.002154295,-0.05160727,0.0776644870638847,-0.169245377182961,0.09273561835289,-0.0632980253096114,-0.0272353719486164,0.0391844929697465,3
0.339996337890625,-0.0444396957755089,2.91789531707764,1.1611762046814,-0.068326768706371,2.93641728069206,1.18515461486636,1804.495,3000.86,3047.371,841.8829,-0.1314973,0.004015681,-0.04861441,0.0764902010560036,-0.182758525013924,0.0955212414264679,-0.0708499516420146,-0.0304847548730522,0.0438594951176439,3
0.360000610351563,-0.042961411178112,2.91394639015198,1.1632034778595,-0.0698225328270578,2.93577369517774,1.1860805641102,1757.358,2956.241,3148.096,829.7341,-0.1384998,0.00540827,-0.04314854,0.0739143416285515,-0.197443589568138,0.101363725960255,-0.0787518717320621,-0.0338847303337087,0.0487511600740379,3
0.379989624023438,-0.0415610261261463,2.90969371795654,1.1654018163681,-0.0714784451857985,2.93506120235061,1.1871056527423,1802.678,2905.015,3096.943,875.259,-0.1417489,0.006225653,-0.03593883,0.070019356906414,-0.212630033493042,0.109918281435966,-0.0869857157641562,-0.0374275233937465,0.0538483017622888,3
0.399993896484375,-0.0402596853673458,2.90514588356018,1.16779732704163,-0.0733036822025899,2.9342758538535,1.18823556140379,1907.637,2870.979,2946.35,936.6555,-0.1416738,0.006603626,-0.02807771,0.0650670304894447,-0.227396681904793,0.119775354862213,-0.0955525119207663,-0.0411135764513579,0.0591515566763244,3
0.419998168945313,-0.0390726178884506,2.9003267288208,1.17038202285767,-0.0753034649285836,2.93341540321397,1.18947352217404,2025.958,2857.43,2769.553,988.7788,-0.1397132,0.006794287,-0.02060168,0.0593532584607601,-0.240961641073227,0.12923738360405,-0.104434660908044,-0.0449353170220673,0.0646500300148815,3
0.439987182617188,-0.0380106084048748,2.89526867866516,1.17311799526215,-0.0774822545706558,2.93247793089932,1.19082229675263,2111.342,2860.15,2639.26,1014.908,-0.1375635,0.007042556,-0.0141531,0.0531005300581455,-0.25290259718895,0.136796936392784,-0.113613709720558,-0.0488848052931553,0.0703322984885602,3
0.459991455078125,-0.0370823815464973,2.89000368118286,1.17595648765564,-0.0798493430620752,2.93145943885026,1.19228763728888,2146.716,2866.578,2592.015,1013.161,-0.1364646,0.007498631,-0.008924252,0.0464117936789989,-0.26324850320816,0.141925901174545,-0.123092454730403,-0.0529632444654124,0.0762000931848968,3
0.479995727539063,-0.0362962782382965,2.88455677032471,1.17885720729828,-0.0824088828700873,2.93035814037613,1.19387211435783,2141.752,2876.21,2624.983,978.8377,-0.1369893,0.008196997,-0.00468237,0.0393048748373985,-0.272340059280396,0.145033702254295,-0.132852887402757,-0.0571628859694044,0.0822422659629699,4
0.5,-0.0356614291667938,2.87894415855408,1.18179619312286,-0.085166398670376,2.92917165836334,1.1955791479969,2109.345,2885.115,2713.664,925.6744,-0.1390373,0.009086109,-0.0009342369,0.0317426286637783,-0.280625998973846,0.146949082612991,-0.142884000065179,-0.0614789935111996,0.0884520025491718,4
0.519989013671875,-0.0351883955299854,2.8731734752655,1.18477129936218,-0.0881248588203387,2.92789871561062,1.19741057576073,2072.1,2887.345,2817.649,874.5946,-0.1420019,0.01006217,0.002807146,0.0236518681049347,-0.288531482219696,0.148755148053169,-0.153166947611899,-0.0659034585682559,0.0948176369253132,4
0.539993286132813,-0.034888781607151,2.86724710464478,1.18779480457306,-0.091293865515634,2.92653518056143,1.19937234186584,2046.019,2886.263,2906.106,833.1728,-0.1451455,0.01101744,0.006906542,0.0149805219843984,-0.296316295862198,0.151177763938904,-0.163706645289342,-0.0704383960337938,0.101342211863077,4
0.55999755859375,-0.0347745567560196,2.86116552352905,1.19088876247406,-0.094676112580471,2.92507989413848,1.20146611391775,2042.398,2880.193,2955.589,813.0831,-0.1478289,0.01187076,0.01146798,0.00571132358163595,-0.304081648588181,0.154699966311455,-0.17448465888317,-0.0750758741803766,0.108014315705644,4
0.579986572265625,-0.0348565764725208,2.85493063926697,1.19407176971436,-0.0982734311149,2.92353206847056,1.2036930254546,2056.75,2876.879,2968.979,806.3588,-0.1497549,0.01259288,0.01643558,-0.00410134252160788,-0.311744749546051,0.159150525927544,-0.185481935470438,-0.0798076950675377,0.114822153786096,4
0.599990844726563,-0.0351442433893681,2.8485472202301,1.1973580121994,-0.102095761416081,2.92188742652551,1.20605922999388,2082.783,2872.287,2952.772,817.6198,-0.1508643,0.01319864,0.02158018,-0.014382784254849,-0.31917205452919,0.164313212037086,-0.19670480600515,-0.0846365827279185,0.121769645266545,4
0.6199951171875,-0.0356447882950306,2.84202289581299,1.20075440406799,-0.106144683970236,2.92014528826426,1.20856570593183,2117.862,2875.443,2921.46,826.5799,-0.1514343,0.01372667,0.02667182,-0.0250274986028671,-0.326211482286453,0.169818893074989,-0.208134604141382,-0.0895545055543457,0.128845234789665,4
0.639999389648438,-0.0363634824752808,2.83536791801453,1.2042578458786,-0.110424235525481,2.91830391678686,1.21121495220784,2146.003,2881.862,2896.528,833.0754,-0.1518508,0.01422799,0.03154413,-0.035934679210186,-0.332743912935257,0.175174236297607,-0.219761081350814,-0.0945570538913933,0.136042578028218,4
0.659988403320313,-0.0373045541346073,2.8285927772522,1.2078629732132,-0.114934715429503,2.91636318329238,1.21400715413238,2165.065,2886.98,2885.771,837.6685,-0.1524063,0.01474331,0.03608344,-0.0470536649227142,-0.338757127523422,0.180254578590393,-0.231565018351745,-0.0996359582190702,0.143349777331291,4
0.67999267578125,-0.0384714752435684,2.82170701026917,1.21156179904938,-0.119686638739014,2.91431856344567,1.21694882102647,2175.476,2894.899,2896.575,828.4019,-0.1533267,0.0152943,0.04031429,-0.0583463907241821,-0.34428396821022,0.184943795204163,-0.243554411173546,-0.104794659005432,0.150771782621969,4
0.699996948242188,-0.0398679636418819,2.81471824645996,1.21535265445709,-0.124680083855354,2.91217002351282,1.22004000142426,2181.923,2899.557,2918.7,817.4957,-0.1546391,0.01588214,0.04427873,-0.0698245242238045,-0.349441826343536,0.189541384577751,-0.255710395848158,-0.11002503961202,0.158296916205407,4
0.720001220703125,-0.0414974316954613,2.80763220787048,1.2192325592041,-0.129918284978346,2.90991617190799,1.22328269744952,2184.411,2906.887,2955.045,794.5983,-0.1563414,0.01649598,0.04812171,-0.0814729705452919,-0.354306668043137,0.193994447588921,-0.268023157655716,-0.11532287703907,0.16591910230247,4
0.739990234375,-0.0433640666306019,2.80045223236084,1.22320652008057,-0.135400001298574,2.90755754251682,1.2266761409821,2185.751,2906.22,2989.531,784.303,-0.1582024,0.01712316,0.05188708,-0.09333236515522,-0.359004467725754,0.198698908090591,-0.280473432677602,-0.12067988256057,0.173626415629864,5
0.759994506835938,-0.0454717390239239,2.7931809425354,1.22727835178375,-0.14113644597991,2.90508931062815,1.2302272735046,2192.651,2910.965,3023.639,763.2144,-0.1601231,0.01774561,0.05567791,-0.105382822453976,-0.363570123910904,0.203593090176582,-0.293070637251543,-0.126100107763583,0.181424685349205,5
0.779998779296875,-0.0478246323764324,2.78581953048706,1.23145866394043,-0.147126184485884,2.90251209348295,1.23393520697061,2204.662,2910.626,3042.347,758.1119,-0.1619218,0.0183538,0.05945765,-0.117645129561424,-0.368074119091034,0.209014356136322,-0.305795832832518,-0.131575403921268,0.189302187598958,5
0.79998779296875,-0.0504255928099155,2.77837014198303,1.23574984073639,-0.153366821193532,2.89982692185086,1.2377984583754,2220.354,2918.023,3060.94,740.4944,-0.1636662,0.01894194,0.06327774,-0.130047827959061,-0.372466862201691,0.214556157588959,-0.318629798715703,-0.137097500901303,0.197247023847227,5
0.819992065429688,-0.053277712315321,2.77083444595337,1.24015867710114,-0.159870162197751,2.89702871589906,1.2418243362541,2232.346,2915.953,3069.93,746.3973,-0.1652246,0.01952233,0.06703053,-0.142606019973755,-0.376779168844223,0.220440849661827,-0.33158286215529,-0.142670842232658,0.205265587156312,5
0.839996337890625,-0.0563828907907009,2.76321506500244,1.24468779563904,-0.166633637018892,2.89411858163313,1.24601124935738,2253.783,2924.755,3077.453,732.9912,-0.166757,0.02009393,0.07072164,-0.155259013175964,-0.380973219871521,0.226455748081207,-0.344636106234817,-0.148287288494656,0.213346167053785,5
0.860000610351563,-0.0597425661981106,2.75551414489746,1.24933815002441,-0.173659158941841,2.89109569582005,1.2503603820997,2267.687,2928.305,3086.928,730.7168,-0.1683043,0.02066939,0.07430686,-0.167983934283257,-0.385045498609543,0.232520163059235,-0.357780475378537,-0.153942943326036,0.221483157706883,5
0.879989624023438,-0.0633578300476074,2.74773406982422,1.25411009788513,-0.18094280014554,2.88796174849148,1.25486930297274,2281.566,2932.978,3100.289,723.9324,-0.1699225,0.02125608,0.0777735,-0.180763021111488,-0.389000445604324,0.23859541118145,-0.370996904517929,-0.159629603560431,0.229664756929996,5
0.899993896484375,-0.0672295242547989,2.73987698554993,1.25900304317474,-0.18849723509595,2.8847112861788,1.25954585807468,2293.173,2936.946,3119.142,715.0506,-0.1716322,0.02185912,0.08112934,-0.193584606051445,-0.392849028110504,0.244649663567543,-0.384296738353309,-0.165352150505452,0.237897987633041,5
0.919998168945313,-0.0713587999343872,2.73194408416748,1.26402068138123,-0.196318384305134,2.8813460641717,1.26438752200817,2307.619,2941.003,3135.204,706.7944,-0.173425,0.02247787,0.0843664,-0.206463694572449,-0.396639794111252,0.250884115695953,-0.397661187980262,-0.171102499820431,0.246171218589148,5
0.939987182617188,-0.0757458657026291,2.72393703460693,1.26916086673737,-0.204401181418416,2.87786826238106,1.26939115845832,2320.297,2947.411,3160.245,688.5377,-0.1753708,0.02310784,0.08755346,-0.219353288412094,-0.40035542845726,0.257007330656052,-0.411071375662203,-0.176872528942697,0.254472763580097,5
0.959991455078125,-0.0803919285535812,2.71585583686829,1.27442741394043,-0.212759000778906,2.87427212620069,1.27456504678061,2328.319,2945.711,3181.569,687.7999,-0.1773053,0.02375762,0.09064533,-0.232303231954575,-0.404059380292892,0.263328343629837,-0.424539267042903,-0.182667386354485,0.262810029909387,5
0.979995727539063,-0.0852975845336914,2.70770072937012,1.27982270717621,-0.22138664033507,2.87055989392801,1.27990596665734,2346.706,2952.822,3202,668.4565,-0.1792989,0.02441486,0.0936937,-0.245281904935837,-0.407750487327576,0.26976278424263,-0.438046240701377,-0.188479059778567,0.271171490030365,5
1,-0.0904632359743118,2.69947195053101,1.28534829616547,-0.230284798736574,2.86673126495361,1.28541435058594,2358.954,2954.946,3222.382,660.314,-0.1813075,0.02508294,0.09669355,-0.258283346891403,-0.411439955234528,0.276280552148819,-0.451584000205995,-0.194303979492187,0.279552008056641,5
1.01998901367188,-0.0958893299102783,2.69116926193237,1.2910064458847,-0.239446912293295,2.86278906344998,1.29108613532954,2373.137,2957.535,3241.238,651.4509,-0.1833043,0.02576274,0.09963685,-0.27130600810051,-0.415138095617294,0.282910317182541,-0.46513400752272,-0.200134169097193,0.287940108062054,5
1.03999328613281,-0.101575955748558,2.68279266357422,1.29679775238037,-0.248887339851819,2.85872711120656,1.2969302096982,2387.344,2960.62,3261.923,640.0757,-0.1852905,0.02645409,0.1025324,-0.284330248832703,-0.418833404779434,0.28956413269043,-0.478708875293167,-0.205975055460915,0.29634359787259,5
1.05999755859375,-0.107523575425148,2.67434144020081,1.30272746086121,-0.258599401509697,2.85454828239877,1.30294243851408,2404.535,2963.732,3274.115,634.687,-0.1872389,0.0271589,0.1053413,-0.2973812520504,-0.422564595937729,0.296482652425766,-0.492290296490434,-0.211818761581115,0.30475114456651,5
1.07998657226563,-0.11373108625412,2.66581606864929,1.30879139900208,-0.268575430648764,2.85025587575821,1.30911807577533,2421.453,2970.731,3296.82,614.1584,-0.1892879,0.02786932,0.1081306,-0.310374766588211,-0.426267564296722,0.303199052810669,-0.50586005237609,-0.217657448443621,0.313151469876847,5
1.09999084472656,-0.120198890566826,2.65721583366394,1.31499421596527,-0.278830554044452,2.84584338265603,1.31546648567654,2430.224,2967.654,3312.513,620.1368,-0.1912522,0.0286044,0.1108084,-0.323391169309616,-0.430009484291077,0.310141921043396,-0.519431110871131,-0.223496695782555,0.321552601564445,5
1.1199951171875,-0.126926109194756,2.64854097366333,1.3213347196579,-0.289357002179081,2.84131414609862,1.32198285851614,2452.323,2976.702,3332.523,595.5324,-0.1933061,0.02934584,0.1134509,-0.336360782384872,-0.433747112751007,0.317027270793915,-0.532985466132485,-0.229328756186667,0.329943393154705,5
1.13999938964844,-0.133912429213524,2.63979077339172,1.32781493663788,-0.300154365346813,2.83666834237095,1.3286669406667,2463.25,2976.614,3350.367,593.9332,-0.1953551,0.03010629,0.1160139,-0.349317073822021,-0.437514394521713,0.324010282754898,-0.546515580872639,-0.235150386571708,0.338319178707607,5
1.15998840332031,-0.141156896948814,2.63096499443054,1.33443319797516,-0.31121353909136,2.83190988886621,1.33551309603608,2479.552,2981.027,3373.251,577.0544,-0.1974569,0.03087821,0.1185363,-0.362224191427231,-0.441285461187363,0.330914109945297,-0.560003743914979,-0.240953966313175,0.346668994161124,6
1.17999267578125,-0.148659273982048,2.62206315994263,1.34119153022766,-0.322550701230474,2.8270318247214,1.34253133946411,2491.211,2980.703,3393.812,572.3153,-0.1995139,0.03166997,0.1209875,-0.375117689371109,-0.445088267326355,0.337914347648621,-0.573463232144024,-0.246745208083563,0.355001058539242,6
1.19999694824219,-0.156418919563293,2.61308455467224,1.34809195995331,-0.334156660511822,2.8220381046756,1.34971598112778,2510.958,2986.1,3411.112,556.8087,-0.2015821,0.03247223,0.1233879,-0.387983769178391,-0.448925852775574,0.34502187371254,-0.58687652428584,-0.252516572968185,0.36330452533874,6
1.21998596191406,-0.164434671401978,2.60402917861938,1.35513269901276,-0.34602126278068,2.81693309777792,1.35706073512159,2525.566,2989.068,3433.171,543.6461,-0.203686,0.03328346,0.1257573,-0.400786757469177,-0.452772915363312,0.352037996053696,-0.600226348268632,-0.258260629277074,0.371568702324394,6
1.239990234375,-0.172705918550491,2.59489607810974,1.36231517791748,-0.358161486344149,2.81170949873715,1.36457611182642,2537.154,2988.343,3453.286,539.5467,-0.2057297,0.0341133,0.1280608,-0.413562566041946,-0.456651389598846,0.359123766422272,-0.613526094901141,-0.263983138701136,0.379801879044709,6
1.25999450683594,-0.18123197555542,2.58568477630615,1.3696414232254,-0.3705671011502,2.80637170925886,1.37225577835275,2557.176,2993.461,3469.628,524.7599,-0.2077676,0.03495269,0.1303129,-0.426301717758179,-0.460564643144608,0.366313397884369,-0.626758665639206,-0.269676744214496,0.387993470686331,6
1.27999877929688,-0.19001117348671,2.57639527320862,1.37710893154144,-0.383236695417198,2.80092033679326,1.3800988607405,2572.307,2996.547,3491.708,510.587,-0.2098422,0.03579878,0.1325383,-0.438959926366806,-0.464478433132172,0.373373925685883,-0.639917282339435,-0.275338529371412,0.396139281255613,6
1.29998779296875,-0.199043065309525,2.56702661514282,1.38472044467926,-0.396158759015336,2.79536033382764,1.388098233671,2584.739,2996.193,3508.12,508.8432,-0.2118513,0.03666343,0.1346873,-0.451594263315201,-0.468434721231461,0.380578339099884,-0.652985332144132,-0.280961346123326,0.404229026602261,6
1.31999206542969,-0.20832547545433,2.55757927894592,1.39247119426727,-0.409351342777246,2.78968393359302,1.39626507146953,2602.286,3000.392,3535.027,485.8864,-0.2139046,0.03753082,0.1368289,-0.46412256360054,-0.472362190485001,0.387536019086838,-0.665976209205206,-0.286550957599616,0.412270998344359,6
1.33999633789063,-0.217859178781509,2.54805159568787,1.40037047863007,-0.422802873722428,2.78389611561957,1.40459220990988,2615.291,2999.633,3542.112,493.6274,-0.2158109,0.03842239,0.1388553,-0.476684927940369,-0.476379901170731,0.394964575767517,-0.678873453515705,-0.29210028151913,0.420255006953505,6
1.36000061035156,-0.227640002965927,2.53844547271729,1.40840542316437,-0.436511415158101,2.77799771321212,1.41307845008695,2639.03,3009.358,3575.768,450.8498,-0.2179243,0.03929528,0.140947,-0.489041447639465,-0.480302184820175,0.401747822761536,-0.691670720740693,-0.297606588091785,0.42817712498415,6
1.37998962402344,-0.23767015337944,2.52875828742981,1.41659140586853,-0.450464156928423,2.77199423822282,1.42171586190405,2639.546,2999.871,3576.963,486.2349,-0.2197369,0.04021408,0.1428548,-0.501506626605988,-0.484365224838257,0.409298688173294,-0.704352136620515,-0.303063047067127,0.436027525513373,6
1.39999389648438,-0.247943356633186,2.51899337768555,1.42490649223328,-0.464680216184654,2.76587746507559,1.43051627978847,2672.162,3014.809,3623.546,415.099,-0.2218791,0.0410926,0.144906,-0.513663053512573,-0.488241404294968,0.415752232074738,-0.716930938559026,-0.308475354130225,0.443814403124744,7
1.41999816894531,-0.258465379476547,2.50914573669434,1.43338191509247,-0.47914673136562,2.75965292774086,1.43947174182117,2664.771,2999.772,3603.78,486.1571,-0.2234754,0.04204538,0.1466568,-0.526099264621735,-0.492388010025024,0.423768699169159,-0.729391385793766,-0.313836736470737,0.451528013536465,7
1.43998718261719,-0.269224852323532,2.49922251701355,1.44197499752045,-0.49384995777978,2.75332654017544,1.44857373938334,2715.237,3027.334,3672.218,359.7317,-0.225786,0.04290388,0.1487306,-0.537972748279572,-0.496165752410889,0.429654687643051,-0.741718206886022,-0.319140623215221,0.459158903000492,7
1.45999145507813,-0.280232787132263,2.4892144203186,1.45073866844177,-0.508809800712713,2.74688973769103,1.45783459479497,2677.795,2993.149,3628.583,506.0734,-0.2270888,0.04390126,0.1502985,-0.550397336483002,-0.500400125980377,0.438186347484589,-0.753924423002454,-0.324392617007921,0.466715132239272,7
1.47999572753906,-0.291471391916275,2.47913408279419,1.45960450172424,-0.524012471663969,2.74034845309416,1.46724577231745,2761.721,3040.275,3727.519,292.5427,-0.2295917,0.04472845,0.1524246,-0.561932325363159,-0.504018843173981,0.443289488554001,-0.765994882555672,-0.329586198544069,0.474187321698441,7
1.5,-0.302960604429245,2.46896553039551,1.46866226196289,-0.539455198877605,2.73370387899399,1.4768055561018,2689.631,2987.075,3635.827,544.2228,-0.230471,0.0457851,0.1537423,-0.574458420276642,-0.508425712585449,0.452888011932373,-0.777924000354858,-0.334718964672088,0.481572013878822,7
1.51998901367188,-0.314669013023376,2.45873141288757,1.47778785228729,-0.555123050061237,2.72696244033876,1.48650470234772,2817.542,3059,3803.701,186.2042,-0.2334692,0.04653449,0.1560658,-0.585421800613403,-0.511710226535797,0.456281244754791,-0.789697369743256,-0.339784716610053,0.488860290373601,7
1.53999328613281,-0.326635301113129,2.44840216636658,1.48714709281921,-0.571036956668503,2.72011513090874,1.49635616862212,2674.873,2966.353,3620.518,647.5406,-0.2334879,0.04771264,0.1569537,-0.598316609859467,-0.516457378864288,0.467963099479675,-0.801327600455846,-0.344788879974649,0.496059957209413,7
1.55999755859375,-0.338802844285965,2.4380190372467,1.49651515483856,-0.587181951496087,2.71316839067337,1.50635068951315,2901.954,3095.355,3909.304,0,-0.2374032,0.04831436,0.1597119,-0.608377754688263,-0.519154012203217,0.468402892351151,-0.812800388649436,-0.349725300221754,0.503162159625937,7
1.57998657226563,-0.351245552301407,2.42752695083618,1.50619900226593,-0.603542258451077,2.7061290076447,1.51647849886779,2627.003,2931.773,3547.461,858.4827,-0.235914,0.04971982,0.1598695,-0.62213534116745,-0.524609208106995,0.484192967414856,-0.82410201904291,-0.354588076049064,0.510158407210813,7
1.59999084472656,-0.363876909017563,2.4169762134552,1.51589059829712,-0.620139554045575,2.69898765502515,1.52675301547962,2763.985,3357.968,3823.281,0,-0.2393942,0.05110914,0.1638741,-0.63156795501709,-0.527534902095795,0.484577298164368,-0.835244706287931,-0.359382463079953,0.517056261415284,7
1.6199951171875,-0.376771599054337,2.40632247924805,1.5258651971817,-0.636958033083316,2.69175113334911,1.53716445517924,2717.1,2823.254,3518.525,944.8218,-0.2376397,0.05318915,0.1638074,-0.644733846187592,-0.532687127590179,0.498731583356857,-0.846214826007804,-0.364102599125749,0.523847288101157,7
1.63999938964844,-0.389845132827759,2.39562106132507,1.53582084178925,-0.653994195024907,2.68442094880091,1.54771065096602,2854.131,3286.185,3850.934,0,-0.2412249,0.05505709,0.1668077,-0.65367865562439,-0.535066723823547,0.497783601284027,-0.857007552155828,-0.368746407673381,0.530528499715628,7
1.65998840332031,-0.403176009654999,2.38482737541199,1.5460489988327,-0.67123120513297,2.67700434489773,1.55838118133557,2786.728,2810.9,3572.083,881.3668,-0.240035,0.05746056,0.1657114,-0.666542589664459,-0.539681434631348,0.511405825614929,-0.867610144209785,-0.373308406832068,0.537092009268528,7
1.67999267578125,-0.416682839393616,2.37398815155029,1.55627846717834,-0.688691692550512,2.66949158495151,1.56919005480539,2828.083,3347.734,3860.626,0,-0.243912,0.05980962,0.1681175,-0.675341427326202,-0.541966557502747,0.511471331119537,-0.878034183119987,-0.377793579561193,0.543544985919778,8
1.69999694824219,-0.430426955223083,2.36307096481323,1.56672215461731,-0.706358800111611,2.66188992212981,1.58012683598675,2876.281,2791.302,3701.333,716.1943,-0.2442401,0.06236694,0.1668673,-0.687204658985138,-0.545853674411774,0.522185027599335,-0.888267004546665,-0.382196476749158,0.549879589839776,8
1.71998596191406,-0.444348216056824,2.3521101474762,1.57718122005463,-0.724214951560321,2.65420691900456,1.59118064433996,2893.824,3226.017,3959.884,0,-0.2483861,0.06470146,0.1682092,-0.696064949035645,-0.548035621643066,0.522954165935516,-0.898296635743475,-0.386511946857687,0.556088409328192,8
1.739990234375,-0.458494901657104,2.34107875823975,1.58782279491425,-0.74228345468553,2.64643254688532,1.60236590849663,2926.062,2819.79,3864.16,509.4193,-0.2497465,0.06701397,0.1670088,-0.70733517408371,-0.551567316055298,0.532077610492706,-0.908134108040217,-0.390744736359816,0.562178273303667,8
1.75999450683594,-0.472825348377228,2.32999563217163,1.59851861000061,-0.760546715064628,2.63857437616062,1.61367173667103,2915.451,3170.78,4032.097,0,-0.2534903,0.06910348,0.168035,-0.716522097587585,-0.554150581359863,0.534792542457581,-0.917767514700581,-0.394889722119545,0.568141810929231,8
1.77999877929688,-0.487368285655975,2.31884336471558,1.60936510562897,-0.779000609654483,2.63063418086074,1.62509557650306,2978.679,2855.282,3990.389,322.1613,-0.2553663,0.0709727,0.1675487,-0.727147161960602,-0.557612538337708,0.542325854301453,-0.927192788821983,-0.398945154262308,0.57397650459845,8
1.79998779296875,-0.502098023891449,2.30763292312622,1.62028336524963,-0.797626646773287,2.62261991743975,1.63662598076079,2977.807,3065.112,4108.948,0,-0.2584635,0.07249118,0.1684833,-0.736485719680786,-0.560518383979797,0.545911073684692,-0.936399026186941,-0.402906341007953,0.579675604081262,8
1.81999206542969,-0.517035901546478,2.29634857177734,1.63135194778442,-0.816448984455027,2.61452119137054,1.64827790441807,2989.319,2905.153,4052.867,228.6033,-0.2598952,0.07379589,0.1686606,-0.746897459030151,-0.564221203327179,0.553430795669556,-0.945396434568188,-0.406777674475912,0.585245428475252,8
1.83999633789063,-0.532160103321075,2.28499889373779,1.64250683784485,-0.835449117627072,2.60634596486888,1.66003989195343,3004.897,3052.984,4124.129,0,-0.2621435,0.07476987,0.1700849,-0.75621086359024,-0.567480623722076,0.557745158672333,-0.954174163352093,-0.410554485950274,0.590679260733698,8
1.86000061035156,-0.547487735748291,2.27357077598572,1.65381383895874,-0.854622615239374,2.59809614449182,1.6719092003358,2995.61,2940.774,4047.703,220.6699,-0.2628503,0.07561504,0.170956,-0.766379773616791,-0.571409702301025,0.565351545810699,-0.962728579444532,-0.414235212212131,0.595974851798267,8
1.87998962402344,-0.562994122505188,2.26207852363586,1.66519498825073,-0.873950157556149,2.58978004298193,1.6838738697284,3039.343,3040.449,4131.843,0,-0.2645377,0.07611272,0.1728609,-0.775324106216431,-0.574615776538849,0.569055140018463,-0.971049893464309,-0.417815641164241,0.601126141575667,8
1.89999389648438,-0.578704476356506,2.25050497055054,1.67674589157104,-0.893456683142228,2.58138692997148,1.69594933829086,2977.679,2964.002,4006.895,290.4246,-0.2642479,0.07667755,0.1740085,-0.78551709651947,-0.578681588172913,0.577542424201965,-0.979147395688901,-0.421299770153459,0.606138881190213,8
1.91999816894531,-0.59458464384079,2.23887181282043,1.68835842609406,-0.913122862707269,2.57292512231409,1.70812364027167,3037.951,3097.037,4107.642,0,-0.2655156,0.07699355,0.1764859,-0.794007837772369,-0.58166229724884,0.580628037452698,-0.987011339258123,-0.424683405378145,0.611007036871143,8
1.93998718261719,-0.610667288303375,2.22715997695923,1.700150847435,-0.932928814964021,2.56440317437226,1.72038446820694,2977.189,2964.802,3953.427,378.5396,-0.2645142,0.077523,0.1776971,-0.804133713245392,-0.585592448711395,0.589621245861053,-0.994632798067981,-0.427962706185118,0.615725082934877,9
1.95999145507813,-0.626908659934998,2.21539974212646,1.71198081970215,-0.952900013794853,2.55581012544606,1.73274759164336,3037.874,3135.76,4101.131,0,-0.2656673,0.07786019,0.1804354,-0.812068223953247,-0.588009536266327,0.591496109962463,-1.00202031904361,-0.431141350077486,0.620298310335216,9
1.97999572753906,-0.643353998661041,2.20356726646423,1.72400629520416,-0.973016570682103,2.54715453300902,1.74520069864106,2979.766,2954.669,3910.187,466.1621,-0.2640929,0.07853363,0.1813287,-0.82226437330246,-0.59162163734436,0.601274073123932,-1.00916501115878,-0.434215511495054,0.624721215103391,9
2,-0.659948945045471,2.19169759750366,1.73605668544769,-0.993273599084619,2.53843849960327,1.7577407641983,3019.105,3206.437,4080.948,0,-0.2652423,0.07912873,0.1841904,-0.82974910736084,-0.59347802400589,0.602518558502197,-1.01606400046349,-0.437183953857422,0.628992018127441,9
2.01998901367188,-0.676742494106293,2.17976880073547,1.74829363822937,-1.01365055070775,2.52967086658596,1.77035506794184,3006.458,2928.25,3905.99,501.7559,-0.2636524,0.08004554,0.1847401,-0.839675664901733,-0.59644478559494,0.611845552921295,-1.02270954399163,-0.440043345582587,0.633105926142498,9
2.03999328613281,-0.693679213523865,2.16781640052795,1.76054489612579,-1.03417354141348,2.52084039703127,1.78305977683431,3027.399,3212.552,4096.789,0,-0.2648929,0.08088341,0.1872492,-0.846838533878326,-0.59761780500412,0.612565517425537,-1.02910913225408,-0.442796909628122,0.637067576131623,9
2.05999755859375,-0.710809230804443,2.15581893920898,1.77297461032867,-1.05482201812353,2.5119559343546,1.79584216754118,3041.416,2916.796,3935.579,476.4511,-0.2635512,0.0819596,0.1873725,-0.856501638889313,-0.599878907203674,0.621486186981201,-1.03525504859546,-0.445441325732794,0.640872191117535,9
2.07998657226563,-0.728079319000244,2.14380764961243,1.78542351722717,-1.07557499515204,2.50302650811029,1.80868924892322,3025.667,3226.788,4109.746,0,-0.2648663,0.08299402,0.1895313,-0.863503634929657,-0.600567877292633,0.622443854808807,-1.04114045847258,-0.4479736531836,0.644515540192423,9
2.09999084472656,-0.745530307292938,2.13176727294922,1.79801988601685,-1.09645901288412,2.49404069871208,1.82161745074311,3081.804,2903.923,4006.406,396.7448,-0.2640945,0.0841006,0.1895194,-0.872547090053558,-0.602023839950562,0.62981653213501,-1.04677201701582,-0.450396755497224,0.648001743199023,9
2.1199951171875,-0.763121128082275,2.11972141265869,1.8106449842453,-1.11745308225396,2.48500753716864,1.83461377976925,3059.995,3172.232,4151.045,0,-0.2653552,0.0850817,0.1911095,-0.879544854164124,-0.602293610572815,0.631255924701691,-1.0521429102862,-0.45270770082608,0.651326581984514,9
2.13999938964844,-0.780882060527802,2.10765886306763,1.82339441776276,-1.138551967509,2.47592927627801,1.8476749948214,3116.001,2920.537,4085.413,280.5142,-0.265107,0.08597773,0.1911344,-0.888043820858002,-0.603124499320984,0.637473285198212,-1.05725102347782,-0.454905579228273,0.654488747383304,9
2.15998840332031,-0.798782825469971,2.09559559822083,1.83618462085724,-1.15973418543027,2.46681515966915,1.86078779676364,3075.974,3131.608,4190.325,0,-0.2661659,0.08672132,0.1924817,-0.895035088062286,-0.603163838386536,0.639509081840515,-1.06209075728,-0.456987981476842,0.657484773155346,9
2.17999267578125,-0.816842555999756,2.08352470397949,1.84907758235931,-1.18102676265167,2.45765355853653,1.8739689163698,3130.875,2938.233,4154.35,186.9411,-0.2660823,0.08728842,0.1928317,-0.902994334697723,-0.60355019569397,0.644645929336548,-1.06666760390386,-0.458957270716794,0.660318059240953,10
2.19999694824219,-0.835041761398315,2.07145595550537,1.86202168464661,-1.20240821395574,2.44845371736898,1.88720505326679,3106.581,3081.785,4219.612,0,-0.2666975,0.08763806,0.1941127,-0.909960269927979,-0.603438019752502,0.647202491760254,-1.07097597819164,-0.460811043810786,0.662985148161421,10
2.21998596191406,-0.85339218378067,2.0593843460083,1.87505948543549,-1.22385674836213,2.4392250122166,1.90048271779974,3133.398,2969.671,4183.895,129.2093,-0.2664168,0.08779772,0.1948794,-0.917522847652435,-0.603579878807068,0.651892244815826,-1.07501122224684,-0.462547296596067,0.665483156456917,10
2.239990234375,-0.871876776218414,2.04731917381287,1.88814568519592,-1.24539969505118,2.42995568409656,1.91381882803312,3119.973,3057.548,4236.279,0,-0.2665611,0.08771553,0.1963934,-0.924228250980377,-0.603257477283478,0.654310524463654,-1.07877792518082,-0.464168003639063,0.667814925005999,10
2.25999450683594,-0.890509605407715,2.03525257110596,1.90133476257324,-1.26701526177039,2.4206551096063,1.92719989352455,3113.048,2996.804,4161.89,150.4176,-0.265579,0.08755723,0.1974934,-0.931640148162842,-0.603321194648743,0.65945303440094,-1.08227143928024,-0.465671165158559,0.669977576652695,10
2.27999877929688,-0.909266889095306,2.02319836616516,1.91456115245819,-1.28869796983554,2.41132564607061,1.9406225227075,3118.211,3079.826,4219.086,0,-0.2652897,0.08718154,0.1994594,-0.937871396541595,-0.602724492549896,0.661319434642792,-1.08549040888332,-0.467056197851165,0.67197027217779,10
2.29998779296875,-0.928169667720795,2.01114535331726,1.92790067195892,-1.31042570636616,2.40197680804417,1.95407302665558,3086.136,3008.506,4104.992,228.4461,-0.2634926,0.0868894,0.2007294,-0.945136666297913,-0.602650463581085,0.666974306106567,-1.08843144721369,-0.468321644481621,0.673790915005368,10
2.31999206542969,-0.947183310985565,1.9991147518158,1.94125294685364,-1.33222611841886,2.3925966997709,1.96756852021384,3109.214,3111.062,4199.344,0,-0.2629323,0.08639792,0.2030623,-0.95068621635437,-0.601533055305481,0.667614042758942,-1.09109790637238,-0.469468947365361,0.675441580245663,10
2.33999633789063,-0.966343462467194,1.98708939552307,1.95474195480347,-1.35407709248145,2.38319483607731,1.98109531406483,3058.725,3012.346,4020.003,344.4664,-0.2602617,0.08617989,0.2041536,-0.958004295825958,-0.601270020008087,0.674453377723694,-1.09348640563071,-0.470496651869278,0.67692017506657,10
2.36000061035156,-0.98559832572937,1.97509849071503,1.96821653842926,-1.37597305876702,2.37377361348711,1.99464996024512,3073.906,3187.653,4158.729,0,-0.2596635,0.08584884,0.2068508,-0.962745487689972,-0.599544942378998,0.673728227615356,-1.09559602313537,-0.471404361345641,0.678226128796969,10
2.37998962402344,-1.00499737262726,1.96312081813812,1.98184037208557,-1.39789168475144,2.36434264106153,2.00821863385843,3041.984,2991.427,3939.832,467.1829,-0.256423,0.08592327,0.2075505,-0.969951808452606,-0.598877012729645,0.681189239025116,-1.09742465646102,-0.47219117117957,0.679358139935436,10
2.39999389648438,-1.0244745016098,1.95119309425354,1.99541854858398,-1.41986083522252,2.35488992936084,2.02181858453579,3040.979,3244.827,4133.56,0,-0.2559756,0.08593318,0.2102896,-0.973857045173645,-0.596384167671204,0.67890864610672,-1.09897439291323,-0.472857979480329,0.680317500623536,10
2.41999816894531,-1.04409348964691,1.93928956985474,2.00915789604187,-1.44185817738692,2.34542508756209,2.03543598721428,3041.226,2963.891,3877.578,559.8671,-0.2524543,0.08640326,0.2103463,-0.98094516992569,-0.595175862312317,0.68697065114975,-1.10024313330221,-0.473403883025206,0.681102911362803,10
2.43998718261719,-1.06377565860748,1.92744970321655,2.02283048629761,-1.46386128162322,2.33595776650478,2.04905695688976,2998.315,3312.29,4104.159,0,-0.2523057,0.08688668,0.2129688,-0.984111130237579,-0.591992437839508,0.683623909950256,-1.10122974390336,-0.473828394004169,0.681713670323692,10
2.45999145507813,-1.08358895778656,1.9156494140625,2.03664946556091,-1.48589810917879,2.32647593524532,2.06269880290633,3058.862,2920.307,3867.476,590.1321,-0.2490439,0.0877422,0.2124305,-0.990665435791016,-0.590019464492798,0.690944135189056,-1.10193535162022,-0.474131997292339,0.68215047511319,10
2.47999572753906,-1.10345542430878,1.90392529964447,2.05039191246033,-1.50794623031618,2.31698924467309,2.07634764018804,2988.485,3317.078,4101.267,0,-0.2492085,0.08858687,0.2145186,-0.99333131313324,-0.58619749546051,0.68712317943573,-1.10235882472314,-0.474314205938057,0.682412625136718,11
2.5,-1.12343847751617,1.89225685596466,2.06425452232361,-1.52999999932945,2.30750012397766,2.08999997377396,3091.928,2894.454,3906.835,530.535,-0.2466673,0.08959784,0.213514,-0.999147653579712,-0.583426833152771,0.69313383102417,-1.10250000050292,-0.474374949932098,0.682500019669533,11
2.51998901367188,-1.14346861839294,1.8806734085083,2.07804322242737,-1.5520369476803,2.29801824074336,2.10364189456856,2981.279,3292.857,4119.285,0,-0.2470924,0.09057368,0.2150362,-1.00150990486145,-0.579165875911713,0.689436256885529,-1.10235904000526,-0.474314298567936,0.682412758406603,11
2.53999328613281,-1.16359651088715,1.86915981769562,2.09191298484802,-1.57408507527774,2.28853154739156,2.11729073584934,3118.896,2877.335,3991.283,414.9106,-0.2453613,0.09147256,0.2139327,-1.00639319419861,-0.575679302215576,0.69349068403244,-1.10193578218388,-0.474132182551855,0.682150741652607,11
2.55999755859375,-1.18377089500427,1.85773551464081,2.10572552680969,-1.59612191359838,2.27904971150017,2.13093258853001,3001.644,3224.911,4148.772,0,-0.2457267,0.09224844,0.2149117,-1.0087206363678,-0.571218609809875,0.690629601478577,-1.10123038958312,-0.473828671822132,0.681714070030222,11
2.57998657226563,-1.20402383804321,1.84639072418213,2.11957955360413,-1.61812503288753,2.26958238396605,2.14455356752391,3138.955,2888.081,4084.54,263.3914,-0.2446843,0.09271191,0.2141122,-1.01265203952789,-0.567231237888336,0.692705690860748,-1.1002439936861,-0.473404253224357,0.681103443981416,11
2.59999084472656,-1.22432339191437,1.83513653278351,2.13339161872864,-1.64012239440973,2.26011753383818,2.15817098218581,3028.053,3136.245,4187.977,0,-0.2447296,0.09294263,0.2148213,-1.01496982574463,-0.562717318534851,0.690598011016846,-1.09897546783438,-0.47285844198887,0.680318166050934,11
2.6199951171875,-1.24468851089478,1.82396531105042,2.14722466468811,-1.66209156852628,2.2506648119635,2.17177094750084,3125.867,2920.606,4143.72,155.3447,-0.2437277,0.09278195,0.2146003,-1.01825666427612,-0.558557391166687,0.691658318042755,-1.09742594550583,-0.472191725819537,0.679358937915576,11
2.63999938964844,-1.26509809494019,1.81288301944733,2.1610267162323,-1.68402693989188,2.24122663446822,2.18534998730279,3047.385,3078.703,4199.345,0,-0.2431823,0.0923079,0.2155046,-1.02048349380493,-0.554123282432556,0.690101206302643,-1.09559602313537,-0.471404361345641,0.67822612879697,11
2.65998840332031,-1.28556513786316,1.80188286304474,2.17484402656555,-1.70590622088595,2.23181259109281,2.19889430449282,3083.711,2959.194,4143.271,130.0288,-0.2415881,0.09152129,0.2160034,-1.02335262298584,-0.550008535385132,0.690862238407135,-1.09348812118877,-0.470497390025984,0.676921237078733,10
2.67999267578125,-1.30606925487518,1.79097270965576,2.18862152099609,-1.72775723139253,2.2224107117184,2.21242112090437,3058.501,3043.622,4194.808,0,-0.2403471,0.09033988,0.2173974,-1.02519917488098,-0.545507669448853,0.688869416713715,-1.09109983431736,-0.469469776906228,0.675442773735451,9
2.69999694824219,-1.32663321495056,1.7801399230957,2.20244455337524,-1.74955768413056,2.21303058593937,2.22591663964878,3013.151,3003.403,4050.855,224.3463,-0.2374102,0.0891339,0.2183614,-1.02819764614105,-0.541641354560852,0.691154539585114,-1.08843358680109,-0.468322565086308,0.673792239511893,9
2.71998596191406,-1.34721779823303,1.76940178871155,2.21619772911072,-1.77128546553625,2.20368172860443,2.23936717137667,3024.123,3097.335,4145.269,0,-0.2356194,0.08756602,0.2206443,-1.02923274040222,-0.53690779209137,0.687658250331879,-1.08549275912543,-0.467057209094684,0.671971727089609,8
2.739990234375,-1.36787056922913,1.75873637199402,2.23004508018494,-1.79296822271738,2.1943522439355,2.25278983096475,2926.4,3019.144,3877.226,448.2435,-0.2309195,0.08640347,0.2216446,-1.03263521194458,-0.533263087272644,0.692372143268585,-1.08227399942825,-0.465672266718727,0.669979161506271,8
2.75999450683594,-1.3885190486908,1.74817705154419,2.24376726150513,-1.81458384274179,2.18505164650952,2.26617092945464,2959.984,3203.859,4072.371,0,-0.2288864,0.08495088,0.2247914,-1.03242456912994,-0.527963519096375,0.686112225055695,-1.07878069424208,-0.464169195088763,0.667816639186824,7
2.77999877929688,-1.4092503786087,1.73768901824951,2.25765609741211,-1.83612684690458,2.17578229366013,2.27950707526701,2849.429,3008.377,3633.568,763.062,-0.2223622,0.08438518,0.2250968,-1.03657352924347,-0.524405300617218,0.694442331790924,-1.07501419914593,-0.462548577472581,0.665484999299265,6
2.79998779296875,-1.42994403839111,1.72732329368591,2.27134203910828,-1.85757544288233,2.1665535620153,2.29278477791556,2833.772,3390.334,3979.168,0,-0.2206285,0.08373182,0.2290594,-1.03468012809753,-0.518288910388947,0.684301912784576,-1.07097916161324,-0.460812413548163,0.662987118851036,6
2.81999206542969,-1.45073533058167,1.71703362464905,2.28526639938354,-1.87895695992541,2.1573536925621,2.30602095550813,2797.439,2939.802,3373.566,1126.258,-0.212582,0.0843787,0.2279485,-1.03956341743469,-0.514485836029053,0.696223676204681,-1.06667099276523,-0.458958728849171,0.660320157107579,5
2.83999633789063,-1.47145330905914,1.70688486099243,2.29890894889832,-1.90024960698239,2.14819206138118,2.31920211834584,2684.952,3608.667,3873.786,0,-0.2116254,0.08517689,0.2322654,-1.03589344024658,-0.507432103157043,0.682121992111206,-1.06209435025759,-0.456989527434725,0.657486997379635,4
2.8599853515625,-1.49227261543274,1.69682669639587,2.31283044815063,-1.92143189875059,2.13907791299805,2.33231496600284,2808.689,2820.174,3170.372,1413.284,-0.2031321,0.08737591,0.2291987,-1.04096686840057,-0.502899527549744,0.69607138633728,-1.05725481901126,-0.454907212340279,0.654491096999312,3
2.87998962402344,-1.51298677921295,1.68692862987518,2.32640695571899,-1.94253086194772,2.12999961857111,2.34537622930486,2547.465,3789.296,3790.533,0,-0.2034767,0.08993143,0.2330811,-1.03571975231171,-0.494913429021835,0.678822636604309,-1.05214690704168,-0.452709420518306,0.651329056166547,2
2.89999389648438,-1.53378558158875,1.67714500427246,2.3402419090271,-1.96352501326936,2.1209664217661,2.35837260906308,2883.974,2665.464,3121.095,1503.932,-0.1960992,0.09354804,0.2279595,-1.03994226455688,-0.489183902740479,0.691753268241882,-1.04677621342161,-0.450398561093403,0.648004340974112,1
2.91999816894531,-1.55446302890778,1.66753435134888,2.35372281074524,-1.98440911693069,2.11198057539494,2.37130086407726,2480.168,3857.087,3746.37,0,-0.19794,0.09759587,0.2304113,-1.03386843204498,-0.480535477399826,0.674047529697418,-1.04114485287423,-0.447975543971863,0.644518260536375,0
2.93998718261719,-1.57517576217651,1.65806794166565,2.36734437942505,-2.00516218376194,2.10305111051103,2.38414800105147,3021.24,2519.818,3319.228,1255.992,-0.193745,0.1018004,0.2239658,-1.03563892841339,-0.473317414522171,0.681074202060699,-1.03525963910674,-0.445443300901551,0.640875032862689,0
2.95999145507813,-1.59577202796936,1.64878034591675,2.38067054748535,-2.02581075424974,2.0941666074844,2.39693044981124,2544.629,3685.797,3808.21,0,-0.1967426,0.1062174,0.2239128,-1.02981734275818,-0.464385002851486,0.66631019115448,-1.02911391720548,-0.442798968459032,0.637070538244476,0
2.97999572753906,-1.61633634567261,1.63966166973114,2.39395928382874,-2.04633384260397,2.08533609591429,2.40963521915279,3170.97,2473.971,3748.814,646.9441,-0.1970691,0.1095625,0.2175808,-1.0282187461853,-0.455928057432175,0.664437532424927,-1.02271452148052,-0.440045487257004,0.633109007445237,0
3,-1.63681125640869,1.63071298599243,2.40707302093506,-2.06672639957428,2.07656174835205,2.42225918334961,2705.386,3315.146,3970.434,0,-0.2002836,0.1126938,0.2150249,-1.02373921871185,-0.447440415620804,0.655681967735291,-1.01606400046349,-0.437183953857422,0.628992018127441,0
3.01998901367188,-1.65720248222351,1.62193393707275,2.42001628875732,-2.0869680292999,2.06785234056679,2.43478971639231,3143.873,2642.949,4170.872,0,-0.2037324,0.114175,0.2108883,-1.01956951618195,-0.438956379890442,0.647166550159454,-1.00917036754089,-0.434217816196637,0.624724530959079,0
3.03999328613281,-1.67753219604492,1.61330008506775,2.43288445472717,-2.10708469520508,2.05919670122237,2.4472428908773,2874.754,2902.313,4155.787,0,-0.2056621,0.1149402,0.2076771,-1.01647841930389,-0.43167844414711,0.643409967422485,-1.00202586176059,-0.431143734953757,0.620301741541063,0
3.05999755859375,-1.69779551029205,1.60478925704956,2.44568490982056,-2.12705600675913,2.05060360379452,2.45960608409476,2735.146,3060.576,4094.694,0,-0.2062011,0.1154215,0.2068243,-1.0131630897522,-0.425546139478683,0.640019416809082,-0.994638524886308,-0.427965170275055,0.615728628108227,0
3.07998657226563,-1.71798026561737,1.59639406204224,2.45836925506592,-2.14686207530873,2.04208160581513,2.47186698402085,2871.123,2866.575,4114.683,0,-0.2056125,0.1151144,0.2067479,-1.00924170017242,-0.419752597808838,0.63421767950058,-0.987017247723776,-0.424685947625853,0.611010694492843,0
3.09999084472656,-1.73809146881104,1.58811068534851,2.47094869613647,-2.16652837486666,2.03361974652815,2.48404136028297,2974.471,2751.569,4104.016,0,-0.2037446,0.1136948,0.2063968,-1.00555527210236,-0.414160311222076,0.628978192806244,-0.979153483542501,-0.421302389586788,0.606142649861596,0
3.1199951171875,-1.75813317298889,1.57993221282959,2.48345351219177,-2.18603502400946,2.02522658035469,2.49611690533293,2909.144,2876.895,4021.892,0,-0.2009467,0.1113927,0.2066895,-1.00208151340485,-0.408926516771317,0.62524276971817,-0.971056158224178,-0.417818336715394,0.601130019760458,0
3.13999938964844,-1.7780956029892,1.57185769081116,2.49586033821106,-2.20537738341953,2.01690410346351,2.50809074721212,2875.291,2925.027,3979.872,0,-0.1979112,0.1082567,0.2080201,-0.998129785060883,-0.403725296258926,0.620344340801239,-0.962728579444533,-0.414235212212131,0.595974851798267,0
3.15998840332031,-1.79798746109009,1.56388247013092,2.50820207595825,-2.22453632143911,2.00866054767245,2.51995104251302,2806.246,2924.312,3861.945,169.6214,-0.1936688,0.1046119,0.2097121,-0.994595646858215,-0.398760944604874,0.617090821266174,-0.954180774018563,-0.410557330335374,0.590683353051152,0
3.17999267578125,-1.81779205799103,1.55601572990417,2.52041673660278,-2.24353658854737,2.00048526354177,2.53171311296128,2795.296,2960.437,3874.922,108.1833,-0.1895867,0.1003366,0.212353,-0.990225613117218,-0.393339216709137,0.610728025436401,-0.945403214201559,-0.406780591562751,0.585249625391267,0
3.19999694824219,-1.83754527568817,1.54824662208557,2.53263545036316,-2.2623590635174,1.99238647840124,2.54336512160655,2637.893,3001.796,3606.875,488.7873,-0.1828697,0.09630323,0.2146513,-0.987672209739685,-0.388473361730576,0.610934793949127,-0.936405971974636,-0.402909329586355,0.579679903854719,0
3.21998596191406,-1.85718059539795,1.54060935974121,2.54460430145264,-2.280985241111,1.98437215453788,2.55489561282487,2809.747,3005.765,3882.813,0,-0.1791881,0.09126532,0.2186894,-0.981764078140259,-0.381842762231827,0.598437011241913,-0.927199897745278,-0.398948213033402,0.573980905360615,0
3.239990234375,-1.87683391571045,1.53306126594543,2.55681943893433,-2.2994392795179,1.97643189735754,2.5663195416865,2358.97,3064.473,3101.013,1205.733,-0.1677845,0.08807156,0.2198007,-0.982660949230194,-0.377414345741272,0.610759913921356,-0.917774783907129,-0.394892849856044,0.568146310914365,0
3.25999450683594,-1.89632272720337,1.52566170692444,2.56863212585449,-2.31770268688992,1.96857366338589,2.57762546085652,2403.795,3558.553,3684.239,0,-0.163932,0.08483271,0.2272957,-0.974439442157745,-0.369972974061966,0.590633153915405,-0.90814153446928,-0.390747931744771,0.562182870617026,0
3.27999877929688,-1.91589951515198,1.5183539390564,2.58092784881592,-2.33577134012187,1.96079922667992,2.58881081793642,2224.735,2890.484,2385.022,2218.031,-0.1469511,0.08483586,0.225789,-0.978838622570038,-0.365393340587616,0.614781022071838,-0.898304216251578,-0.386515208538549,0.556093102023818,0
3.29998779296875,-1.93524742126465,1.51122188568115,2.59259295463562,-2.35362764460945,1.95311615770631,2.59986472102797,2041.135,4117.312,3428.8,0,-0.1440349,0.08541461,0.2351634,-0.967403888702393,-0.356604158878326,0.58325582742691,-0.888274735793772,-0.382199803288803,0.549884375850026,0
3.31999206542969,-1.95474255084991,1.50421667098999,2.60494756698608,-2.37129490830989,1.94551442770222,2.61080159886703,2242.083,2576.656,1681.449,3202.234,-0.1233012,0.09006143,0.2283178,-0.974758625030518,-0.350261002779007,0.617734134197235,-0.878042061913513,-0.37779696958594,0.54354986326829,0
3.33999633789063,-1.97395086288452,1.49741411209106,2.61648273468018,-2.38875555478454,1.93800159931817,2.62161057080077,1594.339,4828.914,3093.87,0,-0.1234902,0.09612709,0.2379811,-0.960411906242371,-0.340130209922791,0.576759099960327,-0.867618167158097,-0.373311858882592,0.53709697585572,0
3.3599853515625,-1.99328351020813,1.49080514907837,2.628662109375,-2.40599272667425,1.93058492580486,2.63228120132087,2491.931,2049.229,1436.83,3671.488,-0.1045919,0.1055069,0.2250878,-0.966637432575226,-0.33044496178627,0.608973860740662,-0.857015715678588,-0.368749920209162,0.530533553325099,0
3.37998962402344,-2.01230692863464,1.48442995548248,2.64000201225281,-2.42302905329872,1.92325467039821,2.6428274990542,1469.618,5106.579,2873.713,0,-0.109432,0.1164008,0.2306108,-0.951159715652466,-0.318762928247452,0.566998422145844,-0.846223126656603,-0.364106170663035,0.523852426598178,0
3.39999389648438,-2.03130578994751,1.47831678390503,2.65156579017639,-2.43984769972619,1.91601807669906,2.65323904237604,2970.946,1560.229,2119.062,2894.172,-0.1009519,0.1276045,0.2133899,-0.949953258037567,-0.305655807256699,0.578191995620728,-0.835253140422974,-0.35938609205264,0.51706148254665,0
3.41999816894531,-2.0500214099884,1.47246742248535,2.66255283355713,-2.45644516534361,1.90887665092339,2.66351366424015,1872.431,4501.355,3030.195,0,-0.1099385,0.1393413,0.2095892,-0.93577241897583,-0.292462766170502,0.549348056316376,-0.824110582941664,-0.354591760855451,0.510163708672097,0
3.43998718261719,-2.0684916973114,1.46690678596497,2.6731162071228,-2.47280564474684,1.90183719369507,2.67364158034846,3476.855,1577.406,3663.952,674.2411,-0.1190215,0.1471365,0.1932473,-0.923517346382141,-0.278039246797562,0.528164446353912,-0.812809078412023,-0.349729039183832,0.50316753900293,0
3.45999145507813,-2.08673715591431,1.46159887313843,2.68350625038147,-2.48895081463434,1.8948903781363,2.68363620960993,2531.124,3044.912,3793.315,0,-0.1295053,0.1537865,0.1799346,-0.912269115447998,-0.26538822054863,0.519508302211761,-0.80133641229185,-0.344792671461508,0.496065412155666,0
3.47999572753906,-2.1047477722168,1.45648288726807,2.69375467300415,-2.50486489870395,1.88804299234919,2.69348778574196,2182.549,3299.869,3801.829,0,-0.1398202,0.1602955,0.1726141,-0.900530457496643,-0.255794048309326,0.512424945831299,-0.789706299681989,-0.339788558913217,0.488865818431069,0
3.5,-2.12250256538391,1.45152115821838,2.70372152328491,-2.5205447997813,1.88129636896134,2.70319439144611,2381.712,2762.981,4065.342,0,-0.1481857,0.1657592,0.1676828,-0.887752532958984,-0.248098582029343,0.498347252607346,-0.777924000354857,-0.334718964672089,0.481572013878822,0
3.51998901367188,-2.1400318145752,1.4466849565506,2.71348094940186,-2.53597583877076,1.87465682397749,2.71274693966292,2673.991,2337.426,4171.448,0,-0.1519637,0.1692606,0.1616348,-0.876448214054108,-0.241801992058754,0.487966984510422,-0.766004036374581,-0.329590137176618,0.474192988348404,0
3.53999328613281,-2.15736651420593,1.44193518161774,2.72320079803467,-2.55117869390181,1.86811546013321,2.72215823120146,2479.821,2767.915,3904.5,0,-0.1514944,0.1715776,0.1575743,-0.866743862628937,-0.237496420741081,0.485995411872864,-0.753933682518821,-0.324396601119134,0.466720864320997,0
3.55999755859375,-2.17449116706848,1.4372478723526,2.73283362388611,-2.56613872308604,1.86167857751006,2.73141920191151,2406.645,2989.84,3694.568,0,-0.1496047,0.1730008,0.156974,-0.856221795082092,-0.234357222914696,0.481636881828308,-0.741727567798258,-0.319144650954242,0.459164697851087,0
3.57998657226563,-2.19138360023499,1.4326274394989,2.74224615097046,-2.58084213759183,1.85535210901407,2.74052131591136,2728.523,2567.196,3748.859,0,-0.1475317,0.1724744,0.1561542,-0.844635844230652,-0.231020033359528,0.470627844333649,-0.72940084364523,-0.31384080592,0.451533868397061,0
3.59999084472656,-2.20805549621582,1.42807698249817,2.75146865844727,-2.59530884290342,1.84912748987145,2.74947689564398,2849.012,2425.84,3756.068,0,-0.1447961,0.1696063,0.1538133,-0.833595514297485,-0.227527320384979,0.461120814085007,-0.716940488958392,-0.308479463400265,0.4438203152769,0
3.6199951171875,-2.22451734542847,1.42358827590942,2.76057457923889,-2.60952509409627,1.84301063413925,2.75827743234631,2594.41,2804.255,3614.464,0,-0.1418969,0.1652031,0.1530726,-0.823090195655823,-0.224443733692169,0.455292463302612,-0.704361775018033,-0.303067194200314,0.436033492140578,0
3.63999938964844,-2.24075794219971,1.41916060447693,2.76949834823608,-2.6234885835008,1.83700253474321,2.76692149746096,2482.282,2892.518,3606.264,0,-0.1397686,0.1595193,0.15491,-0.812029778957367,-0.221375539898872,0.44619357585907,-0.691670720740692,-0.297606588091786,0.428177124984152,0
3.65998840332031,-2.25679016113281,1.41479730606079,2.7782416343689,-2.63718676607487,1.8311085894645,2.77540132500924,2501.621,2676.213,3608.975,184.0917,-0.1364588,0.1525283,0.1570926,-0.801608979701996,-0.218163222074509,0.43716886639595,-0.678883253871145,-0.292104498338286,0.420261073840379,0
3.67999267578125,-2.27263236045837,1.41050064563751,2.78684616088867,-2.65063849381582,1.82532068681534,2.78372858527554,2389.955,2785.126,3542.371,251.6504,-0.1315255,0.1446197,0.160311,-0.79210352897644,-0.214823514223099,0.430231481790543,-0.665986083416798,-0.286555206197011,0.41227711095171,0
3.69999694824219,-2.28829741477966,1.40627765655518,2.79532957077026,-2.66383127580226,1.81964420129024,2.79189554578451,2329.305,2858.447,3450.713,324.5081,-0.1251393,0.1360523,0.1647979,-0.783269047737122,-0.211155667901039,0.424167662858963,-0.65299527533123,-0.280965624398954,0.404235181908735,0
3.71998596191406,-2.30380630493164,1.4021360874176,2.80373573303223,-2.67675353880252,1.81408411252746,2.79989504215442,2239.013,2899.962,3274.759,545.8156,-0.1165447,0.1273061,0.1699286,-0.775434136390686,-0.207078889012337,0.420309484004974,-0.639927289491732,-0.275342835169479,0.396145476159594,0
3.739990234375,-2.31916189193726,1.3980940580368,2.81202936172485,-2.68942333385363,1.80863265367006,2.80773824883709,2232.956,2933.727,3179.124,603.5208,-0.1069552,0.118436,0.1755619,-0.76779043674469,-0.202105835080147,0.414677083492279,-0.62676873176137,-0.26968107538565,0.387999702095468,0
3.75999450683594,-2.33439373970032,1.39416658878326,2.82029867172241,-2.70182915057228,1.80329477731443,2.81541804035694,2140.705,2961.801,2904.319,943.4156,-0.0949582,0.1100531,0.1803506,-0.761577963829041,-0.196353852748871,0.413463860750198,-0.613536214864365,-0.263987493038594,0.379808143784027,0
3.77999877929688,-2.34947443008423,1.39038515090942,2.82837295532227,-2.7139695770734,1.79807109095524,2.82293354268985,2245.095,3002.272,2989.545,688.4852,-0.08486003,0.101452,0.1854326,-0.754045069217682,-0.189091205596924,0.403712123632431,-0.60023651686137,-0.258265004538452,0.371574997167698,0
3.79998779296875,-2.36447262763977,1.38676309585571,2.83654594421387,-2.72583438304408,1.79296599641037,2.83027842278479,1988.503,3017.557,2464.886,1470.124,-0.0705514,0.09425289,0.1877046,-0.749903857707977,-0.181107357144356,0.408655315637589,-0.586886736182787,-0.252520966862155,0.36331084698941,0
3.81999206542969,-2.37927174568176,1.38333606719971,2.84422850608826,-2.73744054699573,1.78797218830065,2.83746319114912,2370.815,3072.395,3169.248,259.0979,-0.06492627,0.08558788,0.192426,-0.739960730075836,-0.171332761645317,0.384126782417297,-0.573473482003301,-0.246749618311662,0.355007403690404,0
3.83999633789063,-2.3940908908844,1.38011109828949,2.85247659683228,-2.74877791451009,1.78309403578861,2.84448156171422,1576.674,3039,1674.67,2660.924,-0.04535683,0.08091432,0.1897462,-0.740973889827728,-0.161261469125748,0.412398785352707,-0.560014026276881,-0.240958390526246,0.346675359432959,0
3.8599853515625,-2.40864849090576,1.37709093093872,2.85989260673523,-2.75983729406747,1.77833549372837,2.85132784449154,1584.704,4153.627,3038.225,0,-0.04361832,0.07648981,0.2002081,-0.727869927883148,-0.151005208492279,0.370795220136642,-0.546525890176286,-0.235154822377061,0.338325560657667,0
3.87998962402344,-2.42332410812378,1.37432038784027,2.86826133728027,-2.7706348636882,1.77368960116974,2.85801205444635,1443.763,2463.561,694.5667,4327.663,-0.01646153,0.07827211,0.191812,-0.733775854110718,-0.138524919748306,0.418440341949463,-0.532995796775444,-0.22933320117373,0.329949788314816,0
3.89999389648438,-2.43769478797913,1.37175571918488,2.87548327445984,-2.78116151864576,1.76916027562219,2.86452855531919,846.2194,5188.551,2639.554,0,-0.0166144,0.08210324,0.2053674,-0.718530595302582,-0.128229171037674,0.361095517873764,-0.519441457145543,-0.223501147495394,0.321559006401168,0
3.91999816894531,-2.45219874382019,1.36952352523804,2.88369798660278,-2.79141684911929,1.7647476934202,2.87087709341145,1897.86,1546.682,176.1453,5254.334,0.01291425,0.09147369,0.1883176,-0.725197315216064,-0.111611641943455,0.410730749368668,-0.505870408491346,-0.2176619043907,0.313157880805522,0
3.93998718261719,-2.46638965606689,1.36752557754517,2.89071774482727,-2.80139308531637,1.76045519768837,2.87705285885147,636.6693,5785.051,2168.434,0,0.008729888,0.1032359,0.1972193,-0.709544837474823,-0.0998983979225159,0.350983291864395,-0.492300656572426,-0.211823219234969,0.304757557950781,0
3.95999145507813,-2.48054122924805,1.36590790748596,2.89812040328979,-2.81110535421031,1.75627627971269,2.88306521595634,2705.693,748.9674,976.8356,4319.251,0.02585523,0.1161527,0.1728029,-0.70756471157074,-0.0808930993080139,0.370133280754089,-0.478719233391147,-0.205979512261105,0.296350010028665,0
