t,x_s1,x_s2,x_s3,x_s_d1,x_s_d2,x_s_d3,propellers_rpms1,propellers_rpms2,propellers_rpms3,propellers_rpms4,rollRad,pitchRad,yawRad,v_s1,v_s2,v_s3,v_s_d1,v_s_d2,v_s_d3,insideCount
0,-0.0599999986588955,2.94000005722046,1.17999994754791,-0.0599999986588955,2.94000005722046,1.17999994754791,0,0,0,0,0,0,0,0,0,0,-1.06581410364015E-15,4.44089209850063E-16,4.44089209850063E-16,0
0.019989013671875,-0.0599999986588955,2.94000005722046,1.17729234695435,-0.0600018659130177,2.93999925379318,1.18000110346716,0,0,0,0,0.0163538,-0.002474609,-2.024222E-05,3.71994488546079E-08,3.50004931704007E-08,-0.135377958416939,-0.000279680311988734,-0.000120338624884473,0.000173135436141649,5
0.0399932861328125,-0.0599999986588955,2.94000005722046,1.17105865478516,-0.060014863945674,2.93999366110285,1.18000914986856,0,0,0,0,0.03270752,-0.004950816,-5.430172E-05,3.48044650877455E-08,3.30428591155396E-08,-0.311683237552643,-0.00111059898697896,-0.000477859717552347,0.000687513678106196,6
0.05999755859375,-0.0600004307925701,2.94013142585754,1.16552257537842,-0.0600498857373401,2.93997859220429,1.18003083002592,3161.891,2810.291,1469.237,2738.728,0.03139007,-0.004977981,-0.01632784,-2.15879354072968E-05,0.00656352238729596,-0.276805400848389,-0.00247936261166862,-0.00106680046642749,0.00153484356504269,6
0.0800018310546875,-0.0599182695150375,2.94037842750549,1.16100025177002,-0.0601175574246769,2.93994947496775,1.18007272202403,3028.767,3011.964,2083.611,1979.162,0.01920914,-0.004419782,-0.04309314,0.00410812301561236,0.0123493764549494,-0.226118445396423,-0.00437268608126799,-0.00188144466206175,0.00270690098422899,6
0.0999908447265625,-0.0596519447863102,2.94066071510315,1.15742909908295,-0.0602281370710988,2.93990189563514,1.18014117609281,2572.785,3764.099,2528.449,1069.481,-0.005661348,-0.003074353,-0.0691037,0.0133161973208189,0.0141138583421707,-0.178559631109238,-0.00677536694902951,-0.00291525111632684,0.0041942748969354,6
0.1199951171875,-0.0591363087296486,2.94084787368774,1.15462076663971,-0.0603918861403606,2.93983143898525,1.18024254456713,1989.392,4003.997,3075.886,694.9622,-0.03991279,-0.0007062703,-0.08793811,0.0257818512618542,0.00936003215610981,-0.14041568338871,-0.00967801353495435,-0.00416417885169243,0.00599115140585487,5
0.139999389648438,-0.058361142873764,2.94078660011292,1.15244734287262,-0.0606185767455666,2.93973390035084,1.18038287685052,1381.798,3936.851,3640.956,663.8734,-0.07574776,0.002034242,-0.09641069,0.0387583822011948,-0.00306391436606646,-0.108671709895134,-0.0130660253322238,-0.00562194567796536,0.00808849210174802,4
0.159988403320313,-0.0573622137308121,2.94033217430115,1.1509200334549,-0.0609175312885481,2.93960526856281,1.18056794395381,1009.765,3669.333,3950.086,872.1702,-0.1041243,0.00383389,-0.0947867,0.0499464981257915,-0.022720992565155,-0.0763651430606842,-0.0169234294955564,-0.00728167892605071,0.0104764090324936,4
0.17999267578125,-0.0561951771378517,2.93938517570496,1.1501237154007,-0.0612985250199726,2.93944133760391,1.18080379722281,1010.592,3363.156,3835.662,1161.351,-0.1193426,0.003851131,-0.08597217,0.0583519041538239,-0.0473479628562927,-0.039818063378334,-0.0212433804254414,-0.00914043312572283,0.0131506644458931,3
0.199996948242188,-0.0549091473221779,2.93791794776917,1.15011012554169,-0.0617704296168641,2.93923829023936,1.18109592864822,1333.497,3132.988,3353.175,1401.456,-0.1214061,0.002340425,-0.07415732,0.064301460981369,-0.0733606517314911,-0.00068189948797226,-0.0260104776919234,-0.0111915819022102,0.0161017247421801,3
0.220001220703125,-0.0535362288355827,2.93597269058228,1.15082979202271,-0.0623420644491781,2.93899233174064,1.18144979784016,1790.228,3014.999,2724.001,1532.995,-0.115121,0.0002797181,-0.06327671,0.0686458945274353,-0.0972623080015182,0.0359821766614914,-0.03121219533433,-0.0134297356845702,0.019321835755004,3
0.239990234375,-0.0520961880683899,2.93363213539124,1.15212380886078,-0.0630214373585105,2.93870001655724,1.18187036203406,2171.746,2982.552,2212.743,1547.11,-0.1071565,-0.001339037,-0.055814,0.0720020979642868,-0.117023855447769,0.0647012740373611,-0.0368316683029241,-0.015847637913056,0.022800557215184,3
0.259994506835938,-0.0506041124463081,2.93098092079163,1.15377116203308,-0.0638179029240226,2.93835731967507,1.18236341216003,2346.8,2985.564,2005.563,1459.933,-0.1029093,-0.001918541,-0.05235668,0.0746037438511848,-0.132566332817078,0.08236925303936,-0.0428651747123285,-0.0184436871643672,0.0265355850983733,3
0.279998779296875,-0.0490743592381477,2.92807555198669,1.15557217597961,-0.0647390625194898,2.93796097043536,1.18293365383054,2309.198,2995.726,2122.697,1298.953,-0.1047139,-0.001324124,-0.05185281,0.0764877423644066,-0.145272329449654,0.0900534093379974,-0.0492963837173861,-0.0212108567320638,0.030516809833474,3
0.29998779296875,-0.0475228056311607,2.92493557929993,1.15741109848022,-0.0657918945890516,2.93750796620855,1.18358540703494,2137.971,3011.588,2441.807,1105.639,-0.1118757,0.0001965693,-0.05227785,0.0775777623057365,-0.156995415687561,0.0919458270072937,-0.0561078595514081,-0.0241416444928383,0.0347334378503248,3
0.319992065429688,-0.0459695085883141,2.92155075073242,1.15926575660706,-0.0669855955880233,2.93699435001684,1.18432436481717,1942.289,3019.274,2793.024,937.9802,-0.1218188,0.002154616,-0.05160727,0.0776647999882698,-0.169246062636375,0.0927356109023094,-0.0632980253096114,-0.0272353719486164,0.0391844929697465,3
0.339996337890625,-0.0444396957755089,2.91789555549622,1.1611762046814,-0.068326768706371,2.93641728069206,1.18515461486636,1804.503,3000.852,3047.354,841.8995,-0.1314973,0.004015843,-0.04861388,0.0764904692769051,-0.182759344577789,0.0955216735601425,-0.0708499516420146,-0.0304847548730522,0.0438594951176439,3
0.360000610351563,-0.0429614037275314,2.91394662857056,1.1632034778595,-0.0698225328270578,2.93577369517774,1.1860805641102,1757.387,2956.232,3148.058,829.751,-0.1384998,0.005408357,-0.04314854,0.07391457259655,-0.197444528341293,0.101364597678185,-0.0787518717320621,-0.0338847303337087,0.0487511600740379,3
0.379989624023438,-0.0415610149502754,2.90969395637512,1.1654018163681,-0.0714784451857985,2.93506120235061,1.1871056527423,1802.695,2905.022,3096.916,875.258,-0.1417483,0.006225682,-0.03593883,0.0700195655226707,-0.212630808353424,0.109918713569641,-0.0869857157641562,-0.0374275233937465,0.0538483017622888,3
0.399993896484375,-0.0402596704661846,2.90514612197876,1.16779732704163,-0.0733036822025899,2.9342758538535,1.18823556140379,1907.647,2870.968,2946.33,936.6756,-0.1416733,0.006603612,-0.02807771,0.0650671944022179,-0.227397352457047,0.119775600731373,-0.0955525119207663,-0.0411135764513579,0.0591515566763244,3
0.419998168945313,-0.0390726029872894,2.90032696723938,1.17038202285767,-0.0753034649285836,2.93341540321397,1.18947352217404,2025.962,2857.44,2769.551,988.7673,-0.1397132,0.006794291,-0.02060168,0.0593534074723721,-0.240962147712708,0.129237234592438,-0.104434660908044,-0.0449353170220673,0.0646500300148815,3
0.439987182617188,-0.0380105897784233,2.89526891708374,1.17311799526215,-0.0774822545706558,2.93247793089932,1.19082229675263,2111.338,2860.148,2639.267,1014.906,-0.1375635,0.007042575,-0.0141531,0.0531007312238216,-0.25290310382843,0.136796623468399,-0.113613709720558,-0.0488848052931553,0.0703322984885602,3
0.459991455078125,-0.0370823480188847,2.89000391960144,1.17595648765564,-0.0798493430620752,2.93145943885026,1.19228763728888,2146.712,2866.587,2592.034,1013.139,-0.1364652,0.00749865,-0.008924252,0.0464119836688042,-0.263248950242996,0.141925379633904,-0.123092454730403,-0.0529632444654124,0.0762000931848968,3
0.479995727539063,-0.0362962484359741,2.88455700874329,1.17885720729828,-0.0824088828700873,2.93035814037613,1.19387211435783,2141.742,2876.204,2624.999,978.8401,-0.1369898,0.008197198,-0.004682902,0.0393050089478493,-0.272340625524521,0.145033299922943,-0.132852887402757,-0.0571628859694044,0.0822422659629699,4
0.5,-0.0356613993644714,2.87894439697266,1.18179619312286,-0.085166398670376,2.92917165836334,1.1955791479969,2109.336,2885.117,2713.684,925.6629,-0.1390378,0.009086237,-0.0009342369,0.0317427143454552,-0.280626624822617,0.146948665380478,-0.142884000065179,-0.0614789935111996,0.0884520025491718,4
0.519989013671875,-0.0351883620023727,2.87317371368408,1.18477129936218,-0.0881248588203387,2.92789871561062,1.19741057576073,2072.101,2887.336,2817.652,874.6017,-0.1420024,0.01006235,0.002807083,0.0236519128084183,-0.288532257080078,0.148755133152008,-0.153166947611899,-0.0659034585682559,0.0948176369253132,4
0.539993286132813,-0.0348887518048286,2.86724734306335,1.18779480457306,-0.091293865515634,2.92653518056143,1.19937234186584,2046.025,2886.271,2906.101,833.1626,-0.145146,0.01101755,0.006906607,0.0149805312976241,-0.296317100524902,0.151177927851677,-0.163706645289342,-0.0704383960337938,0.101342211863077,4
0.55999755859375,-0.0347745232284069,2.86116576194763,1.19088876247406,-0.094676112580471,2.92507989413848,1.20146611391775,2042.402,2880.186,2955.579,813.0953,-0.1478289,0.01187087,0.01146805,0.00571127980947495,-0.304082453250885,0.154700204730034,-0.17448465888317,-0.0750758741803766,0.108014315705644,4
0.579986572265625,-0.0348565503954887,2.85493087768555,1.19407176971436,-0.0982734311149,2.92353206847056,1.2036930254546,2056.755,2876.878,2968.969,806.3621,-0.1497549,0.01259294,0.0164356,-0.00410134717822075,-0.311745464801788,0.159150749444962,-0.185481935470438,-0.0798076950675377,0.114822153786096,4
0.599990844726563,-0.0351442098617554,2.84854745864868,1.1973580121994,-0.102095761416081,2.92188742652551,1.20605922999388,2082.792,2872.288,2952.761,817.621,-0.1508643,0.01319871,0.02158008,-0.0143827581778169,-0.31917268037796,0.164313405752182,-0.19670480600515,-0.0846365827279185,0.121769645266545,4
0.6199951171875,-0.0356447547674179,2.84202313423157,1.20075440406799,-0.106144683970236,2.92014528826426,1.20856570593183,2117.865,2875.446,2921.458,826.5738,-0.1514343,0.01372681,0.02667163,-0.0250274334102869,-0.326212048530579,0.169818863272667,-0.208134604141382,-0.0895545055543457,0.128845234789665,4
0.639999389648438,-0.0363634452223778,2.83536815643311,1.2042578458786,-0.110424235525481,2.91830391678686,1.21121495220784,2145.997,2881.861,2896.536,833.0754,-0.1518513,0.01422813,0.0315439,-0.0359346009790897,-0.332744508981705,0.175174027681351,-0.219761081350814,-0.0945570538913933,0.136042578028218,4
0.659988403320313,-0.0373045168817043,2.82859301567078,1.2078629732132,-0.114934715429503,2.91636318329238,1.21400715413238,2165.061,2886.979,2885.784,837.6603,-0.1524069,0.01474356,0.03608323,-0.0470535308122635,-0.338757693767548,0.180254220962524,-0.231565018351745,-0.0996359582190702,0.143349777331291,4
0.67999267578125,-0.0384714528918266,2.82170724868774,1.21156179904938,-0.119686638739014,2.91431856344567,1.21694882102647,2175.477,2894.896,2896.578,828.4016,-0.1533267,0.01529437,0.0403141,-0.058346301317215,-0.344284504652023,0.184943675994873,-0.243554411173546,-0.104794659005432,0.150771782621969,4
0.699996948242188,-0.0398679301142693,2.81471848487854,1.21535265445709,-0.124680083855354,2.91217002351282,1.22004000142426,2181.92,2899.558,2918.706,817.4922,-0.1546391,0.01588226,0.04427859,-0.0698244720697403,-0.349442332983017,0.189541190862656,-0.255710395848158,-0.11002503961202,0.158296916205407,4
0.720001220703125,-0.041497390717268,2.80763244628906,1.2192325592041,-0.129918284978346,2.90991617190799,1.22328269744952,2184.413,2906.884,2955.041,794.6043,-0.1563414,0.01649623,0.04812152,-0.0814729481935501,-0.354307264089584,0.19399456679821,-0.268023157655716,-0.11532287703907,0.16591910230247,4
0.739990234375,-0.0433640293776989,2.80045223236084,1.22320652008057,-0.135400001298574,2.90755754251682,1.2266761409821,2185.754,2906.229,2989.532,784.2879,-0.1582024,0.01712334,0.05188705,-0.0933323428034782,-0.359005033969879,0.198698833584785,-0.280473432677602,-0.12067988256057,0.173626415629864,5
0.759994506835938,-0.0454716868698597,2.7931809425354,1.22727835178375,-0.14113644597991,2.90508931062815,1.2302272735046,2192.631,2910.966,3023.676,763.196,-0.1601231,0.0177457,0.05567818,-0.105382777750492,-0.363570600748062,0.203592196106911,-0.293070637251543,-0.126100107763583,0.181424685349205,5
0.779998779296875,-0.04782460257411,2.78581953048706,1.23145866394043,-0.147126184485884,2.90251209348295,1.23393520697061,2204.667,2910.598,3042.314,758.173,-0.1619213,0.01835381,0.05945778,-0.117645367980003,-0.368074834346771,0.209015220403671,-0.305795832832518,-0.131575403921268,0.189302187598958,5
0.79998779296875,-0.0504255630075932,2.77837014198303,1.2357497215271,-0.153366821193532,2.89982692185086,1.2377984583754,2220.375,2918.058,3060.951,740.4227,-0.1636662,0.01894197,0.06327816,-0.130047917366028,-0.372467368841171,0.214555904269218,-0.318629798715703,-0.137097500901303,0.197247023847227,5
0.819992065429688,-0.053277675062418,2.77083444595337,1.24015855789185,-0.159870162197751,2.89702871589906,1.2418243362541,2232.332,2915.916,3069.887,746.4954,-0.1652236,0.01952242,0.06703056,-0.142606288194656,-0.376779764890671,0.220441922545433,-0.33158286215529,-0.142670842232658,0.205265587156312,5
0.839996337890625,-0.0563828609883785,2.76321506500244,1.24468767642975,-0.166633637018892,2.89411858163313,1.24601124935738,2253.815,2924.798,3077.458,732.9082,-0.166757,0.02009398,0.07072183,-0.155259072780609,-0.380973517894745,0.226455584168434,-0.344636106234817,-0.148287288494656,0.213346167053785,5
0.860000610351563,-0.0597425363957882,2.75551414489746,1.24933803081512,-0.173659158941841,2.89109569582005,1.2503603820997,2267.665,2928.275,3086.906,730.7947,-0.1683038,0.02066972,0.07430667,-0.167984038591385,-0.385045766830444,0.232520699501038,-0.357780475378537,-0.153942943326036,0.221483157706883,5
0.879989624023438,-0.063357800245285,2.74773406982422,1.25410997867584,-0.18094280014554,2.88796174849148,1.25486930297274,2281.583,2933.006,3100.309,723.8666,-0.1699225,0.02125662,0.07777335,-0.180762901902199,-0.389000564813614,0.238594949245453,-0.370996904517929,-0.159629603560431,0.229664756929996,5
0.899993896484375,-0.0672294795513153,2.73987698554993,1.25900292396545,-0.18849723509595,2.8847112861788,1.25954585807468,2293.153,2936.924,3119.148,715.0905,-0.1716322,0.0218595,0.08112904,-0.193584576249123,-0.392849266529083,0.244649678468704,-0.384296738353309,-0.165352150505452,0.237897987633041,5
0.919998168945313,-0.0713587403297424,2.73194408416748,1.26402056217194,-0.196318384305134,2.8813460641717,1.26438752200817,2307.623,2941.017,3135.239,706.7419,-0.1734256,0.02247822,0.08436634,-0.20646359026432,-0.396639972925186,0.250883519649506,-0.397661187980262,-0.171102499820431,0.246171218589148,5
0.939987182617188,-0.0757458209991455,2.72393703460693,1.26916074752808,-0.204401181418416,2.87786826238106,1.26939115845832,2320.283,2947.391,3160.247,688.5742,-0.1753713,0.02310808,0.08755332,-0.219353377819061,-0.400355726480484,0.257007539272308,-0.411071375662203,-0.176872528942697,0.254472763580097,5
0.959991455078125,-0.0803918838500977,2.71585583686829,1.27442729473114,-0.212759000778906,2.87427212620069,1.27456504678061,2328.326,2945.722,3181.59,687.7606,-0.1773058,0.02375788,0.09064542,-0.232303261756897,-0.404059618711472,0.263328105211258,-0.424539267042903,-0.182667386354485,0.262810029909387,5
0.979995727539063,-0.0852975249290466,2.70770072937012,1.27982258796692,-0.22138664033507,2.87055989392801,1.27990596665734,2346.702,2952.807,3201.979,668.4985,-0.1792989,0.02441528,0.09369373,-0.245282098650932,-0.407750844955444,0.26976352930069,-0.438046240701377,-0.188479059778567,0.271171490030365,5
1,-0.0904631912708282,2.69947195053101,1.28534817695618,-0.230284798736574,2.86673126495361,1.28541435058594,2358.975,2954.966,3222.387,660.2665,-0.181308,0.02508315,0.09669367,-0.258283376693726,-0.411440253257751,0.276280641555786,-0.451584000205995,-0.194303979492187,0.279552008056641,5
1.01998901367188,-0.0958893150091171,2.69116926193237,1.2910064458847,-0.239446912293295,2.86278906344998,1.29108613532954,2373.123,2957.517,3241.222,651.502,-0.1833043,0.02576298,0.09963685,-0.271306186914444,-0.415138453245163,0.282910883426666,-0.46513400752272,-0.200134169097193,0.287940108062054,5
1.03999328613281,-0.101575911045074,2.68279266357422,1.29679775238037,-0.248887339851819,2.85872711120656,1.2969302096982,2387.353,2960.636,3261.937,640.0328,-0.185291,0.02645419,0.1025325,-0.284330308437347,-0.418833643198013,0.289563924074173,-0.478708875293167,-0.205975055460915,0.29634359787259,5
1.05999755859375,-0.107523545622826,2.67434144020081,1.30272746086121,-0.258599401509697,2.85454828239877,1.30294243851408,2404.527,2963.718,3274.09,634.7342,-0.1872389,0.02715915,0.1053413,-0.297381430864334,-0.422564923763275,0.296483308076859,-0.492290296490434,-0.211818761581115,0.30475114456651,5
1.07998657226563,-0.113731041550636,2.66581606864929,1.30879139900208,-0.268575430648764,2.85025587575821,1.30911807577533,2421.466,2970.75,3296.839,614.1044,-0.1892879,0.02786954,0.1081307,-0.310374736785889,-0.426267772912979,0.303198605775833,-0.50586005237609,-0.217657448443621,0.313151469876847,5
1.09999084472656,-0.120198845863342,2.65721583366394,1.31499421596527,-0.278830554044452,2.84584338265603,1.31546648567654,2430.206,2967.633,3312.49,620.201,-0.1912522,0.02860477,0.1108083,-0.323391377925873,-0.430009841918945,0.310142517089844,-0.519431110871131,-0.223496695782555,0.321552601564445,5
1.1199951171875,-0.126926079392433,2.64854097366333,1.3213347196579,-0.289357002179081,2.84131414609862,1.32198285851614,2452.344,2976.722,3332.553,595.4588,-0.1933066,0.02934605,0.113451,-0.336360692977905,-0.433747202157974,0.3170265853405,-0.532985466132485,-0.229328756186667,0.329943393154705,5
1.13999938964844,-0.133912429213524,2.63979077339172,1.32781493663788,-0.300154365346813,2.83666834237095,1.3286669406667,2463.228,2976.589,3350.331,594.0197,-0.1953546,0.03010656,0.1160137,-0.349317342042923,-0.437514632940292,0.32401117682457,-0.546515580872639,-0.235150386571708,0.338319178707607,5
1.15998840332031,-0.141156882047653,2.63096499443054,1.33443319797516,-0.31121353909136,2.83190988886621,1.33551309603608,2479.577,2981.055,3373.293,576.9544,-0.1974569,0.03087855,0.1185363,-0.362224102020264,-0.441285371780396,0.330913096666336,-0.560003743914979,-0.240953966313175,0.346668994161124,6
1.17999267578125,-0.148659273982048,2.62206315994263,1.34119153022766,-0.322550701230474,2.8270318247214,1.34253133946411,2491.18,2980.67,3393.759,572.4372,-0.1995134,0.03167008,0.1209872,-0.375118017196655,-0.445088505744934,0.337915599346161,-0.573463232144024,-0.246745208083563,0.355001058539242,6
1.19999694824219,-0.156418919563293,2.61308455467224,1.34809195995331,-0.334156660511822,2.8220381046756,1.34971598112778,2511.001,2986.147,3411.171,556.6531,-0.2015827,0.03247229,0.123388,-0.387983590364456,-0.448925703763962,0.345020443201065,-0.58687652428584,-0.252516572968185,0.36330452533874,6
1.22000122070313,-0.164434671401978,2.60402917861938,1.35513269901276,-0.346030421585499,2.81692915700008,1.35706640485806,2525.507,2989.013,3433.111,543.8283,-0.2036855,0.03328377,0.1257569,-0.400787174701691,-0.452773243188858,0.352039486169815,-0.600236516861372,-0.258265004538453,0.371574997167698,6
1.239990234375,-0.172706097364426,2.59489583969116,1.36231648921967,-0.358161486344149,2.81170949873715,1.36457611182642,2538.534,2989.163,3450.565,540.2071,-0.2057372,0.03411335,0.1280536,-0.413571268320084,-0.456664472818375,0.359187871217728,-0.613526094901141,-0.263983138701136,0.379801879044709,6
1.25999450683594,-0.181231558322906,2.58568501472473,1.36963963508606,-0.3705671011502,2.80637170925886,1.37225577835275,2555.351,2993.118,3476.265,519.9166,-0.2078182,0.0349496,0.1303334,-0.426272481679916,-0.460543930530548,0.366155803203583,-0.626758665639206,-0.269676744214496,0.387993470686331,6
1.27999877929688,-0.190011531114578,2.57639479637146,1.37711036205292,-0.383236695417198,2.80092033679326,1.3800988607405,2569.764,2993.181,3485.138,523.8898,-0.2097804,0.03580789,0.1325066,-0.438999176025391,-0.464508086442947,0.373536616563797,-0.639917282339435,-0.275338529371412,0.396139281255613,6
1.29998779296875,-0.199042707681656,2.56702661514282,1.38471817970276,-0.396158759015336,2.79536033382764,1.388098233671,2591.754,3002.26,3516.095,486.9007,-0.2119184,0.03665532,0.1347245,-0.451556533575058,-0.468404948711395,0.380390286445618,-0.652985332144132,-0.280961346123326,0.404229026602261,6
1.31999206542969,-0.208326309919357,2.55757856369019,1.39247417449951,-0.409351342777246,2.78968393359302,1.39626507146953,2593.979,2993.537,3524.149,512.9603,-0.2138087,0.03754202,0.1367868,-0.464181959629059,-0.472408413887024,0.38779890537262,-0.665976209205206,-0.286550957599616,0.412270998344359,6
1.33999633789063,-0.217858642339706,2.54805207252502,1.40036725997925,-0.422802873722428,2.78389611561957,1.40459220990988,2625.555,3008.006,3555.056,460.6394,-0.2159174,0.03840774,0.1389141,-0.476617395877838,-0.47632908821106,0.394654631614685,-0.678873453515705,-0.29210028151913,0.420255006953505,6
1.36000061035156,-0.227641344070435,2.53844451904297,1.40841042995453,-0.436511415158101,2.77799771321212,1.41307845008695,2625.846,2998.987,3558.571,493.301,-0.2177741,0.03931406,0.1408763,-0.489133805036545,-0.48037376999855,0.40215939283371,-0.691670720740693,-0.297606588091785,0.42817712498415,6
1.37998962402344,-0.237669065594673,2.52875900268555,1.41658592224121,-0.450464156928423,2.77199423822282,1.42171586190405,2656.489,3012.863,3598.886,432.1481,-0.2199201,0.04018959,0.142947,-0.501388013362885,-0.484275609254837,0.408773899078369,-0.704352136620515,-0.303063047067127,0.436027525513373,6
1.39999389648438,-0.247945472598076,2.51899170875549,1.42491459846497,-0.464680216184654,2.76587746507559,1.43051627978847,2650.055,2998.476,3595.05,484.8854,-0.2216368,0.04112507,0.1447862,-0.513818264007568,-0.488359153270721,0.416432946920395,-0.716930938559026,-0.308475354130225,0.443814403124744,7
1.41999816894531,-0.258463233709335,2.50914716720581,1.43337202072144,-0.47914673136562,2.75965292774086,1.43947174182117,2693.58,3020.458,3641.416,395.3128,-0.2237929,0.04200289,0.1468107,-0.52589213848114,-0.492231220006943,0.422870695590973,-0.729391385793766,-0.313836736470737,0.451528013536465,7
1.43998718261719,-0.269228219985962,2.4992196559906,1.44198870658875,-0.49384995777978,2.75332654017544,1.44857373938334,2677.14,3000.806,3622.744,478.7062,-0.2253716,0.04296163,0.1485257,-0.538247287273407,-0.49637171626091,0.430834501981735,-0.741718206886022,-0.319140623215221,0.459158903000492,7
1.45999145507813,-0.280228763818741,2.48921728134155,1.45072090625763,-0.508809800712713,2.74688973769103,1.45783459479497,2728.495,3027.245,3694.855,348.5667,-0.2276443,0.04382414,0.1505672,-0.550026774406433,-0.500121355056763,0.436609029769897,-0.753924423002454,-0.324392617007921,0.466715132239272,7
1.47999572753906,-0.29147744178772,2.47912955284119,1.4596289396286,-0.524012471663969,2.74034845309416,1.46724577231745,2693.765,2995.901,3638.7,502.273,-0.2288513,0.04483342,0.1520641,-0.56243360042572,-0.504392504692078,0.445402681827545,-0.765994882555672,-0.329586198544069,0.474187321698441,7
1.5,-0.302952975034714,2.46897125244141,1.46862959861755,-0.539455198877605,2.73370387899399,1.4768055561018,2781.508,3045.052,3756.11,262.5562,-0.2314724,0.04564114,0.1542251,-0.573774695396423,-0.507915496826172,0.45003068447113,-0.777924000354858,-0.334718964672088,0.481572013878822,7
1.51998901367188,-0.314680159091949,2.4587230682373,1.47783303260803,-0.555123050061237,2.72696244033876,1.48650470234772,2692.616,2982.587,3639.686,567.136,-0.2321099,0.04673188,0.1554101,-0.586361229419708,-0.512407124042511,0.460174113512039,-0.789697369743256,-0.339784716610053,0.488860290373601,7
1.53999328613281,-0.32662045955658,2.44841313362122,1.48708546161652,-0.571036956668503,2.72011513090874,1.49635616862212,2846.341,3067.575,3845.89,128.2265,-0.2353505,0.04743687,0.1578455,-0.597014963626862,-0.515493273735046,0.462620407342911,-0.801327600455846,-0.344788879974649,0.496059957209413,7
1.55999755859375,-0.338824093341827,2.43800354003906,1.49660003185272,-0.587181951496087,2.71316839067337,1.50635068951315,2667.876,2958.112,3600.008,709.7136,-0.2348578,0.04868652,0.1584787,-0.61017918586731,-0.520477175712585,0.475730687379837,-0.812800388649436,-0.349725300221754,0.503162159625937,7
1.57998657226563,-0.351223856210709,2.42753863334656,1.50612330436707,-0.603542258451077,2.7061290076447,1.51647849886779,2856.534,3187.511,3883.069,0,-0.2386139,0.04956031,0.1616638,-0.61999124288559,-0.52325040102005,0.476163476705551,-0.82410201904291,-0.354588076049064,0.510158407210813,7
1.59999084472656,-0.363893628120422,2.41696739196777,1.51594746112823,-0.620139554045575,2.69898765502515,1.52675301547962,2660.791,2893.618,3547.666,882.8239,-0.2370362,0.05119877,0.1617548,-0.633488655090332,-0.52856183052063,0.491210281848907,-0.835244706287931,-0.359382463079953,0.517056261415284,7
1.6199951171875,-0.376748979091644,2.4063413143158,1.52577328681946,-0.636958033083316,2.69175113334911,1.53716445517924,2805.385,3327.235,3835.989,0,-0.2405031,0.05274023,0.1653465,-0.642767071723938,-0.531306684017181,0.491290688514709,-0.846214826007804,-0.364102599125749,0.523847288101157,7
1.63999938964844,-0.389864027500153,2.39561676979065,1.53587412834167,-0.653994195024907,2.68442094880091,1.54771065096602,2746.828,2824.676,3548.764,906.2188,-0.2390192,0.0549058,0.1649557,-0.655750095844269,-0.536223351955414,0.505040764808655,-0.857007552155828,-0.368746407673381,0.530528499715628,7
1.65998840332031,-0.403156846761703,2.384845495224,1.54596436023712,-0.67123120513297,2.67700434489773,1.55838118133557,2854.066,3297.27,3862.719,0,-0.2426869,0.0568971,0.1676911,-0.664643585681915,-0.538561701774597,0.504513144493103,-0.867610144209785,-0.373308406832068,0.537092009268528,7
1.67999267578125,-0.416699111461639,2.37398767471313,1.55630433559418,-0.688691692550512,2.66949158495151,1.56919005480539,2817.618,2810.202,3630.063,811.366,-0.2420366,0.05931289,0.166587,-0.677113234996796,-0.54289048910141,0.516997396945953,-0.878034183119987,-0.377793579561193,0.543544985919778,8
1.69999694824219,-0.430418342351913,2.36308431625366,1.56665468215942,-0.706358800111611,2.66188992212981,1.58012683598675,2859.571,3300.331,3898.442,0,-0.2459381,0.06160627,0.1686042,-0.685960948467255,-0.545163571834564,0.517517924308777,-0.888267004546665,-0.382196476749158,0.549879589839776,8
1.72000122070313,-0.444369375705719,2.35210633277893,1.57720541954041,-0.724228658537036,2.6542010212754,1.5911891296115,2895.911,2809.39,3765.927,631.6133,-0.2466519,0.06402694,0.167456,-0.697552919387817,-0.548904299736023,0.527536451816559,-0.898304216251578,-0.386515208538549,0.556093102023817,8
1.739990234375,-0.458499491214752,2.34108233451843,1.58778429031372,-0.74228345468553,2.64643254688532,1.60236590849663,2908.956,3196.694,3993.802,0,-0.2506136,0.06621053,0.168688,-0.706504940986633,-0.551202714443207,0.528942704200745,-0.908134108040217,-0.390744736359816,0.562178273303667,8
1.75999450683594,-0.472850888967514,2.32998776435852,1.59853756427765,-0.760546715064628,2.63857437616062,1.61367173667103,2940.913,2838.77,3909.331,446.3115,-0.252041,0.06832908,0.1677735,-0.717571020126343,-0.554727256298065,0.537663042545319,-0.917767514700581,-0.394889722119545,0.568141810929231,8
1.77999877929688,-0.487386524677277,2.31883931159973,1.60935187339783,-0.779000609654483,2.63063418086074,1.62509557650306,2936.599,3142.217,4056.99,0,-0.2554728,0.07019821,0.1688497,-0.726781725883484,-0.557420909404755,0.540716290473938,-0.927192788821983,-0.398945154262308,0.57397650459845,8
1.79998779296875,-0.502132892608643,2.30762004852295,1.62031781673431,-0.797626646773287,2.62261991743975,1.63662598076079,2983.897,2874.508,4006.251,297.9388,-0.2570925,0.07186646,0.1686302,-0.737314641475677,-0.560961604118347,0.548299670219421,-0.936399026186941,-0.402906341007953,0.579675604081262,8
1.81999206542969,-0.517063975334167,2.29634189605713,1.63135588169098,-0.816448984455027,2.61452119137054,1.64827790441807,2988.236,3062.23,4117.29,0,-0.25985,0.07319544,0.1697736,-0.74655681848526,-0.563907980918884,0.551900565624237,-0.945396434568188,-0.406777674475912,0.585245428475252,8
1.83999633789063,-0.532203078269958,2.28498768806458,1.64255273342133,-0.835449117627072,2.60634596486888,1.66003989195343,2992.119,2918.404,4036.351,245.7687,-0.2608598,0.07437166,0.1701159,-0.756953120231628,-0.567712008953094,0.559840977191925,-0.954174163352093,-0.410554485950274,0.590679260733698,8
1.86000061035156,-0.547523379325867,2.2735698223114,1.65382790565491,-0.854622615239374,2.59809614449182,1.6719092003358,3005.952,3073.056,4118.115,0,-0.2629131,0.07525823,0.1718042,-0.766017019748688,-0.570888519287109,0.563759565353394,-0.962728579444532,-0.414235212212131,0.595974851798267,8
1.87998962402344,-0.563046514987946,2.2620735168457,1.66526126861572,-0.873950157556149,2.58978004298193,1.6838738697284,2994.237,2939.583,4023.787,264.5919,-0.2632172,0.07609233,0.1726845,-0.776153564453125,-0.574805378913879,0.571666359901428,-0.971049893464309,-0.417815641164241,0.601126141575667,8
1.89999389648438,-0.578742921352386,2.25051760673523,1.67675864696503,-0.893456683142228,2.58138692997148,1.69594933829086,3036.797,3065.48,4125.179,0,-0.2647922,0.07662296,0.1747376,-0.784822881221771,-0.577802956104279,0.574871122837067,-0.979147395688901,-0.421299770153459,0.606138881190213,8
1.91999816894531,-0.59464293718338,2.23888206481934,1.68843269348145,-0.913122862707269,2.57292512231409,1.70812364027167,2985.964,2958.64,3982.363,329.9899,-0.2642474,0.07726646,0.1757363,-0.794999480247498,-0.581759870052338,0.583703398704529,-0.987011339258123,-0.424683405378145,0.611007036871143,8
1.93998718261719,-0.610706984996796,2.22719287872314,1.70015871524811,-0.932928814964021,2.56440317437226,1.72038446820694,3028.165,3129.147,4100.954,0,-0.2655481,0.07771842,0.1782714,-0.803204238414764,-0.584474742412567,0.586303174495697,-0.994632798067981,-0.427962706185118,0.615725082934877,9
1.95999145507813,-0.626970827579498,2.21543025970459,1.71206080913544,-0.952900013794853,2.55581012544606,1.73274759164336,2988.719,2948.589,3952.828,400.1663,-0.2645009,0.07838468,0.1792782,-0.813194334506989,-0.588127374649048,0.595105171203613,-1.00202031904361,-0.431141350077486,0.620298310335216,9
1.97999572753906,-0.643390774726868,2.20362424850464,1.72399950027466,-0.973016570682103,2.54715453300902,1.74520069864106,3044.691,3145.383,4100.59,0,-0.2656977,0.07886551,0.1818288,-0.820994019508362,-0.590292990207672,0.596935272216797,-1.00916501115878,-0.434215511495054,0.624721215103391,9
2,-0.660008728504181,2.19175457954407,1.73611915111542,-0.993273599084619,2.53843849960327,1.7577407641983,3002.674,2946.953,3938.87,435.8295,-0.2644263,0.07960761,0.1825665,-0.830902218818665,-0.593501210212708,0.605983436107635,-1.01606400046349,-0.437183953857422,0.628992018127441,9
2.01998901367188,-0.676775813102722,2.17985224723816,1.74826645851135,-1.01365055070775,2.52967086658596,1.77035506794184,3032.495,3186.756,4101.767,0,-0.2656349,0.08024301,0.1851113,-0.838352620601654,-0.595122277736664,0.607364654541016,-1.02270954399163,-0.440043345582587,0.633105926142498,9
2.03999328613281,-0.693735718727112,2.16789793968201,1.76058566570282,-1.03417354141348,2.52084039703127,1.78305977683431,3025.154,2930.755,3954.741,442.5719,-0.2643779,0.08111404,0.1856161,-0.847995162010193,-0.597717344760895,0.615961670875549,-1.02910913225408,-0.442796909628122,0.637067576131623,9
2.05999755859375,-0.71084052324295,2.15592193603516,1.77293074131012,-1.05482201812353,2.5119559343546,1.79584216754118,3043.885,3188.536,4116.338,0,-0.265547,0.08187808,0.1878831,-0.855242252349854,-0.598800599575043,0.617255806922913,-1.03525504859546,-0.445441325732794,0.640872191117535,9
2.07998657226563,-0.728131353855133,2.14390683174133,1.78543543815613,-1.07557499515204,2.50302650811029,1.80868924892322,3058.359,2927.858,3989.035,401.9055,-0.2645313,0.08278932,0.1881781,-0.864539384841919,-0.600752890110016,0.625236988067627,-1.04114045847258,-0.4479736531836,0.644515540192423,9
2.09999084472656,-0.745563328266144,2.13187980651855,1.79796600341797,-1.09645901288412,2.49404069871208,1.82161745074311,3048.187,3180.611,4142.622,0,-0.2656572,0.08359975,0.1901738,-0.871598958969116,-0.60135418176651,0.626527607440948,-1.04677201701582,-0.450396755497224,0.648001743199023,9
2.1199951171875,-0.763173878192902,2.1198251247406,1.81064414978027,-1.11745308225396,2.48500753716864,1.83461377976925,3085.377,2928.205,4030.628,351.2249,-0.2648215,0.0844724,0.1903693,-0.880527198314667,-0.602740228176117,0.633909821510315,-1.0521429102862,-0.45270770082608,0.651326581984514,9
2.13999938964844,-0.780922770500183,2.10776519775391,1.82335364818573,-1.138551967509,2.47592927627801,1.8476749948214,3059.143,3169.578,4160.28,0,-0.265809,0.08524045,0.1921577,-0.887443006038666,-0.6029993891716,0.635475337505341,-1.05725102347782,-0.454905579228273,0.654488747383304,9
2.15998840332031,-0.798839390277863,2.09568858146667,1.83618986606598,-1.15973418543027,2.46681515966915,1.86078779676364,3108.481,2931.977,4079.578,287.6811,-0.2651885,0.08597489,0.19243,-0.895841240882874,-0.603833973407745,0.641808331012726,-1.06209075728,-0.456987981476842,0.657484773155346,9
2.17999267578125,-0.816891610622406,2.08361339569092,1.84905982017517,-1.18102676265167,2.45765355853653,1.8739689163698,3080.812,3131.579,4190.062,0,-0.2659459,0.08655453,0.1940036,-0.902604460716248,-0.603750228881836,0.643500149250031,-1.06666760390386,-0.458957270716794,0.660318059240953,10
2.19999694824219,-0.835103929042816,2.07152986526489,1.86204731464386,-1.20240821395574,2.44845371736898,1.88720505326679,3120.455,2949.51,4113.631,233.5855,-0.2653062,0.08705564,0.1944085,-0.910618782043457,-0.604186952114105,0.649373769760132,-1.07097597819164,-0.460811043810786,0.662985148161421,10
2.21998596191406,-0.853447377681732,2.05945253372192,1.87507212162018,-1.22385674836213,2.4392250122166,1.90048271779974,3090.678,3120.692,4199.977,0,-0.2657808,0.08739594,0.1960126,-0.91717654466629,-0.603863120079041,0.651238083839417,-1.07501122224684,-0.462547296596067,0.665483156456917,10
2.239990234375,-0.871941745281219,2.04737424850464,1.88819968700409,-1.24539969505118,2.42995568409656,1.91381882803312,3120.597,2961.357,4137.687,203.0157,-0.2650021,0.08764637,0.1966839,-0.924713432788849,-0.603917598724365,0.656377911567688,-1.07877792518082,-0.464168003639063,0.667814925005999,10
2.25999450683594,-0.890562117099762,2.03530836105347,1.90136253833771,-1.26701526177039,2.4206551096063,1.92719989352455,3114.43,3091.431,4211.956,0,-0.2651422,0.08767688,0.1982975,-0.931017637252808,-0.603279650211334,0.658143579959869,-1.08227143928024,-0.465671165158559,0.669977576652695,10
2.27999877929688,-0.909327507019043,2.02324724197388,1.91462814807892,-1.28869796983554,2.41132564607061,1.9406225227075,3112.351,2985.232,4133.068,197.167,-0.2640364,0.08766329,0.1991657,-0.938272714614868,-0.603065669536591,0.663278818130493,-1.08549040888332,-0.467056197851165,0.67197027217779,10
2.29998779296875,-0.9282106757164,2.01120567321777,1.92791926860809,-1.31042570636616,2.40197680804417,1.95407302665558,3110.392,3099.267,4211.275,0,-0.2638985,0.08744409,0.201031,-0.944155216217041,-0.602076709270477,0.664559245109558,-1.08843144721369,-0.468321644481621,0.673790915005368,10
2.31999206542969,-0.947234928607941,1.99917328357697,1.94131815433502,-1.33222611841886,2.3925966997709,1.96756852021384,3090.873,2994.905,4104.785,241.1848,-0.2622085,0.08728842,0.2020328,-0.951212167739868,-0.60161942243576,0.669947326183319,-1.09109790637238,-0.469468947365361,0.675441580245663,10
2.33999633789063,-0.966366708278656,1.98716926574707,1.95472896099091,-1.35407709248145,2.38319483607731,1.98109531406483,3105.607,3120.128,4196.376,0,-0.2617823,0.08693768,0.204156,-0.956588506698608,-0.600199043750763,0.670541048049927,-1.09348640563071,-0.470496651869278,0.67692017506657,10
2.36000061035156,-0.985637009143829,1.97517967224121,1.96825885772705,-1.37597305876702,2.37377361348711,1.99464996024512,3073.927,3001.19,4049.886,309.8813,-0.2594888,0.08676434,0.2051142,-0.963516771793365,-0.599482476711273,0.676493585109711,-1.09559602313537,-0.471404361345641,0.678226128796969,10
2.37998962402344,-1.00500106811523,1.96322965621948,1.9817773103714,-1.39789168475144,2.36434264106153,2.00821863385843,3084.749,3159.587,4176.345,0,-0.2589615,0.08643203,0.2074838,-0.968206763267517,-0.597502470016479,0.675923466682434,-1.09742465646102,-0.47219117117957,0.679358139935436,10
2.39999389648438,-1.02450180053711,1.95130085945129,1.9954274892807,-1.41986083522252,2.35488992936084,2.02181858453579,3053.121,2992.335,3988.274,402.8222,-0.2560688,0.08640292,0.2081854,-0.975034654140472,-0.596440672874451,0.682508885860443,-1.09897439291323,-0.472857979480329,0.680317500623536,10
2.41999816894531,-1.04408228397369,1.93942368030548,2.00904440879822,-1.44185817738692,2.34542508756209,2.03543598721428,3056.785,3212.812,4147.32,0,-0.2555266,0.08626358,0.2106888,-0.979021906852722,-0.593854367733002,0.680842876434326,-1.10024313330221,-0.473403883025206,0.681102911362803,10
2.43998718261719,-1.06379532814026,1.92757701873779,2.02280068397522,-1.46386128162322,2.33595776650478,2.04905695688976,3048.357,2975.234,3928.688,482.4231,-0.2523148,0.0864842,0.2109869,-0.985646665096283,-0.592337727546692,0.687810778617859,-1.10122974390336,-0.473828394004169,0.681713670323692,10
2.45999145507813,-1.0835725069046,1.91579556465149,2.03649711608887,-1.48589810917879,2.32647593524532,2.06269880290633,3022.048,3257.43,4130.14,0,-0.2519436,0.08663783,0.2134639,-0.988860487937927,-0.589069902896881,0.684827148914337,-1.10193535162022,-0.474131997292339,0.68215047511319,10
2.47999572753906,-1.10347759723663,1.90405476093292,2.05033946037292,-1.50794623031618,2.31698924467309,2.07634764018804,3047.923,2949.53,3883.328,548.1854,-0.248564,0.0871731,0.213217,-0.995259046554565,-0.587043583393097,0.692122459411621,-1.10235882472314,-0.474314205938057,0.682412625136718,11
2.5,-1.1234335899353,1.89239072799683,2.06410503387451,-1.52999999932945,2.30750012397766,2.08999997377396,2984.515,3307.8,4106.048,0,-0.2484191,0.08769947,0.2155653,-0.997792780399323,-0.58320289850235,0.688277006149292,-1.10250000050292,-0.474374949932098,0.682500019669533,11
2.51998901367188,-1.14350593090057,1.88078010082245,2.07800126075745,-1.5520369476803,2.29801824074336,2.10364189456856,3062.895,2913.329,3876.381,563.449,-0.2452857,0.08851274,0.214849,-1.00361716747284,-0.580528318881989,0.694812655448914,-1.10235904000526,-0.474314298567936,0.682412758406603,11
2.53999328613281,-1.16361832618713,1.86925721168518,2.09180951118469,-1.57408507527774,2.28853154739156,2.11729073584934,2970.625,3305.977,4107.042,0,-0.2453602,0.08929604,0.2167738,-1.00561785697937,-0.576144158840179,0.690415740013123,-1.10193578218388,-0.474132182551855,0.682150741652607,11
2.55999755859375,-1.18383383750916,1.85780048370361,2.1057288646698,-1.59612191359838,2.27904971150017,2.13093258853001,3084.662,2891.092,3903.182,518.4548,-0.2426976,0.09020527,0.2156845,-1.01077902317047,-0.572835028171539,0.695969820022583,-1.10123038958312,-0.473828671822132,0.681714070030222,11
2.57998657226563,-1.20408272743225,1.84643793106079,2.11956286430359,-1.61812503288753,2.26958238396605,2.14455356752391,2961.423,3292.814,4109.931,0,-0.2429256,0.09106748,0.217202,-1.01243722438812,-0.568118989467621,0.691702723503113,-1.1002439936861,-0.473404253224357,0.681103443981416,11
2.59999084472656,-1.22441554069519,1.83515429496765,2.13346910476685,-1.64012239440973,2.26011753383818,2.15817098218581,3103.547,2873.575,3970.58,423.2551,-0.2409261,0.09184179,0.2160878,-1.01664209365845,-0.564186692237854,0.695312023162842,-1.09897546783438,-0.47285844198887,0.680318166050934,11
2.6199951171875,-1.24477910995483,1.82396912574768,2.14730167388916,-1.66209156852628,2.2506648119635,2.17177094750084,2986.158,3221.895,4133.389,0,-0.2410896,0.09245513,0.2171029,-1.01817715167999,-0.559262454509735,0.691625356674194,-1.09742594550583,-0.472191725819537,0.679358937915576,11
2.63999938964844,-1.26520943641663,1.81287097930908,2.16117334365845,-1.68402693989188,2.24122663446822,2.18534998730279,3112.604,2887.69,4044.352,295.9525,-0.2396462,0.09279207,0.2162569,-1.02151429653168,-0.554901480674744,0.693585634231567,-1.09559602313537,-0.471404361345641,0.67822612879697,11
2.65998840332031,-1.28566837310791,1.80187273025513,2.17498326301575,-1.70590622088595,2.23181259109281,2.19889430449282,3002.923,3151.13,4160.385,0,-0.2395433,0.09288014,0.2170998,-1.02295899391174,-0.549923896789551,0.690496325492859,-1.09348812118877,-0.470497390025984,0.676921237078733,10
2.67999267578125,-1.30618143081665,1.79096496105194,2.18881106376648,-1.72775723139253,2.2224107117184,2.21242112090437,3091.044,2913.386,4094.842,208.8189,-0.2380951,0.09263645,0.2168107,-1.02563893795013,-0.545381009578705,0.691386818885803,-1.09109983431736,-0.469469776906228,0.675442773735451,9
2.69999694824219,-1.3267205953598,1.78015637397766,2.20258545875549,-1.74955768413056,2.21303058593937,2.22591663964878,3022.63,3091.495,4170.574,0,-0.2374155,0.09204857,0.2178147,-1.02696239948273,-0.540423333644867,0.688717484474182,-1.08843358680109,-0.468322565086308,0.673792239511893,9
2.71998596191406,-1.3473072052002,1.76943755149841,2.21637868881226,-1.77128546553625,2.20368172860443,2.23936717137667,3047.76,2953.745,4079.416,195.6662,-0.2353387,0.09122197,0.2181526,-1.02932858467102,-0.535942256450653,0.689667403697968,-1.08549275912543,-0.467057209094684,0.671971727089609,8
2.739990234375,-1.36791110038757,1.7588198184967,2.23010540008545,-1.79296822271738,2.1943522439355,2.25278983096475,3018.138,3072.893,4161.354,0,-0.234037,0.09000117,0.2197062,-1.03018796443939,-0.530886650085449,0.686340868473053,-1.08227399942825,-0.465672266718727,0.669979161506271,8
2.75999450683594,-1.38856649398804,1.748286485672,2.24388742446899,-1.81458384274179,2.18505164650952,2.26617092945464,2972.596,2990.624,3970.554,315.5798,-0.2305323,0.08885887,0.2204035,-1.03277337551117,-0.526667714118958,0.689105987548828,-1.07878069424208,-0.464169195088763,0.667816639186824,7
2.77999877929688,-1.40922141075134,1.73785948753357,2.25756812095642,-1.83612684690458,2.17578229366013,2.27950707526701,2972.221,3140.07,4105.923,0,-0.2287267,0.08737275,0.2228604,-1.03274154663086,-0.521355867385864,0.684037744998932,-1.07501419914593,-0.462548577472581,0.665484999299265,6
2.79998779296875,-1.42993795871735,1.72751212120056,2.27135944366455,-1.85757544288233,2.1665535620153,2.29278477791556,2887.974,2998.794,3777.072,561.793,-0.2234099,0.08640709,0.2234331,-1.03582513332367,-0.517363846302032,0.689567029476166,-1.07097916161324,-0.460812413548163,0.662987118851036,6
2.81999206542969,-1.45062625408173,1.7172828912735,2.28498601913452,-1.87895695992541,2.1573536925621,2.30602095550813,2888.582,3264.297,4030.12,0,-0.2214514,0.08520319,0.2267702,-1.03441643714905,-0.511460900306702,0.681333422660828,-1.06667099276523,-0.458958728849171,0.660320157107579,5
2.83999633789063,-1.47139298915863,1.70713245868683,2.29880213737488,-1.90024960698239,2.14819206138118,2.31920211834584,2813.937,2973.699,3516.413,901.4683,-0.2142385,0.0850101,0.2264393,-1.03833627700806,-0.507529497146606,0.690811634063721,-1.06209435025759,-0.456989527434725,0.657486997379635,4
2.86000061035156,-1.49209666252136,1.69711542129517,2.31237435340881,-1.9214480311499,2.13907097167731,2.33232495272651,2748.993,3473.465,3922.557,0,-0.2126864,0.08480811,0.2305584,-1.03518915176392,-0.500849723815918,0.678605318069458,-1.05725102347782,-0.454905579228273,0.654488747383304,3
2.87998962402344,-1.51289069652557,1.6871839761734,2.32620072364807,-1.94253086194772,2.12999961857111,2.34537622930486,2776.566,2886.904,3257.085,1262.057,-0.204175,0.08596422,0.2286455,-1.03970396518707,-0.496566861867905,0.691319644451141,-1.05214690704168,-0.452709420518306,0.651329056166547,2
2.89999389648438,-1.53358578681946,1.67740488052368,2.33970165252686,-1.96352501326936,2.1209664217661,2.35837260906308,2597.981,3684.551,3821.719,0,-0.2035806,0.08733969,0.2329259,-1.03475749492645,-0.48896062374115,0.675051808357239,-1.04677621342161,-0.450398561093403,0.648004340974112,1
2.91999816894531,-1.55437099933624,1.66772818565369,2.35348701477051,-1.98440911693069,2.11198057539494,2.37130086407726,2802.091,2752.451,3081.713,1515.774,-0.1949439,0.0900807,0.2289269,-1.03926241397858,-0.483828008174896,0.689269065856934,-1.04114485287423,-0.447975543971863,0.644518260536375,0
2.93998718261719,-1.57502973079681,1.65821981430054,2.36689877510071,-2.00516218376194,2.10305111051103,2.38414800105147,2470.2,3855.52,3734.027,0,-0.1957711,0.09323607,0.2325465,-1.03293144702911,-0.475416153669357,0.670592188835144,-1.03525963910674,-0.445443300901551,0.640875032862689,0
2.95999145507813,-1.59574890136719,1.648841381073,2.38053607940674,-2.02581075424974,2.0941666074844,2.39693044981124,2899.343,2584.22,3110.59,1510.416,-0.1889598,0.09721603,0.2266599,-1.03596425056458,-0.46893173456192,0.681869328022003,-1.02911391720548,-0.442798968459032,0.637070538244476,0
2.97999572753906,-1.61633265018463,1.63964247703552,2.39381432533264,-2.04633384260397,2.08533609591429,2.40963521915279,2457.095,3836.47,3720.371,0,-0.1912485,0.10155,0.2283316,-1.02917897701263,-0.459939181804657,0.663914203643799,-1.02271452148052,-0.440045487257004,0.633109007445237,0
3,-1.63691890239716,1.63060235977173,2.40717267990112,-2.06672639957428,2.07656174835205,2.42225918334961,3051.199,2469.033,3398.989,1118.79,-0.1883425,0.1056252,0.2215114,-1.02930819988251,-0.451994627714157,0.667912781238556,-1.01606400046349,-0.437183953857422,0.628992018127441,0
3.01998901367188,-1.65738189220428,1.6217440366745,2.42025637626648,-2.0869680292999,2.06785234056679,2.43478971639231,2558.395,3588.106,3819.996,0,-0.1916182,0.1097585,0.2205129,-1.02316057682037,-0.442927628755569,0.654183745384216,-1.00917036754089,-0.434217816196637,0.624724530959079,0
3.03999328613281,-1.67777717113495,1.61306405067444,2.43322706222534,-2.10708469520508,2.05919670122237,2.4472428908773,3181.872,2467.536,3897.501,408.5819,-0.1934323,0.1123843,0.2145195,-1.01976346969604,-0.433996289968491,0.648531854152679,-1.00202586176059,-0.431143734953757,0.620301741541063,0
3.05999755859375,-1.69808316230774,1.60455131530762,2.44605922698975,-2.12705600675913,2.05060360379452,2.45960608409476,2750.752,3147.232,4018.742,0,-0.1964033,0.1145498,0.2112379,-1.0152930021286,-0.425639122724533,0.641608238220215,-0.994638524886308,-0.427965170275055,0.615728628108227,0
3.07998657226563,-1.71829962730408,1.59619426727295,2.45875477790833,-2.14686207530873,2.04208160581513,2.47186698402085,2924.212,2836.663,4115.214,0,-0.1989914,0.1156617,0.2083248,-1.0108277797699,-0.417854607105255,0.634775936603546,-0.987017247723776,-0.424685947625853,0.611010694492843,0
3.09999084472656,-1.73843371868134,1.58797574043274,2.47134327888489,-2.16652837486666,2.03361974652815,2.48404136028297,2846.29,2865.708,4131.741,0,-0.2001589,0.1159635,0.2062787,-1.00670528411865,-0.410934329032898,0.629427433013916,-0.979153483542501,-0.421302389586788,0.606142649861596,0
3.1199951171875,-1.75848793983459,1.57987904548645,2.48384237289429,-2.18603502400946,2.02522658035469,2.49611690533293,2815.025,2903.651,4091.19,0,-0.1997946,0.1155615,0.205433,-1.00270521640778,-0.404830574989319,0.624954879283905,-0.971056158224178,-0.417818336715394,0.601130019760458,0
3.13999938964844,-1.77845764160156,1.57189559936523,2.49624013900757,-2.20537738341953,2.01690410346351,2.50809074721212,2847.886,2869.938,4059.291,0,-0.1982287,0.1143252,0.2054702,-0.998486995697021,-0.399163663387299,0.619889795780182,-0.962728579444533,-0.414235212212131,0.595974851798267,0
3.15998840332031,-1.79834127426147,1.56402254104614,2.50853085517883,-2.22453632143911,2.00866054767245,2.51995104251302,2906.376,2813.773,4030.497,0,-0.1957557,0.1120469,0.2058389,-0.994179844856262,-0.393655955791473,0.614541471004486,-0.954180774018563,-0.410557330335374,0.590683353051152,0
3.17999267578125,-1.81814014911652,1.5562572479248,2.52072596549988,-2.24353658854737,2.00048526354177,2.53171311296128,2880.268,2849.561,3972.464,25.89294,-0.1924965,0.1088107,0.2066819,-0.989948034286499,-0.388284981250763,0.609754025936127,-0.945403214201559,-0.406780591562751,0.585249625391267,0
3.19999694824219,-1.83785593509674,1.54859590530396,2.53283882141113,-2.2623590635174,1.99238647840124,2.54336512160655,2801.87,2926.653,3879.797,98.01166,-0.1884698,0.1048947,0.2083212,-0.985791921615601,-0.383067518472672,0.605637311935425,-0.936405971974636,-0.402909329586355,0.579679903854719,0
3.21998596191406,-1.85748612880707,1.54103946685791,2.54486131668091,-2.280985241111,1.98437215453788,2.55489561282487,2733.5,2967.732,3798.884,184.873,-0.1837586,0.100521,0.2107709,-0.981512010097504,-0.377808511257172,0.601128339767456,-0.927199897745278,-0.398948213033402,0.573980905360615,0
3.239990234375,-1.87703657150269,1.5335898399353,2.55681085586548,-2.2994392795179,1.97643189735754,2.5663195416865,2659.095,2992.264,3679.421,338.8196,-0.1778848,0.09600623,0.2136003,-0.977524101734161,-0.372488558292389,0.597482085227966,-0.917774783907129,-0.394892849856044,0.568146310914365,0
3.25999450683594,-1.89650022983551,1.5262565612793,2.56865406036377,-2.31770268688992,1.96857366338589,2.57762546085652,2653.063,3010.602,3632.409,356.0665,-0.1717521,0.09129559,0.2168294,-0.973182141780853,-0.366651833057404,0.592162728309631,-0.90814153446928,-0.390747931744771,0.562182870617026,0
3.27999877929688,-1.91589522361755,1.51904392242432,2.58045101165771,-2.33577134012187,1.96079922667992,2.58881081793642,2569.152,3034.98,3459.828,580.3032,-0.1641999,0.08683176,0.2196625,-0.969743371009827,-0.360637277364731,0.58985298871994,-0.898304216251578,-0.386515208538549,0.556093102023818,0
3.29998779296875,-1.93518877029419,1.51197576522827,2.59207344055176,-2.35362764460945,1.95311615770631,2.59986472102797,2645.403,3042.458,3564.22,366.9152,-0.1581758,0.08198056,0.2230276,-0.964684188365936,-0.353411316871643,0.581118524074554,-0.888274735793772,-0.382199803288803,0.549884375850026,0
3.31999206542969,-1.95444715023041,1.505042552948,2.60376286506653,-2.37129490830989,1.94551442770222,2.61080159886703,2416.583,3080.902,3156.07,972.0928,-0.1486044,0.07816012,0.2246549,-0.96290922164917,-0.346634447574615,0.584476172924042,-0.878042061913513,-0.37779696958594,0.54354986326829,0
3.33999633789063,-1.97354567050934,1.49829697608948,2.61505031585693,-2.38875555478454,1.93800159931817,2.62161057080077,2727.751,3091.887,3745.82,0,-0.1455876,0.07291406,0.2288077,-0.95493072271347,-0.33730337023735,0.564374089241028,-0.867618167158097,-0.373311858882592,0.53709697585572,0
3.36000061035156,-1.99272215366364,1.49168062210083,2.6268265247345,-2.406005803634,1.93057929915441,2.6322892965819,2030.106,3135.034,2439.809,2020.943,-0.1302584,0.07116845,0.2272069,-0.958820343017578,-0.330818027257919,0.588810682296753,-0.857007552155826,-0.36874640767338,0.530528499715627,0
3.37998962402344,-2.01166844367981,1.48525404930115,2.63796854019165,-2.42302905329872,1.92325467039821,2.6428274990542,1896.88,4111.348,3473.37,0,-0.1278227,0.07014192,0.2370811,-0.947312295436859,-0.321317613124847,0.55709981918335,-0.846223126656603,-0.364106170663035,0.523852426598178,0
3.39999389648438,-2.03078031539917,1.4789674282074,2.64989304542542,-2.43984769972619,1.91601807669906,2.65323904237604,1979.692,2684.62,1501.416,3430.765,-0.1052044,0.07418136,0.2311969,-0.955606162548065,-0.314335078001022,0.596230030059814,-0.835253140422974,-0.35938609205264,0.51706148254665,0
3.41999816894531,-2.04958581924438,1.47288608551025,2.66088533401489,-2.45644516534361,1.90887665092339,2.66351366424015,1424.247,4857.029,3112.129,0,-0.1042521,0.07971874,0.2427458,-0.940291941165924,-0.304072439670563,0.549616515636444,-0.824110582941664,-0.354591760855451,0.510163708672097,0
3.43998718261719,-2.06859445571899,1.46700954437256,2.67280125617981,-2.47280564474684,1.90183719369507,2.67364158034846,2237.325,2084.108,819.412,4416.137,-0.07900534,0.09026506,0.2289166,-0.950424134731293,-0.293822884559631,0.595802247524261,-0.812809078412023,-0.349729039183832,0.50316753900293,0
3.45999145507813,-2.08725452423096,1.46136093139648,2.68366050720215,-2.48895081463434,1.8948903781363,2.68363620960993,999.2878,5661.393,2641.219,0,-0.08290047,0.1031215,0.2384873,-0.933005034923553,-0.282441586256027,0.542958676815033,-0.80133641229185,-0.344792671461508,0.496065412155666,0
3.47999572753906,-2.10597586631775,1.45600092411041,2.69503355026245,-2.50486489870395,1.88804299234919,2.69348778574196,2814.223,1288.591,1212.961,4133.38,-0.06641924,0.1179688,0.2177657,-0.936054348945618,-0.267997115850449,0.568654656410217,-0.789706299681989,-0.339788558913217,0.488865818431069,0
3.5,-2.12436175346375,1.45091485977173,2.70558404922485,-2.5205447997813,1.88129636896134,2.70319439144611,1399.381,5291.373,2553.327,0,-0.07628092,0.1340523,0.2165956,-0.91930228471756,-0.254296213388443,0.527527451515198,-0.777924000354857,-0.334718964672089,0.481572013878822,0
3.51998901367188,-2.14251208305359,1.4461522102356,2.71577429771423,-2.53597583877076,1.87465682397749,2.71274693966292,3533.95,1053.476,3003.242,1686.707,-0.08190072,0.1465005,0.1942416,-0.907518148422241,-0.23814794421196,0.509515404701233,-0.766004036374581,-0.329590137176618,0.474192988348404,0
3.53999328613281,-2.16036987304688,1.44168424606323,2.725661277771,-2.55117869390181,1.86811546013321,2.72215823120146,2331,3534.578,3362.352,0,-0.09558512,0.1580044,0.1782059,-0.892881989479065,-0.223372384905815,0.494352102279663,-0.753933682518821,-0.324396601119134,0.466720864320997,0
3.55999755859375,-2.17790627479553,1.43746089935303,2.73521614074707,-2.56613872308604,1.86167857751006,2.73141920191151,2461.731,2924.382,3753.983,0,-0.1120504,0.1680402,0.1648352,-0.876820921897888,-0.211172893643379,0.477742582559586,-0.741727567798258,-0.319144650954242,0.459164697851087,0
3.57998657226563,-2.1951265335083,1.43342423439026,2.74446773529053,-2.58084213759183,1.85535210901407,2.74052131591136,2333.604,2675.34,4075.109,0,-0.1262573,0.1767861,0.1535544,-0.861007571220398,-0.201834142208099,0.462574928998947,-0.72940084364523,-0.31384080592,0.451533868397061,0
3.59999084472656,-2.21206188201904,1.4295140504837,2.75354886054993,-2.59530884290342,1.84912748987145,2.74947689564398,2251.155,2689.904,4100.079,0,-0.1353408,0.1844144,0.1448925,-0.8467777967453,-0.195504367351532,0.454059690237045,-0.716940488958392,-0.308479463400265,0.4438203152769,0
3.6199951171875,-2.22873020172119,1.42567777633667,2.76252603530884,-2.60952509409627,1.84301063413925,2.75827743234631,2210.936,2828.114,3947.759,0,-0.1396114,0.1910718,0.1397841,-0.833409667015076,-0.191819548606873,0.448855042457581,-0.704361775018033,-0.303067194200314,0.436033492140578,0
3.63999938964844,-2.24512934684753,1.42188668251038,2.77135515213013,-2.6234885835008,1.83700253474321,2.76692149746096,2407.914,2671.027,3851.752,0,-0.1405313,0.1962197,0.1364991,-0.819957792758942,-0.189563527703285,0.441451549530029,-0.691670720740692,-0.297606588091786,0.428177124984152,0
3.65998840332031,-2.26126194000244,1.418128490448,2.78001952171326,-2.63718676607487,1.8311085894645,2.77540132500924,2645.223,2470.619,3776.655,0,-0.1391294,0.1992234,0.1328731,-0.80663126707077,-0.187907293438911,0.433223038911819,-0.678883253871145,-0.292104498338286,0.420261073840379,0
3.67999267578125,-2.2771327495575,1.41439342498779,2.78855395317078,-2.65063849381582,1.82532068681534,2.78372858527554,2642.176,2597.318,3622.752,0,-0.1366473,0.2001887,0.1295558,-0.793537199497223,-0.186745509505272,0.426726043224335,-0.665986083416798,-0.286555206197011,0.41227711095171,0
3.69999694824219,-2.29273462295532,1.41067624092102,2.79693603515625,-2.66383127580226,1.81964420129024,2.79189554578451,2553.443,2765.964,3506.904,0,-0.1346793,0.1994206,0.1278234,-0.780092000961304,-0.185855180025101,0.419103711843491,-0.65299527533123,-0.280965624398954,0.404235181908735,0
3.71998596191406,-2.3080587387085,1.40698075294495,2.80508947372437,-2.67675353880252,1.81408411252746,2.79989504215442,2578.934,2663.406,3555.189,0,-0.1337392,0.1967585,0.1270218,-0.766228139400482,-0.18478912115097,0.407669603824615,-0.639927289491732,-0.275342835169479,0.396145476159594,0
3.739990234375,-2.32311534881592,1.40331029891968,2.81300473213196,-2.68942333385363,1.80863265367006,2.80773824883709,2602.932,2538.206,3648.363,0,-0.1329338,0.1920058,0.1263951,-0.752807259559631,-0.183517947793007,0.395768404006958,-0.62676873176137,-0.26968107538565,0.387999702095468,0
3.75999450683594,-2.33792209625244,1.39966368675232,2.82073879241943,-2.70182915057228,1.80329477731443,2.81541804035694,2482.952,2656.883,3649.387,0,-0.1314893,0.1854578,0.1271296,-0.740354061126709,-0.182337552309036,0.386699706315994,-0.613536214864365,-0.263987493038594,0.379808143784027,0
3.77999877929688,-2.35249328613281,1.39604115486145,2.82830119132996,-2.7139695770734,1.79807109095524,2.82293354268985,2379.256,2756.462,3646.856,0,-0.1293327,0.1773828,0.1302298,-0.728561758995056,-0.181130170822144,0.378124684095383,-0.60023651686137,-0.258265004538452,0.371574997167698,0
3.79998779296875,-2.36685085296631,1.39244604110718,2.83572435379028,-2.72583438304408,1.79296599641037,2.83027842278479,2332.269,2700.342,3595.32,154.9143,-0.1250754,0.1680038,0.1347577,-0.71787691116333,-0.179749399423599,0.371156960725784,-0.586886736182787,-0.252520966862155,0.36331084698941,0
3.81999206542969,-2.38102030754089,1.38888454437256,2.84306597709656,-2.73744054699573,1.78797218830065,2.83746319114912,2222.541,2789.664,3438.232,336.3722,-0.117985,0.1578517,0.14066,-0.708468973636627,-0.178068101406097,0.367076516151428,-0.573473482003301,-0.246749618311662,0.355007403690404,0
3.83999633789063,-2.39501714706421,1.38537216186523,2.85033106803894,-2.74877791451009,1.78309403578861,2.84448156171422,2188.534,2855.106,3279.265,461.9483,-0.1087582,0.1472282,0.1477002,-0.699843883514404,-0.175619199872017,0.363248914480209,-0.560014026276881,-0.240958390526246,0.346675359432959,0
3.8599853515625,-2.40886664390564,1.3819272518158,2.85757541656494,-2.75983729406747,1.77833549372837,2.85132784449154,2108.258,2896.714,3010.292,772.782,-0.09674519,0.1367204,0.1547103,-0.692469120025635,-0.172246798872948,0.362221330404282,-0.546525890176286,-0.235154822377061,0.338325560657667,0
3.87998962402344,-2.42256712913513,1.37858080863953,2.86471748352051,-2.7706348636882,1.77368960116974,2.85801205444635,2146.688,2947.455,2915.714,768.0522,-0.08456602,0.1262271,0.1617684,-0.685029804706573,-0.167327478528023,0.357108980417252,-0.532995796775444,-0.22933320117373,0.329949788314816,0
3.89999389648438,-2.4361560344696,1.37535810470581,2.87188935279846,-2.78116151864576,1.76916027562219,2.86452855531919,2011.591,2971.27,2551.995,1251.794,-0.06978707,0.1166147,0.1669293,-0.67944324016571,-0.161130636930466,0.358596116304398,-0.519441457145543,-0.223501147495394,0.321559006401168,0
3.91999816894531,-2.44959020614624,1.3722972869873,2.87880659103394,-2.79141684911929,1.7647476934202,2.87087709341145,2183.318,3035.677,2780.857,753.4716,-0.05920846,0.1066985,0.1724707,-0.671717405319214,-0.153041422367096,0.345866799354553,-0.505870408491346,-0.2176619043907,0.313157880805522,0
3.93998718261719,-2.46296215057373,1.36942172050476,2.88592529296875,-2.80139308531637,1.76045519768837,2.87705285885147,1801.935,3008.915,2068.39,1907.528,-0.04274214,0.09885469,0.1736566,-0.668601155281067,-0.143787324428558,0.355938017368317,-0.492300656572426,-0.211823219234969,0.304757557950781,0
3.95999145507813,-2.47611474990845,1.36675715446472,2.89236569404602,-2.81110535421031,1.75627627971269,2.88306521595634,2361.232,3132.095,3177.569,18.319,-0.03964808,0.08889063,0.17893,-0.657619297504425,-0.133214980363846,0.322024911642075,-0.478719233391147,-0.205979512261105,0.296350010028665,0
