t,x_s1,x_s2,x_s3,x_s_d1,x_s_d2,x_s_d3,propellers_rpms1,propellers_rpms2,propellers_rpms3,propellers_rpms4,rollRad,pitchRad,yawRad,v_s1,v_s2,v_s3,v_s_d1,v_s_d2,v_s_d3,insideCount
0,-0.0599999986588955,2.94000005722046,1.17999994754791,-0.0599999986588955,2.94000005722046,1.17999994754791,0,0,0,0,0,0,0,0,0,0,-1.06581410364015E-15,4.44089209850063E-16,4.44089209850063E-16,0
0.019989013671875,-0.0599999986588955,2.94000005722046,1.17729234695435,-0.0600018659130177,2.93999925379318,1.18000110346716,0,0,0,0,0.0163538,-0.002474609,-2.024222E-05,3.71994488546079E-08,3.50004931704007E-08,-0.135377958416939,-0.000279680311988734,-0.000120338624884473,0.000173135436141649,5
0.0399932861328125,-0.0599999986588955,2.94000005722046,1.17105865478516,-0.060014863945674,2.93999366110285,1.18000914986856,0,0,0,0,0.03270752,-0.004950816,-5.430172E-05,3.48044650877455E-08,3.30428591155396E-08,-0.311683237552643,-0.00111059898697896,-0.000477859717552347,0.000687513678106196,6
0.05999755859375,-0.0600004307925701,2.94013142585754,1.16552257537842,-0.0600498857373401,2.93997859220429,1.18003083002592,3161.891,2810.291,1469.237,2738.728,0.03139007,-0.004977981,-0.01632784,-2.15879354072968E-05,0.00656352238729596,-0.276805400848389,-0.00247936261166862,-0.00106680046642749,0.00153484356504269,6
0.0800018310546875,-0.0599182695150375,2.94037842750549,1.16100025177002,-0.0601175574246769,2.93994947496775,1.18007272202403,3028.767,3011.964,2083.611,1979.162,0.01920914,-0.004419782,-0.04309314,0.00410812301561236,0.0123493764549494,-0.226118445396423,-0.00437268608126799,-0.00188144466206175,0.00270690098422899,6
0.0999908447265625,-0.0596519447863102,2.94066071510315,1.15742909908295,-0.0602281370710988,2.93990189563514,1.18014117609281,2572.785,3764.099,2528.449,1069.481,-0.005661348,-0.003074353,-0.0691037,0.0133161973208189,0.0141138583421707,-0.178559631109238,-0.00677536694902951,-0.00291525111632684,0.0041942748969354,6
0.1199951171875,-0.0591363087296486,2.94084787368774,1.15462076663971,-0.0603918861403606,2.93983143898525,1.18024254456713,1989.392,4003.997,3075.886,694.9622,-0.03991279,-0.0007062703,-0.08793811,0.0257818512618542,0.00936003215610981,-0.14041568338871,-0.00967801353495435,-0.00416417885169243,0.00599115140585487,5
0.139999389648438,-0.058361142873764,2.94078660011292,1.15244734287262,-0.0606185767455666,2.93973390035084,1.18038287685052,1381.798,3936.851,3640.956,663.8734,-0.07574776,0.002034242,-0.09641069,0.0387583822011948,-0.00306391436606646,-0.108671709895134,-0.0130660253322238,-0.00562194567796536,0.00808849210174802,4
0.159988403320313,-0.0573622137308121,2.94033217430115,1.1509200334549,-0.0609175312885481,2.93960526856281,1.18056794395381,1009.765,3669.333,3950.086,872.1702,-0.1041243,0.00383389,-0.0947867,0.0499464981257915,-0.022720992565155,-0.0763651430606842,-0.0169234294955564,-0.00728167892605071,0.0104764090324936,4
0.17999267578125,-0.0561951771378517,2.93938517570496,1.1501237154007,-0.0612985250199726,2.93944133760391,1.18080379722281,1010.592,3363.156,3835.662,1161.351,-0.1193426,0.003851131,-0.08597217,0.0583519041538239,-0.0473479628562927,-0.039818063378334,-0.0212433804254414,-0.00914043312572283,0.0131506644458931,3
0.199996948242188,-0.0549091473221779,2.93791794776917,1.15011012554169,-0.0617704296168641,2.93923829023936,1.18109592864822,1333.497,3132.988,3353.175,1401.456,-0.1214061,0.002340425,-0.07415732,0.064301460981369,-0.0733606517314911,-0.00068189948797226,-0.0260104776919234,-0.0111915819022102,0.0161017247421801,3
0.220001220703125,-0.0535362288355827,2.93597269058228,1.15082979202271,-0.0623420644491781,2.93899233174064,1.18144979784016,1790.228,3014.999,2724.001,1532.995,-0.115121,0.0002797181,-0.06327671,0.0686458945274353,-0.0972623080015182,0.0359821766614914,-0.03121219533433,-0.0134297356845702,0.019321835755004,3
0.239990234375,-0.0520961880683899,2.93363213539124,1.15212380886078,-0.0630214373585105,2.93870001655724,1.18187036203406,2171.746,2982.552,2212.743,1547.11,-0.1071565,-0.001339037,-0.055814,0.0720020979642868,-0.117023855447769,0.0647012740373611,-0.0368316683029241,-0.015847637913056,0.022800557215184,3
0.259994506835938,-0.0506041124463081,2.93098092079163,1.15377116203308,-0.0638179029240226,2.93835731967507,1.18236341216003,2346.8,2985.564,2005.563,1459.933,-0.1029093,-0.001918541,-0.05235668,0.0746037438511848,-0.132566332817078,0.08236925303936,-0.0428651747123285,-0.0184436871643672,0.0265355850983733,3
0.279998779296875,-0.0490743592381477,2.92807555198669,1.15557217597961,-0.0647390625194898,2.93796097043536,1.18293365383054,2309.198,2995.726,2122.697,1298.953,-0.1047139,-0.001324124,-0.05185281,0.0764877423644066,-0.145272329449654,0.0900534093379974,-0.0492963837173861,-0.0212108567320638,0.030516809833474,3
0.29998779296875,-0.0475228056311607,2.92493557929993,1.15741109848022,-0.0657918945890516,2.93750796620855,1.18358540703494,2137.971,3011.588,2441.807,1105.639,-0.1118757,0.0001965693,-0.05227785,0.0775777623057365,-0.156995415687561,0.0919458270072937,-0.0561078595514081,-0.0241416444928383,0.0347334378503248,3
0.319992065429688,-0.0459695085883141,2.92155075073242,1.15926575660706,-0.0669855955880233,2.93699435001684,1.18432436481717,1942.289,3019.274,2793.024,937.9802,-0.1218188,0.002154616,-0.05160727,0.0776647999882698,-0.169246062636375,0.0927356109023094,-0.0632980253096114,-0.0272353719486164,0.0391844929697465,3
0.339996337890625,-0.0444396957755089,2.91789555549622,1.1611762046814,-0.068326768706371,2.93641728069206,1.18515461486636,1804.503,3000.852,3047.354,841.8995,-0.1314973,0.004015843,-0.04861388,0.0764904692769051,-0.182759344577789,0.0955216735601425,-0.0708499516420146,-0.0304847548730522,0.0438594951176439,3
0.360000610351563,-0.0429614037275314,2.91394662857056,1.1632034778595,-0.0698225328270578,2.93577369517774,1.1860805641102,1757.387,2956.232,3148.058,829.751,-0.1384998,0.005408357,-0.04314854,0.07391457259655,-0.197444528341293,0.101364597678185,-0.0787518717320621,-0.0338847303337087,0.0487511600740379,3
0.379989624023438,-0.0415610149502754,2.90969395637512,1.1654018163681,-0.0714784451857985,2.93506120235061,1.1871056527423,1802.695,2905.022,3096.916,875.258,-0.1417483,0.006225682,-0.03593883,0.0700195655226707,-0.212630808353424,0.109918713569641,-0.0869857157641562,-0.0374275233937465,0.0538483017622888,3
0.399993896484375,-0.0402596704661846,2.90514612197876,1.16779732704163,-0.0733036822025899,2.9342758538535,1.18823556140379,1907.647,2870.968,2946.33,936.6756,-0.1416733,0.006603612,-0.02807771,0.0650671944022179,-0.227397352457047,0.119775600731373,-0.0955525119207663,-0.0411135764513579,0.0591515566763244,3
0.419998168945313,-0.0390726029872894,2.90032696723938,1.17038202285767,-0.0753034649285836,2.93341540321397,1.18947352217404,2025.962,2857.44,2769.551,988.7673,-0.1397132,0.006794291,-0.02060168,0.0593534074723721,-0.240962147712708,0.129237234592438,-0.104434660908044,-0.0449353170220673,0.0646500300148815,3
0.44000244140625,-0.0380105897784233,2.89526891708374,1.17311799526215,-0.077483988232608,2.93247718495301,1.19082336997196,2111.338,2860.148,2639.267,1014.906,-0.1375635,0.007042575,-0.0141531,0.0531007312238216,-0.25290310382843,0.136796623468399,-0.113620829717891,-0.048887868829098,0.0703367061060819,3
0.459991455078125,-0.0370823442935944,2.89000391960144,1.17595684528351,-0.0798493430620752,2.93145943885026,1.19228763728888,2147.643,2866.71,2591.28,1012.89,-0.1364721,0.007497986,-0.008927449,0.0464122295379639,-0.263251483440399,0.141943737864494,-0.123092454730403,-0.0529632444654124,0.0762000931848968,3
0.479995727539063,-0.0362962074577808,2.88455724716187,1.17885673046112,-0.0824088828700873,2.93035814037613,1.19387211435783,2139.937,2876.5,2626.588,978.6534,-0.1370026,0.008198307,-0.004676511,0.039306715130806,-0.272337287664413,0.144994392991066,-0.132852887402757,-0.0571628859694044,0.0822422659629699,4
0.5,-0.0356614217162132,2.87894463539124,1.18179607391357,-0.085166398670376,2.92917165836334,1.1955791479969,2109.736,2883.669,2713.079,927.5165,-0.1390282,0.009086701,-0.0009384979,0.0317393131554127,-0.280631572008133,0.146966367959976,-0.142884000065179,-0.0614789935111996,0.0884520025491718,4
0.519989013671875,-0.0351883955299854,2.87317395210266,1.18477118015289,-0.0881248588203387,2.92789871561062,1.19741057576073,2072.86,2889.033,2817.715,871.9931,-0.1420029,0.01006211,0.00281133,0.0236512888222933,-0.288533478975296,0.148754745721817,-0.153166947611899,-0.0659034585682559,0.0948176369253132,4
0.539993286132813,-0.0348888114094734,2.86724758148193,1.18779492378235,-0.091293865515634,2.92653518056143,1.19937234186584,2045.79,2885.295,2905.662,834.8256,-0.1451396,0.01101709,0.006906525,0.0149790113791823,-0.296319723129272,0.15118932723999,-0.163706645289342,-0.0704383960337938,0.101342211863077,4
0.55999755859375,-0.0347745902836323,2.86116600036621,1.19088888168335,-0.094676112580471,2.92507989413848,1.20146611391775,2042.539,2880.688,2955.619,812.3626,-0.1478278,0.01187054,0.01146942,0.00571129005402327,-0.304082632064819,0.154698997735977,-0.17448465888317,-0.0750758741803766,0.108014315705644,4
0.580001831054688,-0.0348566249012947,2.85493111610413,1.19407200813293,-0.0982762614093182,2.92353085067394,1.20369477754168,2056.632,2876.548,2968.848,806.9462,-0.1497522,0.01259277,0.01643417,-0.00410168338567019,-0.311745941638947,0.159153550863266,-0.185490414529404,-0.0798113433697334,0.11482740272751,4
0.599990844726563,-0.0351442843675613,2.84854769706726,1.19735872745514,-0.102095761416081,2.92188742652551,1.20605922999388,2083.93,2872.73,2951.826,817.0259,-0.1508734,0.01319789,0.02157552,-0.0143827740103006,-0.319175869226456,0.16433584690094,-0.19670480600515,-0.0846365827279185,0.121769645266545,4
0.6199951171875,-0.0356447473168373,2.84202361106873,1.20075392723083,-0.106144683970236,2.92014528826426,1.20856570593183,2115.727,2875.613,2923.804,826.0585,-0.151454,0.01372783,0.02667848,-0.0250230487436056,-0.326206386089325,0.169761762022972,-0.208134604141382,-0.0895545055543457,0.128845234789665,4
0.639999389648438,-0.0363635532557964,2.83536863327026,1.20425796508789,-0.110424235525481,2.91830391678686,1.21121495220784,2146.194,2879.982,2895.448,836.1306,-0.1518375,0.01422936,0.0315352,-0.0359404496848583,-0.332751661539078,0.17520435154438,-0.219761081350814,-0.0945570538913933,0.136042578028218,4
0.659988403320313,-0.0373046100139618,2.82859349250793,1.20786273479462,-0.114934715429503,2.91636318329238,1.21400715413238,2166.335,2889.476,2886.419,833.0897,-0.1524138,0.01474328,0.03609005,-0.0470529273152351,-0.338757514953613,0.180240258574486,-0.231565018351745,-0.0996359582190702,0.143349777331291,4
0.67999267578125,-0.0384716056287289,2.8217077255249,1.21156215667725,-0.119686638739014,2.91431856344567,1.21694882102647,2174.759,2893.1,2895.623,831.9558,-0.1533166,0.01529423,0.04031155,-0.0583501756191254,-0.344290018081665,0.184968426823616,-0.243554411173546,-0.104794659005432,0.150771782621969,4
0.699996948242188,-0.0398680828511715,2.8147189617157,1.21535277366638,-0.124680083855354,2.91217002351282,1.22004000142426,2182.47,2900.835,2919.109,815.1372,-0.1546418,0.0158815,0.04428317,-0.0698235705494881,-0.34944224357605,0.189531087875366,-0.255710395848158,-0.11002503961202,0.158296916205407,4
0.720001220703125,-0.0414975807070732,2.80763268470764,1.21923291683197,-0.129918284978346,2.90991617190799,1.22328269744952,2183.952,2905.843,2954.481,796.7255,-0.156334,0.01649609,0.04811868,-0.0814749896526337,-0.354310274124146,0.194008201360703,-0.268023157655716,-0.11532287703907,0.16591910230247,4
0.739990234375,-0.0433641970157623,2.800452709198,1.22320663928986,-0.135400001298574,2.90755754251682,1.2266761409821,2186.129,2907.096,2989.974,782.531,-0.1582056,0.01712288,0.05188887,-0.0933308750391006,-0.359003841876984,0.198687493801117,-0.280473432677602,-0.12067988256057,0.173626415629864,5
0.759994506835938,-0.0454718731343746,2.79318118095398,1.22727870941162,-0.14113644597991,2.90508931062815,1.2302272735046,2192.274,2910.24,3023.31,764.7023,-0.1601194,0.01774585,0.05567455,-0.105383932590485,-0.363572120666504,0.203601017594337,-0.293070637251543,-0.126100107763583,0.181424685349205,5
0.779998779296875,-0.047824751585722,2.78581976890564,1.23145878314972,-0.147126184485884,2.90251209348295,1.23393520697061,2204.937,2911.262,3042.792,756.7049,-0.1619266,0.01835382,0.05945871,-0.117643609642982,-0.368073225021362,0.209003239870071,-0.305795832832518,-0.131575403921268,0.189302187598958,5
0.79998779296875,-0.0504257194697857,2.77837038040161,1.23575007915497,-0.153366821193532,2.89982692185086,1.2377984583754,2220.027,2917.44,3060.683,741.7134,-0.163664,0.01894238,0.06327528,-0.130048871040344,-0.372468739748001,0.214562624692917,-0.318629798715703,-0.137097500901303,0.197247023847227,5
0.819992065429688,-0.0532778315246105,2.77083492279053,1.24015867710114,-0.159870162197751,2.89702871589906,1.2418243362541,2232.621,2916.451,3070.255,745.2573,-0.1652284,0.01952239,0.06703196,-0.142604917287827,-0.376778990030289,0.220432907342911,-0.33158286215529,-0.142670842232658,0.205265587156312,5
0.839996337890625,-0.0563830099999905,2.76321530342102,1.24468791484833,-0.166633637018892,2.89411858163313,1.24601124935738,2253.543,2924.29,3077.13,734.0582,-0.1667544,0.0200941,0.07071993,-0.155260324478149,-0.380975544452667,0.226463720202446,-0.344636106234817,-0.148287288494656,0.213346167053785,5
0.860000610351563,-0.0597426779568195,2.75551438331604,1.24933815002441,-0.173659158941841,2.89109569582005,1.2503603820997,2267.931,2928.752,3087.24,729.6691,-0.1683075,0.02066918,0.07430879,-0.167982831597328,-0.385045409202576,0.23251236975193,-0.357780475378537,-0.153942943326036,0.221483157706883,5
0.879989624023438,-0.0633579641580582,2.7477343082428,1.25411021709442,-0.18094280014554,2.88796174849148,1.25486930297274,2281.322,2932.532,3099.938,725.0142,-0.1699187,0.02125646,0.07777204,-0.180764392018318,-0.389002770185471,0.238603889942169,-0.370996904517929,-0.159629603560431,0.229664756929996,5
0.899993896484375,-0.0672296136617661,2.73987722396851,1.25900304317474,-0.18849723509595,2.8847112861788,1.25954585807468,2293.458,2937.388,3119.421,714.0004,-0.1716343,0.02185894,0.08113117,-0.193583443760872,-0.392848938703537,0.244642570614815,-0.384296738353309,-0.165352150505452,0.237897987633041,5
0.919998168945313,-0.071358934044838,2.73194432258606,1.2640209197998,-0.196318384305134,2.8813460641717,1.26438752200817,2307.352,2940.588,3134.876,707.843,-0.1734213,0.02247796,0.08436495,-0.206464901566505,-0.396641790866852,0.250891983509064,-0.397661187980262,-0.171102499820431,0.246171218589148,5
0.94000244140625,-0.0757459700107574,2.72393727302551,1.26916086673737,-0.204407453948074,2.87786556348678,1.26939504145298,2320.562,2947.82,3160.553,687.5126,-0.1753734,0.02310765,0.08755505,-0.219351872801781,-0.40035492181778,0.256999492645264,-0.411081631631503,-0.176876941799768,0.254479112513653,5
0.959991455078125,-0.080392137169838,2.71585583686829,1.27442860603333,-0.212759000778906,2.87427212620069,1.27456504678061,2329.333,2945.804,3179.203,689.2134,-0.1773101,0.02375723,0.09063765,-0.232308983802795,-0.404069632291794,0.263384759426117,-0.424539267042903,-0.182667386354485,0.262810029909387,5
0.979995727539063,-0.0852974057197571,2.70770120620728,1.27982139587402,-0.22138664033507,2.87055989392801,1.27990596665734,2344.865,2953.339,3207.085,664.3688,-0.1793389,0.0244137,0.09371109,-0.245263963937759,-0.407736778259277,0.269640117883682,-0.438046240701377,-0.188479059778567,0.271171490030365,5
1,-0.0904635190963745,2.69947195053101,1.28534913063049,-0.230284798736574,2.86673126495361,1.28541435058594,2357.634,2951.394,3218.142,670.0637,-0.1812638,0.02508779,0.0966706,-0.258305549621582,-0.411459535360336,0.276388257741928,-0.451584000205995,-0.194303979492187,0.279552008056641,5
1.01998901367188,-0.0958893299102783,2.69116950035095,1.29100525379181,-0.239446912293295,2.86278906344998,1.29108613532954,2377.411,2962.97,3245.528,636.8735,-0.1833421,0.02575923,0.09966101,-0.271289765834808,-0.415124595165253,0.282808154821396,-0.46513400752272,-0.200134169097193,0.287940108062054,5
1.03999328613281,-0.101576432585716,2.68279242515564,1.29679918289185,-0.248887339851819,2.85872711120656,1.2969302096982,2383.091,2955.238,3256.532,655.6641,-0.1852394,0.02645808,0.1025106,-0.284355580806732,-0.418856114149094,0.289697080850601,-0.478708875293167,-0.205975055460915,0.29634359787259,5
1.05999755859375,-0.107523590326309,2.67434144020081,1.30272626876831,-0.258599401509697,2.85454828239877,1.30294243851408,2409.045,2969.372,3279.436,618.514,-0.1872836,0.02715387,0.10537,-0.29735803604126,-0.422546118497849,0.296352982521057,-0.492290296490434,-0.211818761581115,0.30475114456651,5
1.08000183105469,-0.113731682300568,2.66581559181213,1.30879330635071,-0.268583149539609,2.85025255453512,1.30912285413647,2416.378,2964.62,3290.489,632.3854,-0.1892272,0.02787439,0.1081019,-0.310404002666473,-0.42629274725914,0.303353011608124,-0.50587040849135,-0.217661904390701,0.313157880805523,5
1.09999084472656,-0.120198965072632,2.65721583366394,1.3149938583374,-0.278830554044452,2.84584338265603,1.31546648567654,2437.22,2974.963,3317.072,600.5782,-0.1913199,0.02859779,0.1108345,-0.323365598917007,-0.429993867874146,0.310029089450836,-0.519431110871131,-0.223496695782555,0.321552601564445,5
1.1199951171875,-0.126926481723785,2.64854073524475,1.32133555412292,-0.289357002179081,2.84131414609862,1.32198285851614,2443.854,2969.3,3330.269,614.2391,-0.1932779,0.02935132,0.1134309,-0.33637535572052,-0.433760851621628,0.317084074020386,-0.532985466132485,-0.229328756186667,0.329943393154705,5
1.13999938964844,-0.133912518620491,2.63979077339172,1.32781386375427,-0.300154365346813,2.83666834237095,1.3286669406667,2468.872,2981.451,3354.544,578.9575,-0.1953871,0.03010458,0.116029,-0.349301904439926,-0.437500953674316,0.323913156986237,-0.546515580872639,-0.235150386571708,0.338319178707607,5
1.15998840332031,-0.141157537698746,2.63096475601196,1.33443462848663,-0.31121353909136,2.83190988886621,1.33551309603608,2476.278,2977.429,3368.325,589.3645,-0.1974121,0.03088346,0.1185151,-0.362250953912735,-0.441306322813034,0.331036955118179,-0.560003743914979,-0.240953966313175,0.346668994161124,6
1.17999267578125,-0.14865942299366,2.62206339836121,1.34119045734406,-0.322550701230474,2.8270318247214,1.34253133946411,2495.47,2985.212,3398.984,557.7147,-0.1995586,0.03166494,0.1210142,-0.375094354152679,-0.445069760084152,0.337790906429291,-0.573463232144024,-0.246745208083563,0.355001058539242,6
1.19999694824219,-0.156419783830643,2.61308431625366,1.34809422492981,-0.334156660511822,2.8220381046756,1.34971598112778,2505.689,2980.825,3404.335,574.8046,-0.2015198,0.03247869,0.1233601,-0.388018161058426,-0.448953956365585,0.345186293125153,-0.58687652428584,-0.252516572968185,0.36330452533874,6
1.22000122070313,-0.164434775710106,2.60402941703796,1.35513126850128,-0.346030421585499,2.81692915700008,1.35706640485806,2531.768,2995.138,3440.885,522.7782,-0.2037505,0.03327572,0.1257931,-0.4007488489151,-0.452743589878082,0.351851582527161,-0.600236516861372,-0.258265004538453,0.371574997167698,6
1.239990234375,-0.17270715534687,2.594895362854,1.36231970787048,-0.358161486344149,2.81170949873715,1.36457611182642,2530.938,2982.007,3440.925,565.6155,-0.2056504,0.03412319,0.1280112,-0.413619875907898,-0.456703126430511,0.35942006111145,-0.613526094901141,-0.263983138701136,0.379801879044709,6
1.25999450683594,-0.181231424212456,2.58568549156189,1.36963713169098,-0.3705671011502,2.80637170925886,1.37225577835275,2564.564,3001.625,3488.025,489.1728,-0.2079188,0.03493757,0.1303845,-0.426212549209595,-0.46049702167511,0.365872025489807,-0.626758665639206,-0.269676744214496,0.387993470686331,6
1.27999877929688,-0.190012872219086,2.57639408111572,1.37711477279663,-0.383236695417198,2.80092033679326,1.3800988607405,2558.316,2983.038,3470.675,561.4711,-0.2096547,0.03582341,0.1324427,-0.439073532819748,-0.4645656645298,0.373884201049805,-0.639917282339435,-0.275338529371412,0.396139281255613,6
1.29998779296875,-0.199042111635208,2.56702756881714,1.38471388816833,-0.396158759015336,2.79536033382764,1.388098233671,2605.853,3014.509,3534.265,440.4863,-0.212075,0.03663673,0.1348023,-0.451462179422379,-0.468331396579742,0.379953116178513,-0.652985332144132,-0.280961346123326,0.404229026602261,6
1.31999206542969,-0.208328127861023,2.55757761001587,1.39248085021973,-0.409351342777246,2.78968393359302,1.39626507146953,2576.163,2978.667,3501.343,570.8109,-0.2136137,0.03756735,0.1366889,-0.464301973581314,-0.472500532865524,0.388345807790756,-0.665976209205206,-0.286550957599616,0.412270998344359,6
1.33999633789063,-0.217857405543327,2.5480535030365,1.40035998821259,-0.422802873722428,2.78389611561957,1.40459220990988,2647.993,3026.34,3584.044,387.9019,-0.2161656,0.03837731,0.1390385,-0.476464360952377,-0.476211220026016,0.393958896398544,-0.678873453515705,-0.29210028151913,0.420255006953505,6
1.36000061035156,-0.227644100785255,2.53844308853149,1.40842092037201,-0.436511415158101,2.77799771321212,1.41307845008695,2596.986,2976.353,3521.391,585.7476,-0.2174572,0.03935658,0.1407211,-0.489333987236023,-0.480526357889175,0.403048753738403,-0.691670720740693,-0.297606588091785,0.42817712498415,6
1.37998962402344,-0.237666755914688,2.52876138687134,1.4165735244751,-0.450464156928423,2.77199423822282,1.42171586190405,2693.446,3041.318,3646.604,314.1869,-0.2203244,0.04013829,0.1431508,-0.501131772994995,-0.48408043384552,0.407630890607834,-0.704352136620515,-0.303063047067127,0.436027525513373,7
1.39999389648438,-0.247949972748756,2.51898908615112,1.42493200302124,-0.464680216184654,2.76587746507559,1.43051627978847,2601.698,2963.051,3532.522,637.4163,-0.2211058,0.04119879,0.1445315,-0.514161765575409,-0.4886195063591,0.417924493551254,-0.716930938559026,-0.308475354130225,0.443814403124744,7
1.41999816894531,-0.258458942174911,2.50915122032166,1.43335056304932,-0.47914673136562,2.75965292774086,1.43947174182117,2756.185,3065.998,3722.698,197.793,-0.2244741,0.04191463,0.1471562,-0.525448858737946,-0.491896748542786,0.420927315950394,-0.729391385793766,-0.313836736470737,0.451528013536465,7
1.44000244140625,-0.269236087799072,2.49921464920044,1.442018866539,-0.493861275572861,2.75332167044526,1.4485807456364,2593.446,2943.626,3514.148,738.7847,-0.2244528,0.0430949,0.1480949,-0.538856387138367,-0.496830523014069,0.433417648077011,-0.741727567798258,-0.319144650954242,0.459164697851088,7
1.45999145507813,-0.280221045017242,2.48922371864319,1.45068442821503,-0.508809800712713,2.74688973769103,1.45783459479497,2839.035,3103.574,3834.423,8.296074,-0.2288364,0.04367034,0.1511664,-0.549250900745392,-0.49954879283905,0.433275520801544,-0.753924423002454,-0.324392617007921,0.466715132239272,7
1.47999572753906,-0.29149129986763,2.47911953926086,1.45968103408813,-0.524012471663969,2.74034845309416,1.46724577231745,2542.547,2900.563,3451.902,953.86,-0.2272704,0.04507957,0.1513428,-0.563511192798615,-0.505203485488892,0.449833393096924,-0.765994882555672,-0.329586198544069,0.474187321698441,7
1.5,-0.302958846092224,2.46895527839661,1.4686803817749,-0.539455198877605,2.73370387899399,1.4768055561018,2715.089,3365.652,3747.143,0,-0.2312263,0.04641631,0.155614,-0.573377013206482,-0.508211672306061,0.449967235326767,-0.777924000354858,-0.334718964672088,0.481572013878822,7
1.51998901367188,-0.314699470996857,2.45868396759033,1.47797286510468,-0.555123050061237,2.72696244033876,1.48650470234772,2637.588,2797.66,3433.961,1021.134,-0.2295666,0.04846424,0.1556289,-0.587030649185181,-0.513566553592682,0.464623153209686,-0.789697369743256,-0.339784716610053,0.488860290373601,7
1.53999328613281,-0.326628386974335,2.4483630657196,1.48723804950714,-0.571036956668503,2.72011513090874,1.49635616862212,2807.817,3274.85,3794.73,0,-0.2336274,0.05022866,0.1588482,-0.596447944641113,-0.516040027141571,0.46326157450676,-0.801327600455846,-0.344788879974649,0.496059957209413,7
1.55999755859375,-0.338828086853027,2.43794250488281,1.49679827690125,-0.587181951496087,2.71316839067337,1.50635068951315,2703.501,2792.135,3482.566,964.5059,-0.2323507,0.05258343,0.1577936,-0.609986782073975,-0.521024227142334,0.478012055158615,-0.812800388649436,-0.349725300221754,0.503162159625937,7
1.58000183105469,-0.351213663816452,2.42747139930725,1.50635766983032,-0.60355483331529,2.70612359703193,1.51648628330776,2770.635,3368.781,3786.546,0,-0.2366581,0.05486771,0.1605972,-0.619275748729706,-0.523551642894745,0.477969914674759,-0.824110582941666,-0.354591760855452,0.510163708672098,7
1.59999084472656,-0.363848805427551,2.41691470146179,1.51614534854889,-0.620139554045575,2.69898765502515,1.52675301547962,2795.578,2766.748,3611.782,805.3248,-0.2369468,0.05742042,0.1594842,-0.631757140159607,-0.527837753295898,0.489383190870285,-0.835244706287931,-0.359382463079953,0.517056261415284,7
1.6199951171875,-0.376670300960541,2.40631031990051,1.52593898773193,-0.636958033083316,2.69175113334911,1.53716445517924,2852.207,3217.321,3904.592,0,-0.2415061,0.05967477,0.1610949,-0.641076624393463,-0.530215561389923,0.48967918753624,-0.846214826007804,-0.364102599125749,0.523847288101157,7
1.63999938964844,-0.389734715223312,2.39562368392944,1.53594791889191,-0.653994195024907,2.68442094880091,1.54771065096602,2842.98,2806.726,3756.267,615.1942,-0.2426182,0.06201035,0.1598702,-0.653221607208252,-0.534337162971497,0.500444412231445,-0.857007552155828,-0.368746407673381,0.530528499715628,7
1.65998840332031,-0.402990400791168,2.38487911224365,1.54600381851196,-0.67123120513297,2.67700434489773,1.55838118133557,2845.976,3216.185,3954.474,0,-0.2468164,0.06414623,0.1614084,-0.662781894207001,-0.537223637104034,0.502794623374939,-0.867610144209785,-0.373308406832068,0.537092009268528,7
1.67999267578125,-0.416474044322968,2.3740541934967,1.5562332868576,-0.688691692550512,2.66949158495151,1.56919005480539,2898.36,2824.349,3881.745,447.3533,-0.2484815,0.06616424,0.1609206,-0.674183249473572,-0.541247546672821,0.511473119258881,-0.878034183119987,-0.377793579561193,0.543544985919778,7
1.69999694824219,-0.4301518201828,2.36316633224487,1.56652414798737,-0.706358800111611,2.66188992212981,1.58012683598675,2933.925,3081.531,4040.862,0,-0.2520735,0.0677805,0.1621241,-0.683892488479614,-0.544398605823517,0.514542996883392,-0.888267004546665,-0.382196476749158,0.549879589839776,8
1.72000122070313,-0.444055378437042,2.35219216346741,1.57699549198151,-0.724228658537036,2.6542010212754,1.5911891296115,2916.829,2883.814,3942.114,345.3939,-0.2533998,0.0692772,0.1621148,-0.69517457485199,-0.548709392547607,0.523565053939819,-0.898304216251578,-0.386515208538549,0.556093102023817,8
1.739990234375,-0.458151757717133,2.34114694595337,1.58754336833954,-0.74228345468553,2.64643254688532,1.60236590849663,2940.663,3096.271,4054.548,0,-0.2562776,0.0704569,0.1638544,-0.704821050167084,-0.552255630493164,0.527393817901611,-0.908134108040217,-0.390744736359816,0.562178273303667,8
1.75999450683594,-0.472467660903931,2.33001208305359,1.59826576709747,-0.760546715064628,2.63857437616062,1.61367173667103,2928.103,2906.134,3953.205,333.7683,-0.2570078,0.07157953,0.164517,-0.715792834758759,-0.556749045848846,0.536120235919952,-0.917767514700581,-0.394889722119545,0.568141810929231,8
1.77999877929688,-0.486971080303192,2.31880640983582,1.60905683040619,-0.779000609654483,2.63063418086074,1.62509557650306,2990.582,3064.967,4071.548,0,-0.259321,0.07233302,0.1665494,-0.725172519683838,-0.560284078121185,0.539555251598358,-0.927192788821983,-0.398945154262308,0.57397650459845,8
1.79998779296875,-0.501694202423096,2.30750799179077,1.62003862857819,-0.797626646773287,2.62261991743975,1.63662598076079,2925.991,2935.025,3926.444,372.8611,-0.2592619,0.0731772,0.1674363,-0.736154913902283,-0.564926862716675,0.549090921878815,-0.936399026186941,-0.402906341007953,0.579675604081262,8
1.81999206542969,-0.516596496105194,2.29614210128784,1.63107764720917,-0.816448984455027,2.61452119137054,1.64827790441807,2983.326,3119.004,4060.537,0,-0.261205,0.0737702,0.1700056,-0.745118141174316,-0.568296790122986,0.551948964595795,-0.945396434568188,-0.406777674475912,0.585245428475252,8
1.83999633789063,-0.531717360019684,2.28468489646912,1.64231634140015,-0.835449117627072,2.60634596486888,1.66003989195343,2931.309,2932.276,3889.064,446.955,-0.2604699,0.07458201,0.1709598,-0.756044089794159,-0.572855472564697,0.561935007572174,-0.954174163352093,-0.410554485950274,0.590679260733698,8
1.86000061035156,-0.547008872032166,2.27316832542419,1.65359663963318,-0.854622615239374,2.59809614449182,1.6719092003358,2993.133,3155.557,4051.498,0,-0.2622532,0.07519801,0.1737387,-0.764577388763428,-0.575824558734894,0.564016163349152,-0.962728579444532,-0.414235212212131,0.595974851798267,8
1.87998962402344,-0.562516868114471,2.26156759262085,1.66507840156555,-0.873950157556149,2.58978004298193,1.6838738697284,2945.35,2922.524,3873.432,498.2276,-0.2611794,0.07610196,0.1744875,-0.775398194789886,-0.580024480819702,0.574086666107178,-0.971049893464309,-0.417815641164241,0.601126141575667,8
1.89999389648438,-0.578188836574554,2.24991822242737,1.6765912771225,-0.893456683142228,2.58138692997148,1.69594933829086,2993.406,3188.461,4055.972,0,-0.2629003,0.07687072,0.1772268,-0.78359842300415,-0.582482874393463,0.575646221637726,-0.979147395688901,-0.421299770153459,0.606138881190213,8
1.91999816894531,-0.594073832035065,2.23819494247437,1.68830263614655,-0.913122862707269,2.57292512231409,1.70812364027167,2975.259,2911.558,3881.838,508.1536,-0.2617898,0.07791295,0.1776817,-0.794253051280975,-0.586164951324463,0.585568368434906,-0.987011339258123,-0.424683405378145,0.611007036871143,9
1.93998718261719,-0.610118448734283,2.22643184661865,1.70004320144653,-0.932928814964021,2.56440317437226,1.72038446820694,2999.233,3208.439,4065.506,0,-0.2635336,0.0788573,0.1802012,-0.802229046821594,-0.588143646717072,0.587027132511139,-0.994632798067981,-0.427962706185118,0.615725082934877,9
1.95999145507813,-0.62636810541153,2.21460914611816,1.71196234226227,-0.952900013794853,2.55581012544606,1.73274759164336,3010.462,2900.081,3929.631,468.1634,-0.2627304,0.0799855,0.1804476,-0.812482178211212,-0.591141819953918,0.595957100391388,-1.00202031904361,-0.431141350077486,0.620298310335216,9
1.97999572753906,-0.64277595281601,2.20275545120239,1.72391617298126,-0.973016570682103,2.54715453300902,1.74520069864106,3024.187,3184.389,4096.988,0,-0.2644274,0.08098184,0.1825227,-0.820394575595856,-0.59268057346344,0.597692131996155,-1.00916501115878,-0.434215511495054,0.624721215103391,9
2,-0.659380614757538,2.1908540725708,1.73603081703186,-0.993273599084619,2.53843849960327,1.7577407641983,3049.251,2909.066,3992.217,384.382,-0.2640471,0.08203937,0.1826792,-0.830233573913574,-0.595065474510193,0.605730712413788,-1.01606400046349,-0.437183953857422,0.628992018127441,9
2.01998901367188,-0.676142513751984,2.17892837524414,1.74818778038025,-1.01365055070775,2.52967086658596,1.77035506794184,3039.074,3158.938,4134.408,0,-0.2656349,0.08295465,0.1844683,-0.838093340396881,-0.596286416053772,0.607847511768341,-1.02270954399163,-0.440043345582587,0.633105926142498,9
2.03999328613281,-0.693092167377472,2.16696500778198,1.7604866027832,-1.03417354141348,2.52084039703127,1.78305977683431,3074.544,2919.088,4058.755,303.4761,-0.2654794,0.08383781,0.1847453,-0.847486555576324,-0.598163723945618,0.614941000938416,-1.02910913225408,-0.442796909628122,0.637067576131623,9
2.05999755859375,-0.710198879241943,2.15498161315918,1.77283823490143,-1.05482201812353,2.5119559343546,1.79584216754118,3065.638,3122.926,4166.108,0,-0.2667449,0.08454059,0.1863525,-0.855330049991608,-0.599169552326202,0.617580890655518,-1.03525504859546,-0.445441325732794,0.640872191117535,9
2.08000183105469,-0.727485060691833,2.14296770095825,1.78531885147095,-1.07559088172821,2.50301967256038,1.80869908347065,3095.019,2941.527,4103.461,232.9321,-0.2666229,0.08515123,0.1868788,-0.864312410354614,-0.600683748722076,0.624029755592346,-1.04114485287423,-0.447975543971863,0.644518260536375,9
2.09999084472656,-0.744924902915955,2.13093852996826,1.79785430431366,-1.09645901288412,2.49404069871208,1.82161745074311,3085.947,3094.822,4191.518,0,-0.2675465,0.08555406,0.1885017,-0.871991038322449,-0.601466178894043,0.626770973205566,-1.04677201701582,-0.450396755497224,0.648001743199023,9
2.1199951171875,-0.762538194656372,2.11888432502747,1.81051337718964,-1.11745308225396,2.48500753716864,1.83461377976925,3094.873,2961.808,4124.44,206.9539,-0.2671199,0.08588924,0.1892969,-0.880661070346832,-0.602716267108917,0.632952630519867,-1.0521429102862,-0.45270770082608,0.651326581984514,9
2.13999938964844,-0.78030002117157,2.10681915283203,1.82322680950165,-1.138551967509,2.47592927627801,1.8476749948214,3101.328,3088.079,4197.54,0,-0.2676264,0.08600947,0.1910845,-0.888093531131744,-0.603262543678284,0.635671079158783,-1.05725102347782,-0.454905579228273,0.654488747383304,9
2.15998840332031,-0.798230111598969,2.09473323822021,1.83606457710266,-1.15973418543027,2.46681515966915,1.86078779676364,3092.111,2981.829,4112.731,215.1879,-0.2667705,0.0861214,0.1921068,-0.896501004695892,-0.604292631149292,0.641888082027435,-1.06209075728,-0.456987981476842,0.657484773155346,9
2.17999267578125,-0.816299378871918,2.08264422416687,1.84894287586212,-1.18102676265167,2.45765355853653,1.8739689163698,3103.589,3094.976,4200.336,0,-0.2669824,0.08602937,0.1941455,-0.903470516204834,-0.604445457458496,0.64391416311264,-1.06666760390386,-0.458957270716794,0.660318059240953,10
2.19999694824219,-0.834535539150238,2.07053828239441,1.86195886135101,-1.20240821395574,2.44845371736898,1.88720505326679,3076.9,2992.668,4071.999,274.5387,-0.2654554,0.08605723,0.1951897,-0.911803245544434,-0.605292439460754,0.650800287723541,-1.07097597819164,-0.460811043810786,0.662985148161421,10
2.22000122070313,-0.852899551391602,2.05843806266785,1.875,-1.22387315175433,2.43921795429519,1.90049287228091,3089.196,3141.925,4177.768,0,-0.2654591,0.08594431,0.1975501,-0.918208003044128,-0.605011582374573,0.652057945728302,-1.07501419914593,-0.462548577472581,0.665484999299265,10
2.239990234375,-0.871426105499268,2.04632782936096,1.88818299770355,-1.24539969505118,2.42995568409656,1.91381882803312,3068.275,2985.512,4026.809,347.5761,-0.2634245,0.08604681,0.1984861,-0.926326811313629,-0.60551255941391,0.659151971340179,-1.07877792518082,-0.464168003639063,0.667814925005999,10
2.25999450683594,-0.890068173408508,2.03423547744751,1.90136957168579,-1.26701526177039,2.4206551096063,1.92719989352455,3080.094,3170.754,4166.816,0,-0.2633611,0.08602773,0.2009228,-0.932105183601379,-0.604615569114685,0.659328937530518,-1.08227143928024,-0.465671165158559,0.669977576652695,10
2.27999877929688,-0.908870100975037,2.022141456604,1.91470777988434,-1.28869796983554,2.41132564607061,1.9406225227075,3065.903,2977.198,3983.201,412.815,-0.2609451,0.08629385,0.2015149,-0.940093278884888,-0.604693531990051,0.666911065578461,-1.08549040888332,-0.467056197851165,0.67197027217779,10
2.29998779296875,-0.927775382995605,2.01007747650146,1.92803347110748,-1.31042570636616,2.40197680804417,1.95407302665558,3055.061,3223.443,4144.947,0,-0.2609557,0.08650364,0.203982,-0.945265829563141,-0.603214263916016,0.666286110877991,-1.08843144721369,-0.468321644481621,0.673790915005368,10
2.31999206542969,-0.946832001209259,1.9980241060257,1.94150114059448,-1.33222611841886,2.3925966997709,1.96756852021384,3073.58,2953.006,3969.857,447.9146,-0.2585253,0.0869813,0.2042383,-0.952832996845245,-0.602672338485718,0.673383295536041,-1.09109790637238,-0.469468947365361,0.675441580245663,10
2.33999633789063,-0.965982735157013,1.98601222038269,1.95494520664215,-1.35407709248145,2.38319483607731,1.98109531406483,3053.673,3229.765,4143.358,0,-0.2586521,0.08738268,0.2064028,-0.957531869411469,-0.600581705570221,0.672205150127411,-1.09348640563071,-0.470496651869278,0.67692017506657,10
2.36000061035156,-0.985275149345398,1.97402429580688,1.96851909160614,-1.37597305876702,2.37377361348711,1.99464996024512,3091.766,2941.853,3981.581,429.8595,-0.2565002,0.08796577,0.2063193,-0.964624106884003,-0.599393725395203,0.678697407245636,-1.09559602313537,-0.471404361345641,0.678226128796969,10
2.37998962402344,-1.00465369224548,1.96208822727203,1.98206412792206,-1.39789168475144,2.36434264106153,2.00821863385843,3041.513,3231.552,4152.333,0,-0.2567575,0.0884808,0.2082012,-0.96892774105072,-0.596804976463318,0.677252233028412,-1.09742465646102,-0.47219117117957,0.679358139935436,10
2.39999389648438,-1.02416205406189,1.9501885175705,1.99571824073792,-1.41986083522252,2.35488992936084,2.02181858453579,3106.326,2928.587,4019.716,384.6567,-0.254929,0.08906565,0.2079636,-0.975416719913483,-0.594993472099304,0.682707965373993,-1.09897439291323,-0.472857979480329,0.680317500623536,10
2.41999816894531,-1.04375183582306,1.93834745883942,2.00934720039368,-1.44185817738692,2.34542508756209,2.03543598721428,3048.155,3205.516,4166.116,0,-0.2551266,0.08954237,0.2095233,-0.979485869407654,-0.592045545578003,0.681445598602295,-1.10024313330221,-0.473403883025206,0.681102911362803,10
2.43998718261719,-1.0634583234787,1.92655313014984,2.02306318283081,-1.46386128162322,2.33595776650478,2.04905695688976,3122.367,2931.078,4062.655,311.9728,-0.2536256,0.0899579,0.2093259,-0.985323905944824,-0.589718222618103,0.685803055763245,-1.10122974390336,-0.473828394004169,0.681713670323692,10
2.45999145507813,-1.08324086666107,1.91482365131378,2.03675508499146,-1.48589810917879,2.32647593524532,2.06269880290633,3054.586,3166.594,4188.078,0,-0.2536656,0.09021719,0.2106942,-0.989135205745697,-0.586482882499695,0.6845942735672,-1.10193535162022,-0.474131997292339,0.68215047511319,10
2.47999572753906,-1.10313045978546,1.90314698219299,2.05052304267883,-1.50794623031618,2.31698924467309,2.07634764018804,3119.404,2943.357,4088.314,262.6001,-0.2521454,0.09036656,0.2106642,-0.994479298591614,-0.583836495876312,0.688398122787476,-1.10235882472314,-0.474314205938057,0.682412625136718,10
2.5,-1.12309050559998,1.89153826236725,2.06426811218262,-1.52999999932945,2.30750012397766,2.08999997377396,3056.903,3147.885,4189.788,0,-0.2518908,0.09033254,0.2120896,-0.99799782037735,-0.580431818962097,0.687257647514343,-1.10250000050292,-0.474374949932098,0.682500019669533,10
2.51998901367188,-1.14314758777618,1.87998723983765,2.07807874679565,-1.5520369476803,2.29801824074336,2.10364189456856,3103.539,2955.603,4091.528,245.8025,-0.2501246,0.09019534,0.2123431,-1.00284695625305,-0.577553570270538,0.690530121326447,-1.10235904000526,-0.474314298567936,0.682412758406603,11
2.53999328613281,-1.16326630115509,1.86850929260254,2.09185791015625,-1.57408507527774,2.28853154739156,2.11729073584934,3062.206,3124.02,4191.214,0,-0.2495142,0.08981963,0.2139039,-1.00594484806061,-0.573895514011383,0.688962280750275,-1.10193578218388,-0.474132182551855,0.682150741652607,11
2.55999755859375,-1.18347811698914,1.85709095001221,2.10571241378784,-1.59612191359838,2.27904971150017,2.13093258853001,3072.844,2975.924,4051.88,279.3914,-0.2471312,0.0894474,0.2143282,-1.01059794425964,-0.570921897888184,0.692719578742981,-1.10123038958312,-0.473828671822132,0.681714070030222,11
2.58000183105469,-1.20374000072479,1.8457510471344,2.11951971054077,-1.61814182127198,2.26957516039323,2.14456396033363,3042.165,3150.138,4165.172,0,-0.2462305,0.08885236,0.2162777,-1.01309072971344,-0.566988945007324,0.690361440181732,-1.10024313330221,-0.473403883025206,0.681102911362804,11
2.59999084472656,-1.22409188747406,1.83447277545929,2.13341569900513,-1.64012239440973,2.26011753383818,2.15817098218581,3032.281,2981.207,3977.332,372.2125,-0.2430651,0.08842833,0.2167488,-1.01760280132294,-0.563916981220245,0.694793999195099,-1.09897546783438,-0.47285844198887,0.680318166050934,11
2.6199951171875,-1.24447762966156,1.82328200340271,2.14723467826843,-1.66209156852628,2.2506648119635,2.17177094750084,3012.752,3186.721,4136.508,0,-0.2419801,0.08779407,0.2190595,-1.0192791223526,-0.55952525138855,0.690948843955994,-1.09742594550583,-0.472191725819537,0.679358937915576,11
2.63999938964844,-1.26495552062988,1.81215524673462,2.16117310523987,-1.68402693989188,2.24122663446822,2.18534998730279,2991.014,2978.64,3865.639,511.9883,-0.2378693,0.08754584,0.2192369,-1.0239052772522,-0.556350350379944,0.696917295455933,-1.09559602313537,-0.471404361345641,0.67822612879697,11
2.65998840332031,-1.28544747829437,1.80112648010254,2.17499876022339,-1.70590622088595,2.23181259109281,2.19889430449282,2953.204,3274.804,4083.857,0,-0.2368131,0.08717588,0.221963,-1.02459061145782,-0.55143678188324,0.691287815570831,-1.09348812118877,-0.470497390025984,0.676921237078733,10
2.67999267578125,-1.30603122711182,1.7901668548584,2.18896555900574,-1.72775723139253,2.2224107117184,2.21242112090437,2959.272,2946.767,3750.362,672.5167,-0.2319576,0.08736261,0.2215945,-1.02918994426727,-0.547976016998291,0.698344588279724,-1.09109983431736,-0.469469776906228,0.675442773735451,9
2.69999694824219,-1.32660818099976,1.77931869029999,2.20278167724609,-1.74955768413056,2.21303058593937,2.22591663964878,2898.514,3352.537,4034.875,0,-0.2311405,0.08747898,0.2244095,-1.02884578704834,-0.542416214942932,0.690807521343231,-1.08843358680109,-0.468322565086308,0.673792239511893,9
2.72000122070313,-1.34727454185486,1.76854848861694,2.21675586700439,-1.77130202882336,2.20367460188472,2.23937742484041,2950.723,2905.985,3650.799,799.8644,-0.2259868,0.08821482,0.2232169,-1.03331232070923,-0.538504123687744,0.698713660240173,-1.08549040888332,-0.467056197851165,0.671970272177789,8
2.739990234375,-1.36791360378265,1.75790238380432,2.23054456710815,-1.79296822271738,2.1943522439355,2.25278983096475,2828.724,3433.268,3994.235,0,-0.2256677,0.08896684,0.2259226,-1.03195488452911,-0.532308340072632,0.689437985420227,-1.08227399942825,-0.465672266718727,0.669979161506271,8
2.75999450683594,-1.38863265514374,1.74734687805176,2.24448752403259,-1.81458384274179,2.18505164650952,2.26617092945464,2959.33,2844.606,3604.361,870.7292,-0.2207025,0.09026846,0.2238616,-1.03595268726349,-0.52777111530304,0.697149336338043,-1.07878069424208,-0.464169195088763,0.667816639186824,7
2.77999877929688,-1.4093097448349,1.7369259595871,2.25822854042053,-1.83612684690458,2.17578229366013,2.27950707526701,2782.98,3473.408,3966.85,0,-0.2208906,0.09161858,0.2260972,-1.03386354446411,-0.521058320999146,0.687055587768555,-1.07501419914593,-0.462548577472581,0.665484999299265,6
2.79998779296875,-1.43004834651947,1.72661018371582,2.27209258079529,-1.85757544288233,2.1665535620153,2.29278477791556,2996.219,2787.461,3628.655,829.525,-0.2167936,0.09324772,0.2233569,-1.03693163394928,-0.515793144702911,0.693207323551178,-1.07097916161324,-0.460812413548163,0.662987118851036,5
2.81999206542969,-1.45073652267456,1.71643567085266,2.2857551574707,-1.87895695992541,2.1573536925621,2.30602095550813,2766.518,3445.926,3973.873,0,-0.217446,0.0948875,0.2248366,-1.03440153598785,-0.508720397949219,0.683131635189056,-1.06667099276523,-0.458958728849171,0.660320157107579,5
2.83999633789063,-1.47146165370941,1.70637965202332,2.2994921207428,-1.90024960698239,2.14819206138118,2.31920211834584,3034.986,2750.84,3723.444,687.2664,-0.2145538,0.09644068,0.2218108,-1.03625929355621,-0.502797961235046,0.686844825744629,-1.06209435025759,-0.456989527434725,0.657486997379635,4
2.86000061035156,-1.49213552474976,1.69646620750427,2.3130521774292,-1.9214480311499,2.13907097167731,2.33232495272651,2782.562,3365.798,3997.382,0,-0.2153757,0.0979077,0.2225153,-1.03369176387787,-0.495672643184662,0.678006768226624,-1.05725102347782,-0.454905579228273,0.654488747383304,2
2.87998962402344,-1.51281726360321,1.68668103218079,2.32661890983582,-1.94253086194772,2.12999961857111,2.34537622930486,3063.734,2744.402,3872.428,462.96,-0.213798,0.09888284,0.2198557,-1.03408598899841,-0.489262908697128,0.678334355354309,-1.05214690704168,-0.452709420518306,0.651329056166547,1
2.89999389648438,-1.53345274925232,1.6770350933075,2.34004426002502,-1.96352501326936,2.1209664217661,2.35837260906308,2837.964,3212.968,4051.785,0,-0.2143312,0.09956592,0.2198953,-1.03177297115326,-0.482291549444199,0.671270787715912,-1.04677621342161,-0.450398561093403,0.648004340974112,0
2.91999816894531,-1.5540736913681,1.66751980781555,2.35342788696289,-1.98440911693069,2.11198057539494,2.37130086407726,3056.946,2789.364,4009.139,233.4994,-0.2134556,0.09950047,0.2181539,-1.03105640411377,-0.475761860609055,0.669179141521454,-1.04114485287423,-0.447975543971863,0.644518260536375,0
2.93998718261719,-1.57465505599976,1.65813636779785,2.36670565605164,-2.00516218376194,2.10305111051103,2.38414800105147,2889.539,3075.73,4091.412,0,-0.2132377,0.09895664,0.2181781,-1.02906429767609,-0.469174057245255,0.66388601064682,-1.03525963910674,-0.445443300901551,0.640875032862689,0
2.95999145507813,-1.59520924091339,1.64887857437134,2.37991905212402,-2.02581075424974,2.0941666074844,2.39693044981124,2995.806,2859.746,4073.649,106.8593,-0.2119887,0.09768327,0.2177779,-1.02771413326263,-0.462889909744263,0.66066563129425,-1.02911391720548,-0.442798968459032,0.637070538244476,0
2.97999572753906,-1.61572551727295,1.63974571228027,2.39304041862488,-2.04633384260397,2.08533609591429,2.40963521915279,2935.556,2969.834,4104.257,0,-0.2106289,0.09574094,0.2183955,-1.02580916881561,-0.456636756658554,0.656072914600372,-1.02271452148052,-0.440045487257004,0.633109007445237,0
3,-1.63621973991394,1.6307270526886,2.40613174438477,-2.06672639957428,2.07656174835205,2.42225918334961,2883.637,2951.031,3990.436,166.5447,-0.2076499,0.09345219,0.2191925,-1.02470850944519,-0.450941056013107,0.654570758342743,-1.01606400046349,-0.437183953857422,0.628992018127441,0
3.01998901367188,-1.65666377544403,1.62183165550232,2.41910195350647,-2.0869680292999,2.06785234056679,2.43478971639231,2912.97,2986.515,4061.698,0,-0.2051651,0.09046687,0.2211904,-1.02220952510834,-0.444768697023392,0.648516356945038,-1.00917036754089,-0.434217816196637,0.624724530959079,0
3.03999328613281,-1.67710912227631,1.61303555965424,2.43213701248169,-2.10708469520508,2.05919670122237,2.4472428908773,2725.577,3014.133,3724.863,493.4054,-0.1990883,0.08791701,0.2224817,-1.02227139472961,-0.439804285764694,0.651752233505249,-1.00202586176059,-0.431143734953757,0.620301741541063,0
3.05999755859375,-1.69747519493103,1.60437035560608,2.44496917724609,-2.12705600675913,2.05060360379452,2.45960608409476,2806.189,3155.362,3950.42,0,-0.1958265,0.08482365,0.2263119,-1.01830661296844,-0.433266639709473,0.641607463359833,-0.994638524886308,-0.427965170275055,0.615728628108227,0
3.08000183105469,-1.7178817987442,1.59579348564148,2.45801615715027,-2.14687713595163,2.04207512564123,2.47187630727625,2569.24,3018.175,3275.927,1071.282,-0.1859339,0.08318733,0.226796,-1.02033638954163,-0.428851842880249,0.652346432209015,-0.987011339258122,-0.424683405378145,0.611007036871143,0
3.09999084472656,-1.73816049098969,1.58736419677734,2.47071814537048,-2.16652837486666,2.03361974652815,2.48404136028297,2583.284,3491.478,3785.314,0,-0.1828218,0.08139009,0.2325353,-1.0139182806015,-0.421454697847366,0.635095477104187,-0.979153483542501,-0.421302389586788,0.606142649861596,0
3.1199951171875,-1.75852704048157,1.57902479171753,2.48381185531616,-2.18603502400946,2.02522658035469,2.49611690533293,2455.161,2913.424,2720.021,1828.003,-0.1692194,0.08208278,0.2305482,-1.01832509040833,-0.416963875293732,0.654686987400055,-0.971056158224178,-0.417818336715394,0.601130019760458,0
3.13999938964844,-1.7787059545517,1.57085609436035,2.49638986587524,-2.20537738341953,2.01690410346351,2.50809074721212,2261.167,3970.002,3572.535,0,-0.1674201,0.08319646,0.2377003,-1.00895321369171,-0.408438295125961,0.628901302814484,-0.962728579444533,-0.414235212212131,0.595974851798267,0
3.15998840332031,-1.7990049123764,1.56280016899109,2.5094883441925,-2.22453632143911,2.00866054767245,2.51995104251302,2461.946,2665.327,2223.774,2540.272,-0.1518162,0.08731414,0.2317941,-1.01494669914246,-0.402800232172012,0.654925644397736,-0.954180774018563,-0.410557330335374,0.590683353051152,0
3.17999267578125,-1.81906390190125,1.5549384355545,2.52192878723145,-2.24353658854737,2.00048526354177,2.53171311296128,1943.586,4440.969,3358.069,0,-0.1526252,0.09241167,0.238835,-1.00294697284698,-0.393084645271301,0.622025668621063,-0.945403214201559,-0.406780591562751,0.585249625391267,0
3.19999694824219,-1.83922135829926,1.5472354888916,2.53485894203186,-2.2623590635174,1.99238647840124,2.54336512160655,2636.713,2289.247,2072.475,2844.102,-0.138706,0.09991145,0.2284726,-1.00787043571472,-0.385142266750336,0.646510243415833,-0.936405971974636,-0.402909329586355,0.579679903854719,0
3.22000122070313,-1.85911774635315,1.53974866867065,2.54712200164795,-2.28099938900442,1.98436606709459,2.55490437104486,1827.754,4641.673,3213.606,0,-0.1428637,0.1085476,0.2325509,-0.99481862783432,-0.374338060617447,0.613153874874115,-0.927192788821982,-0.398945154262308,0.573976504598449,0
3.239990234375,-1.87900257110596,1.53247535228729,2.55957722663879,-2.2994392795179,1.97643189735754,2.5663195416865,2985.217,1932.323,2566.011,2269.662,-0.13647,0.1173964,0.2191797,-0.994240522384644,-0.363673001527786,0.622759878635406,-0.917774783907129,-0.394892849856044,0.568146310914365,0
3.25999450683594,-1.89864754676819,1.52543473243713,2.57154297828674,-2.31770268688992,1.96857366338589,2.57762546085652,2091.228,4198.913,3344.101,0,-0.1434938,0.1267173,0.2167546,-0.982262551784515,-0.352045059204102,0.598291277885437,-0.90814153446928,-0.390747931744771,0.562182870617026,0
3.27999877929688,-1.91812181472778,1.51864051818848,2.5832462310791,-2.33577134012187,1.96079922667992,2.58881081793642,3359.61,1900.709,3669.919,698.8549,-0.1491951,0.1331918,0.2039242,-0.973695039749146,-0.339693158864975,0.585159480571747,-0.898304216251578,-0.386515208538549,0.556093102023818,0
3.29998779296875,-1.93741369247437,1.51206636428833,2.59476280212402,-2.35362764460945,1.95311615770631,2.59986472102797,2553.907,3197.073,3838.48,0,-0.1570924,0.1389846,0.1948553,-0.964607954025269,-0.328725010156631,0.575834035873413,-0.888274735793772,-0.382199803288803,0.549884375850026,0
3.31999206542969,-1.95651650428772,1.5056756734848,2.60609340667725,-2.37129490830989,1.94551442770222,2.61080159886703,2576.05,2976.724,3969.31,0,-0.1648688,0.14394,0.1883598,-0.955136895179749,-0.319522768259048,0.566535174846649,-0.878042061913513,-0.37779696958594,0.54354986326829,0
3.33999633789063,-1.97543036937714,1.49943804740906,2.61722755432129,-2.38875555478454,1.93800159931817,2.62161057080077,2606.093,2767.461,4096.775,0,-0.1705952,0.1478595,0.1832709,-0.945697128772736,-0.311880439519882,0.556713342666626,-0.867618167158097,-0.373311858882592,0.53709697585572,0
3.36000061035156,-1.99417221546173,1.49332308769226,2.62822198867798,-2.406005803634,1.93057929915441,2.6322892965819,2644.527,2701.937,4086.099,0,-0.1731625,0.1506433,0.1790942,-0.937092006206512,-0.305752456188202,0.549719154834747,-0.857007552155826,-0.36874640767338,0.530528499715627,0
3.37998962402344,-2.01274967193604,1.48730325698853,2.63911771774292,-2.42302905329872,1.92325467039821,2.6428274990542,2606.976,2820.894,3964.016,0,-0.1730575,0.1524643,0.1766118,-0.928873538970947,-0.30098631978035,0.544791698455811,-0.846223126656603,-0.364106170663035,0.523852426598178,0
3.39999389648438,-2.03115487098694,1.481365442276,2.64988660812378,-2.43984769972619,1.91601807669906,2.65323904237604,2669.296,2799.59,3879.536,0,-0.1714735,0.1531299,0.1754282,-0.920243918895721,-0.296895503997803,0.538447201251984,-0.835253140422974,-0.35938609205264,0.51706148254665,0
3.41999816894531,-2.04938173294067,1.47550630569458,2.6605019569397,-2.45644516534361,1.90887665092339,2.66351366424015,2793.531,2678.721,3843.359,0,-0.1691469,0.1522377,0.1743477,-0.911344647407532,-0.292950809001923,0.530772507190704,-0.824110582941664,-0.354591760855451,0.510163708672097,0
3.43998718261719,-2.06743144989014,1.46972441673279,2.67096996307373,-2.47280564474684,1.90183719369507,2.67364158034846,2785.848,2710.167,3795.457,0,-0.1664827,0.1497936,0.1735569,-0.902485847473145,-0.289096117019653,0.523404240608215,-0.812809078412023,-0.349729039183832,0.50316753900293,0
3.45999145507813,-2.08530235290527,1.46401906013489,2.68128490447998,-2.48895081463434,1.8948903781363,2.68363620960993,2712.572,2793.248,3761.845,0,-0.1638739,0.1459759,0.1738112,-0.893541157245636,-0.285276055335999,0.515748679637909,-0.80133641229185,-0.344792671461508,0.496065412155666,0
3.47999572753906,-2.10299301147461,1.45839309692383,2.69142436981201,-2.50486489870395,1.88804299234919,2.69348778574196,2702.463,2762.613,3782.361,0,-0.1613663,0.1407367,0.1749965,-0.884537994861603,-0.281291425228119,0.506968975067139,-0.789706299681989,-0.339788558913217,0.488865818431069,0
3.5,-2.12052249908447,1.45284366607666,2.70144605636597,-2.5205447997813,1.88129636896134,2.70319439144611,2569.685,2809.662,3690.346,169.1841,-0.1573907,0.1345866,0.1770016,-0.876480579376221,-0.277474671602249,0.501086235046387,-0.777924000354857,-0.334718964672089,0.481572013878822,0
3.51998901367188,-2.13788604736328,1.44737792015076,2.71130108833313,-2.53597583877076,1.87465682397749,2.71274693966292,2534.541,2873.923,3709.14,104.0367,-0.1531456,0.1275236,0.180677,-0.868192195892334,-0.273280709981918,0.492747217416763,-0.766004036374581,-0.329590137176618,0.474192988348404,0
3.53999328613281,-2.15512728691101,1.4419891834259,2.72114181518555,-2.55117869390181,1.86811546013321,2.72215823120146,2343.096,2908.653,3412.956,560.4179,-0.1451497,0.1205682,0.1844824,-0.862064301967621,-0.269444733858109,0.492042422294617,-0.753933682518821,-0.324396601119134,0.466720864320997,0
3.55999755859375,-2.172199010849,1.43670749664307,2.73072791099548,-2.56613872308604,1.86167857751006,2.73141920191151,2521.225,2937.486,3628.906,105.9784,-0.139286,0.1126376,0.1903089,-0.853581726551056,-0.264091223478317,0.479301631450653,-0.741727567798258,-0.319144650954242,0.459164697851087,0
3.57998657226563,-2.18922281265259,1.43151021003723,2.74055218696594,-2.58084213759183,1.85535210901407,2.74052131591136,2083.842,2973.991,2812.969,1359.247,-0.1249582,0.1064496,0.1932334,-0.851195752620697,-0.259863197803497,0.491209447383881,-0.72940084364523,-0.31384080592,0.451533868397061,0
3.59999084472656,-2.20603942871094,1.42645359039307,2.74991250038147,-2.59530884290342,1.84912748987145,2.74947689564398,2296.012,3390.794,3460.652,0,-0.1191333,0.0996396,0.2021231,-0.840832412242889,-0.252825140953064,0.468012571334839,-0.716940488958392,-0.308479463400265,0.4438203152769,0
3.6199951171875,-2.22290945053101,1.42150592803955,2.75986838340759,-2.60952509409627,1.84301063413925,2.75827743234631,1829.398,2862.104,1887.12,2658.458,-0.09733801,0.09675164,0.2013731,-0.843494653701782,-0.247383296489716,0.497795820236206,-0.704361775018033,-0.303067194200314,0.436033492140578,0
3.63999938964844,-2.23951554298401,1.41672897338867,2.76907467842102,-2.6234885835008,1.83700253474321,2.76692149746096,1708.662,4273.729,3097.724,0,-0.09277548,0.09458888,0.2138245,-0.830318093299866,-0.23885652422905,0.460320174694061,-0.691670720740692,-0.297606588091786,0.428177124984152,0
3.65998840332031,-2.25625491142273,1.41212272644043,2.77913284301758,-2.63718676607487,1.8311085894645,2.77540132500924,1827.377,2401.853,965.8754,4030.545,-0.06547328,0.09772212,0.2066902,-0.836960971355438,-0.230306446552277,0.502907037734985,-0.678883253871145,-0.292104498338286,0.420261073840379,0
3.67999267578125,-2.27268171310425,1.4077183008194,2.78817224502563,-2.65063849381582,1.82532068681534,2.78372858527554,1183.442,5124.015,2695.87,0,-0.06445435,0.1025733,0.2195245,-0.821334660053253,-0.220215007662773,0.451974421739578,-0.665986083416798,-0.286555206197011,0.41227711095171,0
3.69999694824219,-2.28923177719116,1.4035804271698,2.79802298545837,-2.66383127580226,1.81964420129024,2.79189554578451,2166.246,1697.396,639.96,4674.602,-0.03852689,0.1119379,0.2041975,-0.827501535415649,-0.206886827945709,0.49254184961319,-0.65299527533123,-0.280965624398954,0.404235181908735,0
3.72000122070313,-2.30545783042908,1.39968597888947,2.80684733390808,-2.6767633032417,1.81407991116207,2.79990108680742,1015.47,5559.217,2360.251,0,-0.04305799,0.1231922,0.2117552,-0.811316549777985,-0.194729492068291,0.441222906112671,-0.639917282339434,-0.275338529371411,0.396139281255611,0
3.739990234375,-2.32162666320801,1.39612221717834,2.81589460372925,-2.68942333385363,1.80863265367006,2.80773824883709,2813.971,1067.175,1553.062,3624.731,-0.03079466,0.1349741,0.1908312,-0.808437764644623,-0.17819432914257,0.45236799120903,-0.62676873176137,-0.26968107538565,0.387999702095468,0
3.75999450683594,-2.33748483657837,1.39285397529602,2.82427430152893,-2.70182915057228,1.80329477731443,2.81541804035694,1647.038,4680.109,2578.491,0,-0.0405413,0.1469458,0.1852466,-0.792895793914795,-0.163401871919632,0.418988943099976,-0.613536214864365,-0.263987493038594,0.379808143784027,0
3.77999877929688,-2.35303139686584,1.38989853858948,2.83209419250488,-2.7139695770734,1.79807109095524,2.82293354268985,3379.094,1316.804,3449.356,749.3973,-0.05139155,0.1542321,0.1655569,-0.777336061000824,-0.147780761122704,0.390989065170288,-0.60023651686137,-0.258265004538452,0.371574997167698,0
3.79998779296875,-2.36828207969666,1.38722395896912,2.83973002433777,-2.72583438304408,1.79296599641037,2.83027842278479,2387.771,2917.116,3584.652,0,-0.06400215,0.1596268,0.1487947,-0.762531757354736,-0.133739575743675,0.381791710853577,-0.586886736182787,-0.252520966862155,0.36331084698941,0
3.81999206542969,-2.38322520256042,1.38475251197815,2.84724378585815,-2.73744054699573,1.78797218830065,2.83746319114912,1758.659,3505.688,3534.786,0,-0.07711715,0.1649407,0.1410632,-0.747158467769623,-0.123566456139088,0.375684380531311,-0.573473482003301,-0.246749618311662,0.355007403690404,0
3.83999633789063,-2.39783787727356,1.38242900371552,2.85439133644104,-2.74877791451009,1.78309403578861,2.84448156171422,2040.716,2719.345,3953.227,0,-0.0884276,0.1688798,0.1370404,-0.730625450611115,-0.116167023777962,0.357379972934723,-0.560014026276881,-0.240958390526246,0.346675359432959,0
3.86000061035156,-2.41215753555298,1.38022446632385,2.86126661300659,-2.75984563331209,1.77833190558438,2.85133300688122,2531.131,1971.346,4199.3,0,-0.09337575,0.1698127,0.1305629,-0.715980529785156,-0.110215380787849,0.343760341405869,-0.546515580872635,-0.235150386571708,0.338319178707605,0
3.87998962402344,-2.42623424530029,1.37809920310974,2.86817812919617,-2.7706348636882,1.77368960116974,2.85801205444635,2241.857,2653.451,3793.927,0,-0.09210809,0.1688698,0.1265224,-0.703834354877472,-0.106277398765087,0.345571249723434,-0.532995796775444,-0.22933320117373,0.329949788314816,0
3.89999389648438,-2.44005608558655,1.37602591514587,2.87506151199341,-2.78116151864576,1.76916027562219,2.86452855531919,2031.873,3126.5,3457.949,0,-0.0891376,0.1669013,0.1283495,-0.69109696149826,-0.103681489825249,0.344166964292526,-0.519441457145543,-0.223501147495394,0.321559006401168,0
3.91999816894531,-2.45360326766968,1.37401068210602,2.88167309761047,-2.79141684911929,1.7647476934202,2.87087709341145,2584.407,2370.431,3604.795,0,-0.08608721,0.162213,0.1294516,-0.677359640598297,-0.100740969181061,0.33057427406311,-0.505870408491346,-0.2176619043907,0.313157880805522,0
3.93998718261719,-2.46693134307861,1.37204957008362,2.88831543922424,-2.80139308531637,1.76045519768837,2.87705285885147,2343.658,2442.454,3138.528,649.9727,-0.07736962,0.1561134,0.1277695,-0.666407763957977,-0.0980498045682907,0.332118988037109,-0.492300656572426,-0.211823219234969,0.304757557950781,0
3.95999145507813,-2.47999715805054,1.37015247344971,2.89473795890808,-2.81110535421031,1.75627627971269,2.88306521595634,2212.126,3135.481,3170.638,0,-0.07309205,0.1486431,0.1310582,-0.653306722640991,-0.094869539141655,0.321122854948044,-0.478719233391147,-0.205979512261105,0.296350010028665,0
