t,x_s1,x_s2,x_s3,x_s_d1,x_s_d2,x_s_d3,propellers_rpms1,propellers_rpms2,propellers_rpms3,propellers_rpms4,rollRad,pitchRad,yawRad,v_s1,v_s2,v_s3,v_s_d1,v_s_d2,v_s_d3,insideCount
0,-0.0599999986588955,2.94000005722046,1.17999994754791,-0.0599999986588955,2.94000005722046,1.17999994754791,0,0,0,0,0,0,0,0,0,0,-1.06581410364015E-15,4.44089209850063E-16,4.44089209850063E-16,0
0.019989013671875,-0.0599999986588955,2.94000005722046,1.17729234695435,-0.0600018659130177,2.93999925379318,1.18000110346716,0,0,0,0,0.0163538,-0.002474609,-2.024222E-05,3.71994488546079E-08,3.50004931704007E-08,-0.135377958416939,-0.000279680311988734,-0.000120338624884473,0.000173135436141649,5
0.0399932861328125,-0.0599999986588955,2.94000005722046,1.17105865478516,-0.060014863945674,2.93999366110285,1.18000914986856,0,0,0,0,0.03270752,-0.004950816,-5.430172E-05,3.48044650877455E-08,3.30428591155396E-08,-0.311683237552643,-0.00111059898697896,-0.000477859717552347,0.000687513678106196,6
0.05999755859375,-0.0600004307925701,2.94013142585754,1.16552257537842,-0.0600498857373401,2.93997859220429,1.18003083002592,3161.891,2810.291,1469.237,2738.728,0.03139007,-0.004977981,-0.01632784,-2.15879354072968E-05,0.00656352238729596,-0.276805400848389,-0.00247936261166862,-0.00106680046642749,0.00153484356504269,6
0.0800018310546875,-0.0599182695150375,2.94037842750549,1.16100025177002,-0.0601175574246769,2.93994947496775,1.18007272202403,3028.767,3011.964,2083.611,1979.162,0.01920914,-0.004419782,-0.04309314,0.00410812301561236,0.0123493764549494,-0.226118445396423,-0.00437268608126799,-0.00188144466206175,0.00270690098422899,6
0.0999908447265625,-0.0596519447863102,2.94066071510315,1.15742909908295,-0.0602281370710988,2.93990189563514,1.18014117609281,2572.785,3764.099,2528.449,1069.481,-0.005661348,-0.003074353,-0.0691037,0.0133161973208189,0.0141138583421707,-0.178559631109238,-0.00677536694902951,-0.00291525111632684,0.0041942748969354,6
0.1199951171875,-0.0591363087296486,2.94084787368774,1.15462076663971,-0.0603918861403606,2.93983143898525,1.18024254456713,1989.392,4003.997,3075.886,694.9622,-0.03991279,-0.0007062703,-0.08793811,0.0257818512618542,0.00936003215610981,-0.14041568338871,-0.00967801353495435,-0.00416417885169243,0.00599115140585487,5
0.139999389648438,-0.058361142873764,2.94078660011292,1.15244734287262,-0.0606185767455666,2.93973390035084,1.18038287685052,1381.798,3936.851,3640.956,663.8734,-0.07574776,0.002034242,-0.09641069,0.0387583822011948,-0.00306391436606646,-0.108671709895134,-0.0130660253322238,-0.00562194567796536,0.00808849210174802,4
0.159988403320313,-0.0573622137308121,2.94033217430115,1.1509200334549,-0.0609175312885481,2.93960526856281,1.18056794395381,1009.765,3669.333,3950.086,872.1702,-0.1041243,0.00383389,-0.0947867,0.0499464981257915,-0.022720992565155,-0.0763651430606842,-0.0169234294955564,-0.00728167892605071,0.0104764090324936,4
0.17999267578125,-0.0561951771378517,2.93938517570496,1.1501237154007,-0.0612985250199726,2.93944133760391,1.18080379722281,1010.592,3363.156,3835.662,1161.351,-0.1193426,0.003851131,-0.08597217,0.0583519041538239,-0.0473479628562927,-0.039818063378334,-0.0212433804254414,-0.00914043312572283,0.0131506644458931,3
0.199996948242188,-0.0549091473221779,2.93791794776917,1.15011012554169,-0.0617704296168641,2.93923829023936,1.18109592864822,1333.497,3132.988,3353.175,1401.456,-0.1214061,0.002340425,-0.07415732,0.064301460981369,-0.0733606517314911,-0.00068189948797226,-0.0260104776919234,-0.0111915819022102,0.0161017247421801,3
0.220001220703125,-0.0535362288355827,2.93597269058228,1.15082979202271,-0.0623420644491781,2.93899233174064,1.18144979784016,1790.228,3014.999,2724.001,1532.995,-0.115121,0.0002797181,-0.06327671,0.0686458945274353,-0.0972623080015182,0.0359821766614914,-0.03121219533433,-0.0134297356845702,0.019321835755004,3
0.239990234375,-0.0520961880683899,2.93363213539124,1.15212380886078,-0.0630214373585105,2.93870001655724,1.18187036203406,2171.746,2982.552,2212.743,1547.11,-0.1071565,-0.001339037,-0.055814,0.0720020979642868,-0.117023855447769,0.0647012740373611,-0.0368316683029241,-0.015847637913056,0.022800557215184,3
0.259994506835938,-0.0506041124463081,2.93098092079163,1.15377116203308,-0.0638179029240226,2.93835731967507,1.18236341216003,2346.8,2985.564,2005.563,1459.933,-0.1029093,-0.001918541,-0.05235668,0.0746037438511848,-0.132566332817078,0.08236925303936,-0.0428651747123285,-0.0184436871643672,0.0265355850983733,3
0.279998779296875,-0.0490743592381477,2.92807555198669,1.15557217597961,-0.0647390625194898,2.93796097043536,1.18293365383054,2309.198,2995.726,2122.697,1298.953,-0.1047139,-0.001324124,-0.05185281,0.0764877423644066,-0.145272329449654,0.0900534093379974,-0.0492963837173861,-0.0212108567320638,0.030516809833474,3
0.29998779296875,-0.0475228056311607,2.92493557929993,1.15741109848022,-0.0657918945890516,2.93750796620855,1.18358540703494,2137.971,3011.588,2441.807,1105.639,-0.1118757,0.0001965693,-0.05227785,0.0775777623057365,-0.156995415687561,0.0919458270072937,-0.0561078595514081,-0.0241416444928383,0.0347334378503248,3
0.319992065429688,-0.0459695085883141,2.92155075073242,1.15926575660706,-0.0669855955880233,2.93699435001684,1.18432436481717,1942.289,3019.274,2793.024,937.9802,-0.1218188,0.002154616,-0.05160727,0.0776647999882698,-0.169246062636375,0.0927356109023094,-0.0632980253096114,-0.0272353719486164,0.0391844929697465,3
0.339996337890625,-0.0444396957755089,2.91789555549622,1.1611762046814,-0.068326768706371,2.93641728069206,1.18515461486636,1804.503,3000.852,3047.354,841.8995,-0.1314973,0.004015843,-0.04861388,0.0764904692769051,-0.182759344577789,0.0955216735601425,-0.0708499516420146,-0.0304847548730522,0.0438594951176439,3
0.360000610351563,-0.0429614037275314,2.91394662857056,1.1632034778595,-0.0698225328270578,2.93577369517774,1.1860805641102,1757.387,2956.232,3148.058,829.751,-0.1384998,0.005408357,-0.04314854,0.07391457259655,-0.197444528341293,0.101364597678185,-0.0787518717320621,-0.0338847303337087,0.0487511600740379,3
0.379989624023438,-0.0415610149502754,2.90969395637512,1.1654018163681,-0.0714784451857985,2.93506120235061,1.1871056527423,1802.695,2905.022,3096.916,875.258,-0.1417483,0.006225682,-0.03593883,0.0700195655226707,-0.212630808353424,0.109918713569641,-0.0869857157641562,-0.0374275233937465,0.0538483017622888,3
0.399993896484375,-0.0402596704661846,2.90514612197876,1.16779732704163,-0.0733036822025899,2.9342758538535,1.18823556140379,1907.647,2870.968,2946.33,936.6756,-0.1416733,0.006603612,-0.02807771,0.0650671944022179,-0.227397352457047,0.119775600731373,-0.0955525119207663,-0.0411135764513579,0.0591515566763244,3
0.419998168945313,-0.0390726029872894,2.90032696723938,1.17038202285767,-0.0753034649285836,2.93341540321397,1.18947352217404,2025.962,2857.44,2769.551,988.7673,-0.1397132,0.006794291,-0.02060168,0.0593534074723721,-0.240962147712708,0.129237234592438,-0.104434660908044,-0.0449353170220673,0.0646500300148815,3
0.439987182617188,-0.0380105897784233,2.89526891708374,1.17311799526215,-0.0774822545706558,2.93247793089932,1.19082229675263,2111.338,2860.148,2639.267,1014.906,-0.1375635,0.007042575,-0.0141531,0.0531007312238216,-0.25290310382843,0.136796623468399,-0.113613709720558,-0.0488848052931553,0.0703322984885602,3
0.459991455078125,-0.0370823480188847,2.89000391960144,1.17595648765564,-0.0798493430620752,2.93145943885026,1.19228763728888,2146.712,2866.587,2592.034,1013.139,-0.1364652,0.00749865,-0.008924252,0.0464119836688042,-0.263248950242996,0.141925379633904,-0.123092454730403,-0.0529632444654124,0.0762000931848968,3
0.479995727539063,-0.0362962484359741,2.88455700874329,1.17885720729828,-0.0824088828700873,2.93035814037613,1.19387211435783,2141.742,2876.204,2624.999,978.8401,-0.1369898,0.008197198,-0.004682902,0.0393050089478493,-0.272340625524521,0.145033299922943,-0.132852887402757,-0.0571628859694044,0.0822422659629699,4
0.5,-0.0356613993644714,2.87894439697266,1.18179619312286,-0.085166398670376,2.92917165836334,1.1955791479969,2109.336,2885.117,2713.684,925.6629,-0.1390378,0.009086237,-0.0009342369,0.0317427143454552,-0.280626624822617,0.146948665380478,-0.142884000065179,-0.0614789935111996,0.0884520025491718,4
0.519989013671875,-0.0351883620023727,2.87317371368408,1.18477129936218,-0.0881248588203387,2.92789871561062,1.19741057576073,2072.101,2887.336,2817.652,874.6017,-0.1420024,0.01006235,0.002807083,0.0236519128084183,-0.288532257080078,0.148755133152008,-0.153166947611899,-0.0659034585682559,0.0948176369253132,4
0.539993286132813,-0.0348887518048286,2.86724734306335,1.18779480457306,-0.091293865515634,2.92653518056143,1.19937234186584,2046.025,2886.271,2906.101,833.1626,-0.145146,0.01101755,0.006906607,0.0149805312976241,-0.296317100524902,0.151177927851677,-0.163706645289342,-0.0704383960337938,0.101342211863077,4
0.55999755859375,-0.0347745232284069,2.86116576194763,1.19088876247406,-0.094676112580471,2.92507989413848,1.20146611391775,2042.402,2880.186,2955.579,813.0953,-0.1478289,0.01187087,0.01146805,0.00571127980947495,-0.304082453250885,0.154700204730034,-0.17448465888317,-0.0750758741803766,0.108014315705644,4
0.580001831054688,-0.0348565503954887,2.85493087768555,1.19407176971436,-0.0982762614093182,2.92353085067394,1.20369477754168,2056.755,2876.878,2968.969,806.3621,-0.1497549,0.01259294,0.0164356,-0.00410134717822075,-0.311745464801788,0.159150749444962,-0.185490414529404,-0.0798113433697334,0.11482740272751,4
0.599990844726563,-0.0351442135870457,2.84854745864868,1.19735860824585,-0.102095761416081,2.92188742652551,1.20605922999388,2083.882,2872.482,2951.692,817.474,-0.1508723,0.01319796,0.02157626,-0.0143832368776202,-0.319176584482193,0.164339303970337,-0.19670480600515,-0.0846365827279185,0.121769645266545,4
0.6199951171875,-0.0356446765363216,2.84202337265015,1.20075380802155,-0.106144683970236,2.92014528826426,1.20856570593183,2115.833,2875.778,2923.776,825.8031,-0.1514529,0.01372789,0.02668023,-0.0250232107937336,-0.326206594705582,0.169762313365936,-0.208134604141382,-0.0895545055543457,0.128845234789665,4
0.639999389648438,-0.036363497376442,2.83536839485168,1.20425796508789,-0.110424235525481,2.91830391678686,1.21121495220784,2146.186,2879.864,2895.32,836.39,-0.1518348,0.01422927,0.03153599,-0.035940870642662,-0.332752048969269,0.175207287073135,-0.219761081350814,-0.0945570538913933,0.136042578028218,4
0.659988403320313,-0.0373045615851879,2.82859325408936,1.20786273479462,-0.114934715429503,2.91636318329238,1.21400715413238,2166.394,2889.578,2886.401,832.9384,-0.1524127,0.01474324,0.03609085,-0.0470529831945896,-0.338757187128067,0.180240362882614,-0.231565018351745,-0.0996359582190702,0.143349777331291,4
0.67999267578125,-0.0384715683758259,2.82170748710632,1.21156215667725,-0.119686638739014,2.91431856344567,1.21694882102647,2174.73,2893.035,2895.581,832.0947,-0.153315,0.01529445,0.04031143,-0.0583502985537052,-0.344289600849152,0.184969201683998,-0.243554411173546,-0.104794659005432,0.150771782621969,4
0.699996948242188,-0.039868026971817,2.81471872329712,1.21535277366638,-0.124680083855354,2.91217002351282,1.22004000142426,2182.481,2900.892,2919.155,815.0205,-0.1546418,0.01588175,0.04428303,-0.0698233917355537,-0.349441319704056,0.189529746770859,-0.255710395848158,-0.11002503961202,0.158296916205407,4
0.720001220703125,-0.0414975248277187,2.80763244628906,1.21923291683197,-0.129918284978346,2.90991617190799,1.22328269744952,2183.922,2905.805,2954.49,796.7911,-0.156334,0.01649638,0.04811811,-0.0814749449491501,-0.354309439659119,0.194007903337479,-0.268023157655716,-0.11532287703907,0.16591910230247,4
0.739990234375,-0.0433641336858273,2.80045247077942,1.22320663928986,-0.135400001298574,2.90755754251682,1.2266761409821,2186.125,2907.135,2990.038,782.4324,-0.1582067,0.01712335,0.05188859,-0.0933306738734245,-0.359002858400345,0.198685929179192,-0.280473432677602,-0.12067988256057,0.173626415629864,5
0.759994506835938,-0.0454718135297298,2.7931809425354,1.22727870941162,-0.14113644597991,2.90508931062815,1.2302272735046,2192.246,2910.198,3023.324,764.7635,-0.1601199,0.01774629,0.05567421,-0.105383932590485,-0.363571554422379,0.203600853681564,-0.293070637251543,-0.126100107763583,0.181424685349205,5
0.779998779296875,-0.0478246919810772,2.78581953048706,1.23145878314972,-0.147126184485884,2.90251209348295,1.23393520697061,2204.947,2911.292,3042.837,756.6203,-0.1619277,0.01835396,0.0594589,-0.117643520236015,-0.368072658777237,0.2090023458004,-0.305795832832518,-0.131575403921268,0.189302187598958,5
0.79998779296875,-0.0504256598651409,2.77837014198303,1.23575007915497,-0.153366821193532,2.89982692185086,1.2377984583754,2220.014,2917.404,3060.66,741.7891,-0.163664,0.01894248,0.06327543,-0.130049079656601,-0.3724684715271,0.21456341445446,-0.318629798715703,-0.137097500901303,0.197247023847227,5
0.819992065429688,-0.0532777644693851,2.77083468437195,1.24015867710114,-0.159870162197751,2.89702871589906,1.2418243362541,2232.645,2916.482,3070.261,745.1934,-0.1652284,0.01952253,0.06703242,-0.142605051398277,-0.37677863240242,0.22043289244175,-0.33158286215529,-0.142670842232658,0.205265587156312,5
0.839996337890625,-0.0563829950988293,2.76321506500244,1.24468791484833,-0.166633637018892,2.89411858163313,1.24601124935738,2253.535,2924.261,3077.087,734.1385,-0.1667538,0.02009447,0.07072014,-0.155260592699051,-0.380975306034088,0.226464793086052,-0.344636106234817,-0.148287288494656,0.213346167053785,5
0.860000610351563,-0.0597426258027554,2.75551414489746,1.24933815002441,-0.173659158941841,2.89109569582005,1.2503603820997,2267.952,2928.779,3087.242,729.6166,-0.168307,0.02066941,0.07430911,-0.167982935905457,-0.385045081377029,0.232512354850769,-0.357780475378537,-0.153942943326036,0.221483157706883,5
0.879989624023438,-0.063357949256897,2.74773406982422,1.25411021709442,-0.18094280014554,2.88796174849148,1.25486930297274,2281.316,2932.517,3099.907,725.0669,-0.1699182,0.02125666,0.07777212,-0.180764630436897,-0.389002412557602,0.238604620099068,-0.370996904517929,-0.159629603560431,0.229664756929996,5
0.899993896484375,-0.0672295987606049,2.73987722396851,1.25900304317474,-0.18849723509595,2.8847112861788,1.25954585807468,2293.464,2937.405,3119.438,713.9582,-0.1716343,0.02185912,0.08113126,-0.193583473563194,-0.392848402261734,0.244642198085785,-0.384296738353309,-0.165352150505452,0.237897987633041,5
0.919998168945313,-0.0713588893413544,2.73194432258606,1.2640209197998,-0.196318384305134,2.8813460641717,1.26438752200817,2307.352,2940.563,3134.816,707.9298,-0.1734208,0.0224782,0.08436444,-0.206465154886246,-0.396641552448273,0.250893414020538,-0.397661187980262,-0.171102499820431,0.246171218589148,5
0.939987182617188,-0.0757459253072739,2.72393727302551,1.26916086673737,-0.204401181418416,2.87786826238106,1.26939115845832,2320.581,2947.875,3160.617,687.3651,-0.1753745,0.02310755,0.08755509,-0.219351574778557,-0.400354295969009,0.256997883319855,-0.411071375662203,-0.176872528942697,0.254472763580097,5
0.959991455078125,-0.0803920030593872,2.71585607528687,1.27442765235901,-0.212759000778906,2.87427212620069,1.27456504678061,2327.973,2945.236,3181.224,689.0156,-0.1773021,0.02375801,0.0906431,-0.232304528355598,-0.404060840606689,0.263336658477783,-0.424539267042903,-0.182667386354485,0.262810029909387,5
0.979995727539063,-0.0852976143360138,2.70770120620728,1.27982270717621,-0.22138664033507,2.87055989392801,1.27990596665734,2347.036,2953.291,3202.414,667.1957,-0.1793032,0.02441476,0.09369534,-0.245279982686043,-0.407749086618423,0.269752532243729,-0.438046240701377,-0.188479059778567,0.271171490030365,5
1,-0.0904632955789566,2.69947242736816,1.28534853458405,-0.230284798736574,2.86673126495361,1.28541435058594,2358.607,2954.462,3221.952,661.6248,-0.1813043,0.02508343,0.09669101,-0.258285015821457,-0.411441832780838,0.276290893554688,-0.451584000205995,-0.194303979492187,0.279552008056641,5
1.01998901367188,-0.0958893597126007,2.69116973876953,1.2910064458847,-0.239446912293295,2.86278906344998,1.29108613532954,2373.51,2958.042,3241.732,650.0176,-0.1833096,0.02576266,0.09963888,-0.271303772926331,-0.415136635303497,0.282898008823395,-0.46513400752272,-0.200134169097193,0.287940108062054,5
1.03999328613281,-0.101576030254364,2.68279314041138,1.29679799079895,-0.248887339851819,2.85872711120656,1.2969302096982,2386.908,2960.063,3261.428,641.6243,-0.1852868,0.02645479,0.1025297,-0.284332424402237,-0.418835818767548,0.28957599401474,-0.478708875293167,-0.205975055460915,0.29634359787259,5
1.05999755859375,-0.107523575425148,2.67434191703796,1.30272734165192,-0.258599401509697,2.85454828239877,1.30294243851408,2405.014,2964.312,3274.67,633.0059,-0.1872442,0.02715874,0.1053439,-0.297378718852997,-0.422563046216965,0.2964688539505,-0.492290296490434,-0.211818761581115,0.30475114456651,5
1.08000183105469,-0.113731130957603,2.66581654548645,1.30879163742065,-0.268583149539609,2.85025255453512,1.30912285413647,2420.95,2970.117,3296.188,615.9791,-0.1892826,0.02787021,0.1081275,-0.310377568006516,-0.426270633935928,0.303214192390442,-0.50587040849135,-0.217661904390701,0.313157880805523,5
1.09999084472656,-0.120199039578438,2.65721607208252,1.31499528884888,-0.278830554044452,2.84584338265603,1.31546648567654,2432.126,2968.957,3310.769,618.723,-0.1912661,0.02860374,0.1108049,-0.323394566774368,-0.430018424987793,0.310182571411133,-0.519431110871131,-0.223496695782555,0.321552601564445,5
1.1199951171875,-0.126925855875015,2.64854145050049,1.32133340835571,-0.289357002179081,2.84131414609862,1.32198285851614,2449.685,2975.897,3337.48,593.7744,-0.1933434,0.02934506,0.1134656,-0.336341589689255,-0.433734118938446,0.316908866167068,-0.532985466132485,-0.229328756186667,0.329943393154705,5
1.13999938964844,-0.133912697434425,2.63979077339172,1.32781577110291,-0.300154365346813,2.83666834237095,1.3286669406667,2462.223,2974.063,3346.064,602.4272,-0.1953114,0.03011241,0.1159915,-0.349342167377472,-0.437534958124161,0.324118882417679,-0.546515580872639,-0.235150386571708,0.338319178707607,5
1.15998840332031,-0.141156777739525,2.6309654712677,1.33443176746368,-0.31121353909136,2.83190988886621,1.33551309603608,2484.127,2985.808,3377.988,562.3744,-0.1974968,0.03087428,0.1185611,-0.362204492092133,-0.441270023584366,0.330802381038666,-0.560003743914979,-0.240953966313175,0.346668994161124,6
1.17999267578125,-0.148659810423851,2.62206315994263,1.34119319915771,-0.322550701230474,2.8270318247214,1.34253133946411,2486.311,2975.706,3387.37,589.2737,-0.1994553,0.03167584,0.1209627,-0.375150680541992,-0.445116072893143,0.338071674108505,-0.573463232144024,-0.246745208083563,0.355001058539242,6
1.19999694824219,-0.156418800354004,2.6130850315094,1.34809029102325,-0.334156660511822,2.8220381046756,1.34971598112778,2516.583,2991.799,3418.01,537.7548,-0.2016391,0.03246518,0.1234222,-0.387950599193573,-0.448901146650314,0.34485524892807,-0.58687652428584,-0.252516572968185,0.36330452533874,6
1.22000122070313,-0.164435431361198,2.60402894020081,1.35513532161713,-0.346030421585499,2.81692915700008,1.35706640485806,2518.716,2982.407,3424.412,566.8322,-0.2036056,0.03329214,0.1257194,-0.400830626487732,-0.45280909538269,0.352249294519424,-0.600236516861372,-0.258265004538453,0.371574997167698,6
1.239990234375,-0.172705799341202,2.5948965549469,1.36231410503387,-0.358161486344149,2.81170949873715,1.36457611182642,2546.705,2996.945,3460.935,512.7546,-0.2058251,0.03410307,0.1280993,-0.413518965244293,-0.456624269485474,0.358937501907349,-0.613526094901141,-0.263983138701136,0.379801879044709,6
1.25999450683594,-0.181232541799545,2.58568477630615,1.36964333057404,-0.3705671011502,2.80637170925886,1.37225577835275,2545.297,2983.933,3463.588,553.1848,-0.2077074,0.03496293,0.1302764,-0.426336854696274,-0.460594832897186,0.3664610683918,-0.626758665639206,-0.269676744214496,0.387993470686331,6
1.27999877929688,-0.190010875463486,2.57639598846436,1.37710642814636,-0.383236695417198,2.80092033679326,1.3800988607405,2582.042,3004.164,3500.999,483.1051,-0.2099178,0.03579183,0.1325738,-0.438917487859726,-0.464444726705551,0.373154997825623,-0.639917282339435,-0.275338529371412,0.396139281255613,6
1.29998779296875,-0.199044033885002,2.56702637672424,1.38472366333008,-0.396158759015336,2.79536033382764,1.388098233671,2576.366,2988.968,3496.539,537.1924,-0.2117511,0.03667666,0.1346381,-0.45165827870369,-0.4684838950634,0.380860418081284,-0.652985332144132,-0.280961346123326,0.404229026602261,6
1.31999206542969,-0.208325117826462,2.55758023262024,1.39246773719788,-0.409351342777246,2.78968393359302,1.39626507146953,2613.239,3009.691,3548.955,450.176,-0.2140233,0.03751606,0.136892,-0.464051932096481,-0.472308397293091,0.387203633785248,-0.665976209205206,-0.286550957599616,0.412270998344359,6
1.33999633789063,-0.217860788106918,2.54805111885071,1.4003758430481,-0.422802873722428,2.78389611561957,1.40459220990988,2601.101,2988.153,3523.742,539.4806,-0.2156511,0.03844265,0.1387801,-0.476783990859985,-0.476457148790359,0.395405530929565,-0.678873453515705,-0.29210028151913,0.420255006953505,6
1.36000061035156,-0.227639108896255,2.53844690322876,1.40839982032776,-0.436511415158101,2.77799771321212,1.41307845008695,2656.972,3023.573,3598.689,393.3848,-0.2181166,0.03927046,0.1410463,-0.488919734954834,-0.480210572481155,0.401198446750641,-0.691670720740693,-0.297606588091785,0.42817712498415,6
1.37998962402344,-0.237672507762909,2.52875709533691,1.41660010814667,-0.450464156928423,2.77199423822282,1.42171586190405,2616.362,2982.291,3546.943,560.0073,-0.2194796,0.04024835,0.1427306,-0.501669526100159,-0.484490483999252,0.41001570224762,-0.704352136620515,-0.303063047067127,0.436027525513373,6
1.39999389648438,-0.247941568493843,2.51899552345276,1.42489659786224,-0.464680216184654,2.76587746507559,1.43051627978847,2702.023,3037.135,3662.387,320.1735,-0.2222056,0.04105017,0.1450694,-0.513452172279358,-0.488082617521286,0.4148228764534,-0.716930938559026,-0.308475354130225,0.443814403124744,7
1.41999816894531,-0.258469223976135,2.50914359092712,1.4333963394165,-0.47914673136562,2.75965292774086,1.43947174182117,2625.213,2971.706,3552.625,609.99,-0.2230424,0.04210635,0.1464479,-0.526382327079773,-0.492602676153183,0.42498767375946,-0.729391385793766,-0.313836736470737,0.451528013536465,7
1.43998718261719,-0.269221276044846,2.49922585487366,1.4419572353363,-0.49384995777978,2.75332654017544,1.44857373938334,2766.77,3063.719,3739.531,197.8689,-0.2263495,0.04283001,0.1490127,-0.537602245807648,-0.495888024568558,0.42804741859436,-0.741718206886022,-0.319140623215221,0.459158903000492,7
1.45999145507813,-0.280239462852478,2.48921012878418,1.45076394081116,-0.508809800712713,2.74688973769103,1.45783459479497,2608.158,2947.166,3538.172,720.8723,-0.2263282,0.04401354,0.1499415,-0.55090868473053,-0.500784993171692,0.440334856510162,-0.753924423002454,-0.324392617007921,0.466715132239272,7
1.47999572753906,-0.29146471619606,2.47913956642151,1.45957243442535,-0.524012471663969,2.74034845309416,1.46724577231745,2853.206,3101.491,3847.531,8.162514,-0.2305866,0.04459714,0.1529322,-0.561264991760254,-0.503522515296936,0.44042780995369,-0.765994882555672,-0.329586198544069,0.474187321698441,7
1.5,-0.302973002195358,2.46895670890808,1.46870839595795,-0.539455198877605,2.73370387899399,1.4768055561018,2562.918,2909.782,3470.751,928.9904,-0.2290846,0.04600038,0.1531175,-0.575414061546326,-0.509141385555267,0.456797510385513,-0.777924000354858,-0.334718964672088,0.481572013878822,7
1.51998901367188,-0.31467667222023,2.4587140083313,1.47784650325775,-0.555123050061237,2.72696244033876,1.48650470234772,2726.049,3360.251,3765.644,0,-0.232984,0.0473365,0.1573234,-0.585183322429657,-0.512129545211792,0.456908136606216,-0.789697369743256,-0.339784716610053,0.488860290373601,7
1.53999328613281,-0.326651751995087,2.44836497306824,1.48727571964264,-0.571036956668503,2.72011513090874,1.49635616862212,2649.531,2802.273,3454.84,1007.205,-0.2312849,0.04938861,0.157318,-0.598752975463867,-0.517451226711273,0.47146064043045,-0.801327600455846,-0.344788879974649,0.496059957209413,7
1.55999755859375,-0.338814109563828,2.43796610832214,1.49668312072754,-0.587181951496087,2.71316839067337,1.50635068951315,2820.105,3278.928,3802.208,0,-0.2352253,0.05116996,0.1604846,-0.608118772506714,-0.519948065280914,0.470372647047043,-0.812800388649436,-0.349725300221754,0.503162159625937,7
1.57998657226563,-0.351243555545807,2.42746949195862,1.50637650489807,-0.603542258451077,2.7061290076447,1.51647849886779,2721.964,2798.217,3506.43,937.9429,-0.2340455,0.05351926,0.1594726,-0.621472835540771,-0.524835348129272,0.484670788049698,-0.82410201904291,-0.354588076049064,0.510158407210813,7
1.59999084472656,-0.363857179880142,2.41692352294922,1.51606833934784,-0.620139554045575,2.69898765502515,1.52675301547962,2788.687,3349.728,3810.696,0,-0.2382629,0.0557758,0.1621423,-0.630680799484253,-0.527299225330353,0.484592109918594,-0.835244706287931,-0.359382463079953,0.517056261415284,7
1.6199951171875,-0.376719415187836,2.40629243850708,1.52599120140076,-0.636958033083316,2.69175113334911,1.53716445517924,2808.746,2777.925,3627.926,787.4311,-0.2384973,0.05830375,0.160993,-0.643113195896149,-0.531559467315674,0.496140629053116,-0.846214826007804,-0.364102599125749,0.523847288101157,7
1.63999938964844,-0.389766424894333,2.39561343193054,1.53592431545258,-0.653994195024907,2.68442094880091,1.54771065096602,2854.404,3233.166,3908.191,0,-0.2429602,0.06057503,0.1626409,-0.652349054813385,-0.533952474594116,0.496654123067856,-0.857007552155828,-0.368746407673381,0.530528499715628,7
1.65998840332031,-0.403052091598511,2.38485431671143,1.54606306552887,-0.67123120513297,2.67700434489773,1.55838118133557,2859.173,2807.036,3776.532,598.3327,-0.2441288,0.06291108,0.1614774,-0.664284527301788,-0.537960946559906,0.506935000419617,-0.867610144209785,-0.373308406832068,0.537092009268528,7
1.67999267578125,-0.416527181863785,2.3740394115448,1.55624639987946,-0.688691692550512,2.66949158495151,1.56919005480539,2865.184,3195.129,3977.633,0,-0.2482231,0.06502119,0.1628845,-0.673752307891846,-0.540749192237854,0.509164452552795,-0.878034183119987,-0.377793579561193,0.543544985919778,8
1.69999694824219,-0.430229544639587,2.36314463615417,1.56660783290863,-0.706358800111611,2.66188992212981,1.58012683598675,2912.869,2834.401,3892.233,433.5193,-0.2498077,0.0670164,0.1623295,-0.685119688510895,-0.544741153717041,0.5180743932724,-0.888267004546665,-0.382196476749158,0.549879589839776,8
1.72000122070313,-0.444123685359955,2.35218739509583,1.57703197002411,-0.724228658537036,2.6542010212754,1.5911891296115,2927.464,3104.053,4044.312,0,-0.253305,0.06867269,0.1636125,-0.694705963134766,-0.547867834568024,0.521209478378296,-0.898304216251578,-0.386515208538549,0.556093102023817,8
1.739990234375,-0.458239674568176,2.34114623069763,1.58762979507446,-0.74228345468553,2.64643254688532,1.60236590849663,2933.663,2878.831,3955.477,338.6274,-0.2546136,0.07019515,0.1636197,-0.705803096294403,-0.55206310749054,0.529893219470978,-0.908134108040217,-0.390744736359816,0.562178273303667,8
1.75999450683594,-0.472546219825745,2.33003640174866,1.59830117225647,-0.760546715064628,2.63857437616062,1.61367173667103,2954.721,3084.867,4071.052,0,-0.2573881,0.07139125,0.1652556,-0.715327501296997,-0.555489122867584,0.533571243286133,-0.917767514700581,-0.394889722119545,0.568141810929231,8
1.77999877929688,-0.487070679664612,2.31883835792542,1.6091490983963,-0.779000609654483,2.63063418086074,1.62509557650306,2945.507,2910.417,3961.879,322.4178,-0.2580646,0.07252124,0.1658214,-0.726221799850464,-0.559902310371399,0.542399168014526,-0.927192788821983,-0.398945154262308,0.57397650459845,8
1.79998779296875,-0.501779794692993,2.30757093429565,1.6200658082962,-0.797626646773287,2.62261991743975,1.63662598076079,2986.256,3082.822,4075.688,0,-0.2603144,0.07333247,0.1678694,-0.735458135604858,-0.56336909532547,0.545836210250854,-0.936399026186941,-0.402906341007953,0.579675604081262,8
1.81999206542969,-0.516704082489014,2.29621434211731,1.63116371631622,-0.816448984455027,2.61452119137054,1.64827790441807,2942.677,2928.361,3946.449,359.1554,-0.2602931,0.07420647,0.1687413,-0.746213436126709,-0.567831575870514,0.554894804954529,-0.945396434568188,-0.406777674475912,0.585245428475252,8
1.83999633789063,-0.531806230545044,2.28479218482971,1.64232134819031,-0.835449117627072,2.60634596486888,1.66003989195343,3004.384,3104.549,4071.601,0,-0.2621632,0.07480241,0.1711272,-0.755108535289764,-0.571109712123871,0.557879447937012,-0.954174163352093,-0.410554485950274,0.590679260733698,8
1.86000061035156,-0.547121942043304,2.27328324317932,1.65366744995117,-0.854622615239374,2.59809614449182,1.6719092003358,2948.879,2938.345,3920.263,407.5441,-0.2616087,0.07557093,0.1720769,-0.765782296657562,-0.575451254844666,0.567304134368896,-0.962728579444532,-0.414235212212131,0.595974851798267,8
1.87998962402344,-0.562607407569885,2.26171636581421,1.66505885124207,-0.873950157556149,2.58978004298193,1.6838738697284,3007.182,3138.436,4071.136,0,-0.2633227,0.07612659,0.1747023,-0.774275064468384,-0.578340291976929,0.569570362567902,-0.971049893464309,-0.417815641164241,0.601126141575667,8
1.89999389648438,-0.578304827213287,2.25006914138794,1.67664229869843,-0.893456683142228,2.58138692997148,1.69594933829086,2956.881,2931.785,3908.319,456.5345,-0.2623592,0.07693604,0.175534,-0.784872651100159,-0.582359492778778,0.579175531864166,-0.979147395688901,-0.421299770153459,0.606138881190213,8
1.91999816894531,-0.594166398048401,2.23837327957153,1.68826425075531,-0.913122862707269,2.57292512231409,1.70812364027167,3011.357,3171.028,4070.616,0,-0.263932,0.07758853,0.1781877,-0.793075859546661,-0.584795951843262,0.581095099449158,-0.987011339258123,-0.424683405378145,0.611007036871143,9
1.93998718261719,-0.61023610830307,2.22660684585571,1.70007455348969,-0.932928814964021,2.56440317437226,1.72038446820694,2984.359,2925.095,3912.063,467.6435,-0.2628929,0.07848912,0.1788195,-0.803486824035645,-0.588325262069702,0.59051638841629,-0.994632798067981,-0.427962706185118,0.615725082934877,9
1.95999145507813,-0.626464307308197,2.21480226516724,1.7119152545929,-0.952900013794853,2.55581012544606,1.73274759164336,3015.349,3183.411,4087.97,0,-0.2644375,0.07926276,0.1813178,-0.811409175395966,-0.590225398540497,0.592034161090851,-1.00202031904361,-0.431141350077486,0.620298310335216,9
1.97999572753906,-0.642896831035614,2.20293784141541,1.72394073009491,-0.973016570682103,2.54715453300902,1.74520069864106,3012.078,2918.749,3932.368,458.1168,-0.2634127,0.08025289,0.1816873,-0.821630597114563,-0.593223392963409,0.601276576519012,-1.00916501115878,-0.434215511495054,0.624721215103391,9
2,-0.659484148025513,2.19104385375977,1.7359983921051,-0.993273599084619,2.53843849960327,1.7577407641983,3018.587,3200.095,4098.083,0,-0.2649078,0.08115455,0.1839919,-0.829363346099854,-0.594700634479523,0.602882325649261,-1.01606400046349,-0.437183953857422,0.628992018127441,9
2.01998901367188,-0.676266849040985,2.17910265922546,1.74822080135345,-1.01365055070775,2.52967086658596,1.77035506794184,3046.713,2911.325,3977.575,411.2242,-0.2641664,0.08217507,0.1842435,-0.839134097099304,-0.597061455249786,0.611122369766235,-1.02270954399163,-0.440043345582587,0.633105926142498,9
2.03999328613281,-0.69320148229599,2.1671404838562,1.76047682762146,-1.03417354141348,2.52084039703127,1.78305977683431,3040.557,3170.231,4132.29,0,-0.2655677,0.08306898,0.1861787,-0.846732318401337,-0.598098635673523,0.612803041934967,-1.02910913225408,-0.442796909628122,0.637067576131623,9
2.05999755859375,-0.710324168205261,2.15514206886292,1.77288556098938,-1.05482201812353,2.5119559343546,1.79584216754118,3075.951,2920.682,4027.751,344.1227,-0.2650383,0.08399197,0.1863642,-0.856137216091156,-0.599929392337799,0.620437622070313,-1.03525504859546,-0.445441325732794,0.640872191117535,9
2.07998657226563,-0.727596819400787,2.14312815666199,1.78533625602722,-1.07557499515204,2.50302650811029,1.80868924892322,3051.877,3159.808,4152.526,0,-0.2662703,0.08479415,0.188128,-0.863631963729858,-0.600697875022888,0.622534275054932,-1.04114045847258,-0.4479736531836,0.644515540192423,9
2.09999084472656,-0.745046496391296,2.13108801841736,1.79791593551636,-1.09645901288412,2.49404069871208,1.82161745074311,3097.97,2927.331,4085.052,273.5048,-0.2659502,0.08553483,0.1884875,-0.872479915618896,-0.602001249790192,0.628982603549957,-1.04677201701582,-0.450396755497224,0.648001743199023,9
2.1199951171875,-0.762644290924072,2.11903810501099,1.81054329872131,-1.11745308225396,2.48500753716864,1.83461377976925,3086.596,3111.304,4184.006,0,-0.2669025,0.08607961,0.1900223,-0.879889965057373,-0.602488458156586,0.631371319293976,-1.0521429102862,-0.45270770082608,0.651326581984514,9
2.13999938964844,-0.780411303043365,2.10696959495544,1.82328987121582,-1.138551967509,2.47592927627801,1.8476749948214,3109.947,2953.555,4122.71,211.1375,-0.2665867,0.08652519,0.1905932,-0.88835209608078,-0.603432416915894,0.637326955795288,-1.05725102347782,-0.454905579228273,0.654488747383304,9
2.15998840332031,-0.798322439193726,2.09489583969116,1.83608543872833,-1.15973418543027,2.46681515966915,1.86078779676364,3096.033,3095.907,4203.135,0,-0.2672253,0.0867727,0.1922182,-0.895556211471558,-0.603686571121216,0.639777183532715,-1.06209075728,-0.456987981476842,0.657484773155346,9
2.17999267578125,-0.816396117210388,2.08280873298645,1.84899425506592,-1.18102676265167,2.45765355853653,1.8739689163698,3105.031,2970.39,4137.576,195.2885,-0.266583,0.08695415,0.1930766,-0.903687477111816,-0.604357540607452,0.645442962646484,-1.06666760390386,-0.458957270716794,0.660318059240953,10
2.19999694824219,-0.834608376026154,2.0707221031189,1.86194908618927,-1.20240821395574,2.44845371736898,1.88720505326679,3111.354,3086.144,4208.17,0,-0.2668163,0.08691867,0.1948694,-0.910608947277069,-0.604333996772766,0.647743403911591,-1.07097597819164,-0.460811043810786,0.662985148161421,10
2.22000122070313,-0.852978706359863,2.05862641334534,1.87502098083496,-1.22387315175433,2.43921795429519,1.90049287228091,3097.109,2990.023,4118.328,213.1386,-0.2656828,0.08689116,0.1959217,-0.918517827987671,-0.604790091514587,0.6535924077034,-1.07501419914593,-0.462548577472581,0.665484999299265,10
2.239990234375,-0.871477663516998,2.04653906822205,1.88812506198883,-1.24539969505118,2.42995568409656,1.91381882803312,3109.876,3100.929,4202.778,0,-0.2656365,0.08666231,0.1979881,-0.924953639507294,-0.604369401931763,0.655203342437744,-1.07877792518082,-0.464168003639063,0.667814925005999,10
2.25999450683594,-0.890132129192352,2.03444743156433,1.90135490894318,-1.26701526177039,2.4206551096063,1.92719989352455,3077.783,2996.87,4079.011,274.7795,-0.2638569,0.08656612,0.1990691,-0.932721674442291,-0.604578793048859,0.661490380764008,-1.08227143928024,-0.465671165158559,0.669977576652695,10
2.27999877929688,-0.908904194831848,2.02237367630005,1.91460108757019,-1.28869796983554,2.41132564607061,1.9406225227075,3100.498,3136.294,4183.002,0,-0.2635906,0.08630168,0.2013822,-0.93860000371933,-0.603674173355103,0.662306427955627,-1.08549040888332,-0.467056197851165,0.67197027217779,10
2.29998779296875,-0.9278284907341,2.01030278205872,1.92798268795013,-1.31042570636616,2.40197680804417,1.95407302665558,3067.463,2996.533,4024.387,348.3982,-0.2612918,0.08627145,0.2023171,-0.946218490600586,-0.603559195995331,0.66907811164856,-1.08843144721369,-0.468321644481621,0.673790915005368,10
2.31999206542969,-0.946856379508972,1.99826216697693,1.94135582447052,-1.33222611841886,2.3925966997709,1.96756852021384,3077.828,3177.442,4168.154,0,-0.2610042,0.08611725,0.2047911,-0.951393902301788,-0.60202556848526,0.668657124042511,-1.09109790637238,-0.469468947365361,0.675441580245663,10
2.33999633789063,-0.966035008430481,1.98623168468475,1.95487844944,-1.35407709248145,2.38319483607731,1.98109531406483,3057.273,2984.35,3966.348,435.478,-0.2582206,0.08629753,0.2053536,-0.958933234214783,-0.601530075073242,0.676132678985596,-1.09348640563071,-0.470496651869278,0.67692017506657,10
2.36000061035156,-0.985303401947021,1.97424376010895,1.9683723449707,-1.37597305876702,2.37377361348711,1.99464996024512,3044.962,3239.091,4140.081,0,-0.2580166,0.08642749,0.2079102,-0.963413059711456,-0.599392771720886,0.674692630767822,-1.09559602313537,-0.471404361345641,0.678226128796969,10
2.37998962402344,-1.00471544265747,1.96227717399597,1.98201239109039,-1.39789168475144,2.36434264106153,2.00821863385843,3062.302,2956.338,3932.125,494.115,-0.2551197,0.08689614,0.2080435,-0.970603585243225,-0.598330199718475,0.682003974914551,-1.09742465646102,-0.47219117117957,0.679358139935436,10
2.39999389648438,-1.02420449256897,1.95036649703979,1.99560499191284,-1.41986083522252,2.35488992936084,2.02181858453579,3026.813,3262.289,4132.978,0,-0.2550834,0.08732406,0.2103646,-0.974456667900085,-0.59553200006485,0.679631054401398,-1.09897439291323,-0.472857979480329,0.680317500623536,10
2.41999816894531,-1.04382932186127,1.93848967552185,2.00933790206909,-1.44185817738692,2.34542508756209,2.03543598721428,3077.871,2934.032,3924.355,505.4276,-0.2523334,0.08802429,0.210009,-0.981242954730988,-0.593847751617432,0.686648666858673,-1.10024313330221,-0.473403883025206,0.681102911362803,10
2.43998718261719,-1.06352162361145,1.92667889595032,2.02301645278931,-1.46386128162322,2.33595776650478,2.04905695688976,3006.287,3284.245,4124.949,0,-0.2525018,0.08870968,0.212037,-0.984609246253967,-0.590543329715729,0.683926820755005,-1.10122974390336,-0.473828394004169,0.681713670323692,10
2.45999145507813,-1.08333432674408,1.9149158000946,2.03680682182312,-1.48589810917879,2.32647593524532,2.06269880290633,3099.396,2907.331,3961.677,461.9991,-0.2502466,0.08951027,0.2114095,-0.990640819072723,-0.5881427526474,0.689523696899414,-1.10193535162022,-0.474131997292339,0.68215047511319,10
2.47999572753906,-1.10320925712585,1.90322744846344,2.05054545402527,-1.50794623031618,2.31698924467309,2.07634764018804,3018.337,3246.481,4140.518,0,-0.2505076,0.09022438,0.2129131,-0.993738234043121,-0.584423899650574,0.686935484409332,-1.10235882472314,-0.474314205938057,0.682412625136718,11
2.5,-1.12318873405457,1.89159917831421,2.06436681747437,-1.52999999932945,2.30750012397766,2.08999997377396,3121.953,2905.784,4022.865,363.006,-0.2488772,0.09086232,0.2122284,-0.998982012271881,-0.581411123275757,0.691064774990082,-1.10250000050292,-0.474374949932098,0.682500019669533,11
2.51998901367188,-1.14322698116302,1.88004994392395,2.07814407348633,-1.5520369476803,2.29801824074336,2.10364189456856,3025.685,3198.265,4166.155,0,-0.2490961,0.0913606,0.2133902,-1.00190472602844,-0.577455341815948,0.688866257667542,-1.10235904000526,-0.474314298567936,0.682412758406603,11
2.53999328613281,-1.16335463523865,1.86856985092163,2.09197497367859,-1.57408507527774,2.28853154739156,2.11729073584934,3125.361,2913.109,4090.327,262.9183,-0.2478157,0.09164608,0.2129669,-1.00638353824615,-0.574004352092743,0.691548228263855,-1.10193578218388,-0.474132182551855,0.682150741652607,11
2.55999755859375,-1.18353915214539,1.85717070102692,2.10577392578125,-1.59612191359838,2.27904971150017,2.13093258853001,3047.338,3136.72,4187.047,0,-0.2476841,0.09170429,0.2139753,-1.0092271566391,-0.569955706596375,0.689947187900543,-1.10123038958312,-0.473828671822132,0.681714070030222,11
2.57998657226563,-1.20380127429962,1.84584486484528,2.11960935592651,-1.61812503288753,2.26958238396605,2.14455356752391,3114.803,2940.166,4125.967,186.5433,-0.2463738,0.09149228,0.2140239,-1.01310801506042,-0.566293716430664,0.691766023635864,-1.1002439936861,-0.473404253224357,0.681103443981416,11
2.59999084472656,-1.22411513328552,1.83460199832916,2.13341236114502,-1.64012239440973,2.26011753383818,2.15817098218581,3058.486,3088.669,4201.184,0,-0.245765,0.09098209,0.2152065,-1.01569449901581,-0.562147676944733,0.690154492855072,-1.09897546783438,-0.47285844198887,0.680318166050934,11
2.6199951171875,-1.24450266361237,1.82343125343323,2.14726042747498,-1.66209156852628,2.2506648119635,2.17177094750084,3073.046,2973.768,4099.275,198.3219,-0.2437346,0.09032439,0.2157081,-1.01937127113342,-0.558524250984192,0.692397654056549,-1.09742594550583,-0.472191725819537,0.679358937915576,11
2.63999938964844,-1.26493155956268,1.81234633922577,2.16106390953064,-1.68402693989188,2.24122663446822,2.18534998730279,3047.071,3097.714,4178.153,0,-0.2425964,0.08935953,0.217437,-1.02144873142242,-0.55425089597702,0.690179049968719,-1.09559602313537,-0.471404361345641,0.67822612879697,11
2.65998840332031,-1.28543388843536,1.80133175849915,2.17493438720703,-1.70590622088595,2.23181259109281,2.19889430449282,3014.438,2995.127,4007.486,305.8662,-0.2394187,0.08849163,0.2182169,-1.02511990070343,-0.55073094367981,0.693521320819855,-1.09348812118877,-0.470497390025984,0.676921237078733,10
2.67999267578125,-1.30596053600311,1.79041028022766,2.1887264251709,-1.72775723139253,2.2224107117184,2.21242112090437,3016.544,3140.139,4139.762,0,-0.2378874,0.08732741,0.2205742,-1.02632963657379,-0.546076536178589,0.689603686332703,-1.09109983431736,-0.469469776906228,0.675442773735451,9
2.69999694824219,-1.32656824588776,1.7795569896698,2.20263409614563,-1.74955768413056,2.21303058593937,2.22591663964878,2948.332,3004.511,3846.44,505.9453,-0.2332306,0.08661338,0.2211445,-1.03038680553436,-0.542668581008911,0.695378363132477,-1.08843358680109,-0.468322565086308,0.673792239511893,9
2.72000122070313,-1.34717571735382,1.76880764961243,2.2164134979248,-1.77130202882336,2.20367460188472,2.23937742484041,2939.98,3260.246,4067.683,0,-0.2316401,0.08572139,0.224242,-1.03037559986115,-0.537461280822754,0.688965201377869,-1.08549040888332,-0.467056197851165,0.671970272177789,8
2.739990234375,-1.36787223815918,1.75812840461731,2.23035860061646,-1.79296822271738,2.1943522439355,2.25278983096475,2891.957,2974.694,3650.773,770.2264,-0.2256246,0.08562972,0.2241041,-1.03483438491821,-0.533966898918152,0.697250008583069,-1.08227399942825,-0.465672266718727,0.669979161506271,7
2.75999450683594,-1.3885395526886,1.74756896495819,2.24411129951477,-1.81458384274179,2.18505164650952,2.26617092945464,2841.369,3402.253,3993.961,0,-0.2243596,0.08549764,0.2276536,-1.03335762023926,-0.527972936630249,0.687633693218231,-1.07878069424208,-0.464169195088763,0.667816639186824,7
2.77999877929688,-1.40930318832397,1.73708653450012,2.25807952880859,-1.83612684690458,2.17578229366013,2.27950707526701,2865.543,2912.083,3457.054,1033.751,-0.2173954,0.08640663,0.2262323,-1.03818786144257,-0.524120628833771,0.698415756225586,-1.07501419914593,-0.462548577472581,0.665484999299265,6
2.79998779296875,-1.43000817298889,1.72673988342285,2.27179718017578,-1.85757544288233,2.1665535620153,2.29278477791556,2721.814,3571.923,3909.964,0,-0.216882,0.08746625,0.2298879,-1.03524720668793,-0.517327606678009,0.685876965522766,-1.07097916161324,-0.460812413548163,0.662987118851036,5
2.81999206542969,-1.45080363750458,1.71648621559143,2.28573822975159,-1.87895695992541,2.1573536925621,2.30602095550813,2884.353,2804.982,3344.101,1206.867,-0.2099854,0.08952645,0.2269514,-1.03976511955261,-0.512690484523773,0.697056293487549,-1.06667099276523,-0.458958728849171,0.660320157107579,5
2.83999633789063,-1.47151839733124,1.706383228302,2.29939460754395,-1.90024960698239,2.14819206138118,2.31920211834584,2645.058,3666.351,3855.683,0,-0.210484,0.09181592,0.229903,-1.03573548793793,-0.505144774913788,0.682815492153168,-1.06209435025759,-0.456989527434725,0.657486997379635,4
2.86000061035156,-1.49230003356934,1.69639492034912,2.31323194503784,-1.9214480311499,2.13907097167731,2.33232495272651,2956.471,2696.654,3369.854,1177.039,-0.2050453,0.09468522,0.2255809,-1.03907942771912,-0.499413341283798,0.691866815090179,-1.05725102347782,-0.454905579228273,0.654488747383304,3
2.87998962402344,-1.51299130916595,1.68656754493713,2.32679057121277,-1.94253086194772,2.12999961857111,2.34537622930486,2619.385,3653.023,3854.329,0,-0.2066134,0.09776586,0.2271769,-1.03456950187683,-0.491373777389526,0.677933692932129,-1.05214690704168,-0.452709420518306,0.651329056166547,2
2.89999389648438,-1.53370749950409,1.676877617836,2.34042906761169,-1.96352501326936,2.1209664217661,2.35837260906308,3052.247,2612.81,3572.326,907.2255,-0.2038037,0.1006941,0.2222214,-1.0358065366745,-0.484493315219879,0.681923031806946,-1.04677621342161,-0.450398561093403,0.648004340974112,1
2.91999816894531,-1.55434107780457,1.66734957695007,2.35384654998779,-1.98440911693069,2.11198057539494,2.37130086407726,2682.325,3481.611,3919.841,0,-0.2059321,0.1036269,0.2220154,-1.03168058395386,-0.476396530866623,0.670872271060944,-1.04114485287423,-0.447975543971863,0.644518260536375,0
2.93998718261719,-1.57494866847992,1.65797579288483,2.36721110343933,-2.00516218376194,2.10305111051103,2.38414800105147,3143.107,2608.428,3904.698,420.5139,-0.2062554,0.1055358,0.2176468,-1.03038108348846,-0.468695521354675,0.668224036693573,-1.03525963910674,-0.445443300901551,0.640875032862689,0
2.95999145507813,-1.59549427032471,1.64875459671021,2.3804407119751,-2.02581075424974,2.0941666074844,2.39693044981124,2804.416,3180.216,4052.63,0,-0.2081106,0.1070942,0.215942,-1.02727746963501,-0.461058378219604,0.661475837230682,-1.02911391720548,-0.442798968459032,0.637070538244476,0
2.97999572753906,-1.61598324775696,1.63968312740326,2.39354586601257,-2.04633384260397,2.08533609591429,2.40963521915279,3084.84,2757.493,4164.938,0,-0.2098028,0.1073869,0.2135125,-1.02445101737976,-0.45356696844101,0.655253469944,-1.02271452148052,-0.440045487257004,0.633109007445237,0
3,-1.63642692565918,1.63074517250061,2.40657949447632,-2.06672639957428,2.07656174835205,2.42225918334961,2910.122,2921.612,4150.396,0,-0.2103024,0.1070029,0.2119601,-1.02219092845917,-0.446905881166458,0.651681780815125,-1.01606400046349,-0.437183953857422,0.628992018127441,0
3.01998901367188,-1.65682125091553,1.62192678451538,2.41954135894775,-2.0869680292999,2.06785234056679,2.43478971639231,2840.983,2992.305,4114.645,0,-0.2096893,0.1061415,0.2119534,-1.01972389221191,-0.440926641225815,0.648088693618774,-1.00917036754089,-0.434217816196637,0.624724530959079,0
3.03999328613281,-1.67715966701508,1.61322402954102,2.43240547180176,-2.10708469520508,2.05919670122237,2.4472428908773,2925.174,2874.273,4118.524,0,-0.2081223,0.1044842,0.2125223,-1.01691448688507,-0.435133010149002,0.643206894397736,-1.00202586176059,-0.431143734953757,0.620301741541063,0
3.05999755859375,-1.69745099544525,1.6046302318573,2.44520735740662,-2.12705600675913,2.05060360379452,2.45960608409476,2925.686,2863.368,4038.5,71.18684,-0.2051412,0.1021036,0.2131899,-1.01456224918365,-0.42968887090683,0.640089094638824,-0.994638524886308,-0.427965170275055,0.615728628108227,0
3.07998657226563,-1.7176821231842,1.59614825248718,2.45791053771973,-2.14686207530873,2.04208160581513,2.47186698402085,2913.003,2931.699,4028.237,0,-0.202021,0.09892557,0.2147686,-1.01156330108643,-0.424102127552032,0.635157108306885,-0.987017247723776,-0.424685947625853,0.611010694492843,0
3.09999084472656,-1.73787677288055,1.58776557445526,2.47060775756836,-2.16652837486666,2.03361974652815,2.48404136028297,2774.943,2983.38,3811.258,290.3724,-0.1967815,0.09565691,0.2164472,-1.00973701477051,-0.41914114356041,0.634859204292297,-0.979153483542501,-0.421302389586788,0.606142649861596,0
3.1199951171875,-1.75798678398132,1.57950401306152,2.48312902450562,-2.18603502400946,2.02522658035469,2.49611690533293,2867.628,3005.331,3952.466,0,-0.193289,0.0915553,0.219615,-1.00548624992371,-0.413058817386627,0.626065790653229,-0.971056158224178,-0.417818336715394,0.601130019760458,0
3.13999938964844,-1.77810025215149,1.57133078575134,2.49579548835754,-2.20537738341953,2.01690410346351,2.50809074721212,2552.099,3047.456,3403.339,835.7913,-0.1844543,0.08855336,0.2210343,-1.00567984580994,-0.408667296171188,0.633325338363647,-0.962728579444533,-0.414235212212131,0.595974851798267,0
3.15998840332031,-1.7980865240097,1.5632951259613,2.50815343856812,-2.22453632143911,2.00866054767245,2.51995104251302,2631.344,3331.754,3813.52,0,-0.1808808,0.08517969,0.2266687,-0.999313592910767,-0.401794195175171,0.617891848087311,-0.954180774018563,-0.410557330335374,0.590683353051152,0
3.17999267578125,-1.81813454627991,1.55534291267395,2.52085876464844,-2.24353658854737,2.00048526354177,2.53171311296128,2380.614,2973.262,2823.464,1648.667,-0.167434,0.08420507,0.226256,-1.00239288806915,-0.397605448961258,0.635271728038788,-0.945403214201559,-0.406780591562751,0.585249625391267,0
3.19999694824219,-1.83799815177917,1.54755127429962,2.53307390213013,-2.2623590635174,1.99238647840124,2.54336512160655,2306.856,3813.951,3603.319,0,-0.1644566,0.083465,0.233981,-0.993189215660095,-0.389575123786926,0.610755443572998,-0.936405971974636,-0.402909329586355,0.579679903854719,0
3.21998596191406,-1.85797941684723,1.53986072540283,2.54583406448364,-2.280985241111,1.98437215453788,2.55489561282487,2332.463,2758.441,2184.373,2536.785,-0.147219,0.08607244,0.2297223,-0.999063491821289,-0.384532392024994,0.638013243675232,-0.927199897745278,-0.398948213033402,0.573980905360615,0
3.239990234375,-1.87771582603455,1.53235697746277,2.55791449546814,-2.2994392795179,1.97643189735754,2.5663195416865,1917.287,4401.84,3344.224,0,-0.1463865,0.08962588,0.2383455,-0.986818015575409,-0.375186085700989,0.604026615619659,-0.917774783907129,-0.394892849856044,0.568146310914365,0
3.25999450683594,-1.8975830078125,1.52500009536743,2.57060861587524,-2.31770268688992,1.96857366338589,2.57762546085652,2455.067,2372.055,1774.922,3175.779,-0.128627,0.09650311,0.228916,-0.993352830410004,-0.367845416069031,0.634702920913696,-0.90814153446928,-0.390747931744771,0.562182870617026,0
3.27999877929688,-1.91716706752777,1.51785588264465,2.58253407478333,-2.33577134012187,1.96079922667992,2.58881081793642,1657.432,4839.14,3102.118,0,-0.1314211,0.1047567,0.2357247,-0.979206681251526,-0.357198059558868,0.59627491235733,-0.898304216251578,-0.386515208538549,0.556093102023818,0
3.29998779296875,-1.93679821491241,1.51092290878296,2.5948498249054,-2.35362764460945,1.95311615770631,2.59986472102797,2792.109,1901.841,2010.969,2996.754,-0.119463,0.1145394,0.2216917,-0.98155677318573,-0.34665048122406,0.615790545940399,-0.888274735793772,-0.382199803288803,0.549884375850026,0
3.31999206542969,-1.95615231990814,1.50422966480255,2.60651922225952,-2.37129490830989,1.94551442770222,2.61080159886703,1801.63,4658.513,3084.381,0,-0.1261353,0.1252697,0.2222524,-0.967709183692932,-0.334670960903168,0.583468079566956,-0.878042061913513,-0.37779696958594,0.54354986326829,0
3.33999633789063,-1.97537708282471,1.49779605865479,2.61807775497437,-2.38875555478454,1.93800159931817,2.62161057080077,3254.828,1683.18,3069.373,1570.933,-0.1270914,0.1341079,0.2068398,-0.96123993396759,-0.321691066026688,0.577926456928253,-0.867618167158097,-0.373311858882592,0.53709697585572,0
3.36000061035156,-1.99437165260315,1.4916090965271,2.62930750846863,-2.406005803634,1.93057929915441,2.6322892965819,2318.136,3672.837,3512.928,0,-0.1361248,0.1426487,0.1986336,-0.949731230735779,-0.30933490395546,0.561488926410675,-0.857007552155826,-0.36874640767338,0.530528499715627,0
3.37998962402344,-2.01312589645386,1.48566114902496,2.64017534255981,-2.42302905329872,1.92325467039821,2.6428274990542,3044.715,2379.918,4022.839,0,-0.1470507,0.1484737,0.1877728,-0.937718331813812,-0.297395825386047,0.543389320373535,-0.846223126656603,-0.364106170663035,0.523852426598178,0
3.39999389648438,-2.03168249130249,1.47990715503693,2.6508960723877,-2.43984769972619,1.91601807669906,2.65323904237604,2609.433,2731.867,4078.351,0,-0.1553715,0.1530738,0.1780745,-0.927813589572906,-0.287697434425354,0.536041259765625,-0.835253140422974,-0.35938609205264,0.51706148254665,0
3.41999816894531,-2.0500476360321,1.474289894104,2.66153740882874,-2.45644516534361,1.90887665092339,2.66351366424015,2230.992,3180.664,3943.362,0,-0.1608837,0.1576177,0.1736029,-0.918251752853394,-0.280865907669067,0.532064378261566,-0.824110582941664,-0.354591760855451,0.510163708672097,0
3.43998718261719,-2.06820201873779,1.46878266334534,2.67198157310486,-2.47280564474684,1.90183719369507,2.67364158034846,2460.799,2813.572,4013.9,0,-0.1640113,0.1612519,0.1714536,-0.907719016075134,-0.275372982025146,0.522208631038666,-0.812809078412023,-0.349729039183832,0.50316753900293,0
3.45999145507813,-2.08615851402283,1.46337282657623,2.68223977088928,-2.48895081463434,1.8948903781363,2.68363620960993,2798.315,2405.187,4055.584,0,-0.1639836,0.1629435,0.1679854,-0.897838950157166,-0.270494699478149,0.512908279895782,-0.80133641229185,-0.344792671461508,0.496065412155666,0
3.47999572753906,-2.10393929481506,1.45803868770599,2.69242835044861,-2.50486489870395,1.88804299234919,2.69348778574196,2691.818,2699.069,3844.118,0,-0.1614057,0.1631687,0.1651777,-0.889033377170563,-0.266697138547897,0.509423673152924,-0.789706299681989,-0.339788558913217,0.488865818431069,0
3.5,-2.12152862548828,1.45276808738708,2.70251631736755,-2.5205447997813,1.88129636896134,2.70319439144611,2554.066,2961.83,3672.063,0,-0.1585151,0.1623759,0.1650044,-0.879481852054596,-0.263527244329453,0.504398345947266,-0.777924000354857,-0.334718964672089,0.481572013878822,0
3.51998901367188,-2.13890695571899,1.44756841659546,2.7123920917511,-2.53597583877076,1.87465682397749,2.71274693966292,2742.62,2678.708,3728.209,0,-0.1562455,0.159873,0.1651361,-0.868913769721985,-0.259992152452469,0.493794500827789,-0.766004036374581,-0.329590137176618,0.474192988348404,0
3.53999328613281,-2.15608382225037,1.44244480133057,2.72207117080688,-2.55117869390181,1.86811546013321,2.72215823120146,2815.603,2533.294,3771.313,18.71982,-0.1537171,0.1553788,0.1643764,-0.85882979631424,-0.256169050931931,0.483950614929199,-0.753933682518821,-0.324396601119134,0.466720864320997,0
3.55999755859375,-2.17307066917419,1.43739497661591,2.73160672187805,-2.56613872308604,1.86167857751006,2.73141920191151,2627.999,2784.569,3715.239,0,-0.1509506,0.1494452,0.1649795,-0.849360167980194,-0.252493590116501,0.476781845092773,-0.741727567798258,-0.319144650954242,0.459164697851087,0
3.57998657226563,-2.18986797332764,1.43242049217224,2.74097061157227,-2.58084213759183,1.85535210901407,2.74052131591136,2539.616,2843.81,3723.973,0,-0.1481911,0.1422638,0.1676562,-0.839848518371582,-0.248735636472702,0.468195348978043,-0.72940084364523,-0.31384080592,0.451533868397061,0
3.59999084472656,-2.20650625228882,1.42751383781433,2.75026440620422,-2.59530884290342,1.84912748987145,2.74947689564398,2351.128,2857.586,3526.385,369.5735,-0.1423976,0.1346928,0.1712635,-0.831924855709076,-0.245324611663818,0.464691877365112,-0.716940488958392,-0.308479463400265,0.4438203152769,0
3.6199951171875,-2.22296905517578,1.42269253730774,2.75935983657837,-2.60952509409627,1.84301063413925,2.75827743234631,2419.333,2893.004,3605.481,166.2806,-0.1367634,0.1263062,0.1767959,-0.823127567768097,-0.24107238650322,0.454766064882278,-0.704361775018033,-0.303067194200314,0.436033492140578,0
3.63999938964844,-2.23933124542236,1.41794586181641,2.76855444908142,-2.6234885835008,1.83700253474321,2.76692149746096,2142.729,2916.549,3067.591,978.1211,-0.1249156,0.1187881,0.1810562,-0.818125009536743,-0.237323507666588,0.459732532501221,-0.691670720740692,-0.297606588091786,0.428177124984152,0
3.65998840332031,-2.25549602508545,1.41332292556763,2.77736473083496,-2.63718676607487,1.8311085894645,2.77540132500924,2470.914,3034.495,3546.225,0,-0.1187147,0.1100187,0.1886326,-0.808238446712494,-0.231165915727615,0.440512299537659,-0.678883253871145,-0.292104498338286,0.420261073840379,0
3.67999267578125,-2.27166795730591,1.40879321098328,2.78667044639587,-2.65063849381582,1.82532068681534,2.78372858527554,1806.879,2956.739,2186.436,2174.95,-0.09879475,0.1044722,0.1899249,-0.808581709861755,-0.226474195718765,0.465283125638962,-0.665986083416798,-0.286555206197011,0.41227711095171,0
3.69999694824219,-2.2875964641571,1.40441584587097,2.79533934593201,-2.66383127580226,1.81964420129024,2.79189554578451,1848.961,3980.989,3161.037,0,-0.09300291,0.09928791,0.2022692,-0.796423375606537,-0.218862786889076,0.433441609144211,-0.65299527533123,-0.280965624398954,0.404235181908735,0
3.71998596191406,-2.30362343788147,1.40018486976624,2.8047981262207,-2.67675353880252,1.81408411252746,2.79989504215442,1703.135,2566.019,1160.564,3690.588,-0.06593934,0.09922808,0.1983736,-0.801351010799408,-0.211557701230049,0.47293758392334,-0.639927289491732,-0.275342835169479,0.396145476159594,0
3.739990234375,-2.31935524940491,1.39614069461823,2.81329154968262,-2.68942333385363,1.80863265367006,2.80773824883709,1346.307,4792.908,2779.719,0,-0.06275419,0.1004704,0.2120318,-0.786590993404388,-0.202212452888489,0.424674063920975,-0.62676873176137,-0.26968107538565,0.387999702095468,0
3.75999450683594,-2.33522939682007,1.39233994483948,2.82270693778992,-2.70182915057228,1.80329477731443,2.81541804035694,1913.147,1941.609,491.1889,4752.963,-0.03355423,0.1071204,0.199526,-0.793710827827454,-0.190035864710808,0.470768123865128,-0.613536214864365,-0.263987493038594,0.379808143784027,0
3.77999877929688,-2.35078597068787,1.38876295089722,2.83102464675903,-2.7139695770734,1.79807109095524,2.82293354268985,908.2792,5591.305,2344.987,0,-0.03562777,0.1159175,0.210651,-0.777824997901917,-0.178843095898628,0.415887236595154,-0.60023651686137,-0.258265004538452,0.371574997167698,0
3.79998779296875,-2.36636757850647,1.38551545143127,2.83985185623169,-2.72583438304408,1.79296599641037,2.83027842278479,2493.971,1156.103,922.1479,4434.573,-0.01556564,0.1272399,0.190804,-0.77908182144165,-0.162360742688179,0.441358864307404,-0.586886736182787,-0.252520966862155,0.36331084698941,0
3.81999206542969,-2.38163781166077,1.38254952430725,2.84781670570374,-2.73744054699573,1.78797218830065,2.83746319114912,1298.555,5196.878,2308.582,0,-0.02346458,0.1394988,0.1906155,-0.763502836227417,-0.148296639323235,0.398239284753799,-0.573473482003301,-0.246749618311662,0.355007403690404,0
3.83999633789063,-2.39668107032776,1.37991809844971,2.85548186302185,-2.74877791451009,1.78309403578861,2.84448156171422,3173.435,1038.588,2614.75,2027.456,-0.02511201,0.1488964,0.1688451,-0.752171277999878,-0.131580382585526,0.383256256580353,-0.560014026276881,-0.240958390526246,0.346675359432959,0
3.86000061035156,-2.4114146232605,1.37759065628052,2.8627872467041,-2.75984563331209,1.77833190558438,2.85133300688122,2126.58,3601.561,3069.015,0,-0.03730822,0.1570185,0.1546583,-0.73667585849762,-0.116370148956776,0.365271985530853,-0.546515580872635,-0.235150386571708,0.338319178707605,0
3.87998962402344,-2.42580413818359,1.37551975250244,2.86967635154724,-2.7706348636882,1.77368960116974,2.85801205444635,2482.288,2603.612,3639.183,0,-0.05306668,0.1625312,0.1413034,-0.719491362571716,-0.103549897670746,0.344456970691681,-0.532995796775444,-0.22933320117373,0.329949788314816,0
3.89999389648438,-2.43986463546753,1.37364959716797,2.8762993812561,-2.78116151864576,1.76916027562219,2.86452855531919,2199.906,2580.142,3912.396,0,-0.06635479,0.1660779,0.130115,-0.703029632568359,-0.0935108214616776,0.331149220466614,-0.519441457145543,-0.223501147495394,0.321559006401168,0
3.91999816894531,-2.45362091064453,1.3719174861908,2.88280558586121,-2.79141684911929,1.7647476934202,2.87087709341145,1903.152,2890.23,3853.503,0,-0.07511766,0.1684382,0.1241808,-0.687796413898468,-0.0866079106926918,0.325312882661819,-0.505870408491346,-0.2176619043907,0.313157880805522,0
3.93998718261719,-2.46708059310913,1.370276927948,2.88915395736694,-2.80139308531637,1.76045519768837,2.87705285885147,1979.466,2765.855,3840.547,0,-0.07955555,0.1693144,0.1225139,-0.673000454902649,-0.0820225328207016,0.317415595054626,-0.492300656572426,-0.211823219234969,0.304757557950781,0
3.95999145507813,-2.48026037216187,1.36870741844177,2.89531755447388,-2.81110535421031,1.75627627971269,2.88306521595634,2365.59,2314.604,3867.92,0,-0.0794666,0.1675793,0.1209064,-0.658989191055298,-0.0784708485007286,0.308185189962387,-0.478719233391147,-0.205979512261105,0.296350010028665,0
