t,x_s1,x_s2,x_s3,x_s_d1,x_s_d2,x_s_d3,propellers_rpms1,propellers_rpms2,propellers_rpms3,propellers_rpms4,rollRad,pitchRad,yawRad,v_s1,v_s2,v_s3,v_s_d1,v_s_d2,v_s_d3,insideCount
0,-0.0599999986588955,2.94000005722046,1.17999994754791,-0.0599999986588955,2.94000005722046,1.17999994754791,0,0,0,0,0,0,0,0,0,0,-1.06581410364015E-15,4.44089209850063E-16,4.44089209850063E-16,0
0.0199985504150391,-0.0599999986588955,2.94000005722046,1.17729234695435,-0.0600018685815247,2.93999925264499,1.1800011051191,0,0,0,0,0.0163538,-0.002474609,-2.024222E-05,3.71994488546079E-08,3.50004931704007E-08,-0.135377958416939,-0.000279946173977888,-0.000120453017871082,0.000173300017377699,5
0.0399990081787109,-0.0599999986588955,2.94000005722046,1.17105865478516,-0.0600148703014743,2.93999365836812,1.1800091538031,0,0,0,0,0.03270752,-0.004950816,-5.430172E-05,3.48044650877455E-08,3.30428591155396E-08,-0.311683237552643,-0.0011109142447864,-0.000477995364179603,0.000687708837706811,6
0.0599994659423828,-0.0600004307925701,2.94013142585754,1.16552245616913,-0.0600498904664975,2.93997859016946,1.18003083295349,3161.751,2810.223,1469.393,2738.783,0.03139149,-0.004977981,-0.01632784,-2.15875588764902E-05,0.00656340783461928,-0.27680891752243,-0.00247951833951941,-0.00106686747177115,0.00153493996800067,6
0.0799999237060547,-0.0599182657897472,2.94037842750549,1.16100013256073,-0.0601175490846357,2.93994947855624,1.18007271686115,3028.822,3011.949,2083.591,1979.161,0.01921296,-0.004420315,-0.04309314,0.00410829484462738,0.0123495757579803,-0.226117178797722,-0.00437248097278563,-0.00188135640961186,0.00270677401230774,6
0.0999984741210938,-0.0596519336104393,2.94066071510315,1.15742897987366,-0.0602281887669101,2.93990187339187,1.18014120809498,2572.872,3764.1,2528.335,1069.5,-0.005655489,-0.003074353,-0.06910424,0.0133165773004293,0.0141149014234543,-0.178556472063065,-0.00677637982016689,-0.00291568692648091,0.00419490191241918,6
0.119998931884766,-0.0591362752020359,2.94084787368774,1.15462076663971,-0.0603919230601972,2.93983142309968,1.18024256742227,1989.777,4004.068,3075.573,694.8134,-0.03990906,-0.0007068029,-0.08794077,0.0257829651236534,0.00936216861009598,-0.140408292412758,-0.00967861374975049,-0.00416443710735115,0.00599152296740588,5
0.139999389648438,-0.0583610832691193,2.94078660011292,1.15244722366333,-0.0606185767455666,2.93973390035084,1.18038287685052,1381.484,3936.957,3641.051,663.9548,-0.07574722,0.002034094,-0.09641335,0.0387596413493156,-0.00306059326976538,-0.108674958348274,-0.0130660253322238,-0.00562194567796536,0.00808849210174802,4
0.159999847412109,-0.0573621243238449,2.94033217430115,1.15091979503632,-0.0609177249752248,2.93960518522485,1.18056806385509,1009.579,3669.295,3950.252,872.2443,-0.1041248,0.003834153,-0.09478936,0.0499479547142982,-0.0227180346846581,-0.0763694792985916,-0.0169257706321904,-0.00728268625174051,0.0104778583075938,4
0.179998397827148,-0.056195043027401,2.93938517570496,1.15012347698212,-0.0612986465792905,2.93944128530034,1.18080387247382,1011.019,3363.192,3835.529,1161.062,-0.1193469,0.003851036,-0.08597483,0.0583540014922619,-0.0473463758826256,-0.0398144163191319,-0.0212446806785156,-0.00914099258829578,0.0131514693644856,3
0.19999885559082,-0.0549089796841145,2.93791794776917,1.15010964870453,-0.0617704792283666,2.93923826889292,1.1810959593601,1332.905,3133.113,3353.484,1401.604,-0.1214119,0.002340706,-0.07415678,0.0643031373620033,-0.0733587592840195,-0.000688984990119934,-0.0260109531407025,-0.0111917864745373,0.0161020190676231,3
0.219999313354492,-0.0535360462963581,2.93597269058228,1.15082931518555,-0.0623420049171324,2.93899235735562,1.18144976098699,1790.142,3014.744,2724.11,1533.269,-0.1151221,0.0002796649,-0.06327511,0.0686466470360756,-0.0972623601555824,0.0359809286892414,-0.0312116790433783,-0.0134295135389972,0.0193215161463106,3
0.239999771118164,-0.0520959980785847,2.93363213539124,1.15212345123291,-0.063021788625926,2.93869986541668,1.18187057948532,2171.785,2982.622,2212.695,1547.06,-0.1071528,-0.00133957,-0.05581187,0.0720024630427361,-0.117024466395378,0.0647039338946342,-0.0368344480011416,-0.0158488339395432,0.022802277980796,3
0.259998321533203,-0.0506039075553417,2.93098068237305,1.15377116203308,-0.063818066443955,2.93835724931701,1.18236351338666,2347.558,2985.584,2004.975,1459.76,-0.1029072,-0.001919606,-0.05235615,0.0746045261621475,-0.132567465305328,0.0823846012353897,-0.04286636357961,-0.0184441987007453,0.0265363210638542,3
0.279998779296875,-0.0490741357207298,2.92807531356812,1.15557205677032,-0.0647390625194898,2.93796097043536,1.18293365383054,2308.595,2995.959,2122.954,1298.999,-0.104715,-0.001324656,-0.05185015,0.0764885172247887,-0.145270615816116,0.0900470465421677,-0.0492963837173861,-0.0212108567320638,0.030516809833474,3
0.299999237060547,-0.0475225821137428,2.92493534088135,1.15741097927094,-0.065792536715479,2.93750768991949,1.18358580454179,2137.893,3011.105,2441.9,1106.145,-0.1118719,0.0001963371,-0.05227785,0.077577643096447,-0.1569944024086,0.0919445157051086,-0.0561118672418845,-0.0241433688900884,0.0347359188016424,3
0.319999694824219,-0.0459692813456059,2.92155051231384,1.15926587581635,-0.0669860785243584,2.93699414222283,1.18432466377777,1943.098,3019.59,2792.573,937.3441,-0.1218194,0.002153777,-0.05160886,0.0776653066277504,-0.169245988130569,0.0927477926015854,-0.0633008373176985,-0.0272365818771378,0.0391862337367069,3
0.339998245239258,-0.0444394610822201,2.91789531707764,1.16117608547211,-0.0683269038426322,2.9364172225467,1.18515469852215,1803.852,3001.089,3047.761,841.8608,-0.1315042,0.00401591,-0.04861228,0.0764911249279976,-0.182757034897804,0.0955125018954277,-0.0708506885691688,-0.0304850719522193,0.043859951310657,3
0.35999870300293,-0.0429611876606941,2.91394639015198,1.16320323944092,-0.069822382620517,2.93577375980741,1.18608047112519,1756.968,2955.716,3148.367,830.428,-0.1385003,0.005408814,-0.043148,0.0739137679338455,-0.197443872690201,0.101359196007252,-0.0787511019946779,-0.0338843991372162,0.0487506835699294,3
0.379999160766602,-0.0415608249604702,2.90969371795654,1.16540169715881,-0.0714792747653362,2.93506084540571,1.18710616629155,1802.861,2905.197,3096.942,874.9163,-0.1417446,0.00622575,-0.03593723,0.0700182244181633,-0.212631210684776,0.109920658171177,-0.0869897229117765,-0.0374292475574207,0.0538507823775527,3
0.399999618530273,-0.0402594953775406,2.9051456451416,1.16779756546021,-0.0733042289655903,2.93427561859665,1.18823589987613,1908.651,2871.062,2945.588,936.3448,-0.1416722,0.006602698,-0.02807824,0.0650665014982224,-0.227399498224258,0.119795620441437,-0.0955550080350531,-0.0411146504596022,0.0591531018899743,3
0.419998168945313,-0.0390724167227745,2.90032649040222,1.17038214206696,-0.0753034649285836,2.93341540321397,1.18947352217404,2025.225,2857.798,2770.039,988.5729,-0.1397195,0.006794223,-0.02059795,0.0593540146946907,-0.240960106253624,0.129226118326187,-0.104434660908044,-0.0449353170220673,0.0646500300148815,3
0.439998626708984,-0.0380104295909405,2.89526844024658,1.17311799526215,-0.0774835548069347,2.93247737144397,1.19082310166083,2110.886,2859.316,2639.46,1016.054,-0.1375608,0.007043023,-0.0141531,0.0530992932617664,-0.252902925014496,0.136793971061707,-0.113619049702587,-0.0488871029382406,0.0703356041918149,3
0.459999084472656,-0.0370822139084339,2.89000344276428,1.17595684528351,-0.0798502821969742,2.93145903476675,1.19228821865812,2147.895,2867.131,2591.313,1012.186,-0.1364657,0.007498166,-0.008925851,0.0464105680584908,-0.263251066207886,0.141944959759712,-0.123096124252221,-0.0529648233581361,0.0762023647937057,3
0.479999542236328,-0.0362961106002331,2.88455677032471,1.17885720729828,-0.0824093896672336,2.93035792231548,1.19387242808941,2141.014,2876.55,2625.619,978.524,-0.1369994,0.008197495,-0.004678641,0.0393053367733955,-0.272338926792145,0.145019292831421,-0.13285477482153,-0.0571636980729742,0.0822434343651008,4
0.499998092651367,-0.0356612950563431,2.87894415855408,1.18179619312286,-0.0851661261416979,2.92917177562482,1.19557897928867,2108.932,2884.158,2713.771,927.0218,-0.1390367,0.009086825,-0.0009353022,0.0317405611276627,-0.280627906322479,0.146949261426926,-0.142883031072219,-0.0614785765805993,0.0884514026963699,4
0.519998550415039,-0.0351882986724377,2.8731734752655,1.18477118015289,-0.0881263195578599,2.92789808709608,1.19741148002684,2072.208,2887.917,2817.944,873.608,-0.1419987,0.0100629,0.002809508,0.0236498601734638,-0.288532495498657,0.148750841617584,-0.153171913786256,-0.0659055953743427,0.0948207112238116,4
0.539999008178711,-0.0348887518048286,2.86724710464478,1.18779540061951,-0.0912948022612966,2.92653477750595,1.19937292175603,2047.195,2886.083,2904.891,833.4584,-0.1451418,0.01101688,0.006903618,0.014977571554482,-0.296321451663971,0.151209816336632,-0.163709694677519,-0.0704397081003365,0.101344099579621,4
0.559999465942383,-0.0347745008766651,2.86116552352905,1.19088900089264,-0.0946764453845371,2.92507975094219,1.20146631993932,2041.699,2881,2956.442,811.9742,-0.1478401,0.01187102,0.01147336,0.00571248400956392,-0.304079979658127,0.154679700732231,-0.174485697560587,-0.0750763210942518,0.108014958696444,4
0.579998016357422,-0.0348565764725208,2.85493063926697,1.19407212734222,-0.0982755538235842,2.92353115512831,1.2036943395124,2056.068,2875.437,2968.904,808.6653,-0.1497501,0.01259377,0.01643302,-0.00410401728004217,-0.311747372150421,0.159154787659645,-0.185488294752812,-0.0798104312890852,0.11482609048482,4
0.599998474121094,-0.0351442694664001,2.8485472202301,1.19735872745514,-0.102097262171133,2.92188678079254,1.20606015903275,2084.172,2873.427,2952.222,815.6633,-0.1508691,0.01319869,0.02157898,-0.0143846571445465,-0.319175571203232,0.164328590035439,-0.196709126405959,-0.0846384416756885,0.121772319800455,4
0.619998931884766,-0.0356448143720627,2.84202289581299,1.20075476169586,-0.106145477944935,2.92014494663912,1.20856619743999,2116.944,2875.347,2922.23,826.7639,-0.151446,0.01372735,0.02667511,-0.0250272862613201,-0.32621169090271,0.169801726937294,-0.208136802817102,-0.0895554515830839,0.128846595874672,4
0.639999389648438,-0.0363635793328285,2.83536791801453,1.20425832271576,-0.110424235525481,2.91830391678686,1.21121495220784,2145.544,2881.028,2896.618,834.3719,-0.1518497,0.01422923,0.0315431,-0.0359379351139069,-0.332747578620911,0.175175324082375,-0.219761081350814,-0.0945570538913933,0.136042578028218,4
0.659999847412109,-0.0373047031462193,2.8285927772522,1.20786333084106,-0.114937365519793,2.91636204303257,1.21400879466451,2165.436,2887.58,2886.039,836.4125,-0.1524037,0.01474417,0.03608613,-0.0470565557479858,-0.338759571313858,0.180251225829124,-0.231571827761751,-0.0996388881179631,0.143353992680462,4
0.679998397827148,-0.0384717360138893,2.82170701026917,1.21156299114227,-0.119688032378415,2.91431796380157,1.21694968375564,2176.613,2894.798,2894.99,829.0272,-0.1533224,0.01529398,0.04031094,-0.0583518072962761,-0.344291865825653,0.184984654188156,-0.243557864937104,-0.104796145063404,0.150773920666137,4
0.69999885559082,-0.0398681797087193,2.81471824645996,1.21535313129425,-0.124680571585341,2.91216981365623,1.22004030335236,2181.042,2900.398,2920.238,815.804,-0.1546546,0.0158821,0.04428724,-0.0698220655322075,-0.349439799785614,0.189504459500313,-0.255711562515536,-0.1100255415964,0.15829763842809,4
0.719999313354492,-0.0414977595210075,2.8076319694519,1.21923339366913,-0.129917773765869,2.90991639186844,1.22328238098464,2183.535,2904.879,2954.427,798.2923,-0.1563292,0.01649735,0.04811622,-0.0814788341522217,-0.354312717914581,0.194012597203255,-0.268021976505935,-0.115322368823317,0.165918371114489,4
0.739999771118164,-0.0433644279837608,2.80045199394226,1.22320699691772,-0.13540267613015,2.90755639161152,1.22667779683026,2186.731,2908.012,2990.417,780.5251,-0.1582029,0.01712368,0.05189242,-0.0933330953121185,-0.359003603458405,0.198679521679878,-0.280479406212952,-0.12068245280595,0.173630113532805,5
0.759998321533203,-0.0454722307622433,2.79318046569824,1.22728002071381,-0.141137563960274,2.90508882959244,1.2302279655877,2193.297,2909.941,3021.328,766.0595,-0.1601119,0.01774565,0.05567001,-0.105390660464764,-0.363579541444778,0.20365098118782,-0.293073051970232,-0.126101146749576,0.181426180175103,5
0.779998779296875,-0.0478250049054623,2.7858190536499,1.23145914077759,-0.147126184485884,2.90251209348295,1.23393520697061,2204.191,2912.361,3044.789,754.1057,-0.1619452,0.01835336,0.05946951,-0.117638662457466,-0.368067681789398,0.208954468369484,-0.305795832832518,-0.131575403921268,0.189302187598958,5
0.799999237060547,-0.0504261367022991,2.77836966514587,1.23575091362,-0.153370467664426,2.8998253528763,1.23780071571459,2218.781,2914.962,3059.611,746.7551,-0.1636459,0.01894411,0.06326753,-0.13005630671978,-0.372474372386932,0.214591309428215,-0.318637178554805,-0.1371006762399,0.197251592319181,5
0.819999694824219,-0.0532782413065434,2.77083396911621,1.24015974998474,-0.159872691993147,2.89702762739878,1.24182590231796,2235.307,2919.142,3069.955,740.0892,-0.1652396,0.01952166,0.06703421,-0.14260596036911,-0.376780450344086,0.220440953969955,-0.331587821991737,-0.142672976311719,0.205268657531342,5
0.839998245239258,-0.0563834495842457,2.7632143497467,1.24468874931335,-0.166634294361289,2.89411829879707,1.24601165628363,2251.627,2923.035,3077.844,736.5029,-0.1667661,0.02009474,0.0707219,-0.15525995194912,-0.38097557425499,0.226447582244873,-0.344637355311016,-0.148287825937249,0.213346940291454,5
0.85999870300293,-0.0597431622445583,2.75551342964172,1.24933874607086,-0.173658476530939,2.8910959894424,1.25035995965485,2267.483,2928.313,3087.89,729.9771,-0.1683075,0.02067096,0.07430888,-0.167985290288925,-0.38504633307457,0.232499822974205,-0.357779218042882,-0.153942402329629,0.221482379356217,5
0.879999160766602,-0.0633585453033447,2.74773335456848,1.25411093235016,-0.180946338277887,2.88796022613197,1.25487149324521,2281.777,2932.719,3099.955,724.3909,-0.1699097,0.02125791,0.07777249,-0.180769413709641,-0.389004707336426,0.238607257604599,-0.371003228241413,-0.159632324481982,0.229668671616073,5
0.899999618530273,-0.0672303885221481,2.73987627029419,1.25900483131409,-0.188499434070438,2.88471034002151,1.25954721934464,2295,2938.031,3117.413,713.8707,-0.1716285,0.02185878,0.08112818,-0.193591699004173,-0.392856985330582,0.244692966341972,-0.384300552311253,-0.165353791545005,0.237900348654692,5
0.919998168945313,-0.0713595747947693,2.73194360733032,1.26402175426483,-0.196318384305134,2.8813460641717,1.26438752200817,2306.463,2941.106,3136.822,706.0285,-0.1734421,0.02247698,0.08437553,-0.206459209322929,-0.396637231111526,0.250844687223434,-0.397661187980262,-0.171102499820431,0.246171218589148,5
0.939998626708984,-0.0757467597723007,2.7239363193512,1.26916217803955,-0.204405885800988,2.87786623821667,1.26939407069523,2318.897,2945.513,3159.681,692.5868,-0.1753558,0.02310982,0.0875478,-0.219359993934631,-0.400360733270645,0.257023096084595,-0.411079067636589,-0.176875838584386,0.254477525278661,5
0.959999084472656,-0.0803928971290588,2.71585512161255,1.27442920207977,-0.212762239776093,2.87427073255068,1.27456705187416,2331.06,2947.865,3180.735,683.7204,-0.1773117,0.02375724,0.09064487,-0.232307016849518,-0.404064387083054,0.263349533081055,-0.424544411524882,-0.18266959988136,0.262813214588797,5
0.979999542236328,-0.0852984637022018,2.70770001411438,1.2798238992691,-0.221388311353785,2.87055917493534,1.27990700109753,2345.083,2952.186,3203.309,669.3226,-0.1793165,0.02441479,0.09369836,-0.245279043912888,-0.407749772071838,0.269732147455215,-0.438048819599778,-0.188480169406503,0.271173086491326,5
0.999998092651367,-0.0904642641544342,2.69947123527527,1.28534960746765,-0.23028393740968,2.86673163555851,1.28541381738356,2358.156,2953.854,3222.262,662.4797,-0.1813037,0.0250849,0.09668977,-0.258288979530334,-0.411444962024689,0.276286751031876,-0.45158270821391,-0.194303423584087,0.279551208251994,5
1.01999855041504,-0.0958903878927231,2.69116854667664,1.29100728034973,-0.239451348187707,2.86278715480854,1.29108888135949,2373.875,2958.397,3242.503,648.5069,-0.1833043,0.0257636,0.09964182,-0.271306782960892,-0.415136575698853,0.282883286476135,-0.465140476318736,-0.200136952439402,0.28794411255494,5
1.03999900817871,-0.101577326655388,2.68279147148132,1.29680037498474,-0.248890079057088,2.85872593260306,1.29693190539675,2388.248,2960.314,3258.374,643.2357,-0.1852713,0.02645542,0.1025226,-0.284346789121628,-0.418848723173141,0.289651870727539,-0.478712759579464,-0.205976726760794,0.296346002430842,5
1.05999946594238,-0.107524633407593,2.67434048652649,1.30272817611694,-0.258600340480156,2.85454787838601,1.30294301978152,2404.882,2965.63,3277.934,628.1798,-0.1872751,0.02715576,0.1053608,-0.297366708517075,-0.422553986310959,0.29639008641243,-0.492291591500725,-0.211819318787865,0.30475194623957,5
1.07999801635742,-0.113732561469078,2.6658148765564,1.30879378318787,-0.268581219802083,2.85025338484727,1.30912165953701,2418.207,2966.722,3293.488,625.231,-0.1892506,0.02787355,0.1081131,-0.310394585132599,-0.426283866167068,0.303282141685486,-0.50586781946303,-0.217660790404144,0.31315627807366,5
1.09999847412109,-0.120200172066689,2.65721487998962,1.31499552726746,-0.278834517009062,2.84584167750307,1.31546893894041,2435.143,2972.391,3314.844,607.7751,-0.1912869,0.02860132,0.1108231,-0.323381334543228,-0.430003464221954,0.310086071491241,-0.519436284009554,-0.223498921639497,0.321555803983559,5
1.11999893188477,-0.126927644014359,2.64853978157043,1.32133710384369,-0.289359035362208,2.84131327127672,1.32198411715334,2447.954,2972.815,3330.38,606.2654,-0.1932912,0.02934899,0.1134392,-0.336374223232269,-0.433760285377502,0.317081034183502,-0.532988048794549,-0.229329867434001,0.329944991945551,5
1.13999938964844,-0.133913740515709,2.63978958129883,1.32781553268433,-0.300154365346813,2.83666834237095,1.3286669406667,2465.724,2979.214,3354.178,584.7483,-0.1953844,0.03010474,0.1160286,-0.349304795265198,-0.437504440546036,0.323921233415604,-0.546515580872639,-0.235150386571708,0.338319178707607,5
1.15999794006348,-0.141158685088158,2.63096356391907,1.33443558216095,-0.31121887973388,2.83190759093694,1.33551640214821,2476.815,2977.894,3369.76,586.86,-0.1974159,0.03088325,0.1185197,-0.362247407436371,-0.4413021504879,0.331002682447433,-0.560010170393828,-0.240956731447489,0.346672972457667,6
1.17999839782715,-0.148660853505135,2.62206196784973,1.34119296073914,-0.322553982624406,2.82703041282926,1.34253337080327,2496.06,2985.038,3395.771,560.7642,-0.1995432,0.03166669,0.121003,-0.375109374523163,-0.445083022117615,0.337868273258209,-0.573467075844405,-0.246746861920456,0.355003437972878,6
1.19999885559082,-0.156420841813087,2.61308312416077,1.34809458255768,-0.334157779891176,2.82203762303794,1.34971667407692,2506.419,2982.447,3408.727,567.6652,-0.2015619,0.03247515,0.1233779,-0.387998580932617,-0.44893953204155,0.345080584287643,-0.586877800774655,-0.252517122205661,0.363305315546124,6
1.21999931335449,-0.164436295628548,2.60402798652649,1.35513353347778,-0.346029276726411,2.81692964960096,1.35706569613575,2528.123,2991.412,3437.084,534.4991,-0.2037121,0.03328132,0.1257728,-0.400772392749786,-0.452761024236679,0.351945757865906,-0.600235245789198,-0.258264457631606,0.371574210313473,6
1.23999786376953,-0.172708213329315,2.59489440917969,1.36231923103333,-0.358166167196084,2.81170748469733,1.36457900949675,2535.503,2986.114,3446.524,550.7843,-0.2056887,0.03411846,0.1280352,-0.413596898317337,-0.456681579351425,0.359287887811661,-0.613531154887641,-0.263985315871967,0.379805011417393,6
1.2599983215332,-0.181233391165733,2.58568382263184,1.36964106559753,-0.370569492049568,2.80637068052165,1.37225725843336,2560.71,2997.628,3478.865,506.9638,-0.2078512,0.03494471,0.1303506,-0.426258862018585,-0.460533767938614,0.366093039512634,-0.626761182173783,-0.269677827009021,0.387995028541113,6
1.27999877929688,-0.190013721585274,2.57639336585999,1.37711334228516,-0.383236695417198,2.80092033679326,1.3800988607405,2564.406,2989.175,3481.985,536.7588,-0.2097532,0.03581145,0.1324922,-0.439016848802567,-0.464522540569305,0.373612076044083,-0.639917282339435,-0.275338529371412,0.396139281255613,6
1.29999923706055,-0.19904437661171,2.56702566146851,1.38471865653992,-0.396166231882091,2.79535711846185,1.3881028597315,2595.219,3005.077,3521.285,474.9778,-0.2119546,0.03665141,0.1347437,-0.451533228158951,-0.468384832143784,0.380266427993774,-0.652992789539212,-0.280964554832093,0.404233643085061,6
1.31999778747559,-0.208328887820244,2.55757689476013,1.39247870445251,-0.409355153534276,2.78968229393073,1.39626743050967,2591.034,2990.665,3515.602,528.0766,-0.2137538,0.03754951,0.1367535,-0.464225441217422,-0.472443908452988,0.388003706932068,-0.665979912040938,-0.286552550826386,0.412273290576068,6
1.33999824523926,-0.217860028147697,2.54805111885071,1.40036606788635,-0.42280416857195,2.783895558482,1.40459301148342,2630.947,3013.081,3567.025,437.1021,-0.2160234,0.03839647,0.1389617,-0.476556688547134,-0.476283937692642,0.394368439912796,-0.678874678563316,-0.292100808622893,0.420255765316334,6
1.35999870300293,-0.227644264698029,2.53844261169434,1.40841579437256,-0.436510095902056,2.77799828085114,1.41307763340462,2615.108,2990.197,3545.139,527.7781,-0.2176538,0.03933143,0.1408157,-0.489211618900299,-0.480431526899338,0.402483940124512,-0.691669505523675,-0.297606065217852,0.428176372706927,6
1.3799991607666,-0.23767015337944,2.52875852584839,1.4165825843811,-0.450470874182571,2.77199134797602,1.42172002020435,2670.993,3023.814,3617.241,386.5104,-0.2200645,0.04017074,0.1430241,-0.501295208930969,-0.484200805425644,0.40833780169487,-0.704358160626625,-0.303065639028665,0.436031254660118,6
1.39999771118164,-0.247949451208115,2.51898908615112,1.42492413520813,-0.464682951063699,2.76587628833354,1.43051797280888,2633.147,2985.968,3567.98,543.8289,-0.2214227,0.04115352,0.1446826,-0.513965427875519,-0.488472253084183,0.417079240083694,-0.716933326165324,-0.308476381450513,0.44381588116678,7
1.41999816894531,-0.258463442325592,2.50914740562439,1.43336451053619,-0.47914673136562,2.75965292774086,1.43947174182117,2717.165,3038.018,3676.961,315.1319,-0.2240901,0.04196349,0.1469602,-0.525699436664581,-0.492087543010712,0.422021448612213,-0.729391385793766,-0.313836736470737,0.451528013536465,7
1.43999862670898,-0.269233614206314,2.49921607971191,1.44200313091278,-0.4938584461112,2.75332288788357,1.44857899406484,2641.573,2976.008,3576.783,589.6259,-0.2249727,0.04301793,0.1483385,-0.538508176803589,-0.496566563844681,0.431930035352707,-0.741725227577294,-0.31914364402254,0.459163249142831,7
1.45999908447266,-0.28022763133049,2.48921847343445,1.4507075548172,-0.508815552717244,2.74688726276417,1.45783815555978,2777.232,3060.518,3753.159,202.4022,-0.2281477,0.04375654,0.1508157,-0.549701571464539,-0.499881029129028,0.435218513011932,-0.753929052770513,-0.324394609067776,0.466717998286247,7
1.47999954223633,-0.291485249996185,2.47912383079529,1.4596529006958,-0.524015393706918,2.74034719582071,1.46724758120123,2629.908,2955.374,3560.115,692.8864,-0.2281983,0.04493235,0.151755,-0.562883138656616,-0.504732847213745,0.44726887345314,-0.76599717101811,-0.329587183205524,0.474188738365705,7
1.49999809265137,-0.302948892116547,2.46897435188293,1.46860265731812,-0.539453715106405,2.73370451741928,1.47680463757674,2862.108,3096.988,3863.074,12.91166,-0.2323518,0.0455243,0.1546701,-0.573180139064789,-0.507474660873413,0.447486251592636,-0.777922869861026,-0.334718478252175,0.481571314049288,7
1.51999855041504,-0.314693331718445,2.45871353149414,1.47787547111511,-0.555130581228843,2.72695919988774,1.48650936449923,2580.108,2916.11,3493.363,906.3286,-0.2308716,0.04692604,0.1548581,-0.58722198009491,-0.5130455493927,0.463640034198761,-0.789702950965343,-0.339787118053995,0.488863745415943,7
1.53999900817871,-0.326631903648376,2.44839286804199,1.48715305328369,-0.571041541911266,2.72011315800687,1.49635900710582,2738.946,3355.747,3781.313,0,-0.2346565,0.0482642,0.1589876,-0.596929371356964,-0.516029000282288,0.463881343603134,-0.801330904905084,-0.34479030178684,0.496062002820904,7
1.55999946594238,-0.338840007781982,2.43796634674072,1.49672031402588,-0.587183501790833,2.71316772362485,1.50635164921945,2667.222,2810.875,3471.075,987.6939,-0.2329669,0.05031079,0.158976,-0.610404551029205,-0.521322071552277,0.478361904621124,-0.812801474874933,-0.34972576759424,0.503162832051264,7
1.57999801635742,-0.351233124732971,2.42749047279358,1.50626564025879,-0.603551689586986,2.70612494969039,1.51648433719019,2826.603,3280.881,3816.679,0,-0.236828,0.05210595,0.1621206,-0.619658291339874,-0.523794174194336,0.477266281843185,-0.824108441976122,-0.354590839657789,0.510162383312438,7
1.59999847412109,-0.363891422748566,2.41691780090332,1.5160950422287,-0.620145926473056,2.69898491314762,1.52675696031579,2736.12,2800.878,3522.051,927.8429,-0.2356013,0.05446986,0.1610903,-0.632916152477264,-0.528638601303101,0.491471379995346,-0.835248923368005,-0.359384277571697,0.517058871988737,7
1.61999893188477,-0.376732170581818,2.40629601478577,1.52592527866364,-0.636961261140657,2.69174974440622,1.53716645350051,2799.637,3352.984,3818.965,0,-0.2397196,0.05675356,0.1637109,-0.642035484313965,-0.531086146831512,0.491509079933167,-0.846216901179681,-0.364103492014234,0.523848572731403,7
1.63999938964844,-0.389817953109741,2.39559125900269,1.53597891330719,-0.653994195024907,2.68442094880091,1.54771065096602,2826.063,2780.605,3649.252,767.1699,-0.2400089,0.05928908,0.1625614,-0.654290735721588,-0.535234987735748,0.502681493759155,-0.857007552155828,-0.368746407673381,0.530528499715628,7
1.65999794006348,-0.403086960315704,2.38484001159668,1.54604375362396,-0.671239479331992,2.67700078474105,1.55838630345892,2870.438,3221.811,3925.517,0,-0.2443882,0.06155672,0.1640811,-0.663448631763458,-0.537563621997833,0.503242790699005,-0.867615158565213,-0.373310564369123,0.537095113393405,7
1.67999839782715,-0.416591942310333,2.37401056289673,1.55631041526794,-0.688696716710861,2.66948942319567,1.56919316499998,2874.836,2814.433,3799.278,573.1858,-0.2455962,0.06387205,0.1628991,-0.675249040126801,-0.541467010974884,0.513331592082977,-0.878037137680598,-0.377794850826084,0.543546814933542,8
1.69999885559082,-0.430285155773163,2.363126039505,1.56662595272064,-0.706360494347389,2.66188919314749,1.58012788479941,2875.896,3194.64,3988.242,0,-0.2496053,0.06597231,0.1642386,-0.684661269187927,-0.544231951236725,0.515774250030518,-0.888267970958778,-0.382196892569292,0.54988018809491,8
1.71999931335449,-0.444201409816742,2.35216450691223,1.57711005210876,-0.724226945158621,2.65420175849427,1.59118806894864,2928.495,2839.484,3919.549,404.2085,-0.2512895,0.06793153,0.1637397,-0.695814192295074,-0.548080623149872,0.524203181266785,-0.898303268694426,-0.386514800831178,0.556092515440802,8
1.73999786376953,-0.458308458328247,2.34114170074463,1.58765840530396,-0.742290383213093,2.64642956573347,1.60237019758524,2945.54,3085.114,4065.164,0,-0.2546786,0.06953054,0.1649029,-0.705351531505585,-0.551141679286957,0.52741938829422,-0.908137821269591,-0.39074633405868,0.562180571969536,8
1.7599983215332,-0.472634881734848,2.33003687858582,1.59837734699249,-0.760550216073323,2.63857286977439,1.61367390396219,2945.646,2889.202,3979.215,311.0682,-0.2559809,0.07098555,0.1649479,-0.716320633888245,-0.555238544940948,0.535946726799011,-0.917769332013572,-0.394890504058555,0.568142935932543,8
1.77999877929688,-0.487150847911835,2.31886386871338,1.60917460918427,-0.779000609654483,2.63063418086074,1.62509557650306,2965.15,3083.857,4080.235,0,-0.2586126,0.07212499,0.1665712,-0.725802838802338,-0.558651268482208,0.539863765239716,-0.927192788821983,-0.398945154262308,0.57397650459845,8
1.79999923706055,-0.501880705356598,2.30760526657104,1.6201399564743,-0.79763736303951,2.62261530652977,1.63663261464007,2957.333,2917.396,3984.159,297.9397,-0.2593056,0.07318465,0.1672479,-0.736489832401276,-0.562933206558228,0.548268795013428,-0.936404235539493,-0.402908582446823,0.579678828918647,8
1.81999778747559,-0.516793847084045,2.29627895355225,1.63117432594299,-0.816454394064092,2.61451886376689,1.64828125322378,3005.169,3064.028,4093.316,0,-0.2614084,0.07390078,0.1692274,-0.745658457279205,-0.566315710544586,0.551720380783081,-0.945398976945681,-0.406778768389922,0.585247002328031,8
1.83999824523926,-0.531920373439789,2.28486466407776,1.64239108562469,-0.835450937570646,2.606345181798,1.6600410185852,2950.41,2941.5,3956.849,344.9457,-0.2612849,0.07469275,0.1701438,-0.756329298019409,-0.570714592933655,0.560840606689453,-0.954174989692508,-0.410554841501469,0.590679772277779,8
1.85999870300293,-0.547222256660461,2.27338624000549,1.65366685390472,-0.854620778981102,2.59809693458245,1.67190806360445,3004.666,3113.624,4078.336,0,-0.2630127,0.07523941,0.1726206,-0.765094935894012,-0.573921382427216,0.563790619373322,-0.962727774564036,-0.414234865894539,0.595974353538898,8
1.8799991607666,-0.562735378742218,2.26182270050049,1.66513025760651,-0.873959418228252,2.58977605837344,1.68387960252558,2954.952,2941.061,3923.453,411.3077,-0.2622878,0.07597971,0.1736246,-0.775652706623077,-0.578177511692047,0.573172569274902,-0.971053808954927,-0.417817325890467,0.60112856545088,8
1.89999771118164,-0.578415095806122,2.25020408630371,1.67663598060608,-0.893460418296025,2.58138532283915,1.69595165052899,3015.418,3140.556,4076.16,0,-0.2638591,0.07651393,0.1762785,-0.783987522125244,-0.580935478210449,0.575283765792847,-0.979148917665041,-0.421300425017273,0.606139823365946,8
1.91999816894531,-0.594305038452148,2.23850679397583,1.68833565711975,-0.913122862707269,2.57292512231409,1.70812364027167,2964.924,2935.754,3904.431,463.9495,-0.2627379,0.07732257,0.177077,-0.794497311115265,-0.58485221862793,0.58498477935791,-0.987011339258123,-0.424683405378145,0.611007036871143,8
1.93999862670898,-0.610354900360107,2.22676467895508,1.70006883144379,-0.932940197657643,2.56439827671719,1.72039151463653,3010.245,3184.472,4072.533,0,-0.2642383,0.07800306,0.1797711,-0.80249297618866,-0.587120890617371,0.586657464504242,-0.99463709319481,-0.4279645542582,0.615727741822989,9
1.95999908447266,-0.626610517501831,2.21495485305786,1.71198976039886,-0.952907658613767,2.55580683609405,1.73275232415044,2991.907,2922.326,3910.665,478.6301,-0.2630814,0.07894569,0.1803294,-0.812781870365143,-0.590492308139801,0.596047580242157,-1.00202309041976,-0.431142542523221,0.620300025949072,9
1.9799976348877,-0.643020987510681,2.20311045646667,1.7239385843277,-0.973018495512246,2.54715370480838,1.74520189020262,3019.699,3193.149,4087.471,0,-0.2645888,0.07977442,0.1827832,-0.820525228977203,-0.592217326164246,0.597439408302307,-1.00916568071436,-0.434215799586116,0.624721629590192,9
1.99999809265137,-0.659631431102753,2.19121122360229,1.73606431484222,-0.993271661096953,2.53843933346522,1.75773956449162,3023.34,2915.302,3944.517,450.696,-0.2636162,0.08079957,0.1830816,-0.830523252487183,-0.594962656497955,0.606284022331238,-1.01606335446626,-0.437183675902864,0.628991618224387,9
2.01999855041504,-0.676393926143646,2.17928647994995,1.74822092056274,-1.01366030404084,2.52966666999921,1.77036110571964,3027.929,3192.893,4108.697,0,-0.2650852,0.08172459,0.1852355,-0.838126838207245,-0.596239030361176,0.607832551002502,-1.02271265493931,-0.440044684136465,0.633107851967309,9
2.03999900817871,-0.693347811698914,2.16731929779053,1.76053595542908,-1.03417943002831,2.52083786332482,1.7830634221674,3058.825,2913.988,3997.269,387.771,-0.2644434,0.08273496,0.1854303,-0.847692370414734,-0.598351538181305,0.615753710269928,-1.02911092662815,-0.442797681697156,0.63706868693465,9
2.05999755859375,-0.710451900959015,2.15533447265625,1.77288746833801,-1.05482201812353,2.5119559343546,1.79584216754118,3047.425,3165.867,4140.697,0,-0.2658058,0.08361728,0.1872547,-0.855204820632935,-0.599250376224518,0.617575585842133,-1.03525504859546,-0.445441325732794,0.640872191117535,9
2.07999801635742,-0.727738261222839,2.14331817626953,1.78537976741791,-1.07558691007788,2.50302138145056,1.8086966248299,3086.352,2923.252,4055.676,311.5062,-0.2654192,0.0844856,0.1874851,-0.864323437213898,-0.600820600986481,0.624617040157318,-1.04114375428791,-0.447975071280863,0.644517580459114,9
2.09999847412109,-0.745173513889313,2.13128924369812,1.79791641235352,-1.09646699912883,2.4940372624541,1.82162239460902,3066.423,3137.387,4169.715,0,-0.2665483,0.08520127,0.1891139,-0.871760010719299,-0.601448714733124,0.626830279827118,-1.04677411523768,-0.450397658303471,0.648003042098304,9
2.11999893188477,-0.762782156467438,2.11923742294312,1.81057822704315,-1.11745709586255,2.485005810225,1.83461626438416,3105.194,2939.11,4103.49,243.3588,-0.2662506,0.08583447,0.18954,-0.880426228046417,-0.60259085893631,0.6330925822258,-1.0521439094894,-0.452708130755304,0.651327200538896,9
2.1399974822998,-0.780536413192749,2.10717797279358,1.82328808307648,-1.13854995096316,2.47593014394135,1.84767374648347,3087.593,3106.716,4194.384,0,-0.2670639,0.08627988,0.1911134,-0.887718021869659,-0.602974414825439,0.635495185852051,-1.05725054902531,-0.454905375084611,0.654488453674597,9
2.15999794006348,-0.798456847667694,2.09510183334351,1.83611512184143,-1.15974431432775,2.46681080148754,1.86079406703369,3109.806,2959.354,4129.31,204.6006,-0.2665888,0.08663785,0.1917896,-0.896019458770752,-0.603805065155029,0.641352593898773,-1.06209300290918,-0.456988947708343,0.657486163306784,9
2.17999839782715,-0.816518068313599,2.08302307128906,1.84898948669434,-1.18103286617629,2.4576509323604,1.8739726947423,3101.446,3093.379,4205.538,0,-0.2670341,0.08679426,0.193482,-0.90306431055069,-0.60393750667572,0.643715977668762,-1.06666887474518,-0.458957817524312,0.66031884595227,10
2.19999885559082,-0.834739625453949,2.07093238830566,1.86197948455811,-1.20241025668069,2.44845283844151,1.88720631781084,3104.529,2977.896,4126.894,204.1257,-0.2661654,0.08691248,0.1943946,-0.911076366901398,-0.604523181915283,0.649498879909515,-1.07097637612794,-0.460811215031657,0.662985394502945,10
2.21999931335449,-0.853094279766083,2.05884599685669,1.8750079870224,-1.22387110132782,2.43921883653644,1.90049160296922,3108.137,3095.672,4205.607,0,-0.2662831,0.08682786,0.1963033,-0.917728900909424,-0.60431832075119,0.651428043842316,-1.07501382704219,-0.462548417366737,0.665484768949324,10
2.23999786376953,-0.871605157852173,2.04675269126892,1.88815796375275,-1.24540792547886,2.42995214277345,1.91382392305993,3090.815,2990.855,4098.767,242.917,-0.2648615,0.08680311,0.1973275,-0.925550520420074,-0.604672789573669,0.65749853849411,-1.07877930973132,-0.464168599372462,0.667815782108711,10
2.2599983215332,-0.89023894071579,2.03467202186584,1.901331782341,-1.26701939030951,2.42065333321126,1.92720244928693,3102.114,3120.409,4193.864,0,-0.2647305,0.08660156,0.1994977,-0.931683003902435,-0.604032039642334,0.658691227436066,-1.08227207933222,-0.465671440555045,0.66997797287536,10
2.27999877929688,-0.909026026725769,2.02258992195129,1.91463601589203,-1.28869796983554,2.41132564607061,1.9406225227075,3076.533,2993.83,4053.005,308.9626,-0.2627315,0.08657043,0.2004699,-0.939356565475464,-0.604104042053223,0.665212988853455,-1.08549040888332,-0.467056197851165,0.67197027217779,10
2.29999923706055,-0.927923500537872,2.01053142547607,1.92794489860535,-1.31043816248474,2.40197144852433,1.95408073758635,3087.91,3158.073,4175.389,0,-0.2624822,0.08639872,0.2028396,-0.944873631000519,-0.602923393249512,0.665443420410156,-1.08843305191934,-0.468322334941636,0.673791908394614,10
2.31999778747559,-0.946971237659454,1.99847900867462,1.94139218330383,-1.33223236173323,2.39259401344714,1.96757238512285,3066.307,2986.513,4003.893,382.7976,-0.2600231,0.08648822,0.2035813,-0.952382862567902,-0.602613091468811,0.672367095947266,-1.0910986293707,-0.469469258451341,0.675442027816066,10
2.33999824523926,-0.96611624956131,1.9864627122879,1.95482361316681,-1.35407917814146,2.38319393867607,1.98109660518773,3066.613,3200.351,4157.028,0,-0.2597834,0.08647865,0.2060264,-0.957249641418457,-0.600821614265442,0.671574473381042,-1.09348662008434,-0.470496744142684,0.676920307823584,10
2.35999870300293,-0.985406756401062,1.97446227073669,1.9683974981308,-1.37597096908363,2.3737745126195,1.99464866663155,3064.612,2970.633,3964.161,444.0313,-0.2570664,0.08677258,0.2064063,-0.964527904987335,-0.600024223327637,0.678695738315582,-1.09559583531025,-0.471404280529741,0.678226012524276,10
2.3799991607666,-1.00478231906891,1.96250987052917,1.98193800449371,-1.39790215061238,2.36433813789396,2.0082251127249,3043.762,3238.006,4141.721,0,-0.2569354,0.08700331,0.2087775,-0.968774557113647,-0.597617387771606,0.677023231983185,-1.09742546213314,-0.472191517837776,0.679358638684859,10
2.39999771118164,-1.02429568767548,1.95058500766754,1.99561560153961,-1.41986502747765,2.35488812555058,2.02182117974142,3072.484,2949.128,3946.861,473.9383,-0.2542312,0.08751059,0.2087599,-0.975672245025635,-0.596234560012817,0.683878898620605,-1.09897466165884,-0.47285809511406,0.680317666989874,10
2.41999816894531,-1.04388356208801,1.93871986865997,2.00924754142761,-1.44185817738692,2.34542508756209,2.03543598721428,3026.683,3256.091,4136.525,0,-0.2542445,0.08796707,0.2108956,-0.979387402534485,-0.593255162239075,0.681594789028168,-1.10024313330221,-0.473403883025206,0.681102911362803,10
2.43999862670898,-1.0635986328125,1.92689502239227,2.0230028629303,-1.46387388420027,2.33595234396796,2.0490647584853,3087.505,2929.541,3956.093,462.4768,-0.2517806,0.08860897,0.2105394,-0.985764265060425,-0.591250061988831,0.687771856784821,-1.10123022817855,-0.473828602374257,0.681713970113108,10
2.45999908447266,-1.08338010311127,1.91513872146606,2.03670787811279,-1.48590651627916,2.32647231790489,2.06270400730194,3017.604,3253.454,4139.753,0,-0.251902,0.08918978,0.2123569,-0.989069402217865,-0.587807476520538,0.685256898403168,-1.10193556692257,-0.474132089930926,0.682150608395601,10
2.4799976348877,-1.10327565670013,1.90343475341797,2.05051445960999,-1.50794833289881,2.31698833999053,2.07634894178684,3103.975,2916.188,3990.059,412.3559,-0.2498216,0.08982193,0.2118313,-0.994780957698822,-0.585201859474182,0.690326869487762,-1.10235885164239,-0.474314217520657,0.682412641801014,11
2.49999809265137,-1.12323141098022,1.89180660247803,2.06427192687988,-1.52999789647758,2.30750102877607,2.08999867200848,3020.145,3224.73,4153.138,0,-0.2499409,0.09034981,0.2133158,-0.997791290283203,-0.581413567066193,0.687878608703613,-1.10250000050163,-0.474374949931546,0.682500019668738,11
2.51999855041504,-1.14328789710999,1.88024008274078,2.07810759544373,-1.5520474605947,2.29801371732999,2.10364840256337,3114.156,2915.483,4034.543,340.2409,-0.2481965,0.09079789,0.2128262,-1.0028110742569,-0.578314423561096,0.691784679889679,-1.10235890547318,-0.474314240682543,0.682412675124841,11
2.53999900817871,-1.1633996963501,1.86875414848328,2.09189915657043,-1.5740913806044,2.28852883438564,2.11729463914691,3028.3,3184.888,4167.803,0,-0.2481608,0.09108534,0.2141018,-1.00559163093567,-0.574305593967438,0.689572751522064,-1.10193562074175,-0.474132113087814,0.682150641712234,11
2.55999755859375,-1.18359899520874,1.85733675956726,2.10574889183044,-1.59612191359838,2.27904971150017,2.13093258853001,3110.758,2926.223,4070.896,274.6756,-0.2465331,0.09121113,0.2138517,-1.0099710226059,-0.570862293243408,0.692491352558136,-1.10123038958312,-0.473828671822132,0.681714070030222,11
2.57999801635742,-1.20384907722473,1.84600293636322,2.11955666542053,-1.6181376241771,2.2695769662859,2.14456136213196,3038.423,3143.459,4178.539,0,-0.246189,0.09111089,0.2151064,-1.01249873638153,-0.566694557666779,0.690391540527344,-1.10024334841354,-0.473403975581601,0.681103044526962,11
2.59999847412109,-1.22417736053467,1.83474135398865,2.13341522216797,-1.64013077892511,2.26011392621545,2.15817617260023,3089.09,2946.771,4076.507,246.955,-0.2442982,0.09086104,0.215192,-1.01642322540283,-0.563077211380005,0.69292950630188,-1.09897493039424,-0.472858210743393,0.680317833349887,11
2.61999893188477,-1.24454879760742,1.82356643676758,2.14722657203674,-1.66209575487342,2.25066301069528,2.17177353904914,3039.1,3123.622,4174.212,0,-0.2435578,0.09034055,0.2166742,-1.0185694694519,-0.55874890089035,0.690567433834076,-1.09742562325992,-0.472191587166126,0.67935873843001,11
2.6399974822998,-1.26499402523041,1.812464594841,2.16109585762024,-1.68402485020812,2.24122753360076,2.185348693689,3049.387,2968.271,4035.424,283.2817,-0.2409948,0.08979318,0.2170534,-1.02226400375366,-0.555086195468903,0.693467795848846,-1.09559621095794,-0.471404442160446,0.678226245068088,11
2.65999794006348,-1.28546988964081,1.80145478248596,2.17489957809448,-1.70591664919621,2.23180810408224,2.19890076011363,3022.992,3135.95,4152.325,0,-0.2398746,0.08896182,0.2189604,-1.02380049228668,-0.550496160984039,0.690184533596039,-1.093487048984,-0.470496928686224,0.676920573332903,10
2.67999839782715,-1.30602097511292,1.79051756858826,2.18878674507141,-1.7277634747138,2.22240802539167,2.21242498581764,2996.914,2982.509,3939.241,396.354,-0.2362783,0.08833113,0.2194002,-1.02753615379333,-0.546853721141815,0.694356620311737,-1.09109911135695,-0.469469465836558,0.675442326188514,9
2.69999885559082,-1.32658445835114,1.77968060970306,2.20257496833801,-1.74955976015262,2.21302969268507,2.22591792480533,2979.662,3195.522,4108.41,0,-0.2349281,0.08745947,0.2218611,-1.02818059921265,-0.541856646537781,0.689411878585815,-1.08843331936148,-0.468322450014513,0.673792073954033,9
2.71999740600586,-1.34722721576691,1.76891672611237,2.21648454666138,-1.77129788800495,2.2036763835632,2.23937486147656,2942.536,2976.822,3796.443,578.959,-0.2301429,0.08707198,0.221994,-1.03213620185852,-0.5381880402565,0.695474922657013,-1.08549099645889,-0.467056450668518,0.671970635915057,8
2.73999786376953,-1.36785972118378,1.75826442241669,2.23024821281433,-1.79297647980783,2.19434869114016,2.25279494249708,2909.576,3295.379,4048.906,0,-0.2288231,0.08653435,0.2249654,-1.03162550926208,-0.532613575458527,0.688183426856995,-1.08227271937422,-0.465671715947234,0.669978369091845,8
2.7599983215332,-1.38857674598694,1.74768912792206,2.24417543411255,-1.81458795796224,2.18504987584512,2.26617347697213,2900.739,2944.057,3630.641,798.5638,-0.2229758,0.08674208,0.2243436,-1.03585302829742,-0.52876228094101,0.69636207818985,-1.07878000199166,-0.464168897232749,0.667816210650842,7
2.77999877929688,-1.40925753116608,1.73723912239075,2.25790405273438,-1.83612684690458,2.17578229366013,2.27950707526701,2817.636,3423.879,3979.918,0,-0.2220182,0.08692998,0.2276198,-1.03404104709625,-0.522501111030579,0.686430931091309,-1.07501419914593,-0.462548577472581,0.665484999299265,6
2.79999732971191,-1.43002367019653,1.7268750667572,2.27182555198669,-1.85758565652604,2.16654916736975,2.29279110064756,2886.353,2879.394,3484.702,998.7844,-0.2156138,0.08799304,0.2258754,-1.03831315040588,-0.518206894397736,0.696079552173615,-1.07097717199316,-0.460811557470228,0.66298588718143,5
2.81999778747559,-1.45072889328003,1.71665024757385,2.2855019569397,-1.87896306346215,2.15735106638076,2.30602473388812,2725.278,3542.818,3917.754,0,-0.2153272,0.08915905,0.229039,-1.03526282310486,-0.511236667633057,0.683826208114624,-1.06666972196052,-0.458958182057406,0.660319370418926,5
2.83999824523926,-1.47151041030884,1.70652592182159,2.29937100410461,-1.90025163276617,2.14819118974301,2.3192033724025,2909.318,2791.566,3410.737,1105.041,-0.2092126,0.09109525,0.226026,-1.03907191753387,-0.506214082241058,0.693448126316071,-1.06209390114388,-0.456989334193641,0.657486719356853,4
2.85999870300293,-1.49221277236938,1.69655275344849,2.31297159194946,-1.92144601460316,2.13907183934104,2.33232370438801,2659.831,3608.763,3878.28,0,-0.2097745,0.09319986,0.2285366,-1.03511559963226,-0.498651653528214,0.68002712726593,-1.05725149792792,-0.454905783370899,0.65448904109052,3
2.87999725341797,-1.51296675205231,1.68669891357422,2.32671809196472,-1.94253888918396,2.12999616467562,2.34538119854648,2968.209,2701.076,3457.72,1045.676,-0.2050112,0.09567581,0.2245059,-1.0377037525177,-0.492695838212967,0.687323272228241,-1.05214490868305,-0.452708560680416,0.651327819087361,2
2.89999771118164,-1.53363490104675,1.67700362205505,2.34020829200745,-1.96352900640172,2.1209647036328,2.35837508100222,2651.944,3568.58,3884.427,0,-0.2063332,0.09826126,0.2258154,-1.03340578079224,-0.484779626131058,0.674507737159729,-1.04677516433438,-0.450398109700476,0.648003691539142,0
2.91999816894531,-1.55431711673737,1.66744518280029,2.35375595092773,-1.98440911693069,2.11198057539494,2.37130086407726,3043.969,2644.645,3638.532,789.541,-0.2037861,0.1005855,0.2214502,-1.03411197662354,-0.477916479110718,0.677380561828613,-1.04114485287423,-0.447975543971863,0.644518260536375,0
2.93999862670898,-1.57491970062256,1.65804469585419,2.36709666252136,-2.00517403134858,2.10304601282548,2.38415533527198,2707.907,3407.804,3944.544,0,-0.2054373,0.1028219,0.2213451,-1.0301216840744,-0.470019936561584,0.667036294937134,-1.03525619623725,-0.445441819530995,0.640872901562472,0
2.95999717712402,-1.59549427032471,1.6487934589386,2.3803882598877,-2.02581664288168,2.09416407377059,2.39693409515492,3100.089,2653.095,3908.858,389.5975,-0.2052429,0.1041288,0.2176705,-1.02873730659485,-0.462574124336243,0.664574265480042,-1.029112122866,-0.442798196404884,0.637069427462863,0
2.9799976348877,-1.61600542068481,1.63969075679779,2.39354419708252,-2.04633579327653,2.08533525659438,2.40963642671202,2810.047,3157.319,4045.396,0,-0.2064669,0.105037,0.2165186,-1.02556037902832,-0.455123245716095,0.657801330089569,-1.0227138993024,-0.44004521955114,0.633108622287341,0
2.99999809265137,-1.63645851612091,1.63073682785034,2.4065728187561,-2.06672446158539,2.07656258221453,2.42225798364216,3086.53,2744.012,4154.351,0,-0.2075263,0.1046367,0.2145653,-1.02265310287476,-0.447711318731308,0.651428163051605,-1.01606464645845,-0.437184231811008,0.628992418029098,0
3.01999855041504,-1.65686571598053,1.62191593647003,2.41952896118164,-2.08697765348254,2.06784819954987,2.43479567421983,2914.056,2913.328,4134.387,0,-0.2074597,0.1035129,0.2134261,-1.020352602005,-0.441033512353897,0.647812724113464,-1.00916701981882,-0.434216375765357,0.624722458559645,0
3.03999900817871,-1.67722249031067,1.61321687698364,2.4324107170105,-2.1070904288371,2.05919423420069,2.44724644026866,2835.886,2994.129,4098.716,0,-0.206387,0.1018886,0.2138594,-1.01783108711243,-0.434946268796921,0.644089818000793,-1.00202378325828,-0.431142840632279,0.62030045484912,0
3.05999755859375,-1.69752216339111,1.60463762283325,2.4451916217804,-2.12705600675913,2.05060360379452,2.45960608409476,2925.133,2868.908,4105.953,0,-0.2044589,0.09942468,0.2148353,-1.01498866081238,-0.428964167833328,0.639040112495422,-0.994638524886308,-0.427965170275055,0.615728628108227,0
3.07999801635742,-1.71778464317322,1.5961651802063,2.45794653892517,-2.14687337079936,2.04207674568107,2.47187397646763,2825.378,2928.411,3942.699,187.752,-0.2003581,0.09663457,0.2160038,-1.01312386989594,-0.42363104224205,0.637745559215546,-0.987012816387451,-0.424684040945629,0.611007951284564,0
3.09999847412109,-1.73797762393951,1.58781111240387,2.47056889533997,-2.16653584520328,2.033616532251,2.4840459847772,2873.78,2979.557,3998.703,0,-0.1968848,0.09308328,0.2185001,-1.00964665412903,-0.417710036039352,0.631112217903137,-0.979150439632689,-0.421301079877433,0.606140765536421,0
3.11999893188477,-1.75815856456757,1.57955074310303,2.48327016830444,-2.18603872829175,2.02522498650551,2.49611919846012,2661.427,3013.537,3593.744,582.8063,-0.1894892,0.09006901,0.2200538,-1.0090389251709,-0.41301304101944,0.635065734386444,-0.971054592046769,-0.41781766283301,0.601129050222034,0
3.1399974822998,-1.77823257446289,1.57142233848572,2.4957263469696,-2.20537554715972,2.0169048935548,2.50808961047982,2754.536,3173.427,3873.262,0,-0.1857523,0.08643144,0.2244608,-1.00371527671814,-0.406426250934601,0.622805118560791,-0.962729384322967,-0.414235558528836,0.59597535005636,0
3.15999794006348,-1.79834365844727,1.56337976455688,2.50844264030457,-2.22454542119638,2.00865663230111,2.51995667569625,2461.202,3016.64,3070.757,1284.707,-0.1742634,0.08460725,0.2247743,-1.00554883480072,-0.402128517627716,0.635815978050232,-0.954176642367246,-0.410555552601238,0.590680795362169,0
3.17999839782715,-1.81829404830933,1.55548894405365,2.52074670791626,-2.24354199818069,2.00048293592768,2.53171646178199,2455.674,3603.351,3688.808,0,-0.1710484,0.08273076,0.2314793,-0.997524976730347,-0.394539833068848,0.615204930305481,-0.945400671854024,-0.406779497661632,0.585248051557035,0
3.19999885559082,-1.8383377790451,1.5476907491684,2.53351283073425,-2.26236084956923,1.99238570991304,2.54336622725771,2346.138,2864.425,2446.936,2161.382,-0.1554972,0.0838256,0.2288097,-1.00218188762665,-0.389910727739334,0.638303220272064,-0.936405103758047,-0.402908956017012,0.579679366387291,0
3.21999740600586,-1.85815942287445,1.54006886482239,2.54567360877991,-2.28099585204123,1.98436758895103,2.55490218149615,2080.353,4153.579,3455.697,0,-0.1538838,0.08556406,0.2370255,-0.991079807281494,-0.3810975253582,0.608033537864685,-0.927194566064376,-0.398945918960059,0.573977604796153,0
3.23999786376953,-1.87810814380646,1.53257203102112,2.55842685699463,-2.29944628156995,1.97642888457015,2.56632387629027,2388.908,2545.084,1929.925,2930.315,-0.1363048,0.09071633,0.2297219,-0.9974325299263,-0.374832034111023,0.637664556503296,-0.917771149318993,-0.394891285994308,0.568144060931169,0
3.2599983215332,-1.89778625965118,1.52527666091919,2.57043933868408,-2.31770615117141,1.96857217280235,2.57762760541179,1749.171,4673,3204.398,0,-0.1376593,0.09710333,0.2374166,-0.983918845653534,-0.364774614572525,0.600627660751343,-0.908139677873146,-0.390747132903322,0.562181721295578,0
3.27999877929688,-1.91755104064941,1.51816403865814,2.5829496383667,-2.33577134012187,1.96079922667992,2.58881081793642,2641.705,2095.302,1880.873,3119.052,-0.1230332,0.1058583,0.2251994,-0.988232910633087,-0.355632036924362,0.625519156455994,-0.898304216251578,-0.386515208538549,0.556093102023818,0
3.29999732971191,-1.93703401088715,1.5112783908844,2.59475326538086,-2.35363611583443,1.95311251277486,2.59986996511977,1719.868,4771.768,3076.177,0,-0.1281689,0.1157908,0.2285525,-0.974157214164734,-0.344287276268005,0.590182304382324,-0.888269903777668,-0.382197724207263,0.549881384601876,0
3.31999778747559,-1.95646071434021,1.50463247299194,2.60665512084961,-2.37129993249841,1.94551226593426,2.61080470907906,3066.562,1746.768,2611.211,2208.132,-0.1235861,0.125256,0.2135168,-0.971330106258392,-0.332285851240158,0.595098733901978,-0.87803910737898,-0.377795698332271,0.54354803427067,0
3.33999824523926,-1.97563779354095,1.49823153018951,2.61809873580933,-2.38875720963391,1.93800088728271,2.62161159523137,2114.266,4099.64,3309.253,0,-0.1317492,0.1349365,0.20879,-0.958849787712097,-0.320045620203018,0.572175264358521,-0.8676171642955,-0.373311427378832,0.537096355035999,0
3.35999870300293,-1.99458014965057,1.49209368228912,2.62912273406982,-2.40600416902084,1.93058000248278,2.63228828467848,3450.083,1848.171,3952.588,243.7932,-0.141498,0.140737,0.1955015,-0.947122931480408,-0.306899100542068,0.551205456256866,-0.857008572601967,-0.368746846742847,0.530529131420399,0
3.37999725341797,-2.01333832740784,1.48617649078369,2.64003324508667,-2.42303550945299,1.9232518924954,2.64283149572124,2631.135,2882.552,3965.823,0,-0.1500808,0.1453961,0.184015,-0.937897503376007,-0.295852988958359,0.545528650283813,-0.846218976345105,-0.364104384899943,0.523849857357654,0
3.39999771118164,-2.03190302848816,1.48041820526123,2.65086150169373,-2.43985088596004,1.91601670575165,2.65324101480657,2132.689,3413.278,3852.158,0,-0.1573981,0.1504081,0.1793644,-0.928239345550537,-0.287908524274826,0.54141241312027,-0.835251031898626,-0.359385184813519,0.517060177269636,0
3.41999816894531,-2.05024480819702,1.4747941493988,2.66142678260803,-2.45644516534361,1.90887665092339,2.66351366424015,2477.412,2770.736,4076.099,0,-0.1629061,0.1544312,0.1767325,-0.917083442211151,-0.281211912631989,0.528269827365875,-0.824110582941664,-0.354591760855451,0.510163708672097,0
3.43999862670898,-2.06839156150818,1.46928811073303,2.67179179191589,-2.47281494657125,1.90183319137989,2.67364733862088,2848.371,2283.786,4172.321,0,-0.1644177,0.1563391,0.1719357,-0.907354116439819,-0.275307983160019,0.518247127532959,-0.812802561098952,-0.34972623496609,0.503163504475677,0
3.45999717712402,-2.08637642860413,1.4638659954071,2.68213033676147,-2.48895539990862,1.89488840522088,2.68363904811313,2597.49,2794.474,3888.795,0,-0.1624289,0.1571149,0.1687248,-0.899242341518402,-0.271091401576996,0.516921937465668,-0.801333107864087,-0.344791249658555,0.496063366557468,0
3.4799976348877,-2.10417628288269,1.45851111412048,2.69238114356995,-2.50486640494811,1.88804234425441,2.69348871817885,2467.47,3059.952,3694.863,0,-0.1597939,0.1571775,0.1690543,-0.889988481998444,-0.267753928899765,0.512545943260193,-0.78970518344449,-0.339788078627405,0.488865127426884,0
3.49999809265137,-2.12176704406738,1.4532322883606,2.70240592956543,-2.52054331600794,1.88129700738756,2.70319347291972,2800.466,2596.466,3783.164,0,-0.1574903,0.1553755,0.1690071,-0.87952846288681,-0.263934552669525,0.501236319541931,-0.777925130847354,-0.334719451091428,0.481572713707531,0
3.51999855041504,-2.13916778564453,1.44803190231323,2.71227049827576,-2.53598314392723,1.87465368077274,2.71275146190277,2842.185,2505.171,3751.136,74.78262,-0.1541949,0.1516193,0.1674891,-0.870034754276276,-0.260020524263382,0.493228286504745,-0.765998315247401,-0.329587675535422,0.474189446698144,0
3.53999710083008,-2.15638065338135,1.44290578365326,2.7220025062561,-2.55118156992615,1.86811422266028,2.72216001159753,2596.882,2890.144,3666.219,0,-0.1511839,0.1466113,0.1680174,-0.860638678073883,-0.25630110502243,0.486598610877991,-0.753931367647136,-0.324395605094516,0.466719431305148,0
3.55999755859375,-2.17339706420898,1.43785905838013,2.73153972625732,-2.56613872308604,1.86167857751006,2.73141920191151,2604.552,2807.635,3715.068,0,-0.1487312,0.1402099,0.1701328,-0.850828289985657,-0.252331078052521,0.476856499910355,-0.741727567798258,-0.319144650954242,0.459164697851087,0
3.57999801635742,-2.19025421142578,1.43288314342499,2.74101066589355,-2.58085048488145,1.85534851740854,2.74052648328127,2389.57,2832.404,3503.655,401.5692,-0.1432259,0.1333848,0.1726904,-0.84285032749176,-0.248799398541451,0.473544597625732,-0.72939375026341,-0.313837753835969,0.451529477255809,0
3.59999847412109,-2.20691967010498,1.4279979467392,2.75022912025452,-2.59531431270705,1.84912513636775,2.74948028171299,2496.299,2886.082,3691.709,25.84871,-0.1392002,0.1254016,0.1775771,-0.833272218704224,-0.244250699877739,0.460921317338943,-0.716935713767317,-0.308477408768949,0.443817359206151,0
3.61999702453613,-2.2234935760498,1.42318224906921,2.75960421562195,-2.60952643755859,1.84301005608494,2.75827826401348,2108.181,2910.124,3029.823,1081.576,-0.1275074,0.118528,0.1807385,-0.828698754310608,-0.240785107016563,0.468754857778549,-0.70436057022192,-0.303066675810204,0.43603274631439,0
3.6399974822998,-2.23986005783081,1.41848134994507,2.76858830451965,-2.62348726424244,1.83700310238323,2.76692068077719,2300.315,3254.563,3509.089,0,-0.1219627,0.1109746,0.1891463,-0.818339645862579,-0.235055476427078,0.44920414686203,-0.691671935956746,-0.297607110965304,0.428177877260776,0
3.65999794006348,-2.25622344017029,1.41386723518372,2.77802705764771,-2.6371932403809,1.83110580375149,2.77540533291308,1882.241,2830.586,2223.333,2200.652,-0.1025914,0.1064209,0.1901408,-0.818152785301208,-0.230710089206696,0.471940100193024,-0.67887712865581,-0.292101862829246,0.420257282040303,0
3.67999839782715,-2.2723400592804,1.40940117835999,2.78683662414551,-2.65064230460817,1.82531904713786,2.78373094433754,1919.076,3912.227,3180.512,0,-0.09707116,0.1020642,0.2015129,-0.805838584899902,-0.223305746912956,0.44048336148262,-0.665982380593835,-0.286553612975735,0.412274818727906,0
3.69999694824219,-2.28853464126587,1.4050760269165,2.79636836051941,-2.66383127580226,1.81964420129024,2.79189554578451,1818.476,2524.267,1324.413,3468.041,-0.07169177,0.1022218,0.1971388,-0.809720516204834,-0.216256007552147,0.476589232683182,-0.65299527533123,-0.280965624398954,0.404235181908735,0
3.71999740600586,-2.30443835258484,1.40093445777893,2.80500769615173,-2.67676086214623,1.81408096149726,2.79989957565303,1432.584,4715.152,2797.337,0,-0.06893379,0.1035516,0.2095092,-0.795187950134277,-0.207064718008041,0.431966751813889,-0.639919784131907,-0.275339605822821,0.396140829984331,0
3.73999786376953,-2.32044100761414,1.39702129364014,2.8144257068634,-2.68942811570037,1.808630596175,2.80774120902801,2012.234,1962.609,814.2456,4315.025,-0.04294933,0.1094284,0.1977771,-0.800139665603638,-0.195662319660187,0.470906645059586,-0.626763698705669,-0.269678909802388,0.38799658639423,0
3.7599983215332,-2.33613252639771,1.39333057403564,2.8228497505188,-2.70183149102237,1.80329377028414,2.81541948920704,1141.54,5264.737,2472.236,0,-0.04513419,0.1169303,0.2069028,-0.784562945365906,-0.184550300240517,0.421202003955841,-0.613533684877225,-0.263986404455806,0.379806577601466,0
3.77999687194824,-2.35181379318237,1.38994216918945,2.83168458938599,-2.71396843221189,1.79807158355717,2.82293283396604,2500.764,1351.269,1268.784,3896.461,-0.02812085,0.1263772,0.1889604,-0.784061193466187,-0.169402927160263,0.441745102405548,-0.600237787932998,-0.258265551445064,0.371575784021584,0
3.79999732971191,-2.36718893051147,1.3868236541748,2.83974409103394,-2.72583998000171,1.79296358819586,2.83028188756818,1456.27,4885.275,2496.866,0,-0.03545839,0.1364805,0.1883656,-0.768754541873932,-0.155935168266296,0.402976274490356,-0.586880353750828,-0.252518220679987,0.363306895959991,0
3.81999778747559,-2.38234186172485,1.38401389122009,2.84753823280334,-2.73744382842632,1.78797077639275,2.83746522251097,3048.452,1294.785,2739.168,1795.608,-0.03708878,0.1440291,0.1693856,-0.757645785808563,-0.140482187271118,0.38970673084259,-0.573469638309223,-0.246747964477482,0.355005024260668,0
3.83999824523926,-2.39719676971436,1.38148474693298,2.85497951507568,-2.74877898265085,1.78309357619748,2.84448222294423,2138.534,3501.117,3181.39,0,-0.04780854,0.1503343,0.1574638,-0.742761254310608,-0.126463517546654,0.372062832117081,-0.560012740982885,-0.240957837500146,0.346674563774748,0
3.85999870300293,-2.41173076629639,1.37919735908508,2.86203265190125,-2.75984459091511,1.77833235409867,2.85133236158783,2534.672,2526.053,3697.583,0,-0.06108066,0.1539368,0.145769,-0.726703107357025,-0.114376589655876,0.352657675743103,-0.546516869536602,-0.235150941047811,0.338319976451988,0
3.87999725341797,-2.42596292495728,1.37710225582123,2.86886143684387,-2.77063893010371,1.77368785150474,2.85801457175126,2237.56,2606.711,3883.988,0,-0.07176207,0.1555922,0.136216,-0.711614072322845,-0.1047373265028,0.341436684131622,-0.532990631455729,-0.229330978680956,0.329946590735853,0
3.89999771118164,-2.43991303443909,1.37514448165894,2.87557721138,-2.78116350015273,1.7691594230351,2.8645297819664,1949.372,2918.441,3811.835,0,-0.07851692,0.156096,0.1318379,-0.6974937915802,-0.0978863015770912,0.335794717073441,-0.519438870577852,-0.223500034567577,0.321557405192552,0
3.91999816894531,-2.45358538627625,1.37328636646271,2.88211941719055,-2.79141684911929,1.7647476934202,2.87087709341145,2084.054,2706.577,3830.968,0,-0.08150019,0.1549764,0.1309087,-0.683628916740417,-0.0929202884435654,0.327107042074203,-0.505870408491346,-0.2176619043907,0.313157880805522,0
3.93999862670898,-2.4669976234436,1.37151122093201,2.88848471641541,-2.80139871920582,1.76045277358314,2.87705634649742,2434.939,2307.862,3847.228,0,-0.0803513,0.1512076,0.1296669,-0.670613825321198,-0.0887491330504417,0.318264424800873,-0.492292886511002,-0.21181987599461,0.304752747912623,0
3.95999717712402,-2.48017501831055,1.36980819702148,2.89479613304138,-2.81110809345262,1.75627510109325,2.88306691167782,2416.186,2497.058,3599.628,58.04526,-0.07554003,0.1450638,0.1288282,-0.658867239952087,-0.0851520299911499,0.31557634472847,-0.478715349103959,-0.205977840960841,0.296347605469861,0
