t,x_s1,x_s2,x_s3,x_s_d1,x_s_d2,x_s_d3,propellers_rpms1,propellers_rpms2,propellers_rpms3,propellers_rpms4,rollRad,pitchRad,yawRad,v_s1,v_s2,v_s3,v_s_d1,v_s_d2,v_s_d3,insideCount
0,-0.0599999986588955,2.94000005722046,1.17999994754791,-0.0599999986588955,2.94000005722046,1.17999994754791,0,0,0,0,0,0,0,0,0,0,-1.06581410364015E-15,4.44089209850063E-16,4.44089209850063E-16,0
0.0200004577636719,-0.0599999986588955,2.94000005722046,1.17729234695435,-0.0600018691155303,2.93999925241522,1.18000110544967,0,0,0,0,0.0163538,-0.002474609,-2.024222E-05,3.71994488546079E-08,3.50004931704007E-08,-0.135377958416939,-0.000279999361409376,-0.000120475902936966,0.000173332942931458,5
0.0400009155273438,-0.0599999986588955,2.94000005722046,1.17105865478516,-0.0600148724204753,2.93999365745638,1.18000915511487,0,0,0,0,0.03270752,-0.004950816,-5.430172E-05,3.48044650877455E-08,3.30428591155396E-08,-0.311683237552643,-0.00111101934050116,-0.00047804058392963,0.00068777389696065,6
0.0600013732910156,-0.0600004307925701,2.94013142585754,1.16552245616913,-0.0600498951959519,2.93997858813451,1.18003083588125,3161.735,2810.216,1469.412,2738.79,0.03139167,-0.004977981,-0.01632784,-2.15875115827657E-05,0.00656339433044195,-0.276809304952621,-0.0024796740721389,-0.00106693447916665,0.00153503637391071,6
0.0800018310546875,-0.0599182620644569,2.94037842750549,1.16100013256073,-0.0601175574246769,2.93994947496775,1.18007272202403,3028.835,3011.95,2083.584,1979.158,0.01921336,-0.004420315,-0.04309314,0.00410837167873979,0.012349646538496,-0.226116865873337,-0.00437268608126799,-0.00188144466206175,0.00270690098422899,6
0.100002288818359,-0.059651929885149,2.94066071510315,1.15742897987366,-0.0602282146177137,2.939901862269,1.18014122409785,2572.892,3764.103,2528.315,1069.497,-0.005655489,-0.003074353,-0.06910477,0.0133166704326868,0.014115110039711,-0.178555890917778,-0.00677688628291668,-0.00291590484325321,0.00419521543698747,6
0.120002746582031,-0.0591362677514553,2.94084787368774,1.154620885849,-0.0603919599823235,2.93983140721312,1.18024259027882,1989.828,4004.08,3075.533,694.7901,-0.0399096,-0.0007068029,-0.0879413,0.0257831774652004,0.00936243776232004,-0.140407249331474,-0.00967921398219614,-0.00416469537060396,0.00599189453988277,5
0.140003204345703,-0.0583610720932484,2.94078660011292,1.15244734287262,-0.0606186265898167,2.93973387890425,1.18038290770649,1381.436,3936.978,3641.073,663.9573,-0.07574829,0.002034088,-0.09641389,0.0387598276138306,-0.00306021701544523,-0.108675450086594,-0.0130667168743004,-0.0056222432292015,0.00808892019923618,4
0.159999847412109,-0.0573621094226837,2.94033217430115,1.15091991424561,-0.0609177249752248,2.93960518522485,1.18056806385509,1009.547,3669.286,3950.283,872.2593,-0.1041259,0.003834269,-0.09478936,0.0499480590224266,-0.0227178260684013,-0.0763700902462006,-0.0169257706321904,-0.00728268625174051,0.0104778583075938,4
0.180000305175781,-0.0561950318515301,2.93938517570496,1.15012359619141,-0.0612986871007165,2.9394412678651,1.18080389755851,1010.877,3363.186,3835.612,1161.127,-0.1193469,0.00385142,-0.0859743,0.0583538413047791,-0.0473463460803032,-0.039816178381443,-0.0212451141043368,-0.00914117907931815,0.0131517376757159,3
0.200000762939453,-0.0549089722335339,2.93791794776917,1.15010988712311,-0.0617705288407759,2.93923824754608,1.18109599007255,1333.093,3133.073,3353.397,1401.555,-0.1214108,0.002340727,-0.07415678,0.0643030107021332,-0.0733593553304672,-0.000686444342136383,-0.0260114285934326,-0.0111919910485645,0.016102313395512,3
0.220001220703125,-0.0535360388457775,2.93597269058228,1.15082955360413,-0.0623420644491781,2.93899233174064,1.18144979784016,1790.128,3014.81,2724.088,1533.227,-0.1151215,0.0002798086,-0.06327511,0.0686466619372368,-0.0972625464200974,0.035981573164463,-0.03121219533433,-0.0134297356845702,0.019321835755004,3
0.240001678466797,-0.0520959906280041,2.93363213539124,1.15212368965149,-0.0630218588825902,2.9386998351872,1.18187062297754,2171.79,2982.569,2212.678,1547.121,-0.1071528,-0.00133957,-0.05581133,0.0720024108886719,-0.11702461540699,0.0647044032812119,-0.0368350039519641,-0.0158490731496507,0.0228026221408387,3
0.260002136230469,-0.0506039001047611,2.93098068237305,1.15377140045166,-0.0638182299684225,2.938357178957,1.18236361461609,2347.547,2985.605,2004.985,1459.739,-0.1029072,-0.001919606,-0.05235615,0.0746044740080833,-0.13256748020649,0.0823844000697136,-0.0428675524613532,-0.0184447102433459,0.0265370570382875,3
0.280002593994141,-0.0490741319954395,2.92807531356812,1.15557241439819,-0.06473925057268,2.93796088952133,1.18293377024442,2308.677,2995.96,2122.912,1298.965,-0.104716,-0.001324656,-0.05185015,0.0764885246753693,-0.145270749926567,0.0900480970740318,-0.0492976472675982,-0.0212114004024205,0.0305175920312465,3
0.300003051757813,-0.0475225821137428,2.92493534088135,1.15741121768951,-0.0657927507678135,2.93750759781875,1.18358593705038,2137.808,3011.142,2441.963,1106.127,-0.1118741,0.000196439,-0.05227732,0.0775775909423828,-0.156994417309761,0.0919429883360863,-0.0561132031658829,-0.0241439437008635,0.0347367458022363,3
0.320003509521484,-0.0459692850708961,2.92155051231384,1.15926611423492,-0.0669863200005711,2.93699403832236,1.18432481326305,1943.053,3019.531,2792.621,937.4113,-0.1218215,0.002154107,-0.05160833,0.0776649788022041,-0.169246464967728,0.0927469357848167,-0.0633022433414741,-0.0272371868498887,0.0391871041324022,3
0.340000152587891,-0.044439472258091,2.91789531707764,1.16117632389069,-0.0683270389802989,2.93641716440073,1.1851547821788,1803.854,3001.114,3047.784,841.8197,-0.1315058,0.004016264,-0.04861175,0.07649065554142,-0.182757869362831,0.0955124050378799,-0.0708514254995047,-0.0304853890327553,0.0438604075056398,3
0.360000610351563,-0.0429612100124359,2.91394639015198,1.1632034778595,-0.0698225328270578,2.93577369517774,1.1860805641102,1756.889,2955.698,3148.423,830.4706,-0.1385003,0.0054091,-0.04314694,0.0739130303263664,-0.197444751858711,0.101358339190483,-0.0787518717320621,-0.0338847303337087,0.0487511600740379,3
0.380001068115234,-0.0415608659386635,2.90969371795654,1.16540193557739,-0.0714794406858296,2.93506077401475,1.18710626900424,1802.973,2905.153,3096.854,874.9434,-0.141743,0.00622616,-0.03593669,0.0700173228979111,-0.212632432579994,0.10992331802845,-0.0869905243502129,-0.0374295923939903,0.0538512785061227,3
0.400001525878906,-0.0402595512568951,2.9051456451416,1.16779792308807,-0.0733044112230977,2.93427554017634,1.18823601270221,1908.717,2871.134,2945.528,936.2591,-0.1416711,0.006602999,-0.02807771,0.0650658011436462,-0.227400198578835,0.119797334074974,-0.0955558400788823,-0.0411150084648172,0.0591536169647403,3
0.420001983642578,-0.0390724800527096,2.90032649040222,1.17038249969482,-0.0753038633184856,2.93341523179792,1.18947376879637,2025.236,2857.763,2769.995,988.6352,-0.1397185,0.006794454,-0.02059795,0.0593534745275974,-0.240960538387299,0.129227295517921,-0.104436384033078,-0.0449360584346311,0.0646510967113616,3
0.44000244140625,-0.0380105003714561,2.89526844024658,1.1731184720993,-0.077483988232608,2.93247718495301,1.19082336997196,2110.99,2859.354,2639.381,1015.992,-0.1375619,0.007043133,-0.01415364,0.0530989579856396,-0.252903401851654,0.136795952916145,-0.113620829717891,-0.048887868829098,0.0703367061060819,3
0.460002899169922,-0.0370822995901108,2.89000344276428,1.17595732212067,-0.0798507517749224,2.93145883272047,1.19228850934924,2147.767,2867.177,2591.441,1012.134,-0.1364689,0.007498607,-0.008926383,0.0464104302227497,-0.263251125812531,0.14194193482399,-0.123097959028495,-0.0529656128111088,0.0762035006076214,3
0.480003356933594,-0.0362961962819099,2.88455677032471,1.17885768413544,-0.0824098964715798,2.93035770425173,1.19387274182544,2140.932,2876.436,2625.702,978.6544,-0.1370021,0.00819801,-0.004679174,0.039304755628109,-0.272339671850204,0.145017817616463,-0.132856662250146,-0.057164510180779,0.0822446027733248,4
0.5,-0.0356613993644714,2.87894415855408,1.18179666996002,-0.085166398670376,2.92917165836334,1.1955791479969,2108.94,2884.223,2713.841,926.8905,-0.1390394,0.009087345,-0.0009347695,0.0317398235201836,-0.280629098415375,0.146948367357254,-0.142884000065179,-0.0614789935111996,0.0884520025491718,4
0.520000457763672,-0.0351884216070175,2.8731734752655,1.18477165699005,-0.0881266117110474,2.92789796139072,1.19741166088358,2072.091,2887.868,2818.056,873.6646,-0.1419998,0.01006336,0.002810614,0.0236488375812769,-0.288533896207809,0.148748964071274,-0.153172907027918,-0.0659060227384819,0.0948213260877149,4
0.540000915527344,-0.0348889082670212,2.86724710464478,1.18779587745667,-0.0912951145137283,2.92653464315245,1.19937311505516,2047.328,2886.036,2904.756,833.5179,-0.1451396,0.01101726,0.00690425,0.0149760190397501,-0.296323478221893,0.151213884353638,-0.163710711144578,-0.0704401454577151,0.101344728821151,4
0.560001373291016,-0.0347746796905994,2.86116552352905,1.1908894777298,-0.0946767781905844,2.92507960774504,1.20146652596211,2041.794,2881.116,2956.369,811.8203,-0.147839,0.01187119,0.01147445,0.00571128539741039,-0.304081410169601,0.154681846499443,-0.174486736240074,-0.0750767680090178,0.108015601688526,4
0.580001831054688,-0.0348567739129066,2.85493063926697,1.19407260417938,-0.0982762614093182,2.92353085067394,1.20369477754168,2056.06,2875.359,2968.812,808.837,-0.1497485,0.012594,0.01643326,-0.00410513393580914,-0.311748564243317,0.159157142043114,-0.185490414529404,-0.0798113433697334,0.11482740272751,4
0.600002288818359,-0.0351444818079472,2.8485472202301,1.1973592042923,-0.10209801256102,2.92188645792073,1.20606062355983,2084.323,2873.502,2952.08,815.5775,-0.1508697,0.0131989,0.02157843,-0.0143854795023799,-0.319176703691483,0.164332047104836,-0.19671128661765,-0.0846393711544298,0.121773657074397,4
0.620002746582031,-0.0356450378894806,2.84202289581299,1.20075511932373,-0.106146271928021,2.92014460501038,1.20856668895334,2116.803,2875.388,2922.386,826.699,-0.1514497,0.01372773,0.02667508,-0.025027509778738,-0.326212018728256,0.169798031449318,-0.208139001499973,-0.0895563976148993,0.128847956964108,4
0.640003204345703,-0.0363638140261173,2.83536791801453,1.20425856113434,-0.11042507385174,2.91830355607849,1.21121547117173,2145.436,2880.874,2896.682,834.5958,-0.1518524,0.01422974,0.03154214,-0.0359387621283531,-0.332748711109161,0.175174430012703,-0.219763316561621,-0.0945580156401591,0.136043961730185,4
0.659999847412109,-0.0373049527406693,2.8285927772522,1.20786356925964,-0.114937365519793,2.91636204303257,1.21400879466451,2165.475,2887.691,2886.16,836.1544,-0.1524074,0.01474484,0.03608601,-0.0470573976635933,-0.338760882616043,0.180249273777008,-0.231571827761751,-0.0996388881179631,0.143353992680462,4
0.680000305175781,-0.0384720079600811,2.82170701026917,1.21156311035156,-0.119688496929273,2.91431776391831,1.21694997133476,2176.309,2894.665,2895.316,829.14,-0.153323,0.01529473,0.04031198,-0.0583528317511082,-0.344292849302292,0.18497808277607,-0.243559016194652,-0.104796640417365,0.150774633349401,4
0.700000762939453,-0.0398685112595558,2.81471824645996,1.21535348892212,-0.124681059317553,2.91216960379868,1.22004060528183,2181.458,2900.342,2919.732,815.9895,-0.1546503,0.01588229,0.04428601,-0.0698248296976089,-0.349443137645721,0.189518094062805,-0.255712729184339,-0.110026043581393,0.158298360651655,4
0.720001220703125,-0.0414980910718441,2.8076319694519,1.21923363208771,-0.129918284978346,2.90991617190799,1.22328269744952,2183.647,2905.32,2954.588,797.5161,-0.1563313,0.01649742,0.04811859,-0.0814791619777679,-0.354313462972641,0.194009020924568,-0.268023157655716,-0.11532287703907,0.16591910230247,4
0.740001678466797,-0.0433647818863392,2.80045175552368,1.22320735454559,-0.135403211103301,2.90755616142752,1.22667812800413,2186.458,2907.501,2990.156,781.5991,-0.1581998,0.01712403,0.05189132,-0.0933348089456558,-0.359005779027939,0.198686257004738,-0.280480600923771,-0.120682966856639,0.173630853115714,5
0.760002136230469,-0.0454726032912731,2.79318022727966,1.22728025913239,-0.14113868194985,2.90508834855275,1.23022865767651,2193.48,2910.343,3021.557,765.2163,-0.160114,0.01774586,0.05567118,-0.105390727519989,-0.36357969045639,0.203645586967468,-0.293075466693575,-0.12610218573757,0.181427675003881,5
0.780002593994141,-0.0478254146873951,2.78581881523132,1.23145949840546,-0.147127351009062,2.90251159156062,1.23393592910403,2204.174,2912.062,3044.419,754.8375,-0.1619447,0.01835354,0.05946752,-0.117640420794487,-0.368069976568222,0.208963930606842,-0.30579827106028,-0.131576453022558,0.189303696978092,5
0.800003051757813,-0.0504265166819096,2.77836942672729,1.23575115203857,-0.153371683173492,2.89982482987671,1.2378014681726,2218.822,2915.352,3060.043,745.8568,-0.1636529,0.01894425,0.06326906,-0.130055546760559,-0.372474193572998,0.214581280946732,-0.318639638509124,-0.13710173468952,0.197253115148089,5
0.819999694824219,-0.053278673440218,2.77083373069763,1.24016010761261,-0.159872691993147,2.89702762739878,1.24182590231796,2235.004,2918.626,3069.774,741.1555,-0.1652401,0.01952227,0.06703234,-0.142607823014259,-0.376783013343811,0.220446661114693,-0.331587821991737,-0.142672976311719,0.205268657531342,5
0.840000152587891,-0.0563838593661785,2.7632143497467,1.24468874931335,-0.166634951706069,2.89411801595997,1.24601206321137,2251.58,2923.385,3078.623,735.3784,-0.1667698,0.02009514,0.07072487,-0.155259385704994,-0.380974918603897,0.226430207490921,-0.344638604388044,-0.148288363380199,0.213347713529636,5
0.860000610351563,-0.0597436763346195,2.75551342964172,1.24933922290802,-0.173659158941841,2.89109569582005,1.2503603820997,2267.664,2927.795,3086.861,731.4448,-0.1682985,0.02067155,0.07430511,-0.167990446090698,-0.385051637887955,0.232526630163193,-0.357780475378537,-0.153942943326036,0.221483157706883,5
0.880001068115234,-0.0633590370416641,2.74773335456848,1.25411105155945,-0.180947045911593,2.88795992165696,1.25487193130418,2282.271,2933.747,3100.644,722.0486,-0.1699166,0.02125757,0.07777753,-0.180767521262169,-0.38900351524353,0.238590881228447,-0.37100449298811,-0.159632868667153,0.229669454554527,5
0.900001525878906,-0.0672309249639511,2.73987603187561,1.25900530815125,-0.188500167066783,2.88471002463366,1.2595476731043,2294.241,2936.866,3116.586,716.7197,-0.1716205,0.0218595,0.08112425,-0.193595752120018,-0.39286133646965,0.244713813066483,-0.384301823631742,-0.165354338558695,0.237901135662636,5
0.920001983642578,-0.0713600665330887,2.73194336891174,1.26402175426483,-0.196319901267052,2.88134541146536,1.26438846107986,2307.152,2942.187,3137.646,703.3306,-0.1734495,0.02247669,0.08437949,-0.206456705927849,-0.396635293960571,0.250824958086014,-0.397663742114492,-0.171103598793035,0.246172799719906,5
0.94000244140625,-0.0757473707199097,2.72393608093262,1.269162774086,-0.204407453948074,2.87786556348678,1.26939504145298,2318.358,2944.52,3158.636,695.2931,-0.1753494,0.02311062,0.08754243,-0.219364657998085,-0.400365710258484,0.257049381732941,-0.411081631631503,-0.176876941799768,0.254479112513653,5
0.960002899169922,-0.0803934037685394,2.71585488319397,1.27442920207977,-0.212763859289405,2.87427003571935,1.27456805443005,2331.679,2949.005,3181.919,680.652,-0.1773261,0.02375672,0.0906498,-0.232302814722061,-0.404061585664749,0.263321369886398,-0.424546983768002,-0.182670706645715,0.262814806929822,5
0.979999542236328,-0.0852991044521332,2.7076997756958,1.27982437610626,-0.221388311353785,2.87055917493534,1.27990700109753,2344.107,2950.828,3202.332,672.7999,-0.1793101,0.02441611,0.09369229,-0.245284393429756,-0.407755553722382,0.269757658243179,-0.438048819599778,-0.188480169406503,0.271173086491326,5
1,-0.0904647707939148,2.69947099685669,1.28534924983978,-0.230284798736574,2.86673126495361,1.28541435058594,2358.843,2955.071,3224.053,658.6328,-0.181316,0.02508471,0.0966968,-0.258283793926239,-0.411440461874008,0.276245176792145,-0.451584000205995,-0.194303979492187,0.279552008056641,5
1.02000045776367,-0.095891147851944,2.69116806983948,1.29100799560547,-0.239452235373992,2.86278677307706,1.29108943057007,2373.213,2956.937,3240.31,653.055,-0.1832851,0.0257655,0.09963255,-0.271317690610886,-0.415146321058273,0.282938748598099,-0.465141770078335,-0.200137509108014,0.287944913453762,5
1.04000091552734,-0.101577892899513,2.68279123306274,1.29680001735687,-0.24889099213045,2.8587255397331,1.29693247063265,2389.784,2962.48,3260.447,637.1775,-0.1852905,0.02645358,0.1025341,-0.284338504076004,-0.418842494487762,0.289602428674698,-0.478714054341683,-0.205977283860805,0.296346803950333,5
1.06000137329102,-0.10752546787262,2.67434000968933,1.30272901058197,-0.258601279453084,2.85454747437219,1.3029436010505,2402.853,2963.118,3275.445,635.4921,-0.1872522,0.02715822,0.1053495,-0.297378718852997,-0.422565042972565,0.29645174741745,-0.492292886511004,-0.21181987599461,0.304752747912622,5
1.08000183105469,-0.113733142614365,2.66581439971924,1.30879330635071,-0.268583149539609,2.85025255453512,1.30912285413647,2420.411,2969.39,3296.204,617.3252,-0.1892741,0.02787143,0.108126,-0.31038299202919,-0.42627489566803,0.303216874599457,-0.50587040849135,-0.217661904390701,0.313157880805523,5
1.10000228881836,-0.120201051235199,2.65721416473389,1.31499671936035,-0.278836498506168,2.84584082492022,1.31547016558151,2432.827,2969.569,3311.502,616.6332,-0.1912602,0.02860429,0.1108075,-0.323396980762482,-0.430017709732056,0.310168325901031,-0.519438870577854,-0.223500034567576,0.321557405192552,5
1.12000274658203,-0.126928180456161,2.64853930473328,1.32133650779724,-0.289361068555186,2.84131239645058,1.32198537579665,2450.697,2976.103,3334.304,595.8896,-0.1933295,0.02934556,0.1134567,-0.336356550455093,-0.433747202157974,0.316987037658691,-0.532990631455731,-0.229330978680957,0.329946590735853,5
1.1400032043457,-0.133914709091187,2.63978886604309,1.3278169631958,-0.30015645014322,2.83666744534129,1.32866823125499,2462.17,2975.292,3349.963,596.9644,-0.1953498,0.03010918,0.1160081,-0.34932616353035,-0.437523066997528,0.324025452136993,-0.54651815820028,-0.23515149552379,0.338320774196191,5
1.15999984741211,-0.141159206628799,2.63096308708191,1.33443450927734,-0.311219947869739,2.83190713134792,1.33551706337518,2480.927,2982.25,3374.924,572.6855,-0.1974643,0.03087898,0.1185428,-0.362224400043488,-0.441284835338593,0.330879867076874,-0.560011455688534,-0.240957284473894,0.346673768116318,6
1.18000030517578,-0.148661956191063,2.62206101417542,1.34119462966919,-0.322555076427271,2.82702994219644,1.34253404791935,2491.152,2980.008,3390.189,576.9524,-0.1994926,0.03167286,0.1209772,-0.37513929605484,-0.445107638835907,0.338006287813187,-0.573468357077025,-0.246747413199059,0.355004231116904,6
1.20000076293945,-0.156421318650246,2.61308264732361,1.34809303283691,-0.334158899272964,2.82203714139922,1.34971736702757,2512.162,2988.055,3415.36,548.9475,-0.2016189,0.03246874,0.123409,-0.387968331575394,-0.448915809392929,0.344922840595245,-0.586879077262985,-0.252517671442929,0.363306105753208,6
1.22000122070313,-0.164437636733055,2.60402679443359,1.35513603687286,-0.346030421585499,2.81692915700008,1.35706640485806,2521.753,2985.197,3428.802,556.2371,-0.2036381,0.0332897,0.1257376,-0.400815427303314,-0.452795684337616,0.352147817611694,-0.600236516861372,-0.258265004538453,0.371574997167698,6
1.2400016784668,-0.172708630561829,2.59489393234253,1.36231708526611,-0.358168507636529,2.81170647767119,1.36458045834087,2543.249,2993.472,3456.268,524.8629,-0.2057723,0.03410884,0.1280797,-0.413549154996872,-0.456644654273987,0.359054386615753,-0.613533684877226,-0.263986404455806,0.379806577601466,6
1.26000213623047,-0.181235089898109,2.58568215370178,1.36964499950409,-0.370571882958536,2.80636965178032,1.3722587385199,2551.366,2989.002,3466.371,538.7274,-0.2077452,0.0349575,0.1302971,-0.426322847604752,-0.460585206747055,0.366395205259323,-0.626763698705669,-0.269678909802388,0.38799658639423,6
1.28000259399414,-0.190013870596886,2.57639288902283,1.37710988521576,-0.383239136512677,2.80091928645807,1.38010037189488,2576.049,2999.674,3497.442,497.5519,-0.2098885,0.03579573,0.1325593,-0.438938200473785,-0.464462667703629,0.373241603374481,-0.639919784131908,-0.275339605822821,0.396140829984331,6
1.30000305175781,-0.199046522378922,2.56702351570129,1.38472437858582,-0.396168722856641,2.79535604666509,1.38810440176341,2580.237,2992.099,3502.31,523.9448,-0.2117927,0.0366722,0.1346604,-0.451633393764496,-0.468463391065598,0.380724608898163,-0.652995275331231,-0.280965624398954,0.404235181908735,6
1.31999969482422,-0.208328545093536,2.55757665634155,1.39247286319733,-0.409356423791328,2.7896817473746,1.39626821685929,2609.848,3006.405,3539.823,466.8351,-0.2139637,0.03752431,0.1368564,-0.464100301265717,-0.472348093986511,0.387424975633621,-0.665981146317813,-0.286553081901244,0.412274054652251,6
1.34000015258789,-0.217862904071808,2.54804849624634,1.40037477016449,-0.422805463423808,2.78389500134342,1.4045938130584,2607.04,2993.641,3536.91,513.7058,-0.215764,0.03843012,0.1388324,-0.476719468832016,-0.476408541202545,0.395093768835068,-0.678875903610019,-0.292101335726266,0.4202565236786,6
1.36000061035156,-0.227643072605133,2.53844308853149,1.40840601921082,-0.436511415158101,2.77799771321212,1.41307845008695,2645.539,3014.07,3583.74,430.9392,-0.2179813,0.03928915,0.1409796,-0.489007562398911,-0.480275005102158,0.401562482118607,-0.691670720740693,-0.297606588091785,0.42817712498415,6
1.38000106811523,-0.237674444913864,2.5287549495697,1.41659677028656,-0.450472217640295,2.7719907699237,1.42172085186868,2632.38,2994.299,3567.175,509.7225,-0.2196383,0.04022656,0.1428152,-0.501567721366882,-0.484407782554626,0.409537762403488,-0.704359365424783,-0.303066157419654,0.436032000487571,6
1.40000152587891,-0.247946694493294,2.51899075508118,1.4249073266983,-0.464685685951852,2.76587511158757,1.43051966583492,2683.336,3023.098,3632.872,385.1077,-0.2219702,0.04107975,0.1449537,-0.513612866401672,-0.488204777240753,0.415530741214752,-0.716935713767318,-0.308477408768949,0.443817359206152,7
1.42000198364258,-0.258470088243484,2.50914192199707,1.43338871002197,-0.479149513777454,2.75965173054678,1.43947346426664,2651.69,2990.951,3591.297,521.7919,-0.2233705,0.04206072,0.1466062,-0.526170790195465,-0.492443919181824,0.424067378044128,-0.729393750263411,-0.31383775383597,0.45152947725581,7
1.44000244140625,-0.269227683544159,2.49922013282776,1.44197332859039,-0.493861275572861,2.75332167044526,1.4485807456364,2728.311,3036.228,3690.158,318.1815,-0.2259282,0.04288593,0.1488018,-0.537879049777985,-0.496093779802322,0.429229408502579,-0.741727567798258,-0.319144650954242,0.459164697851088,7
1.46000289916992,-0.280238509178162,2.4892098903656,1.45074951648712,-0.508818428732755,2.74688602529505,1.45783993595039,2661.653,2982.369,3602.584,561.4235,-0.2268901,0.0439315,0.1501971,-0.550543963909149,-0.500512838363647,0.438806861639023,-0.753931367647136,-0.324395605094517,0.46671943130515,7
1.47999954223633,-0.291473239660263,2.47913241386414,1.45959842205048,-0.524015393706918,2.74034719582071,1.46724758120123,2785.352,3056.249,3763.166,213.9679,-0.2298974,0.04468979,0.1525693,-0.561736941337585,-0.50387579202652,0.442443788051605,-0.76599717101811,-0.329587183205524,0.474188738365705,7
1.5,-0.30296790599823,2.46895980834961,1.46867787837982,-0.539455198877605,2.73370387899399,1.4768055561018,2652.902,2963.974,3590.234,654.2192,-0.2300806,0.04584646,0.1535595,-0.574730277061462,-0.508626163005829,0.453975230455399,-0.777924000354858,-0.334718964672088,0.481572013878822,7
1.52000045776367,-0.31466943025589,2.45873093605042,1.47777366638184,-0.555132087468752,2.72695855179478,1.48651029693349,2866.325,3089.393,3866.6,38.15095,-0.233972,0.04646594,0.1563282,-0.585076689720154,-0.511448740959167,0.454791098833084,-0.789704067205609,-0.339787598340998,0.488864436421842,7
1.54000091552734,-0.326646506786346,2.44839382171631,1.48717629909515,-0.571043070329722,2.72011250037111,1.49635995326965,2609.324,2929.476,3528.958,849.8038,-0.2327374,0.04783053,0.1566218,-0.598855912685394,-0.516859173774719,0.470129430294037,-0.801332006385301,-0.344790775723006,0.496062684689629,7
1.56000137329102,-0.338817417621613,2.43799805641174,1.49658513069153,-0.587185052087651,2.71316705657544,1.50635260892703,2772.587,3314.309,3813.671,0,-0.2364658,0.0490617,0.1604946,-0.608543634414673,-0.519785642623901,0.470444649457932,-0.812802561098952,-0.349726234966089,0.503163504475676,7
1.58000183105469,-0.351256847381592,2.42749667167664,1.50628554821014,-0.60355483331529,2.70612359703193,1.51648628330776,2674.004,2833.873,3497.706,954.7266,-0.2347955,0.05101338,0.160498,-0.621975302696228,-0.525066792964935,0.485023021697998,-0.824110582941666,-0.354591760855452,0.510163708672098,7
1.60000228881836,-0.363880455493927,2.41694474220276,1.51597011089325,-0.620149112698862,2.69898354220367,1.52675893274134,2825.18,3293.846,3827.694,0,-0.2385159,0.05276025,0.1637349,-0.63117927312851,-0.527592599391937,0.484227806329727,-0.835251031898628,-0.359385184813519,0.517060177269636,7
1.62000274658203,-0.376766711473465,2.40629625320435,1.52593505382538,-0.636964489205914,2.69174835545992,1.53716845182668,2747.226,2808.04,3536.544,916.0585,-0.2372216,0.0550862,0.1628479,-0.644312083721161,-0.532425045967102,0.498248547315598,-0.846218976345106,-0.364104384899943,0.523849857357655,7
1.63999938964844,-0.389833152294159,2.39559984207153,1.53589820861816,-0.653994195024907,2.68442094880091,1.54771065096602,2817.552,3339.705,3836.066,0,-0.2411865,0.05731542,0.1654654,-0.653322279453278,-0.534824371337891,0.498157471418381,-0.857007552155828,-0.368746407673381,0.530528499715628,7
1.65999984741211,-0.403144329786301,2.38482046127319,1.54608917236328,-0.671241134177535,2.67700007270724,1.55838732788714,2833,2788.931,3653.847,769.457,-0.2412531,0.05982991,0.1643085,-0.665559113025665,-0.53897100687027,0.509549200534821,-0.867616161431205,-0.373310995874343,0.537095734215228,7
1.68000030517578,-0.416636168956757,2.37399530410767,1.55629193782806,-0.688698391434734,2.66948870260877,1.56919420173384,2872.855,3240.609,3925.171,0,-0.2454742,0.06211711,0.1659077,-0.674594283103943,-0.541260540485382,0.510140538215637,-0.878038122530658,-0.377795274579551,0.543547424602645,8
1.70000076293945,-0.430361330509186,2.36309409141541,1.56669318675995,-0.706362188585011,2.66188846416437,1.5801289336132,2889.562,2814.75,3802.011,575.6782,-0.2465954,0.06445859,0.1647234,-0.68625807762146,-0.545064270496368,0.520065069198608,-0.888268937369113,-0.38219730838866,0.549880786348944,8
1.72000122070313,-0.444271713495255,2.35214042663574,1.57713901996613,-0.724228658537036,2.6542010212754,1.5911891296115,2889.555,3192.12,3997.48,0,-0.250555,0.06658217,0.1659865,-0.695515930652618,-0.547685146331787,0.522289276123047,-0.898304216251578,-0.386515208538549,0.556093102023817,8
1.7400016784668,-0.458402961492538,2.3411123752594,1.58775222301483,-0.742293847487497,2.64642807515297,1.60237234213612,2940.458,2841.569,3928.487,401.5999,-0.2522078,0.06857041,0.1653811,-0.706564605236053,-0.551397860050201,0.530663132667542,-0.908139677873146,-0.390747132903322,0.562181721295579,8
1.76000213623047,-0.47272253036499,2.33002543449402,1.59842991828918,-0.76055371708895,2.63857136338517,1.61367607125764,2947.492,3097.152,4070.794,0,-0.2555601,0.07023151,0.166491,-0.71598207950592,-0.554345011711121,0.533884942531586,-0.917771149318994,-0.394891285994308,0.568144060931169,8
1.78000259399414,-0.487257689237595,2.31886053085327,1.60927069187164,-0.779004146617669,2.63063265900429,1.62509776605176,2963.321,2887.393,3997.308,295.3625,-0.2569551,0.07172308,0.1664826,-0.726758539676666,-0.55824887752533,0.542040348052979,-0.927194566064376,-0.39894591896006,0.573977604796153,8
1.79999923706055,-0.501980662345886,2.30763006210327,1.62018954753876,-0.79763736303951,2.62261530652977,1.63663261464007,2976.889,3075.053,4096.067,0,-0.2595581,0.07289394,0.1679556,-0.736148059368134,-0.561526715755463,0.545940935611725,-0.936404235539493,-0.402908582446823,0.579678828918647,8
1.81999969482422,-0.516913950443268,2.29631757736206,1.63127017021179,-0.816456197270346,2.61451808789761,1.64828236949435,2972.993,2919.891,4009.937,271.2386,-0.2603416,0.07395525,0.1685774,-0.746662855148315,-0.565621256828308,0.554032325744629,-0.945399824400851,-0.406779133026206,0.585247526943151,8
1.84000015258789,-0.532029509544373,2.28493905067444,1.64242374897003,-0.835452757515797,2.60634439872645,1.66004214521794,3013.396,3059.761,4106.753,0,-0.2623565,0.0746796,0.1704442,-0.755781590938568,-0.568927049636841,0.557680249214172,-0.954175816030892,-0.41055519705179,0.590680283820602,8
1.86000061035156,-0.547354161739349,2.27347612380981,1.65375113487244,-0.854622615239374,2.59809614449182,1.6719092003358,2967.827,2946.127,3983.719,311.0374,-0.2623416,0.07544009,0.1713879,-0.766233146190643,-0.573146998882294,0.566372513771057,-0.962728579444532,-0.414235212212131,0.595974851798267,8
1.88000106811523,-0.562852919101715,2.26195073127747,1.66513967514038,-0.873961270367154,2.58977526144981,1.68388074908779,3018.618,3097.825,4095.959,0,-0.2639672,0.07593898,0.1737505,-0.774934411048889,-0.576272547245026,0.569429337978363,-0.97105459204677,-0.41781766283301,0.601129050222035,8
1.90000152587891,-0.578559160232544,2.25034284591675,1.67671096324921,-0.893464153455626,2.58138371570432,1.69595396277071,2966.207,2949.705,3946.235,382.6296,-0.263262,0.07661287,0.1747984,-0.785314857959747,-0.580398678779602,0.578563094139099,-0.979150439632688,-0.421301079877433,0.606140765536421,8
1.92000198364258,-0.594430506229401,2.23868083953857,1.68832695484161,-0.913126627859543,2.57292350227426,1.70812597108029,3023.815,3134.536,4087.914,0,-0.2646894,0.0770832,0.1774291,-0.793566763401031,-0.583103239536285,0.5807985663414,-0.987012816387451,-0.424684040945629,0.611007951284563,8
1.94000244140625,-0.610508382320404,2.22694253921509,1.7001326084137,-0.932943991899774,2.5643966441608,1.72039386345315,2973.915,2943.551,3919.149,445.0741,-0.2635214,0.07782143,0.1783118,-0.80389416217804,-0.586913466453552,0.590281963348389,-0.994638524886308,-0.427965170275055,0.615728628108227,9
1.96000289916992,-0.626743674278259,2.21516036987305,1.71197104454041,-0.952911481031154,2.55580519141464,1.73275469040889,3020.24,3177.166,4082.661,0,-0.264878,0.0784261,0.181009,-0.811760723590851,-0.58909797668457,0.591922163963318,-1.00202447609459,-0.431143138740389,0.620300883747801,9
1.97999954223633,-0.64318186044693,2.20331311225891,1.72399616241455,-0.973020420343666,2.54715287660719,1.74520308176496,2996.336,2929.986,3916.897,472.5166,-0.2635922,0.07930699,0.1816233,-0.821909010410309,-0.592379748821259,0.601257264614105,-1.00916635026771,-0.434216087676217,0.62472204407561,9
2,-0.65977156162262,2.19143319129944,1.73604702949524,-0.993273599084619,2.53843849960327,1.7577407641983,3023.712,3196.143,4092.13,0,-0.2649558,0.08008517,0.1841311,-0.829485297203064,-0.593997895717621,0.602543234825134,-1.01606400046349,-0.437183953857422,0.628992018127441,9
2.02000045776367,-0.676558792591095,2.17950010299683,1.7482750415802,-1.01366225471101,2.52966583068033,1.7703623132774,3027.367,2919.844,3942.289,455.8358,-0.2638197,0.08108045,0.1844565,-0.839354574680328,-0.596645772457123,0.611403107643127,-1.022713277122,-0.440044951844294,0.633108237128032,9
2.04000091552734,-0.693493664264679,2.16754484176636,1.76052963733673,-1.0341813929022,2.52083701875502,1.78306463727984,3030.329,3199.79,4110.034,0,-0.2651869,0.08198808,0.1866618,-0.846749186515808,-0.597771644592285,0.612730085849762,-1.02911152474823,-0.442797939051516,0.637069057199471,9
2.06000137329102,-0.710617303848267,2.15554976463318,1.77294278144836,-1.05482596731032,2.51195423512985,1.79584461227593,3062.067,2914.878,3992.534,399.1619,-0.2643928,0.0830026,0.1868299,-0.856183648109436,-0.599751114845276,0.620658040046692,-1.03525619623725,-0.445441819530995,0.640872901562472,9
2.08000183105469,-0.727886736392975,2.14354038238525,1.78538775444031,-1.07559088172821,2.50301967256038,1.80869908347065,3047.873,3175.531,4140.341,0,-0.2656887,0.0839038,0.1886739,-0.863478720188141,-0.600467443466187,0.622247457504272,-1.04114485287423,-0.447975543971863,0.644518260536375,9
2.10000228881836,-0.745335638523102,2.13150310516357,1.79797196388245,-1.09647099225719,2.49403554432252,1.82162486654569,3091.966,2921.65,4053.23,319.5714,-0.2652183,0.08479789,0.1888419,-0.872439861297607,-0.60185831785202,0.62921017408371,-1.04677516433438,-0.450398109700476,0.648003691539142,9
2.12000274658203,-0.762929022312164,2.11945748329163,1.81059610843658,-1.11746110947495,2.48500408327971,1.83461874900143,3066.625,3144.342,4171.254,0,-0.2663156,0.08554989,0.1904417,-0.879666030406952,-0.602280497550964,0.631205081939697,-1.05214490868305,-0.452708560680417,0.651327819087362,9
2.13999938964844,-0.780691862106323,2.10739326477051,1.82334196567535,-1.138551967509,2.47592927627801,1.8476749948214,3112.223,2936.313,4107.035,243.7014,-0.2659992,0.08621052,0.1907894,-0.888148665428162,-0.60320657491684,0.63729465007782,-1.05725102347782,-0.454905579228273,0.654488747383304,9
2.15999984741211,-0.798597037792206,2.0953254699707,1.83613312244415,-1.15974634010981,2.46680992985011,1.86079532108929,3087.616,3110.123,4198.28,0,-0.2667811,0.08669158,0.1923,-0.895257294178009,-0.603386461734772,0.639558732509613,-1.06209345202774,-0.456989140951513,0.657486441332569,9
2.18000030517578,-0.816664099693298,2.08324575424194,1.84903657436371,-1.18103490068612,2.45765005696766,1.87397395420079,3118.648,2957.186,4137.632,195.7828,-0.2663321,0.08706117,0.1929127,-0.903351843357086,-0.603988647460938,0.645175576210022,-1.06666929835407,-0.458957999791384,0.660319108186354,10
2.20000076293945,-0.834868609905243,2.0711669921875,1.86198592185974,-1.20241229940639,2.4484519595137,1.88720758235537,3103,3092.239,4210.742,0,-0.2667417,0.08723035,0.1945274,-0.910234391689301,-0.603935420513153,0.647466659545898,-1.07097677406178,-0.460811386251471,0.662985640842948,10
2.22000122070313,-0.85322892665863,2.05908107757568,1.87504422664642,-1.22387315175433,2.43921795429519,1.90049287228091,3112.396,2976.888,4139.798,188.4391,-0.2659209,0.08733103,0.1954117,-0.918010413646698,-0.604290008544922,0.652916729450226,-1.07501419914593,-0.462548577472581,0.665484999299265,10
2.2400016784668,-0.871719300746918,2.04700231552124,1.88814091682434,-1.24541204069667,2.4299503721102,1.91382647057578,3112.153,3088.94,4212.232,0,-0.2659752,0.08722048,0.1972385,-0.924523174762726,-0.603920578956604,0.654832720756531,-1.07878000199166,-0.46416889723275,0.667816210650843,10
2.26000213623047,-0.890361309051514,2.03492140769958,1.90135216712952,-1.26702351885107,2.42065155681516,1.92720500505083,3096.734,2992.856,4112.843,223.0908,-0.2645893,0.08714078,0.1982784,-0.932101905345917,-0.604060709476471,0.660560250282288,-1.08227271937422,-0.465671715947234,0.669978369091845,10
2.28000259399414,-0.909123361110687,2.02285575866699,1.91458737850189,-1.28870211065395,2.41132386439212,1.94062508607135,3107.142,3111.306,4200.088,0,-0.2643683,0.08687122,0.200394,-0.938101410865784,-0.603276550769806,0.661761045455933,-1.08549099645889,-0.467056450668518,0.671970635915057,10
2.29999923706055,-0.928034245967865,2.01079273223877,1.92794704437256,-1.31043816248474,2.40197144852433,1.95408073758635,3078.429,2998.422,4064.153,291.8748,-0.262356,0.08675551,0.2014244,-0.945541739463806,-0.603163063526154,0.667984008789063,-1.08843305191934,-0.468322334941636,0.673791908394614,10
2.31999969482422,-0.947052299976349,1.99875593185425,1.94131016731262,-1.33223444283894,2.39259311800549,1.96757367342642,3091.619,3149.063,4181.14,0,-0.2619842,0.08648596,0.2037884,-0.95090651512146,-0.601840376853943,0.668154656887054,-1.09109887036509,-0.469469362144493,0.675442177003072,10
2.34000015258789,-0.966217160224915,1.98672795295715,1.95481014251709,-1.35408126380187,2.38319304127467,1.98109789631088,3063.403,2993.156,4004.81,377.6562,-0.2594015,0.08648634,0.2045984,-0.958242475986481,-0.601393401622772,0.674996137619019,-1.09348683453544,-0.470496836415,0.676920440579027,10
2.36000061035156,-0.985475420951843,1.97473883628845,1.96829104423523,-1.37597305876702,2.37377361348711,1.99464996024512,3066.222,3200.189,4156.356,0,-0.2590286,0.08638416,0.2071109,-0.962910592556,-0.599459290504456,0.674043536186218,-1.09559602313537,-0.471404361345641,0.678226128796969,10
2.38000106811523,-1.00487625598907,1.96276795864105,1.98191499710083,-1.39790424378549,2.36433723726004,2.00822640849877,3057.324,2975.432,3953.505,455.7829,-0.2561034,0.0866174,0.2075437,-0.970045983791351,-0.598545610904694,0.681197643280029,-1.09742562325992,-0.472191587166127,0.67935873843001,10
2.40000152587891,-1.02435708045959,1.95084881782532,1.99549877643585,-1.4198692197338,2.35488632173988,2.02182377494768,3040.548,3243.181,4137.232,0,-0.2558563,0.08678548,0.2100071,-0.974033355712891,-0.595958352088928,0.679188430309296,-1.09897493039424,-0.472858210743393,0.680317833349887,10
2.42000198364258,-1.0439738035202,1.93895947933197,2.00922417640686,-1.44186237448181,2.34542328166942,2.03543858541595,3062.557,2951.925,3924.485,501.6115,-0.252881,0.08728036,0.209975,-0.980842649936676,-0.594465315341949,0.686269223690033,-1.10024334841354,-0.4734039755816,0.681103044526962,10
2.44000244140625,-1.06365859508514,1.92713403701782,2.02289462089539,-1.46387808506052,2.33595053645515,2.04906735901791,3016.549,3272.775,4126.133,0,-0.2528235,0.08773714,0.2122247,-0.984239280223846,-0.591271936893463,0.683516800403595,-1.10123038958312,-0.473828671822132,0.681714070030222,10
2.45999908447266,-1.08346927165985,1.91535139083862,2.03669357299805,-1.48590651627916,2.32647231790489,2.06270400730194,3077.868,2926.76,3926.775,501.4972,-0.2500948,0.08843072,0.2117804,-0.990532696247101,-0.589130818843842,0.689951181411743,-1.10193556692257,-0.474132089930926,0.682150608395601,10
2.47999954223633,-1.10333871841431,1.90364289283752,2.05043053627014,-1.50795043548148,2.31698743530794,2.07635024338568,3003.251,3274.264,4128.172,0,-0.2502035,0.08908027,0.2136776,-0.993472218513489,-0.585426986217499,0.686843514442444,-1.10235887855907,-0.474314229102152,0.682412658463722,11
2.5,-1.12332081794739,1.89198982715607,2.06427478790283,-1.52999999932945,2.30750012397766,2.08999997377396,3097.192,2908.596,3958.386,454.5726,-0.2479009,0.08982151,0.2129742,-0.999104142189026,-0.582653999328613,0.692207634449005,-1.10250000050292,-0.474374949932098,0.682500019669533,11
2.52000045776367,-1.14335548877716,1.88041794300079,2.07805848121643,-1.55204956317742,2.29801281264738,2.10364970416224,3001.87,3250.984,4138.506,0,-0.2480729,0.0904839,0.214493,-1.00173354148865,-0.57859206199646,0.689183235168457,-1.10235887855907,-0.474314229102152,0.682412658463722,11
2.54000091552734,-1.16348719596863,1.8689124584198,2.09192109107971,-1.57409348237975,2.28852793005043,2.11729594024597,3112.454,2901.658,4011.016,373.3096,-0.2462433,0.09107313,0.2137801,-1.00658714771271,-0.575266122817993,0.693124949932098,-1.10193556692257,-0.474132089930926,0.682150608395601,11
2.56000137329102,-1.18366765975952,1.85749304294586,2.10572981834412,-1.59612611445863,2.27904790398737,2.13093518906262,3013.776,3201.676,4157.44,0,-0.2463094,0.09151243,0.2149794,-1.00901687145233,-0.570977389812469,0.690432369709015,-1.10123022817855,-0.473828602374257,0.681713970113108,11
2.58000183105469,-1.20393049716949,1.84614765644073,2.1195924282074,-1.61814182127198,2.26957516039323,2.14456396033363,3114.498,2911.558,4062.834,285.1714,-0.2447594,0.09175514,0.214499,-1.01314544677734,-0.56726086139679,0.693126916885376,-1.10024313330221,-0.473403883025206,0.681102911362804,11
2.60000228881836,-1.22423851490021,1.83489060401917,2.1334080696106,-1.64013497118126,2.26011212240475,2.15817876780649,3027.448,3149.728,4173.418,0,-0.2445282,0.09177358,0.2156005,-1.01539623737335,-0.562853872776031,0.690778076648712,-1.09897466165884,-0.47285809511406,0.680317666989874,11
2.61999893188477,-1.24461781978607,1.82371175289154,2.14726328849792,-1.66209575487342,2.25066301069528,2.17177353904914,3096.446,2933.777,4087.471,229.9963,-0.2428611,0.09156791,0.215532,-1.01896691322327,-0.558942139148712,0.692757785320282,-1.09742562325992,-0.472191587166126,0.67935873843001,11
2.63999938964844,-1.26503622531891,1.81262314319611,2.16107082366943,-1.68402693989188,2.24122663446822,2.18534998730279,3035.631,3111.763,4177.852,0,-0.2421847,0.09107219,0.2168118,-1.02092814445496,-0.554431617259979,0.69037389755249,-1.09559602313537,-0.471404361345641,0.67822612879697,11
2.65999984741211,-1.28552103042603,1.80161309242249,2.17492270469666,-1.70591873485703,2.23180720668066,2.19890205123703,3056.016,2962.196,4059.327,244.4032,-0.2398741,0.09046037,0.2171537,-1.02423524856567,-0.550508916378021,0.6925989985466,-1.09348683453544,-0.470496836414999,0.676920440579028,10
2.68000030517578,-1.30603432655334,1.79069662094116,2.18871283531189,-1.72776555581996,2.22240712994983,2.2124262741215,3025.287,3113.76,4158.521,0,-0.2387279,0.08953327,0.2188964,-1.02566838264465,-0.545822441577911,0.689511775970459,-1.09109887036509,-0.469469362144494,0.675442177003072,9
2.70000076293945,-1.3266144990921,1.77985692024231,2.20257163047791,-1.74956183617416,2.213028799431,2.22591920996157,2997.697,2983.723,3967.619,349.151,-0.2353212,0.08872924,0.2194489,-1.0290002822876,-0.541981518268585,0.692939341068268,-1.08843305191934,-0.468322334941636,0.673791908394614,9
2.72000122070313,-1.34720599651337,1.769118309021,2.21633648872375,-1.77130202882336,2.20367460188472,2.23937742484041,2988.598,3163.269,4116.396,0,-0.2338341,0.08763421,0.2218154,-1.02958071231842,-0.536940932273865,0.688238859176636,-1.08549040888332,-0.467056197851165,0.671970272177789,8
2.7400016784668,-1.36787056922913,1.7584547996521,2.2302131652832,-1.79298060834939,2.19434691474406,2.25279749826098,2932.911,2987.893,3814.25,541.9255,-0.22905,0.08699399,0.2221661,-1.03322124481201,-0.533168852329254,0.693831622600555,-1.08227207933222,-0.465671440555045,0.66997797287536,8
2.76000213623047,-1.38852298259735,1.7479031085968,2.24394607543945,-1.81459207318004,2.18504810518187,2.26617602448799,2915.607,3269.632,4051.824,0,-0.2275011,0.08616032,0.225195,-1.03261280059814,-0.527576506137848,0.686644315719604,-1.07877930973132,-0.464168599372462,0.667815782108711,7
2.78000259399414,-1.40925645828247,1.73742878437042,2.2578432559967,-1.83613094775688,2.17578052917795,2.27950961388994,2877.818,2960.563,3621.529,796.5519,-0.2213689,0.08612113,0.2248243,-1.03668510913849,-0.523723244667053,0.694854319095612,-1.07501345493597,-0.46254825725983,0.665484538597853,6
2.79999923706055,-1.42994952201843,1.72708058357239,2.27153539657593,-1.85758769925251,2.16654828844162,2.29279236519255,2813.468,3416.37,3973.591,0,-0.2201396,0.08603802,0.2283307,-1.0346519947052,-0.517414808273315,0.684612810611725,-1.07097677406178,-0.460811386251471,0.662985640842947,6
2.81999969482422,-1.45072972774506,1.71681654453278,2.28543591499329,-1.87896509797278,2.15735019098767,2.30602599334712,2851.114,2894.799,3434.948,1052.341,-0.2131115,0.08697356,0.2267357,-1.03900396823883,-0.513191699981689,0.695031046867371,-1.06666929835407,-0.458957999791384,0.660319108186353,5
2.84000015258789,-1.47144055366516,1.70669460296631,2.29907369613647,-1.90025365854909,2.14819031810522,2.31920462645863,2701.456,3569.902,3895.338,0,-0.2125954,0.08802674,0.2302923,-1.03554356098175,-0.50610625743866,0.681894659996033,-1.06209345202774,-0.456989140951513,0.657486441332568,4
2.86000061035156,-1.49223339557648,1.6966712474823,2.31293320655823,-1.9214480311499,2.13907097167731,2.33232495272651,2869.21,2795.542,3316.251,1221.38,-0.2056072,0.09006478,0.2271929,-1.03964400291443,-0.501158535480499,0.692970454692841,-1.05725102347782,-0.454905579228273,0.654488747383304,3
2.88000106811523,-1.51293444633484,1.68680381774902,2.32649350166321,-1.94254290279636,2.12999443773033,2.34538368316376,2612.323,3674.82,3839.328,0,-0.2061058,0.09233101,0.230165,-1.03505146503448,-0.493373304605484,0.678013443946838,-1.0521439094894,-0.452708130755304,0.651327200538896,2
2.90000152587891,-1.5336948633194,1.67705583572388,2.34023571014404,-1.96353299953007,2.12096298550123,2.3583775529389,2933.416,2682.626,3332.992,1210.41,-0.200422,0.09519715,0.2257023,-1.0380232334137,-0.487403333187103,0.687114894390106,-1.04677411523767,-0.450397658303471,0.648003042098304,1
2.92000198364258,-1.5543532371521,1.66747283935547,2.35368418693542,-1.98441308858102,2.11197886650476,2.37130332271801,2586.055,3667.033,3830.265,0,-0.2019326,0.09827244,0.2273724,-1.03292989730835,-0.479156941175461,0.672426164150238,-1.04114375428791,-0.447975071280863,0.644517580459114,0
2.94000244140625,-1.57502996921539,1.65803062915802,2.36721658706665,-2.00517798053537,2.10304431360073,2.38415778000673,3029.714,2597.886,3521.148,953.2579,-0.1988087,0.1012206,0.2222482,-1.03382766246796,-0.472097039222717,0.67661714553833,-1.03525504859546,-0.445441325732794,0.640872191117535,0
2.95999908447266,-1.59561049938202,1.64875507354736,2.38050842285156,-2.02581860575671,2.0941632292003,2.39693531026807,2644.275,3502.392,3891.219,0,-0.200928,0.1041749,0.2221441,-1.02902805805206,-0.463778913021088,0.664594054222107,-1.02911152474823,-0.442797939051516,0.637069057199471,0
2.97999954223633,-1.6161584854126,1.63963651657104,2.39375281333923,-2.04633774394789,2.08533441727499,2.40963763427052,3115.77,2588.418,3846.97,481.4877,-0.2008881,0.1061463,0.2175405,-1.02740132808685,-0.455927550792694,0.662214994430542,-1.022713277122,-0.440044951844293,0.633108237128031,0
3,-1.63663053512573,1.63067531585693,2.40684509277344,-2.06672639957428,2.07656174835205,2.42225918334961,2767.592,3208.348,4013.825,0,-0.2027763,0.1077665,0.2159017,-1.02360582351685,-0.448062866926193,0.654609620571136,-1.01606400046349,-0.437183953857422,0.628992018127441,0
3.02000045776367,-1.6570326089859,1.62187075614929,2.41979265213013,-2.08697957831524,2.06784737134813,2.43479686578296,3101.088,2704.411,4154.335,0,-0.2046309,0.1079402,0.2131902,-1.02010488510132,-0.440226674079895,0.64737606048584,-1.00916635026771,-0.434216087676216,0.62472204407561,0
3.04000091552734,-1.67738032341003,1.6132048368454,2.4326651096344,-2.10709234004513,2.05919341186127,2.44724762339747,2894.195,2906.979,4134.756,0,-0.2052232,0.1073775,0.2113442,-1.01738226413727,-0.43329268693924,0.643624305725098,-1.00202309041976,-0.43114254252322,0.620300025949072,0
3.06000137329102,-1.69766855239868,1.60466241836548,2.44546222686768,-2.12705980100126,2.05060197123813,2.45960843291139,2792.514,3014.757,4092.052,0,-0.2046751,0.1063779,0.2113667,-1.01442432403564,-0.427134573459625,0.639860570430756,-0.994637093194808,-0.4279645542582,0.615727741822988,0
3.08000183105469,-1.7178897857666,1.5962393283844,2.45815086364746,-2.14687713595163,2.04207512564123,2.47187630727625,2901.832,2861.44,4104.089,0,-0.2031614,0.1045341,0.2119968,-1.01106703281403,-0.421160876750946,0.634434103965759,-0.987011339258122,-0.424683405378145,0.611007036871143,0
3.10000228881836,-1.7380576133728,1.58792662620544,2.47078037261963,-2.16653958036288,2.03361492511617,2.48404829701893,2881.822,2856.212,4002.661,108.3023,-0.1998734,0.1020233,0.2126636,-1.00838327407837,-0.415637910366058,0.631470024585724,-0.979148917665042,-0.421300425017273,0.606139823365945,0
3.11999893188477,-1.75815439224243,1.57972860336304,2.48329854011536,-2.18603872829175,2.02522498650551,2.49611919846012,2880.699,2936.322,4003.855,0,-0.1965759,0.09869388,0.2144021,-1.00484216213226,-0.409899890422821,0.625913679599762,-0.971054592046769,-0.41781766283301,0.601129050222034,0
3.13999938964844,-1.77821147441864,1.57163023948669,2.49582552909851,-2.20537738341953,2.01690410346351,2.50809074721212,2732.973,2978.353,3740.402,358.0188,-0.1907388,0.09536506,0.2160059,-1.00285005569458,-0.404913038015366,0.626350283622742,-0.962728579444533,-0.414235212212131,0.595974851798267,0
3.15999984741211,-1.79816973209381,1.56365716457367,2.50815391540527,-2.2245472411431,2.00865584922888,2.51995780232997,2823.575,3032.997,3914.12,0,-0.1871025,0.09120417,0.2194304,-0.997916281223297,-0.398650705814362,0.616413831710815,-0.954175816030892,-0.41055519705179,0.590680283820602,0
3.18000030517578,-1.81813144683838,1.55577301979065,2.52065372467041,-2.24354380138856,2.00048216005771,2.53171757805356,2502.299,3035.21,3293.761,956.9063,-0.1774544,0.0883114,0.2205704,-0.998096585273743,-0.3942049741745,0.624993026256561,-0.94539982440085,-0.406779133026206,0.58524752694315,0
3.20000076293945,-1.83794975280762,1.54803061485291,2.53281021118164,-2.26236263561939,1.99238494142555,2.54336733290784,2564.651,3394.304,3760.151,0,-0.1738852,0.08509623,0.2265385,-0.99090188741684,-0.387121051549911,0.607829689979553,-0.936404235539492,-0.402908582446823,0.579678828918646,0
3.22000122070313,-1.85783100128174,1.54037570953369,2.54534864425659,-2.28099938900442,1.98436606709459,2.55490437104486,2335.465,2941.89,2682.529,1814.924,-0.159583,0.0844786,0.2255618,-0.994070053100586,-0.38275620341301,0.626924455165863,-0.927192788821982,-0.398945154262308,0.573976504598449,0
3.2400016784668,-1.87751007080078,1.53288543224335,2.55735111236572,-2.29944978258558,1.97642737818094,2.56632604358572,2214.319,3908.861,3540.58,0,-0.1568549,0.08419934,0.23362,-0.983943045139313,-0.374509632587433,0.600125074386597,-0.91776933201357,-0.394890504058554,0.568142935932542,0
3.26000213623047,-1.89730656147003,1.52550423145294,2.56992769241333,-2.31770961544581,1.96857068222185,2.57762974996267,2304.032,2691.918,2046.887,2716.065,-0.1389195,0.08741168,0.22849,-0.989824593067169,-0.369054406881332,0.628826081752777,-0.90813782126959,-0.39074633405868,0.562180571969535,0
3.27999877929688,-1.91684281826019,1.51831340789795,2.5817859172821,-2.33577134012187,1.96079922667992,2.58881081793642,1822.874,4509.72,3268.54,0,-0.1385515,0.09168451,0.2372125,-0.976815938949585,-0.359533220529556,0.592914283275604,-0.898304216251578,-0.386515208538549,0.556093102023818,0
3.29999923706055,-1.93649744987488,1.51128339767456,2.59424614906311,-2.35363781007389,1.95311178379095,2.59987101393471,2466.466,2268.985,1712.134,3271.16,-0.1208654,0.09917082,0.2268071,-0.98273366689682,-0.351508587598801,0.623012483119965,-0.888268937369113,-0.38219730838866,0.549880786348944,0
3.31999969482422,-1.95586133003235,1.50447046756744,2.60592818260193,-2.37130160722417,1.94551154534655,2.61080574581408,1619.041,4874.913,3043.238,0,-0.1242562,0.108019,0.2329856,-0.96819806098938,-0.340652346611023,0.584097504615784,-0.878038122530657,-0.377795274579551,0.543547424602645,0
3.34000015258789,-1.9752414226532,1.49788212776184,2.61793231964111,-2.38875886448137,1.93800017524809,2.62161261966077,2842.756,1811.183,2087.333,2892.975,-0.1136856,0.1179312,0.2182451,-0.96901673078537,-0.329414874315262,0.600213050842285,-0.867616161431205,-0.373310995874343,0.537095734215228,0
3.36000061035156,-1.99434459209442,1.49153733253479,2.62932300567627,-2.406005803634,1.93057929915441,2.6322892965819,1844.342,4558.705,3082.817,0,-0.1209027,0.1286009,0.2173845,-0.955149292945862,-0.317235201597214,0.56952965259552,-0.857007552155826,-0.36874640767338,0.530528499715627,0
3.38000106811523,-2.01327872276306,1.48545789718628,2.64050245285034,-2.42303873751824,1.9232505035491,2.64283349404741,3300.888,1676.556,3271.91,1254.552,-0.1243068,0.1367586,0.2020773,-0.946701943874359,-0.303974539041519,0.55897581577301,-0.846216901179679,-0.364103492014234,0.523848572731403,0
3.40000152587891,-2.03198552131653,1.47962331771851,2.65140628814697,-2.43985407218584,1.9160153348077,2.65324298723213,2394.685,3449.309,3602.849,0,-0.1334904,0.1443164,0.1924905,-0.935340642929077,-0.291726887226105,0.54519134759903,-0.835248923368004,-0.359384277571698,0.517058871988738,0
3.42000198364258,-2.05045461654663,1.47400879859924,2.66201829910278,-2.45644830907191,1.90887529826493,2.66351561035773,2758.065,2675.499,3948.567,0,-0.1438512,0.1500156,0.1830573,-0.923462986946106,-0.280720502138138,0.530600488185883,-0.824108441976121,-0.354590839657789,0.510162383312438,0
3.43999862670898,-2.06870746612549,1.46857285499573,2.67244100570679,-2.47281494657125,1.90183319137989,2.67364733862088,2543.788,2730.703,4066.218,0,-0.1518274,0.1545038,0.1750877,-0.912640988826752,-0.271789520978928,0.521140277385712,-0.812802561098952,-0.34972623496609,0.503163504475677,0
3.45999908447266,-2.08675813674927,1.46326923370361,2.6827449798584,-2.48895692832918,1.89488774758421,2.68363999427827,2370.301,2915.723,4003.079,0,-0.156506,0.1583152,0.1703558,-0.902531981468201,-0.265190929174423,0.51519775390625,-0.801332006385299,-0.344790775723006,0.496062684689628,0
3.47999954223633,-2.10460376739502,1.45806765556335,2.69289994239807,-2.50486791119015,1.88804169616054,2.69348965061443,2465.587,2799.723,3968.966,0,-0.1583068,0.1611208,0.1678462,-0.89227706193924,-0.260090172290802,0.507751524448395,-0.789704067205609,-0.339787598340998,0.488864436421841,0
3.5,-2.12224793434143,1.4529527425766,2.70289707183838,-2.5205447997813,1.88129636896134,2.70319439144611,2676.4,2581.597,3938.005,0,-0.1575436,0.1622878,0.1654668,-0.882201671600342,-0.255735337734222,0.499852478504181,-0.777924000354857,-0.334718964672089,0.481572013878822,0
3.52000045776367,-2.13969850540161,1.44791257381439,2.71277689933777,-2.53598460495198,1.87465305213461,2.71275236634669,2699.984,2653.698,3812.473,0,-0.1549688,0.1618135,0.1634642,-0.87252950668335,-0.252002507448196,0.493988126516342,-0.765997171018108,-0.329587183205523,0.474188738365705,0
3.54000091552734,-2.15694999694824,1.44293999671936,2.72253060340881,-2.55118444594166,1.86811298519115,2.72216179198813,2639.274,2797.788,3693.301,0,-0.1519712,0.1599018,0.1628463,-0.862580299377441,-0.248632818460464,0.487682789564133,-0.753929052770513,-0.324394609067776,0.466717998286246,0
3.56000137329102,-2.17399191856384,1.43803763389587,2.73210072517395,-2.5661415525477,1.86167736007175,2.73142095348307,2686.936,2719.446,3692.006,0,-0.1493416,0.1563352,0.1629824,-0.852110624313354,-0.245127558708191,0.478505402803421,-0.741725227577293,-0.319143644022539,0.45916324914283,0
3.58000183105469,-2.1908278465271,1.43321013450623,2.74147367477417,-2.58085326729328,1.85534732021446,2.74052820572674,2724.762,2624.96,3731.923,0,-0.1468121,0.1509164,0.1632059,-0.841779291629791,-0.241368174552917,0.468652695417404,-0.729391385793765,-0.313836736470737,0.451528013536464,0
3.60000228881836,-2.20747542381287,1.42845392227173,2.75071811676025,-2.5953170475952,1.84912395962179,2.74948197473904,2544.142,2775.703,3640.788,112.8411,-0.1432386,0.1442622,0.1644889,-0.832374632358551,-0.237794250249863,0.462224096059799,-0.716933326165322,-0.308476381450513,0.443815881166779,0
3.61999893188477,-2.22393083572388,1.42377483844757,2.75978446006775,-2.6095277810186,1.84300947803163,2.75827909567923,2474.163,2862.286,3660.095,57.2129,-0.139686,0.1364781,0.1679064,-0.822770237922668,-0.2339758425951,0.453316807746887,-0.704359365424783,-0.303066157419654,0.436032000487571,0
3.63999938964844,-2.24023723602295,1.41916298866272,2.76882791519165,-2.6234885835008,1.83700253474321,2.76692149746096,2248.038,2888.692,3360.725,559.7039,-0.1321801,0.1286948,0.1718085,-0.815327107906342,-0.230568915605545,0.45217576622963,-0.691670720740692,-0.297606588091786,0.428177124984152,0
3.65999984741211,-2.25635528564453,1.4146466255188,2.77761101722717,-2.6371945352351,1.83110524661191,2.77540613448951,2413.406,2920.284,3565.378,127.9632,-0.1264517,0.1199448,0.1780011,-0.805887877941132,-0.225832372903824,0.439157843589783,-0.678875903610016,-0.292101335726265,0.420256523678599,0
3.68000030517578,-2.27239990234375,1.41020715236664,2.78662085533142,-2.65064357486757,1.82531850058072,2.78373173068862,1989.434,2932.078,2757.896,1386.421,-0.1119007,0.1128547,0.1814101,-0.802245020866394,-0.221965700387955,0.450493782758713,-0.665981146317811,-0.286553081901244,0.412274054652249,0
3.70000076293945,-2.28822755813599,1.40589809417725,2.79516005516052,-2.66383376677681,1.81964312949348,2.79189708781642,2261.142,3325.287,3400.064,0,-0.1058026,0.1049903,0.1905892,-0.791379511356354,-0.21545934677124,0.426963925361633,-0.65299278953921,-0.280964554832092,0.40423364308506,0
3.72000122070313,-2.30408668518066,1.40169715881348,2.80430126190186,-2.6767633032417,1.81407991116207,2.79990108680742,1728.212,2831.546,1806.171,2714.151,-0.08321526,0.1010431,0.1902183,-0.792943835258484,-0.210061118006706,0.45705845952034,-0.639917282339434,-0.275338529371411,0.396139281255611,0
3.7400016784668,-2.31968140602112,1.39765739440918,2.81268715858459,-2.68943050660933,1.80862956743367,2.80774268911456,1663.038,4251.735,3007.369,0,-0.07821757,0.09777658,0.2031558,-0.779731690883636,-0.201975017786026,0.4192955493927,-0.626761182173781,-0.26967782700902,0.387995028541112,0
3.76000213623047,-2.33538699150085,1.39379572868347,2.82192516326904,-2.70183383146282,1.803292763258,2.81542093805117,1730.491,2351.765,869.5371,4119.646,-0.04993054,0.09985659,0.1963213,-0.785278260707855,-0.193089365959167,0.461902946233749,-0.613531154887639,-0.263985315871967,0.379805011417393,0
3.77999877929688,-2.35078763961792,1.39012956619263,2.83013224601746,-2.7139695770734,1.79807109095524,2.82293354268985,1163.969,5081.834,2603.001,0,-0.04847166,0.1035653,0.209367,-0.770029306411743,-0.18331053853035,0.410359025001526,-0.60023651686137,-0.258265004538452,0.371574997167698,0
3.79999923706055,-2.36629152297974,1.38674080371857,2.83914566040039,-2.72584109938593,1.7929631065561,2.83028258052034,2077.92,1646.595,554.2982,4749.45,-0.02168559,0.1118469,0.1940917,-0.775210618972778,-0.169432938098907,0.450672328472137,-0.586879077262983,-0.252517671442928,0.363306105753209,0
3.81999969482422,-2.38148283958435,1.3835916519165,2.84712338447571,-2.73744492223163,1.78797030575888,2.83746589962856,996.3793,5513.728,2275.431,0,-0.02581935,0.1219315,0.2016111,-0.759554147720337,-0.157453343272209,0.398884356021881,-0.573468357077023,-0.246747413199059,0.355004231116903,0
3.84000015258789,-2.39660501480103,1.38077819347382,2.85532021522522,-2.74878005078916,1.78309311660741,2.84448288417273,2721.382,1044.093,1470.79,3677.384,-0.01290781,0.1326485,0.1807019,-0.75610476732254,-0.140679210424423,0.409838438034058,-0.560011455688534,-0.240957284473894,0.346673768116317,0
3.8599967956543,-2.41141891479492,1.37825703620911,2.86283898353577,-2.75984354851568,1.77833280261403,2.85133171629293,1615.529,4640.049,2506.695,0,-0.02236842,0.143442,0.1750991,-0.740698218345642,-0.126049071550369,0.375933766365051,-0.546518158200277,-0.23515149552379,0.33832077419619,0
3.88000106811523,-2.42592549324036,1.37604117393494,2.8698263168335,-2.77064096329669,1.77368697667861,2.85801583039457,3237.271,1346.453,3311.575,863.1088,-0.03226739,0.1498784,0.155517,-0.725333094596863,-0.110798940062523,0.349363416433334,-0.532988048794546,-0.229329867434001,0.329944991945551,0
3.89999771118164,-2.44012403488159,1.37409913539886,2.87660598754883,-2.78116350015273,1.7691594230351,2.8645297819664,2303.152,2956.48,3491.052,0,-0.0447997,0.1543471,0.1394365,-0.709922671318054,-0.0970990806818008,0.338981866836548,-0.519438870577852,-0.223500034567577,0.321557405192552,0
3.92000198364258,-2.45400238037109,1.37235891819,2.88323211669922,-2.79141877885682,1.76474686310805,2.8708782880109,1783.725,3371.313,3513.284,0,-0.05805212,0.15828,0.1315761,-0.693925380706787,-0.0870177298784256,0.331302136182785,-0.505867819463029,-0.217660790404144,0.31315627807366,0
3.93999862670898,-2.46754741668701,1.37076234817505,2.88950872421265,-2.80139871920582,1.76045277358314,2.87705634649742,1998.018,2682.052,3912.127,0,-0.06928427,0.1606146,0.1274175,-0.677240371704102,-0.0798234269022942,0.313835948705673,-0.492292886511002,-0.21181987599461,0.304752747912623,0
3.96000289916992,-2.48079395294189,1.3692774772644,2.89553737640381,-2.8111108326727,1.75627392248337,2.88306860738554,2404.836,2053.693,4121.274,0,-0.07424307,0.1599653,0.1217824,-0.662340402603149,-0.0742387920618057,0.301427572965622,-0.478711464817303,-0.205976169660809,0.296345200911388,0
