t,x_s1,x_s2,x_s3,x_s_d1,x_s_d2,x_s_d3,propellers_rpms1,propellers_rpms2,propellers_rpms3,propellers_rpms4,rollRad,pitchRad,yawRad,v_s1,v_s2,v_s3,v_s_d1,v_s_d2,v_s_d3,insideCount
0,-0.0599999986588955,2.94000005722046,1.17999994754791,-0.0599999986588955,2.94000005722046,1.17999994754791,0,0,0,0,0,0,0,0,0,0,-1.06581410364015E-15,4.44089209850063E-16,4.44089209850063E-16,0
0.0200042724609375,-0.0599999986588955,2.94000005722046,1.17729234695435,-0.0600018701838461,2.93999925195556,1.18000110611101,0,0,0,0,0.0163538,-0.002474609,-2.024222E-05,3.71994488546079E-08,3.50004931704007E-08,-0.135377958416939,-0.000280105751305916,-0.000120521679537258,0.00017339880334547,5
0.0400009155273438,-0.0599999986588955,2.94000005722046,1.17105865478516,-0.0600148724204753,2.93999365745638,1.18000915511487,0,0,0,0,0.03270752,-0.004950816,-5.430172E-05,3.48044650877455E-08,3.30428591155396E-08,-0.311683237552643,-0.00111101934050116,-0.00047804058392963,0.00068777389696065,6
0.05999755859375,-0.0600004307925701,2.94013142585754,1.16552245616913,-0.0600498857373401,2.93997859220429,1.18003083002592,3161.645,2810.171,1469.512,2738.824,0.03139259,-0.004977448,-0.01632784,-2.15872623812174E-05,0.00656331889331341,-0.276811599731445,-0.00247936261166862,-0.00106680046642749,0.00153484356504269,6
0.0800018310546875,-0.0599182620644569,2.94037842750549,1.16100013256073,-0.0601175574246769,2.93994947496775,1.18007272202403,3028.851,3011.934,2083.585,1979.165,0.019216,-0.004420315,-0.04309314,0.00410841964185238,0.0123497452586889,-0.226116538047791,-0.00437268608126799,-0.00188144466206175,0.00270690098422899,6
0.0999984741210938,-0.0596519224345684,2.94066071510315,1.15742909908295,-0.0602281887669101,2.93990187339187,1.18014120809498,2573.092,3764.134,2528.135,1069.444,-0.005652293,-0.003074886,-0.0691053,0.0133169954642653,0.0141157731413841,-0.178551480174065,-0.00677637982016689,-0.00291568692648091,0.00419490191241918,6
0.120002746582031,-0.0591362528502941,2.94084787368774,1.154620885849,-0.0603919599823235,2.93983140721312,1.18024259027882,1989.706,4004.103,3075.543,694.8513,-0.03990694,-0.0007073356,-0.08794237,0.0257835201919079,0.0093637378886342,-0.140408098697662,-0.00967921398219614,-0.00416469537060396,0.00599189453988277,5
0.139999389648438,-0.0583610385656357,2.94078660011292,1.15244734287262,-0.0606185767455666,2.93973390035084,1.18038287685052,1381.581,3936.988,3641,663.8789,-0.07574722,0.002033752,-0.09641548,0.0387606397271156,-0.00305870082229376,-0.108674220740795,-0.0130660253322238,-0.00562194567796536,0.00808849210174802,4
0.160003662109375,-0.0573620609939098,2.94033217430115,1.15091991424561,-0.0609177895434042,2.93960515744296,1.18056810382587,1009.32,3669.345,3950.392,872.3066,-0.1041259,0.003834145,-0.09479042,0.0499488785862923,-0.02271593734622,-0.0763733685016632,-0.0169265510445065,-0.00728302204135792,0.0104783414199936,4
0.180000305175781,-0.0561949610710144,2.93938517570496,1.15012359619141,-0.0612986871007165,2.9394412678651,1.18080389755851,1011.159,3363.139,3835.517,1161.008,-0.1193485,0.003850823,-0.08597589,0.0583550781011581,-0.0473452657461166,-0.039814155548811,-0.0212451141043368,-0.00914117907931815,0.0131517376757159,3
0.200004577636719,-0.0549088828265667,2.93791794776917,1.15010976791382,-0.0617706280683152,2.93923820485124,1.18109605149912,1332.708,3133.183,3353.594,1401.619,-0.1214135,0.002340576,-0.07415625,0.0643040239810944,-0.0733579248189926,-0.000691581517457962,-0.026012379510746,-0.0111924002017188,0.0161029020586274,3
0.220001220703125,-0.0535359345376492,2.93597269058228,1.15082943439484,-0.0623420644491781,2.93899233174064,1.18144979784016,1790.308,3014.664,2724.025,1533.29,-0.1151237,0.0002792698,-0.06327458,0.0686474293470383,-0.0972626656293869,0.0359833687543869,-0.03121219533433,-0.0134297356845702,0.019321835755004,3
0.239997863769531,-0.0520958751440048,2.93363213539124,1.15212345123291,-0.0630217183703222,2.93869989564571,1.18187053599376,2171.534,2982.69,2212.813,1547.114,-0.1071533,-0.001340103,-0.05580974,0.0720029398798943,-0.117024466395378,0.0647013410925865,-0.0368338920540454,-0.0158485947310391,0.02280193382306,3
0.260002136230469,-0.0506037883460522,2.93098068237305,1.15377116203308,-0.0638182299684225,2.938357178957,1.18236361461609,2347.548,2985.414,2004.974,1459.953,-0.1029035,-0.001920139,-0.05235455,0.0746044367551804,-0.132567867636681,0.0823851302266121,-0.0428675524613532,-0.0184447102433459,0.0265370570382875,3
0.279998779296875,-0.0490740165114403,2.92807531356812,1.1555722951889,-0.0647390625194898,2.93796097043536,1.18293365383054,2309.075,2996.052,2122.6,1298.791,-0.1047118,-0.001325722,-0.05184961,0.0764887109398842,-0.145271167159081,0.0900559201836586,-0.0492963837173861,-0.0212108567320638,0.030516809833474,3
0.300003051757813,-0.0475224554538727,2.92493534088135,1.15741109848022,-0.0657927507678135,2.93750759781875,1.18358593705038,2137.584,3011.234,2442.019,1106.161,-0.1118709,0.0001960034,-0.05227625,0.0775779560208321,-0.156993061304092,0.0919410809874535,-0.0561132031658829,-0.0241439437008635,0.0347367458022363,3
0.319999694824219,-0.0459691509604454,2.92155051231384,1.15926611423492,-0.0669860785243584,2.93699414222283,1.18432466377777,1943.345,3019.355,2792.421,937.5118,-0.1218188,0.0021536,-0.05160993,0.0776655301451683,-0.169245287775993,0.0927514061331749,-0.0633008373176985,-0.0272365818771378,0.0391862337367069,3
0.340003967285156,-0.044439323246479,2.91789531707764,1.1611762046814,-0.0683273092598492,2.93641704810699,1.18515494949472,1803.527,3001.351,3048.018,841.6447,-0.1315058,0.004016045,-0.04861228,0.0764914974570274,-0.182755097746849,0.095506064593792,-0.0708528993697216,-0.0304860231979345,0.0438613199015142,3
0.360000610351563,-0.0429610460996628,2.91394639015198,1.1632034778595,-0.0698225328270578,2.93577369517774,1.1860805641102,1757.34,2955.479,3148.155,830.5493,-0.138502,0.005408685,-0.0431496,0.0739139392971992,-0.197443798184395,0.101364828646183,-0.0787518717320621,-0.0338847303337087,0.0487511600740379,3
0.379997253417969,-0.041560672223568,2.90969371795654,1.16540169715881,-0.0714791088463715,2.935060916796,1.18710606357981,1802.427,2905.519,3097.305,874.6349,-0.1417489,0.006226213,-0.03593616,0.0700185969471931,-0.212629660964012,0.109912075102329,-0.0869889214763108,-0.0374289027221294,0.0538502862508218,3
0.400001525878906,-0.0402593612670898,2.9051456451416,1.16779756546021,-0.0733044112230977,2.93427554017634,1.18823601270221,1908.473,2870.617,2945.678,936.9146,-0.14167,0.006603066,-0.02807824,0.0650657191872597,-0.227399602532387,0.119794458150864,-0.0955558400788823,-0.0411150084648172,0.0591536169647403,3
0.419998168945313,-0.0390722937881947,2.90032649040222,1.17038226127625,-0.0753034649285836,2.93341540321397,1.18947352217404,2025.776,2858.056,2769.709,988.1081,-0.1397174,0.006794007,-0.02059795,0.0593533962965012,-0.240961164236069,0.129234969615936,-0.104434660908044,-0.0449353170220673,0.0646500300148815,3
0.44000244140625,-0.0380103066563606,2.89526844024658,1.17311811447144,-0.077483988232608,2.93247718495301,1.19082336997196,2110.684,2859.427,2639.547,1016.015,-0.1375603,0.007042713,-0.01415097,0.0530993938446045,-0.252902239561081,0.136791855096817,-0.113620829717891,-0.048887868829098,0.0703367061060819,3
0.459999084472656,-0.037082102149725,2.89000344276428,1.17595720291138,-0.0798502821969742,2.93145903476675,1.19228821865812,2148.129,2866.866,2591.002,1012.555,-0.1364646,0.007497877,-0.008926916,0.0464102737605572,-0.263251662254333,0.141952738165855,-0.123096124252221,-0.0529648233581361,0.0762023647937057,3
0.480003356933594,-0.0362959839403629,2.88455677032471,1.17885732650757,-0.0824098964715798,2.93035770425173,1.19387274182544,2140.635,2876.87,2626.036,978.1205,-0.1370021,0.008197621,-0.004677043,0.0393058657646179,-0.272337138652802,0.14500892162323,-0.132856662250146,-0.057164510180779,0.0822446027733248,4
0.5,-0.0356611907482147,2.87894415855408,1.18179655075073,-0.085166398670376,2.92917165836334,1.1955791479969,2109.231,2883.71,2713.398,927.6089,-0.1390357,0.009086695,-0.0009374327,0.0317397713661194,-0.280628979206085,0.146958976984024,-0.142884000065179,-0.0614789935111996,0.0884520025491718,4
0.520004272460938,-0.0351881794631481,2.8731734752655,1.18477141857147,-0.088127196023106,2.92789770997757,1.19741202260058,2072.044,2888.506,2818.344,872.732,-0.142004,0.01006299,0.00281153,0.0236504673957825,-0.28853103518486,0.148741111159325,-0.153174893518032,-0.065906877469682,0.0948225558197254,4
0.540000915527344,-0.0348886474967003,2.86724710464478,1.18779575824738,-0.0912951145137283,2.92653464315245,1.19937311505516,2047.337,2885.501,2904.509,834.3484,-0.1451423,0.01101697,0.006901567,0.0149765117093921,-0.296323210000992,0.151219949126244,-0.163710711144578,-0.0704401454577151,0.101344728821151,4
0.55999755859375,-0.0347743928432465,2.86116552352905,1.19088912010193,-0.094676112580471,2.92507989413848,1.20146611391775,2041.389,2881.557,2957.049,811.0672,-0.1478459,0.01187123,0.01147657,0.00571286771446466,-0.304078906774521,0.154665499925613,-0.17448465888317,-0.0750758741803766,0.108014315705644,4
0.580001831054688,-0.0348565131425858,2.85493063926697,1.19407224655151,-0.0982762614093182,2.92353085067394,1.20369477754168,2055.788,2874.668,2968.827,809.8531,-0.1497442,0.01259426,0.01643262,-0.00410617794841528,-0.311749041080475,0.159158229827881,-0.185490414529404,-0.0798113433697334,0.11482740272751,4
0.599998474121094,-0.0351442359387875,2.84854698181152,1.19735908508301,-0.102097262171133,2.92188678079254,1.20606015903275,2085.155,2874.076,2951.652,814.6023,-0.150867,0.01319859,0.02157898,-0.014386385679245,-0.319177985191345,0.164343371987343,-0.196709126405959,-0.0846384416756885,0.121772319800455,4
0.620002746582031,-0.0356447771191597,2.84202265739441,1.20075488090515,-0.106146271928021,2.92014460501038,1.20856668895334,2116.332,2875.377,2922.723,826.7766,-0.1514481,0.01372759,0.0266787,-0.0250268466770649,-0.32621043920517,0.169789791107178,-0.208139001499973,-0.0895563976148993,0.128847956964108,4
0.639999389648438,-0.0363635793328285,2.83536767959595,1.20425868034363,-0.110424235525481,2.91830391678686,1.21121495220784,2145.784,2880.447,2895.942,835.472,-0.1518449,0.01422946,0.03154011,-0.0359402745962143,-0.332750260829926,0.175192475318909,-0.219761081350814,-0.0945570538913933,0.136042578028218,4
0.660003662109375,-0.0373046919703484,2.82859253883362,1.20786333084106,-0.114938248900541,2.91636166293851,1.21400934151928,2165.264,2888.385,2886.872,834.8531,-0.1524095,0.01474462,0.03608993,-0.0470552258193493,-0.338756859302521,0.180230975151062,-0.231574097577923,-0.0996398647564507,0.143355397804799,4
0.680000305175781,-0.0384717844426632,2.82170653343201,1.21156346797943,-0.119688496929273,2.91431776391831,1.21694997133476,2176.711,2893.832,2894.094,830.916,-0.1533166,0.01529454,0.04030592,-0.0583549812436104,-0.34429520368576,0.185007601976395,-0.243559016194652,-0.104796640417365,0.150774633349401,4
0.699996948242188,-0.0398681834340096,2.8147177696228,1.21535313129425,-0.124680083855354,2.91217002351282,1.22004000142426,2181.154,2901.61,2921.208,813.3891,-0.1546652,0.01588222,0.0442921,-0.0698199719190598,-0.349436730146408,0.189481049776077,-0.255710395848158,-0.11002503961202,0.158296916205407,4
0.720001220703125,-0.0414978265762329,2.80763149261475,1.21923351287842,-0.129918284978346,2.90991617190799,1.22328269744952,2182.718,2903.433,2954.137,800.9545,-0.1563212,0.01649849,0.04811327,-0.08148193359375,-0.35431444644928,0.194021314382553,-0.268023157655716,-0.11532287703907,0.16591910230247,4
0.739997863769531,-0.0433645136654377,2.8004515171051,1.2232072353363,-0.135402141159277,2.90755662179454,1.22667746565781,2187.886,2909.171,2990.221,778.3701,-0.1582029,0.01712378,0.0518935,-0.0933342725038528,-0.359003871679306,0.198684975504875,-0.280478211503383,-0.120681938755799,0.173629373950669,5
0.760002136230469,-0.045472327619791,2.79317998886108,1.2272801399231,-0.14113868194985,2.90508834855275,1.23022865767651,2192.56,2909.481,3021.62,766.9271,-0.1601103,0.01774591,0.05567171,-0.105390891432762,-0.363578200340271,0.203644156455994,-0.293075466693575,-0.12610218573757,0.181427675003881,5
0.779998779296875,-0.0478251464664936,2.78581857681274,1.23145973682404,-0.147126184485884,2.90251209348295,1.23393520697061,2204.808,2912.322,3043.854,754.5224,-0.161941,0.01835345,0.05946627,-0.117641508579254,-0.368070125579834,0.208977296948433,-0.305795832832518,-0.131575403921268,0.189302187598958,5
0.800003051757813,-0.0504262186586857,2.77836918830872,1.23575103282928,-0.153371683173492,2.89982482987671,1.2378014681726,2218.4,2915.548,3060.795,745.2401,-0.1636555,0.01894389,0.06327252,-0.130052924156189,-0.37246972322464,0.214561983942986,-0.318639638509124,-0.13710173468952,0.197253115148089,5
0.819999694824219,-0.0532784350216389,2.77083349227905,1.24016046524048,-0.159872691993147,2.89702762739878,1.24182590231796,2235.169,2917.992,3068.677,742.8272,-0.1652316,0.01952243,0.06702728,-0.142610743641853,-0.376784682273865,0.22047270834446,-0.331587821991737,-0.142672976311719,0.205268657531342,5
0.840003967285156,-0.0563835240900517,2.76321411132813,1.24468851089478,-0.166636266402775,2.89411745028271,1.24601287707125,2251.948,2924.524,3079.588,732.7656,-0.166781,0.02009443,0.07072956,-0.155254781246185,-0.380969345569611,0.226405128836632,-0.344641102544584,-0.148289438267168,0.213349260007538,5
0.860000610351563,-0.0597434006631374,2.75551295280457,1.24933958053589,-0.173659158941841,2.89109569582005,1.2503603820997,2267.115,2926.525,3085.695,734.5865,-0.1682947,0.02067193,0.07429861,-0.167993575334549,-0.385054588317871,0.232554465532303,-0.357780475378537,-0.153942943326036,0.221483157706883,5
0.879997253417969,-0.0633586049079895,2.7477331161499,1.254110455513,-0.180945630646592,2.88796053060595,1.25487105518773,2282.469,2935.034,3102.612,718.4378,-0.1699347,0.02125694,0.0777853,-0.180760681629181,-0.388996183872223,0.23854273557663,-0.371001963495383,-0.159631780297098,0.229667888678032,5
0.900001525878906,-0.0672306567430496,2.73987579345703,1.25900530815125,-0.188500167066783,2.88471002463366,1.2595476731043,2293.082,2934.863,3115.482,721.2127,-0.1716034,0.02186107,0.08111718,-0.193602159619331,-0.392865210771561,0.244742467999458,-0.384301823631742,-0.165354338558695,0.237901135662636,5
0.919998168945313,-0.0713597387075424,2.73194313049316,1.26402163505554,-0.196318384305134,2.8813460641717,1.26438752200817,2309.203,2944.391,3138.092,698.483,-0.1734554,0.02247563,0.08438532,-0.206454828381538,-0.3966324031353,0.250814229249954,-0.397661187980262,-0.171102499820431,0.246171218589148,5
0.94000244140625,-0.075747087597847,2.72393584251404,1.269162774086,-0.204407453948074,2.87786556348678,1.26939504145298,2316.816,2943.019,3158.197,698.8172,-0.1753393,0.02311076,0.08754163,-0.219367131590843,-0.400366336107254,0.257059931755066,-0.411081631631503,-0.176876941799768,0.254479112513653,5
0.959999084472656,-0.0803931504487991,2.71585464477539,1.27442932128906,-0.212762239776093,2.87427073255068,1.27456705187416,2332.805,2949.902,3181.604,678.9026,-0.1773239,0.02375599,0.09065104,-0.232303157448769,-0.404060900211334,0.263327866792679,-0.424544411524882,-0.18266959988136,0.262813214588797,5
0.980003356933594,-0.0852987915277481,2.70769953727722,1.27982413768768,-0.221389982382338,2.87055845593844,1.2799080355438,2343.306,2950.445,3202.911,673.3494,-0.179309,0.02441584,0.09369447,-0.245282083749771,-0.407751530408859,0.269742339849472,-0.438051398499298,-0.18848127903492,0.271174682952979,5
1,-0.0904645621776581,2.69947075843811,1.28534984588623,-0.230284798736574,2.86673126495361,1.28541435058594,2359.562,2955.066,3222.38,659.7118,-0.1813091,0.02508476,0.09669044,-0.258288592100143,-0.411444336175919,0.27628430724144,-0.451584000205995,-0.194303979492187,0.279552008056641,5
1.02000427246094,-0.0958907157182693,2.69116806983948,1.29100739955902,-0.239454009753966,2.86278600961093,1.2910905289958,2373.028,2957.808,3242.727,649.7378,-0.1833075,0.02576414,0.09964137,-0.271306902170181,-0.415136277675629,0.282878816127777,-0.465144357597929,-0.200138622445408,0.287946515251652,5
1.04000091552734,-0.101577669382095,2.68279099464417,1.29680073261261,-0.24889099213045,2.8587255397331,1.29693247063265,2388.741,2960.515,3257.855,643.12,-0.1852745,0.02645577,0.1025203,-0.28434944152832,-0.418851613998413,0.28966560959816,-0.478714054341683,-0.205977283860805,0.296346803950333,5
1.05999755859375,-0.107524931430817,2.67434000968933,1.30272793769836,-0.258599401509697,2.85454828239877,1.30294243851408,2404.477,2965.719,3279.287,627.0698,-0.1872868,0.027156,0.1053652,-0.297363013029099,-0.422550827264786,0.296359091997147,-0.492290296490434,-0.211818761581115,0.30475114456651,5
1.08000183105469,-0.113732978701591,2.66581416130066,1.30879390239716,-0.268583149539609,2.85025255453512,1.30912285413647,2417.49,2965.713,3292.895,627.6896,-0.1892373,0.02787552,0.108109,-0.31040096282959,-0.426287412643433,0.303299337625504,-0.50587040849135,-0.217661904390701,0.313157880805523,5
1.09999847412109,-0.120200634002686,2.65721416473389,1.31499588489532,-0.278834517009062,2.84584167750307,1.31546893894041,2437.026,2973.851,3314.377,604.8408,-0.1912879,0.02860119,0.110825,-0.323384046554565,-0.430005639791489,0.310098767280579,-0.519436284009554,-0.223498921639497,0.321555803983559,5
1.12000274658203,-0.126928091049194,2.6485390663147,1.32133722305298,-0.289361068555186,2.84131239645058,1.32198537579665,2446.713,2972.144,3330.963,607.53,-0.1932928,0.02934887,0.1134428,-0.336373209953308,-0.433759093284607,0.317067861557007,-0.532990631455731,-0.229330978680957,0.329946590735853,5
1.13999938964844,-0.133914336562157,2.63978886604309,1.32781636714935,-0.300154365346813,2.83666834237095,1.3286669406667,2466.042,2979.074,3352.813,586.0417,-0.1953759,0.03010567,0.1160243,-0.349311530590057,-0.437510341405869,0.323954850435257,-0.546515580872639,-0.235150386571708,0.338319178707607,5
1.16000366210938,-0.141159117221832,2.63096308708191,1.33443546295166,-0.311222084148811,2.83190621216671,1.33551838583369,2477.038,2978.601,3371.859,583.6434,-0.1974303,0.03088212,0.118528,-0.362239122390747,-0.44129478931427,0.330952763557434,-0.560014026276883,-0.240958390526247,0.34667535943296,6
1.18000030517578,-0.148661613464355,2.62206125259399,1.34119439125061,-0.322555076427271,2.82702994219644,1.34253404791935,2495.331,2983.753,3392.459,566.4039,-0.1995224,0.03166935,0.1209893,-0.375125169754028,-0.445096492767334,0.337949007749557,-0.573468357077025,-0.246747413199059,0.355004231116904,6
1.19999694824219,-0.15642112493515,2.61308288574219,1.34809374809265,-0.334156660511822,2.8220381046756,1.34971598112778,2508.102,2984.719,3413.392,558.6128,-0.2016024,0.0324717,0.1233964,-0.387977480888367,-0.44892281293869,0.344969153404236,-0.58687652428584,-0.252516572968185,0.36330452533874,6
1.22000122070313,-0.164437115192413,2.60402727127075,1.35513484477997,-0.346030421585499,2.81692915700008,1.35706640485806,2524.257,2987.476,3432.62,547.3315,-0.2036652,0.03328744,0.1257501,-0.400798082351685,-0.452779352664948,0.35205602645874,-0.600236516861372,-0.258265004538453,0.371574997167698,6
1.23999786376953,-0.172708570957184,2.59489393234253,1.3623183965683,-0.358166167196084,2.81170748469733,1.36457900949675,2541.064,2991.006,3451.245,535.0265,-0.2057324,0.03411371,0.128058,-0.413574010133743,-0.456662595272064,0.359175443649292,-0.613531154887641,-0.263985315871967,0.379805011417393,6
1.26000213623047,-0.181234374642372,2.58568286895752,1.36964309215546,-0.370571882958536,2.80636965178032,1.3722587385199,2555.033,2992.755,3472.988,523.9966,-0.2077985,0.03495118,0.1303256,-0.426289886236191,-0.4605573117733,0.366235464811325,-0.626763698705669,-0.269678909802388,0.38799658639423,6
1.27999877929688,-0.190014034509659,2.57639288902283,1.37711226940155,-0.383236695417198,2.80092033679326,1.3800988607405,2570.621,2994.509,3488.424,518.0341,-0.209814,0.03580433,0.1325222,-0.438983261585236,-0.464497119188309,0.373457282781601,-0.639917282339435,-0.275338529371412,0.396139281255613,6
1.30000305175781,-0.199045479297638,2.56702470779419,1.384721159935,-0.396168722856641,2.79535604666509,1.38810440176341,2587.811,2998.936,3513.953,496.6885,-0.2118875,0.03666022,0.1347102,-0.451572895050049,-0.468415081501007,0.380443423986435,-0.652995275331231,-0.280965624398954,0.404235181908735,6
1.31999969482422,-0.208329051733017,2.55757641792297,1.39247703552246,-0.409356423791328,2.7896817473746,1.39626821685929,2599.48,2997.434,3524.356,503.1749,-0.2138343,0.03754013,0.1367915,-0.464179486036301,-0.472408920526505,0.387794315814972,-0.665981146317813,-0.286553081901244,0.412274054652251,6
1.34000396728516,-0.217861369252205,2.54804992675781,1.40036952495575,-0.422808053134535,2.78389388706324,1.40459541621271,2621.419,3005.546,3556.349,465.982,-0.2159328,0.03840881,0.1389148,-0.476614534854889,-0.476328402757645,0.394625633955002,-0.678878353700697,-0.292102389931837,0.420258040401443,6
1.36000061035156,-0.2276441603899,2.53844237327576,1.40841293334961,-0.436511415158101,2.77799771321212,1.41307845008695,2626.535,2999.015,3558.34,492.9797,-0.2177747,0.03931661,0.1408718,-0.489141017198563,-0.480379045009613,0.402169018983841,-0.691670720740693,-0.297606588091785,0.42817712498415,6
1.37999725341797,-0.237671852111816,2.52875709533691,1.41658735275269,-0.450469530727146,2.77199192602736,1.42171918854144,2656.838,3013.107,3601.223,429.0983,-0.2199281,0.04018978,0.1429541,-0.501384258270264,-0.4842689037323,0.40872323513031,-0.704356955827446,-0.303065120637236,0.436030508832034,6
1.40000152587891,-0.247948825359344,2.51898956298828,1.42491841316223,-0.464685685951852,2.76587511158757,1.43051966583492,2650.029,2998.189,3590.095,490.4734,-0.2216016,0.04112944,0.1447718,-0.513848662376404,-0.488381534814835,0.416554152965546,-0.716935713767318,-0.308477408768949,0.443817359206152,7
1.41999816894531,-0.258466184139252,2.50914525985718,1.43337333202362,-0.47914673136562,2.75965292774086,1.43947174182117,2696.388,3022.878,3646.605,384.294,-0.2238408,0.04199637,0.1468365,-0.525865972042084,-0.492213398218155,0.422747820615768,-0.729391385793766,-0.313836736470737,0.451528013536465,7
1.44000244140625,-0.269231826066971,2.49921727180481,1.4419926404953,-0.493861275572861,2.75332167044526,1.4485807456364,2670.685,2996.269,3617.27,495.8029,-0.2253098,0.0429701,0.148502,-0.538283705711365,-0.496397405862808,0.430966734886169,-0.741727567798258,-0.319144650954242,0.459164697851088,7
1.45999908447266,-0.280231893062592,2.48921513557434,1.45072293281555,-0.508815552717244,2.74688726276417,1.45783815555978,2737.206,3033.011,3698.754,329.6114,-0.2276981,0.04381708,0.1505898,-0.550003349781036,-0.500107884407043,0.436515986919403,-0.753929052770513,-0.324394609067776,0.466717998286247,7
1.48000335693359,-0.291481107473373,2.47912693023682,1.45963299274445,-0.524018315758597,2.74034593854351,1.46724939009041,2685.396,2990.898,3634.603,520.2834,-0.2288188,0.04484046,0.1520445,-0.56246030330658,-0.504415512084961,0.445501267910004,-0.765999459475408,-0.329588167864767,0.474190155029787,7
1.5,-0.30295592546463,2.46896910667419,1.46863043308258,-0.539455198877605,2.73370387899399,1.4768055561018,2787.625,3048.57,3762.96,245.5499,-0.2315299,0.04563559,0.1542496,-0.573741436004639,-0.507891476154327,0.449871301651001,-0.777924000354858,-0.334718964672088,0.481572013878822,7
1.51999664306641,-0.314684212207794,2.45872020721436,1.47783732414246,-0.555129074991064,2.72695984797977,1.48650843206629,2685.547,2978.212,3632.632,586.4348,-0.232038,0.0467442,0.1553793,-0.586410939693451,-0.512440025806427,0.460346251726151,-0.789701834723693,-0.339786637766398,0.488863054409188,7
1.54000091552734,-0.326623618602753,2.448410987854,1.48708605766296,-0.571043070329722,2.72011250037111,1.49635995326965,2856.039,3073.504,3853.698,103.897,-0.2354202,0.04742735,0.1578833,-0.596974194049835,-0.515462040901184,0.462437838315964,-0.801332006385301,-0.344790775723006,0.496062684689629,7
1.55999755859375,-0.338828682899475,2.43800020217896,1.49660646915436,-0.587181951496087,2.71316839067337,1.50635068951315,2657.29,2952.497,3587.865,739.1166,-0.2347614,0.04870278,0.1584374,-0.610253751277924,-0.520533800125122,0.476018875837326,-0.812800388649436,-0.349725300221754,0.503162159625937,7
1.58000183105469,-0.351228892803192,2.4275336265564,1.50613451004028,-0.60355483331529,2.70612359703193,1.51648628330776,2838.383,3216.182,3871.703,0,-0.2384845,0.04966212,0.1617727,-0.620011389255524,-0.523331165313721,0.476404815912247,-0.824110582941666,-0.354591760855452,0.510163708672098,7
1.59999847412109,-0.363898903131485,2.41696047782898,1.51596367359161,-0.620145926473056,2.69898491314762,1.52675696031579,2668.623,2881.729,3535.122,899.1694,-0.2368599,0.05137827,0.1618231,-0.633499503135681,-0.52865195274353,0.491460680961609,-0.835248923368005,-0.359384277571697,0.517058871988737,7
1.62000274658203,-0.376752912998199,2.40633392333984,1.52578854560852,-0.636964489205914,2.69174835545992,1.53716845182668,2805.068,3326.967,3836.297,0,-0.2403748,0.05299444,0.1653738,-0.642701804637909,-0.531331479549408,0.491242557764053,-0.846218976345106,-0.364104384899943,0.523849857357655,7
1.63999938964844,-0.389867335557938,2.39560914039612,1.53589105606079,-0.653994195024907,2.68442094880091,1.54771065096602,2750.958,2817.129,3544.287,915.0013,-0.2388749,0.05522869,0.1648338,-0.655718445777893,-0.536233842372894,0.50512683391571,-0.857007552155828,-0.368746407673381,0.530528499715628,7
1.66000366210938,-0.403159022331238,2.38483786582947,1.54598379135132,-0.671244443874359,2.67699864863716,1.55838937674714,2843.735,3313.569,3856.729,0,-0.2425847,0.05732119,0.1675499,-0.664587318897247,-0.538565456867218,0.504638910293579,-0.867618167158098,-0.373311858882592,0.53709697585572,7
1.68000030517578,-0.416698753833771,2.37398099899292,1.5563223361969,-0.688698391434734,2.66948870260877,1.56919420173384,2829.438,2802.447,3632.617,804.2017,-0.2420904,0.05979877,0.1663738,-0.676987528800964,-0.542842328548431,0.516926348209381,-0.878038122530658,-0.377795274579551,0.543547424602645,8
1.69999694824219,-0.430414915084839,2.3630793094635,1.56666898727417,-0.706358800111611,2.66188992212981,1.58012683598675,2858.684,3292.963,3906.626,0,-0.2460873,0.06214687,0.168286,-0.685805261135101,-0.545080065727234,0.517330229282379,-0.888267004546665,-0.382196476749158,0.549879589839776,8
1.72000122070313,-0.444362372159958,2.35210347175598,1.57721436023712,-0.724228658537036,2.6542010212754,1.5911891296115,2900.668,2804.491,3778.214,619.2984,-0.2469017,0.06459483,0.167058,-0.697376430034637,-0.548793733119965,0.527269661426544,-0.898304216251578,-0.386515208538549,0.556093102023817,8
1.73999786376953,-0.458489954471588,2.3410804271698,1.58779323101044,-0.742290383213093,2.64642956573347,1.60237019758524,2905.548,3199.086,3994.76,0,-0.2508613,0.06681795,0.1682383,-0.70637845993042,-0.551153779029846,0.528941214084625,-0.908137821269591,-0.39074633405868,0.562180571969536,8
1.76000213623047,-0.472836762666702,2.32998752593994,1.59853959083557,-0.76055371708895,2.63857136338517,1.61367607125764,2951.557,2837.09,3924.266,420.7581,-0.2524693,0.06892598,0.1673632,-0.717340528964996,-0.554647445678711,0.537320613861084,-0.917771149318994,-0.394891285994308,0.568144060931169,8
1.77999877929688,-0.487368583679199,2.31884002685547,1.60934853553772,-0.779000609654483,2.63063418086074,1.62509557650306,2944.406,3122.26,4068.86,0,-0.2559111,0.07075471,0.1683435,-0.726589381694794,-0.557377755641937,0.540446758270264,-0.927192788821983,-0.398945154262308,0.57397650459845,8
1.80000305175781,-0.502110660076141,2.30762124061584,1.62030756473541,-0.797640935141499,2.62261376955408,1.63663482594136,2984.827,2878.424,4021.221,277.2099,-0.2575857,0.07236419,0.168165,-0.737102687358856,-0.560943603515625,0.547951698303223,-0.936405971974637,-0.402909329586356,0.579679903854719,8
1.81999969482422,-0.517039179801941,2.29634094238281,1.63134527206421,-0.816456197270346,2.61451808789761,1.64828236949435,2991.391,3058.798,4117.219,0,-0.2602814,0.073632,0.1693189,-0.746425569057465,-0.564010262489319,0.551885008811951,-0.945399824400851,-0.406779133026206,0.585247526943151,8
1.84000396728516,-0.53217339515686,2.28498482704163,1.64253377914429,-0.835456397410825,2.6063428325813,1.66004439848636,2993.758,2921.979,4052.271,222.7264,-0.2613813,0.07472292,0.1698176,-0.756713271141052,-0.567809760570526,0.559425175189972,-0.95417746870157,-0.410555908149813,0.59068130690248,8
1.86000061035156,-0.547490417957306,2.27356386184692,1.65380311012268,-0.854622615239374,2.59809614449182,1.6719092003358,3021.651,3046.708,4128.832,0,-0.2633616,0.07547559,0.1714588,-0.765852272510529,-0.571041941642761,0.563464820384979,-0.962728579444532,-0.414235212212131,0.595974851798267,8
1.87999725341797,-0.56301075220108,2.26206374168396,1.66523206233978,-0.873957566090845,2.58977685529642,1.6838784559643,2988.652,2951.652,4030.933,250.7048,-0.2636098,0.07618774,0.1724603,-0.776017189025879,-0.575023651123047,0.571448147296906,-0.971053025860989,-0.417816988947023,0.601128080678429,8
1.90000152587891,-0.578705668449402,2.25050139427185,1.67672920227051,-0.893464153455626,2.58138371570432,1.69595396277071,3038.706,3065.752,4122.839,0,-0.2650847,0.07659949,0.1746284,-0.784745097160339,-0.578115940093994,0.574855625629425,-0.979150439632688,-0.421301079877433,0.606140765536421,8
1.91999816894531,-0.594604134559631,2.23885869979858,1.68840277194977,-0.913122862707269,2.57292512231409,1.70812364027167,2979.616,2965.52,3979.576,331.8943,-0.2644439,0.07714731,0.1757955,-0.794921040534973,-0.582134544849396,0.583677351474762,-0.987011339258123,-0.424683405378145,0.611007036871143,8
1.94000244140625,-0.610666453838348,2.22716164588928,1.70012557506561,-0.932943991899774,2.5643966441608,1.72039386345315,3034.185,3120.266,4104.009,0,-0.2656615,0.0774861,0.1784276,-0.803119897842407,-0.584847807884216,0.586140871047974,-0.994638524886308,-0.427965170275055,0.615728628108227,9
1.95999908447266,-0.626931965351105,2.21538877487183,1.71203589439392,-0.952907658613767,2.55580683609405,1.73275232415044,2979.021,2957.278,3931.402,424.5703,-0.2643619,0.07809925,0.1794767,-0.813274264335632,-0.588633358478546,0.595517814159393,-1.00202309041976,-0.431142542523221,0.620300025949072,9
1.98000335693359,-0.643351495265961,2.20357346534729,1.7239773273468,-0.973024270010337,2.54715122020317,1.74520546489201,3028.998,3170.952,4090.686,0,-0.265507,0.07857705,0.1822707,-0.820977807044983,-0.590780377388,0.597070753574371,-1.00916768936771,-0.434216663853535,0.624722873042297,9
2,-0.659972012042999,2.19169211387634,1.73610925674438,-0.993273599084619,2.53843849960327,1.7577407641983,2994.819,2940.521,3908.753,482.5546,-0.2639336,0.07937843,0.182982,-0.831027984619141,-0.594073176383972,0.606596767902374,-1.01606400046349,-0.437183953857422,0.628992018127441,9
2.01999664306641,-0.676739096641541,2.17978024482727,1.74826109409332,-1.01365835337184,2.52966750931758,1.77035989816261,3023.69,3209.14,4088.92,0,-0.2651336,0.08010121,0.1856534,-0.838351249694824,-0.595598042011261,0.607591986656189,-1.02271203275434,-0.440044416427654,0.633107466805174,9
2.04000091552734,-0.693701446056366,2.16781616210938,1.76059329509735,-1.0341813929022,2.52083701875502,1.78306463727984,3024.868,2921.535,3925.259,484.5938,-0.2636966,0.08109586,0.1859932,-0.848117113113403,-0.59819757938385,0.616613209247589,-1.02911152474823,-0.442797939051516,0.637069057199471,9
2.05999755859375,-0.710806012153625,2.15583348274231,1.77294456958771,-1.05482201812353,2.5119559343546,1.79584216754118,3031.347,3215.47,4103.065,0,-0.264976,0.08201966,0.1882875,-0.85523134469986,-0.599151492118835,0.617563605308533,-1.03525504859546,-0.445441325732794,0.640872191117535,9
2.08000183105469,-0.728096663951874,2.1438136100769,1.78545498847961,-1.07559088172821,2.50301967256038,1.80869908347065,3063.124,2912.367,3979.005,424.8092,-0.2640034,0.08308401,0.1883758,-0.86453104019165,-0.600984275341034,0.625520288944244,-1.04114485287423,-0.447975543971863,0.644518260536375,9
2.09999847412109,-0.745527923107147,2.13178443908691,1.79799067974091,-1.09646699912883,2.4940372624541,1.82162239460902,3047.667,3189.601,4135.965,0,-0.2652924,0.08404948,0.1902112,-0.871566712856293,-0.601476669311523,0.626783311367035,-1.04677411523768,-0.450397658303471,0.648003042098304,9
2.12000274658203,-0.763134777545929,2.11973166465759,1.81066226959229,-1.11746110947495,2.48500408327971,1.83461874900143,3097.461,2916.818,4051.611,329.963,-0.2648008,0.08500891,0.1902587,-0.880343317985535,-0.602635204792023,0.633576929569244,-1.05214490868305,-0.452708560680417,0.651327819087362,9
2.13999938964844,-0.780882298946381,2.10767507553101,1.82337021827698,-1.138551967509,2.47592927627801,1.8476749948214,3067.723,3150.396,4172.743,0,-0.2659246,0.08583216,0.1917622,-0.8873690366745,-0.602826297283173,0.635395109653473,-1.05725102347782,-0.454905579228273,0.654488747383304,9
2.16000366210938,-0.798794567584991,2.09560537338257,1.83619236946106,-1.15975039167652,2.46680818657414,1.86079782920208,3121.414,2931.982,4120.023,233.196,-0.2657105,0.08653329,0.1920099,-0.895613312721252,-0.603470206260681,0.641108512878418,-1.0620943502576,-0.456989527434725,0.657486997379635,9
2.18000030517578,-0.816846370697021,2.08353662490845,1.84906029701233,-1.18103490068612,2.45765005696766,1.87397395420079,3093.221,3104.784,4205.232,0,-0.2665004,0.08704568,0.1933662,-0.902597963809967,-0.603452622890472,0.643397510051727,-1.06666929835407,-0.458957999791384,0.660319108186354,10
2.19999694824219,-0.835054397583008,2.07146143913269,1.86202943325043,-1.20240821395574,2.44845371736898,1.88720505326679,3129.022,2956.62,4163.041,165.3197,-0.2662245,0.08739387,0.1939519,-0.910402774810791,-0.603760778903961,0.648455083370209,-1.07097597819164,-0.460811043810786,0.662985148161421,10
2.22000122070313,-0.853398621082306,2.05939054489136,1.87504696846008,-1.22387315175433,2.43921795429519,1.90049287228091,3111.9,3074.818,4224.506,0,-0.2665744,0.08751887,0.1954093,-0.917214691638947,-0.603545606136322,0.650878548622131,-1.07501419914593,-0.462548577472581,0.665484999299265,10
2.23999786376953,-0.871893584728241,2.04731702804565,1.88816571235657,-1.24540792547886,2.42995214277345,1.91382392305993,3120.339,2983.449,4163.406,152.95,-0.2658548,0.08753202,0.1963395,-0.924741327762604,-0.603677570819855,0.655937135219574,-1.07877930973132,-0.464168599372462,0.667815782108711,10
2.26000213623047,-0.890516877174377,2.03525328636169,1.90132486820221,-1.26702351885107,2.42065155681516,1.92720500505083,3117.192,3075.156,4223.645,0,-0.2657878,0.08732174,0.1981179,-0.931165218353271,-0.603192806243896,0.657958626747131,-1.08227271937422,-0.465671715947234,0.669978369091845,10
2.27999877929688,-0.909287631511688,2.02318954467773,1.91459453105927,-1.28869796983554,2.41132564607061,1.9406225227075,3097.762,3000.99,4124.555,203.0568,-0.2643443,0.08713183,0.1992612,-0.93853884935379,-0.603192985057831,0.663481712341309,-1.08549040888332,-0.467056197851165,0.67197027217779,10
2.30000305175781,-0.928175270557404,2.01114368438721,1.92788708209991,-1.31044231452835,2.40196966201596,1.95408330789913,3110.35,3103.19,4205.546,0,-0.2639528,0.08674325,0.2014232,-0.944386422634125,-0.602298557758331,0.664625883102417,-1.08843358680109,-0.468322565086307,0.673792239511894,10
2.31999969482422,-0.947209060192108,1.99910151958466,1.94130527973175,-1.33223444283894,2.39259311800549,1.96757367342642,3073.086,3006.819,4057.821,295.2137,-0.2617206,0.08653639,0.2025439,-0.951689898967743,-0.602107524871826,0.670912742614746,-1.09109887036509,-0.469469362144493,0.675442177003072,10
2.33999633789063,-0.966345429420471,1.98708844184875,1.95472157001495,-1.35407709248145,2.38319483607731,1.98109531406483,3089.351,3153.911,4177.505,0,-0.261189,0.08617917,0.2050318,-0.956811904907227,-0.600647926330566,0.670812606811523,-1.09348640563071,-0.470496651869278,0.67692017506657,10
2.36000061035156,-0.985626220703125,1.97508609294891,1.96827852725983,-1.37597305876702,2.37377361348711,1.99464996024512,3053.096,2997.26,3983.954,404.3246,-0.2582936,0.08614712,0.2058734,-0.964045882225037,-0.600125312805176,0.677851021289825,-1.09559602313537,-0.471404361345641,0.678226128796969,10
2.37999725341797,-1.00499439239502,1.96312594413757,1.98180794715881,-1.39790005743958,2.36433903852774,2.00822381695123,3061.273,3214.041,4145.44,0,-0.2578116,0.08601799,0.2085088,-0.968406319618225,-0.598003447055817,0.676472663879395,-1.09742530100382,-0.472191448508328,0.679358538938131,10
2.40000152587891,-1.02450323104858,1.9511866569519,1.99548470973969,-1.4198692197338,2.35488632173988,2.02182377494768,3046.951,2975.321,3925.48,493.4232,-0.254603,0.08628155,0.2088868,-0.975442588329315,-0.596968829631805,0.683841288089752,-1.09897493039424,-0.472858210743393,0.680317833349887,10
2.41999816894531,-1.04408478736877,1.93930375576019,2.00911068916321,-1.44185817738692,2.34542508756209,2.03543598721428,3031.602,3261.679,4124.805,0,-0.2543324,0.08648816,0.2114278,-0.979081213474274,-0.594136893749237,0.681294560432434,-1.10024313330221,-0.473403883025206,0.681102911362803,10
2.44000244140625,-1.063800573349,1.92745447158813,2.02288174629211,-1.46387808506052,2.33595053645515,2.04906735901791,3054.164,2947.183,3897.181,540.314,-0.2511553,0.08706668,0.2112578,-0.985783159732819,-0.592467546463013,0.688557147979736,-1.10123038958312,-0.473828671822132,0.681714070030222,10
2.45999908447266,-1.08357715606689,1.91567432880402,2.03658723831177,-1.48590651627916,2.32647231790489,2.06270400730194,3003.812,3293.293,4114.357,0,-0.2511398,0.08762047,0.2135282,-0.98883056640625,-0.589003086090088,0.685279309749603,-1.10193556692257,-0.474132089930926,0.682150608395601,10
2.48000335693359,-1.10347652435303,1.90394175052643,2.05042195320129,-1.50795464064698,2.31698562594271,2.07635284658344,3074.147,2917.237,3907.401,530.6317,-0.2483233,0.08842684,0.2129004,-0.994967401027679,-0.586629927158356,0.691732883453369,-1.10235893238473,-0.47431425226183,0.68241269178437,11
2.5,-1.12342834472656,1.89228868484497,2.06418657302856,-1.52999999932945,2.30750012397766,2.08999997377396,2992.609,3288.992,4118.721,0,-0.2485102,0.08919457,0.2147335,-0.99759840965271,-0.582659602165222,0.68823117017746,-1.10250000050292,-0.474374949932098,0.682500019669533,11
2.51999664306641,-1.14348793029785,1.88069677352905,2.07805299758911,-1.55204535801192,2.29801462201262,2.10364710096447,3098.71,2897.29,3954.037,462.6908,-0.2462721,0.09002834,0.2138529,-1.00298035144806,-0.579602658748627,0.693315863609314,-1.10235893238473,-0.47431425226183,0.68241269178437,11
2.54000091552734,-1.16359519958496,1.86919069290161,2.09185409545898,-1.57409348237975,2.28852793005043,2.11729594024597,2995.243,3252.143,4136.912,0,-0.2465139,0.09077489,0.2152265,-1.00536382198334,-0.575292348861694,0.690059781074524,-1.10193556692257,-0.474132089930926,0.682150608395601,11
2.55999755859375,-1.18379390239716,1.85775673389435,2.10572719573975,-1.59612191359838,2.27904971150017,2.13093258853001,3117.334,2894.573,4016.76,361.122,-0.2448265,0.09139696,0.2143799,-1.00993680953979,-0.571696937084198,0.693653523921967,-1.10123038958312,-0.473828671822132,0.681714070030222,11
2.58000183105469,-1.20403707027435,1.84641253948212,2.11954426765442,-1.61814182127198,2.26957516039323,2.14456396033363,3006.723,3197.291,4159.441,0,-0.2449309,0.09186315,0.2154512,-1.01215851306915,-0.56721693277359,0.690854966640472,-1.10024313330221,-0.473403883025206,0.681102911362804,11
2.59999847412109,-1.22435688972473,1.83514678478241,2.13340711593628,-1.64013077892511,2.26011392621545,2.15817617260023,3117.185,2906.762,4073.346,265.4109,-0.243504,0.09208063,0.2149197,-1.01598501205444,-0.563279628753662,0.69314569234848,-1.09897493039424,-0.472858210743393,0.680317833349887,11
2.62000274658203,-1.24471783638,1.82397222518921,2.14722228050232,-1.66209994121933,2.25066120942759,2.17177613059669,3023.588,3138.862,4176.532,0,-0.2432414,0.09205849,0.2159289,-1.01805222034454,-0.558735609054565,0.690753042697906,-1.09742530100382,-0.472191448508328,0.679358538938131,11
2.63999938964844,-1.26514458656311,1.81287896633148,2.16107034683228,-1.68402693989188,2.24122663446822,2.18534998730279,3095.174,2933.111,4095.239,210.8337,-0.2416126,0.09177418,0.2158798,-1.02133846282959,-0.554665625095367,0.692397952079773,-1.09559602313537,-0.471404361345641,0.67822612879697,11
2.66000366210938,-1.28560698032379,1.80187773704529,2.17486953735352,-1.70592290617745,2.23180541187802,2.19890463348308,3033,3100.84,4177.917,0,-0.2408472,0.09118089,0.2171323,-1.02311229705811,-0.550058364868164,0.689961135387421,-1.09348640563071,-0.470496651869278,0.67692017506657,10
2.68000030517578,-1.30613029003143,1.79095721244812,2.18870902061462,-1.72776555581996,2.22240712994983,2.2124262741215,3048.426,2964.727,4058.443,235.7383,-0.2384658,0.09046156,0.2175412,-1.0261697769165,-0.546032965183258,0.691971659660339,-1.09109887036509,-0.469469362144494,0.675442177003072,9
2.69999694824219,-1.32667791843414,1.78013205528259,2.20248293876648,-1.74955768413056,2.21303058593937,2.22591663964878,3021.015,3105.95,4155.645,0,-0.2371955,0.08940831,0.2193281,-1.02737605571747,-0.541252613067627,0.688696146011353,-1.08843358680109,-0.468322565086308,0.673792239511893,9
2.72000122070313,-1.34728872776031,1.76938509941101,2.21632647514343,-1.77130202882336,2.20367460188472,2.23937742484041,2982.826,2987.756,3952.51,360.0738,-0.2335667,0.08850796,0.2199444,-1.03054070472717,-0.537354230880737,0.692174851894379,-1.08549040888332,-0.467056197851165,0.671970272177789,8
2.73999786376953,-1.36790561676025,1.75874078273773,2.23006963729858,-1.79297647980783,2.19434869114016,2.25279494249708,2980.219,3166.847,4105.073,0,-0.2319491,0.08730691,0.2224277,-1.03084421157837,-0.532212138175964,0.687152922153473,-1.08227271937422,-0.465671715947234,0.669978369091845,8
2.76000213623047,-1.38859283924103,1.74817311763763,2.24392890930176,-1.81459207318004,2.18504810518187,2.26617602448799,2913.428,2990.021,3784.12,574.1158,-0.2268545,0.08662011,0.2228025,-1.03436875343323,-0.528389394283295,0.692959189414978,-1.07877930973132,-0.464168599372462,0.667815782108711,7
2.77999877929688,-1.40926122665405,1.73772013187408,2.25763320922852,-1.83612684690458,2.17578229366013,2.27950707526701,2902.849,3280.882,4036.345,0,-0.2252187,0.08573223,0.2259677,-1.03341257572174,-0.522649645805359,0.685211479663849,-1.07501419914593,-0.462548577472581,0.665484999299265,6
2.80000305175781,-1.4300103187561,1.72734534740448,2.27151107788086,-1.85759178470316,2.16654653058634,2.29279489428112,2855.498,2959.778,3576.765,849.2957,-0.2187137,0.08572531,0.2255193,-1.0374528169632,-0.518733978271484,0.693898856639862,-1.07097597819164,-0.460811043810786,0.662985148161422,5
2.81999969482422,-1.45071017742157,1.71710062026978,2.28516864776611,-1.87896509797278,2.15735019098767,2.30602599334712,2789.391,3443.018,3952.976,0,-0.2174641,0.08568932,0.2291891,-1.03500092029572,-0.512241005897522,0.682883560657501,-1.06666929835407,-0.458957999791384,0.660319108186353,5
2.83999633789063,-1.47149765491486,1.70694208145142,2.29904770851135,-1.90024960698239,2.14819206138118,2.31920211834584,2830.597,2886.166,3378.223,1122.756,-0.2100478,0.08676575,0.2273952,-1.03937304019928,-0.507924616336823,0.69395124912262,-1.06209435025759,-0.456989527434725,0.657486997379635,4
2.86000061035156,-1.49220621585846,1.69692969322205,2.31264424324036,-1.9214480311499,2.13907097167731,2.33232495272651,2667.071,3608.349,3871.876,0,-0.209594,0.08799376,0.2311,-1.03542494773865,-0.500617802143097,0.679831147193909,-1.05725102347782,-0.454905579228273,0.654488747383304,3
2.87999725341797,-1.51299738883972,1.68701899051666,2.32647705078125,-1.94253888918396,2.12999616467562,2.34538119854648,2854.898,2776.642,3253.452,1301.025,-0.2022559,0.09028416,0.2276559,-1.03956127166748,-0.495530784130096,0.691641867160797,-1.05214490868305,-0.452708560680416,0.651327819087361,2
2.90000152587891,-1.53368616104126,1.67726898193359,2.33999013900757,-1.96353299953007,2.12096298550123,2.3583775529389,2570.033,3723.854,3811.522,0,-0.2029148,0.09285586,0.2307183,-1.03444576263428,-0.48751300573349,0.675655663013458,-1.04677411523767,-0.450397658303471,0.648003042098304,1
2.91999816894531,-1.55443274974823,1.66764211654663,2.35369324684143,-1.98440911693069,2.11198057539494,2.37130086407726,2930.195,2650.94,3280.393,1279.281,-0.1970654,0.09604652,0.225804,-1.0373295545578,-0.48133111000061,0.685158550739288,-1.04114485287423,-0.447975543971863,0.644518260536375,0
2.94000244140625,-1.57506799697876,1.65818512439728,2.36708617210388,-2.00517798053537,2.10304431360073,2.38415778000673,2548.79,3707.953,3804.137,0,-0.1988289,0.09948692,0.2273925,-1.03174924850464,-0.472852259874344,0.669647037982941,-1.03525504859546,-0.445441325732794,0.640872191117535,0
2.95999908447266,-1.59571421146393,1.64887475967407,2.38055729866028,-2.02581860575671,2.0941632292003,2.39693531026807,3040.247,2560.071,3500.094,979.5552,-0.1958899,0.1027231,0.221798,-1.03231990337372,-0.465507626533508,0.673551440238953,-1.02911152474823,-0.442797939051516,0.637069057199471,0
2.98000335693359,-1.61625719070435,1.63973522186279,2.39378142356873,-2.04634164528706,2.08533273863774,2.40964004938531,2621.875,3516.177,3876.288,0,-0.1983123,0.1059734,0.2213882,-1.0271555185318,-0.45699205994606,0.661204159259796,-1.02271203275434,-0.440044416427654,0.633107466805174,0
3,-1.63675618171692,1.63075840473175,2.40693664550781,-2.06672639957428,2.07656174835205,2.42225918334961,3136.743,2556.954,3870.471,442.354,-0.1988588,0.1080651,0.2164495,-1.02494978904724,-0.448838710784912,0.657761216163635,-1.01606400046349,-0.437183953857422,0.628992018127441,0
3.01999664306641,-1.65717554092407,1.62194085121155,2.41994476318359,-2.08697572864857,2.06784902775215,2.4347944826559,2763.153,3182.141,4019.916,0,-0.2010005,0.1097696,0.2143573,-1.02096331119537,-0.440868526697159,0.6504065990448,-1.00916768936771,-0.434216663853534,0.624722873042298,0
3.04000091552734,-1.67751932144165,1.61327886581421,2.43281245231628,-2.10709234004513,2.05919341186127,2.44724762339747,3042.726,2747.813,4141.632,0,-0.2029568,0.1101636,0.2116663,-1.0171891450882,-0.433102309703827,0.643381357192993,-1.00202309041976,-0.43114254252322,0.620300025949072,0
3.05999755859375,-1.69780027866364,1.6047545671463,2.44559621810913,-2.12705600675913,2.05060360379452,2.45960608409476,2881.179,2895.196,4129.326,0,-0.2036216,0.1097955,0.2098383,-1.01404500007629,-0.426215827465057,0.639189898967743,-0.994638524886308,-0.427965170275055,0.615728628108227,0
3.08000183105469,-1.71801483631134,1.59635305404663,2.45829820632935,-2.14687713595163,2.04207512564123,2.47187630727625,2799.599,2979.807,4090.598,0,-0.203058,0.1089048,0.2096691,-1.01073813438416,-0.420083224773407,0.635100901126862,-0.987011339258122,-0.424683405378145,0.611007036871143,0
3.09999847412109,-1.73815739154816,1.58806908130646,2.47089385986328,-2.16653584520328,2.033616532251,2.4840459847772,2891.755,2858.066,4088.64,0,-0.2014713,0.1071527,0.2101322,-1.00712418556213,-0.414198577404022,0.629782557487488,-0.979150439632689,-0.421301079877433,0.606140765536421,0
3.12000274658203,-1.75823426246643,1.57989716529846,2.48340821266174,-2.18604243256806,2.0252233926589,2.49612149158362,2900.882,2835.896,4025.43,55.13657,-0.1985243,0.1045571,0.2107495,-1.00385344028473,-0.408602386713028,0.625718832015991,-0.971053025860989,-0.417816988947023,0.601128080678429,0
3.13999938964844,-1.77824079990387,1.57183599472046,2.49583101272583,-2.20537738341953,2.01690410346351,2.50809074721212,2867.695,2914.979,3976.582,33.69929,-0.1950361,0.1011752,0.2121888,-1.0003148317337,-0.403046131134033,0.621144473552704,-0.962728579444533,-0.414235212212131,0.595974851798267,0
3.15999603271484,-1.79818749427795,1.56387948989868,2.5082106590271,-2.22454360124808,2.00865741537402,2.51995554906156,2763.235,2969.172,3816.67,225.7309,-0.1900528,0.09748748,0.2140781,-0.997335374355316,-0.39783638715744,0.618981838226318,-0.95417746870157,-0.410555908149813,0.590681306902481,0
3.18000030517578,-1.81805038452148,1.55603861808777,2.5204598903656,-2.24354380138856,2.00048216005771,2.53171757805356,2781.585,2992.635,3837.667,135.3996,-0.1855227,0.0932259,0.21698,-0.993136346340179,-0.392038613557816,0.612464070320129,-0.94539982440085,-0.406779133026206,0.58524752694315,0
3.19999694824219,-1.83787441253662,1.54830002784729,2.53274464607239,-2.2623590635174,1.99238647840124,2.54336512160655,2594.372,3030.509,3502.223,618.7261,-0.1778651,0.08947705,0.2191235,-0.991208553314209,-0.38694366812706,0.614236354827881,-0.936405971974636,-0.402909329586355,0.579679903854719,0
3.22000122070313,-1.85757291316986,1.54070484638214,2.54474377632141,-2.28099938900442,1.98436606709459,2.55490437104486,2795.489,3053.837,3852.021,0,-0.1742213,0.0846936,0.2233171,-0.984936416149139,-0.379762023687363,0.599957227706909,-0.927192788821982,-0.398945154262308,0.573976504598449,0
3.23999786376953,-1.87731075286865,1.5332019329071,2.55705618858337,-2.29944628156995,1.97642888457015,2.56632387629027,2302.276,3083.51,2925.005,1430.641,-0.1617018,0.08219209,0.2236319,-0.986886203289032,-0.375133991241455,0.615615725517273,-0.917771149318993,-0.394891285994308,0.568144060931169,0
3.26000213623047,-1.89686703681946,1.52585780620575,2.56890416145325,-2.31770961544581,1.96857068222185,2.57762974996267,2292.044,3718.892,3631.515,0,-0.1583196,0.0798619,0.2316517,-0.977805852890015,-0.367213636636734,0.592401802539825,-0.90813782126959,-0.39074633405868,0.562180571969535,0
3.27999877929688,-1.91653454303741,1.51861095428467,2.58131003379822,-2.33577134012187,1.96079922667992,2.58881081793642,2190.1,2841.348,2165.382,2529.709,-0.1401488,0.08121774,0.228797,-0.983372032642365,-0.362337976694107,0.620297372341156,-0.898304216251578,-0.386515208538549,0.556093102023818,0
3.30000305175781,-1.93595159053802,1.51154780387878,2.59301066398621,-2.35364119854729,1.95311032582551,2.59987311156116,1895.744,4326.396,3355.733,0,-0.1380647,0.08342066,0.2385435,-0.97086089849472,-0.353169649839401,0.585030496120453,-0.888267004546666,-0.382196476749158,0.549879589839776,0
3.31999969482422,-1.9555299282074,1.50462412834167,2.6054482460022,-2.37130160722417,1.94551154534655,2.61080574581408,2272.869,2453.91,1499.77,3478.577,-0.1168164,0.08984622,0.2297616,-0.978926062583923,-0.346177518367767,0.621878981590271,-0.878038122530657,-0.377795274579551,0.543547424602645,0
3.33999633789063,-1.97480475902557,1.49790930747986,2.61701583862305,-2.38875555478454,1.93800159931817,2.62161057080077,1466.996,5032.055,3005.856,0,-0.1183157,0.0979274,0.2390829,-0.963735997676849,-0.335743397474289,0.578376412391663,-0.867618167158097,-0.373311858882592,0.53709697585572,0
3.36000061035156,-1.994185090065,1.49140691757202,2.62917590141296,-2.406005803634,1.93057929915441,2.6322892965819,2609.051,1865.72,1454.316,3709.601,-0.1008688,0.1088454,0.2242046,-0.969016313552856,-0.32511892914772,0.607999801635742,-0.857007552155826,-0.36874640767338,0.530528499715627,0
3.37999725341797,-2.01325297355652,1.48514604568481,2.64052319526672,-2.42303550945299,1.9232518924954,2.64283149572124,1491.107,5120.28,2830.42,0,-0.1072359,0.1211973,0.2276802,-0.953398287296295,-0.31305006146431,0.567364990711212,-0.846218976345105,-0.364104384899943,0.523849857357654,0
3.40000152587891,-2.03223514556885,1.47916078567505,2.65191459655762,-2.43985407218584,1.9160153348077,2.65324298723213,3156.367,1443.611,2457.83,2457.582,-0.1032955,0.1326406,0.2094323,-0.9491086602211,-0.299260079860687,0.569574058055878,-0.835248923368004,-0.359384277571698,0.517058871988738,0
3.41999816894531,-2.05094289779663,1.47344398498535,2.66283249855042,-2.45644516534361,1.90887665092339,2.66351366424015,2061.703,4175.31,3167.407,0,-0.1134917,0.1441681,0.2020635,-0.935383021831512,-0.28583499789238,0.545891344547272,-0.824110582941664,-0.354591760855451,0.510163708672097,0
3.44000244140625,-2.06935453414917,1.46801161766052,2.67319297790527,-2.47281804716281,1.90183185728196,2.67364925803476,3516.176,1757.401,4085.269,0,-0.1275143,0.1510112,0.1866442,-0.920579433441162,-0.271627247333527,0.518019795417786,-0.812800388649434,-0.349725300221754,0.503162159625937,0
3.45999908447266,-2.08755373954773,1.46281242370605,2.6834659576416,-2.48895692832918,1.89488774758421,2.68363999427827,2645.14,2671.208,4044.066,0,-0.1383491,0.1563562,0.1718591,-0.909945428371429,-0.259944349527359,0.513647198677063,-0.801332006385299,-0.344790775723006,0.496062684689628,0
3.48000335693359,-2.10553598403931,1.45776104927063,2.69373226165771,-2.50487092366784,1.88804039997555,2.69349151548162,1784.255,3729.568,3753.725,0,-0.1470986,0.1628311,0.1671546,-0.899111747741699,-0.252579063177109,0.513310611248016,-0.78970183472369,-0.339786637766397,0.488863054409187,0
3.5,-2.12325215339661,1.45282816886902,2.70368027687073,-2.5205447997813,1.88129636896134,2.70319439144611,2298.187,2816.339,4057.684,0,-0.1540857,0.1684733,0.1655284,-0.885819613933563,-0.246649608016014,0.497397541999817,-0.777924000354857,-0.334718964672089,0.481572013878822,0
3.51999664306641,-2.14073729515076,1.44800519943237,2.71335887908936,-2.53598168290031,1.87465430941181,2.7127505574575,2954.211,1929.51,4278.712,0,-0.1559925,0.1712438,0.1594145,-0.87426221370697,-0.241155505180359,0.48392528295517,-0.765999459475408,-0.329588167864767,0.474190155029786,0
3.54000091552734,-2.15804696083069,1.44324970245361,2.72307276725769,-2.55118444594166,1.86811298519115,2.72216179198813,2587.039,2711.664,3854.875,0,-0.1531232,0.1726,0.1545032,-0.865472018718719,-0.23775988817215,0.485695898532867,-0.753929052770513,-0.324394609067776,0.466717998286246,0
3.55999755859375,-2.1751492023468,1.43853640556335,2.73275589942932,-2.56613872308604,1.86167857751006,2.73141920191151,2258.994,3309.383,3511.697,0,-0.1500531,0.1736504,0.1553809,-0.85512775182724,-0.235668540000916,0.484155207872391,-0.741727567798258,-0.319144650954242,0.459164697851087,0
3.58000183105469,-2.1920018196106,1.43388247489929,2.74214577674866,-2.58085326729328,1.85534732021446,2.74052820572674,2763.843,2557.765,3701.264,0,-0.1483716,0.1726719,0.1558225,-0.842613697052002,-0.232697337865829,0.469498753547668,-0.729391385793765,-0.313836736470737,0.451528013536464,0
3.59999847412109,-2.20863962173462,1.42929089069366,2.75136923789978,-2.59531431270705,1.84912513636775,2.74948028171299,2853.106,2299.719,3658.941,219.6612,-0.1445798,0.1695083,0.1528495,-0.831888556480408,-0.229577302932739,0.461171120405197,-0.716935713767317,-0.308477408768949,0.443817359206151,0
3.62000274658203,-2.22506260871887,1.42475628852844,2.76046681404114,-2.60953046793176,1.84300832192796,2.75828075900647,2493.537,2980.2,3538.713,0,-0.1417318,0.1651622,0.1528513,-0.821146905422211,-0.226721420884132,0.454879969358444,-0.704356955827444,-0.303065120637236,0.436030508832034,0
3.63999938964844,-2.24125742912292,1.42028534412384,2.76934194564819,-2.6234885835008,1.83700253474321,2.76692149746096,2545.377,2813.706,3622.643,0,-0.1401851,0.1593358,0.1547305,-0.80973607301712,-0.223544552922249,0.443755388259888,-0.691670720740692,-0.297606588091786,0.428177124984152,0
3.65999603271484,-2.25725340843201,1.4158763885498,2.77807855606079,-2.63719194552437,1.83110636089208,2.77540453133521,2445.531,2678.653,3551.192,308.2319,-0.1363608,0.1524746,0.1565379,-0.799815595149994,-0.220459878444672,0.436829090118408,-0.678878353700696,-0.292102389931838,0.420258040401444,0
3.68000030517578,-2.27304410934448,1.41154110431671,2.7865936756134,-2.65064357486757,1.82531850058072,2.78373173068862,2465.54,2797.963,3671.027,35.63029,-0.1330137,0.1442722,0.1603039,-0.789535403251648,-0.216758087277412,0.425752639770508,-0.665981146317811,-0.286553081901244,0.412274054652249,0
3.69999694824219,-2.28869271278381,1.4072687625885,2.79514503479004,-2.66383127580226,1.81964420129024,2.79189554578451,2185.606,2848.591,3263.94,688.6242,-0.1244032,0.1361854,0.1639228,-0.782424092292786,-0.21361231803894,0.427565038204193,-0.65299527533123,-0.280965624398954,0.404235181908735,0
3.72000122070313,-2.30413842201233,1.40309190750122,2.80338954925537,-2.6767633032417,1.81407991116207,2.79990108680742,2375.622,2993.761,3574.892,0,-0.1192121,0.1269707,0.171091,-0.772290468215942,-0.208848550915718,0.412224322557449,-0.639917282339434,-0.275338529371411,0.396139281255611,0
3.73999786376953,-2.31952619552612,1.39898884296417,2.81196141242981,-2.68942811570037,1.808630596175,2.80774120902801,1884.328,2874.18,2567.946,1670.627,-0.1027394,0.1198184,0.1741034,-0.769385695457458,-0.205157518386841,0.428592771291733,-0.626763698705669,-0.269678909802388,0.38799658639423,0
3.76000213623047,-2.33468842506409,1.39501285552979,2.82002902030945,-2.70183383146282,1.803292763258,2.81542093805117,2072.986,3551.577,3275.523,0,-0.09639844,0.1123533,0.1849195,-0.758105933666229,-0.198789089918137,0.403382569551468,-0.613531154887639,-0.263985315871967,0.379805011417393,0
3.77999877929688,-2.34988284111023,1.39115428924561,2.82872772216797,-2.7139695770734,1.79807109095524,2.82293354268985,1718.138,2672.382,1624.388,2988.248,-0.07220256,0.1088936,0.183952,-0.759719789028168,-0.192939594388008,0.434936493635178,-0.60023651686137,-0.258265004538452,0.371574997167698,0
3.80000305175781,-2.36481213569641,1.38746190071106,2.83663821220398,-2.72584333814708,1.79296214327972,2.83028396642013,1626.092,4322.799,2890.369,0,-0.06725813,0.1061075,0.1968356,-0.746473133563995,-0.184625178575516,0.395520746707916,-0.586876524285838,-0.252516572968186,0.363304525338741,0
3.81999969482422,-2.3798360824585,1.38396954536438,2.84537053108215,-2.73744492223163,1.78797030575888,2.83746589962856,1778.951,2211.549,826.6453,4174.95,-0.03916338,0.1083196,0.188785,-0.751182794570923,-0.174605071544647,0.436620056629181,-0.573468357077023,-0.246747413199059,0.355004231116903,0
3.83999633789063,-2.39456534385681,1.38068151473999,2.85309982299805,-2.74877791451009,1.78309403578861,2.84448156171422,1170.524,5098.494,2500.911,0,-0.03843953,0.1120858,0.2006789,-0.736471652984619,-0.164393499493599,0.386461406946182,-0.560014026276881,-0.240958390526246,0.346675359432959,0
3.86000061035156,-2.40934944152832,1.3776867389679,2.86148858070374,-2.75984563331209,1.77833190558438,2.85133300688122,2152.267,1547.482,772.3822,4463.016,-0.0145382,0.1195631,0.1850439,-0.73919016122818,-0.149747654795647,0.419443696737289,-0.546515580872635,-0.235150386571708,0.338319178707605,0
3.87999725341797,-2.42383480072021,1.37494254112244,2.86893630027771,-2.77063893010371,1.77368785150474,2.85801457175126,1179.997,5224.805,2312.602,0,-0.01932017,0.1283112,0.1898714,-0.724271476268768,-0.137199729681015,0.372381597757339,-0.532990631455729,-0.229330978680956,0.329946590735853,0
3.90000152587891,-2.43819904327393,1.37252759933472,2.8764488697052,-2.78116548164984,1.76915857045225,2.8645310086075,2734.101,1161.512,1847.266,3075.34,-0.01064998,0.1368011,0.170111,-0.718212902545929,-0.120765261352062,0.375634074211121,-0.519436284009554,-0.223498921639498,0.32155580398356,0
3.91999816894531,-2.45226383209229,1.37040162086487,2.8833909034729,-2.79141684911929,1.7647476934202,2.87087709341145,1778.672,4232.055,2688.095,0,-0.02010846,0.1448636,0.1628272,-0.703253924846649,-0.106288976967335,0.347104251384735,-0.505870408491346,-0.2176619043907,0.313157880805522,0
3.94000244140625,-2.46601295471191,1.36855888366699,2.88979530334473,-2.8014005971492,1.76045196555656,2.87705750903383,3079.693,1631.441,3517.909,447.1656,-0.03156911,0.1485779,0.1460314,-0.687449932098389,-0.0921473279595375,0.320215106010437,-0.492290296490434,-0.211818761581115,0.30475114456651,0
3.95999908447266,-2.47946310043335,1.36696434020996,2.89602994918823,-2.81110900652845,1.75627470822223,2.88306747691526,2290.731,2756.607,3628.806,0,-0.0429504,0.1501062,0.1318015,-0.672525227069855,-0.0797265022993088,0.311732232570648,-0.478714054341681,-0.205977283860804,0.296346803950332,0
