t,x_s1,x_s2,x_s3,x_s_d1,x_s_d2,x_s_d3,propellers_rpms1,propellers_rpms2,propellers_rpms3,propellers_rpms4,rollRad,pitchRad,yawRad,v_s1,v_s2,v_s3,v_s_d1,v_s_d2,v_s_d3,insideCount
0,-0.0599999986588955,2.94000005722046,1.17999994754791,-0.0599999986588955,2.94000005722046,1.17999994754791,0,0,0,0,0,0,0,0,0,0,-1.06581410364015E-15,4.44089209850063E-16,4.44089209850063E-16,0
0.0200042724609375,-0.0599999986588955,2.94000005722046,1.17729234695435,-0.0600018701838461,2.93999925195556,1.18000110611101,0,0,0,0,0.0163538,-0.002474609,-2.024222E-05,3.71994488546079E-08,3.50004931704007E-08,-0.135377958416939,-0.000280105751305916,-0.000120521679537258,0.00017339880334547,5
0.0400009155273438,-0.0599999986588955,2.94000005722046,1.17105865478516,-0.0600148724204753,2.93999365745638,1.18000915511487,0,0,0,0,0.03270752,-0.004950816,-5.430172E-05,3.48044650877455E-08,3.30428591155396E-08,-0.311683237552643,-0.00111101934050116,-0.00047804058392963,0.00068777389696065,6
0.05999755859375,-0.0600004307925701,2.94013142585754,1.16552245616913,-0.0600498857373401,2.93997859220429,1.18003083002592,3161.645,2810.171,1469.512,2738.824,0.03139259,-0.004977448,-0.01632784,-2.15872623812174E-05,0.00656331889331341,-0.276811599731445,-0.00247936261166862,-0.00106680046642749,0.00153484356504269,6
0.0800018310546875,-0.0599182620644569,2.94037842750549,1.16100013256073,-0.0601175574246769,2.93994947496775,1.18007272202403,3028.851,3011.934,2083.585,1979.165,0.019216,-0.004420315,-0.04309314,0.00410841964185238,0.0123497452586889,-0.226116538047791,-0.00437268608126799,-0.00188144466206175,0.00270690098422899,6
0.0999984741210938,-0.0596519224345684,2.94066071510315,1.15742909908295,-0.0602281887669101,2.93990187339187,1.18014120809498,2573.092,3764.134,2528.135,1069.444,-0.005652293,-0.003074886,-0.0691053,0.0133169954642653,0.0141157731413841,-0.178551480174065,-0.00677637982016689,-0.00291568692648091,0.00419490191241918,6
0.120002746582031,-0.0591362528502941,2.94084787368774,1.154620885849,-0.0603919599823235,2.93983140721312,1.18024259027882,1989.706,4004.103,3075.543,694.8513,-0.03990694,-0.0007073356,-0.08794237,0.0257835201919079,0.0093637378886342,-0.140408098697662,-0.00967921398219614,-0.00416469537060396,0.00599189453988277,5
0.139999389648438,-0.0583610385656357,2.94078660011292,1.15244734287262,-0.0606185767455666,2.93973390035084,1.18038287685052,1381.581,3936.988,3641,663.8789,-0.07574722,0.002033752,-0.09641548,0.0387606397271156,-0.00305870082229376,-0.108674220740795,-0.0130660253322238,-0.00562194567796536,0.00808849210174802,4
0.160003662109375,-0.0573620609939098,2.94033217430115,1.15091991424561,-0.0609177895434042,2.93960515744296,1.18056810382587,1009.32,3669.345,3950.392,872.3066,-0.1041259,0.003834145,-0.09479042,0.0499488785862923,-0.02271593734622,-0.0763733685016632,-0.0169265510445065,-0.00728302204135792,0.0104783414199936,4
0.180000305175781,-0.0561949610710144,2.93938517570496,1.15012359619141,-0.0612986871007165,2.9394412678651,1.18080389755851,1011.159,3363.139,3835.517,1161.008,-0.1193485,0.003850823,-0.08597589,0.0583550781011581,-0.0473452657461166,-0.039814155548811,-0.0212451141043368,-0.00914117907931815,0.0131517376757159,3
0.199996948242188,-0.0549088828265667,2.93791794776917,1.15010976791382,-0.0617704296168641,2.93923829023936,1.18109592864822,1332.708,3133.183,3353.594,1401.619,-0.1214135,0.002340576,-0.07415625,0.0643040239810944,-0.0733579248189926,-0.000691581517457962,-0.0260104776919234,-0.0111915819022102,0.0161017247421801,3
0.220001220703125,-0.0535359419882298,2.93597269058228,1.15082931518555,-0.0623420644491781,2.93899233174064,1.18144979784016,1790.023,3014.639,2724.185,1533.426,-0.115121,0.0002795088,-0.06327404,0.0686471313238144,-0.0972621813416481,0.0359794199466705,-0.03121219533433,-0.0134297356845702,0.019321835755004,3
0.239997863769531,-0.0520958825945854,2.93363213539124,1.15212345123291,-0.0630217183703222,2.93869989564571,1.18187053599376,2172.105,2982.627,2212.474,1546.969,-0.1071507,-0.001340103,-0.0558108,0.0720029696822166,-0.117024928331375,0.0647096261382103,-0.0368338920540454,-0.0158485947310391,0.02280193382306,3
0.260002136230469,-0.0506037846207619,2.93098092079163,1.15377116203308,-0.0638182299684225,2.938357178957,1.18236361461609,2347.353,2985.664,2005.023,1459.808,-0.1029045,-0.001920139,-0.05235455,0.0746049880981445,-0.13256673514843,0.0823832005262375,-0.0428675524613532,-0.0184447102433459,0.0265370570382875,3
0.279998779296875,-0.0490740016102791,2.92807555198669,1.1555722951889,-0.0647390625194898,2.93796097043536,1.18293365383054,2309.02,2995.792,2122.649,1299.066,-0.1047128,-0.001325722,-0.05185121,0.076489120721817,-0.145270332694054,0.0900542810559273,-0.0492963837173861,-0.0212108567320638,0.030516809833474,3
0.300003051757813,-0.0475224331021309,2.92493581771851,1.15741109848022,-0.0657927507678135,2.93750759781875,1.18358593705038,2137.524,3011.373,2442.109,1105.998,-0.111873,0.0001962218,-0.05227732,0.0775784328579903,-0.156992465257645,0.0919386968016624,-0.0561132031658829,-0.0241439437008635,0.0347367458022363,3
0.319999694824219,-0.0459691137075424,2.921550989151,1.15926611423492,-0.0669860785243584,2.93699414222283,1.18432466377777,1943.348,3019.294,2792.445,937.5552,-0.1218204,0.002153752,-0.051611,0.0776659324765205,-0.169245302677155,0.0927508547902107,-0.0633008373176985,-0.0272365818771378,0.0391862337367069,3
0.340003967285156,-0.0444392785429955,2.91789579391479,1.1611762046814,-0.0683273092598492,2.93641704810699,1.18515494949472,1803.508,3001.399,3048.047,841.5878,-0.1315074,0.004016211,-0.04861228,0.0764918476343155,-0.182755395770073,0.0955053940415382,-0.0708528993697216,-0.0304860231979345,0.0438613199015142,3
0.360000610351563,-0.0429609939455986,2.91394686698914,1.1632034778595,-0.0698225328270578,2.93577369517774,1.1860805641102,1757.335,2955.44,3148.151,830.6006,-0.138503,0.005408749,-0.0431496,0.0739141628146172,-0.197444513440132,0.101364992558956,-0.0787518717320621,-0.0338847303337087,0.0487511600740379,3
0.379997253417969,-0.0415606200695038,2.9096941947937,1.16540169715881,-0.0714791088463715,2.935060916796,1.18710606357981,1802.446,2905.523,3097.285,874.6309,-0.1417494,0.006226185,-0.03593563,0.0700187236070633,-0.2126305103302,0.109912596642971,-0.0869889214763108,-0.0374289027221294,0.0538502862508218,3
0.400001525878906,-0.0402593053877354,2.90514612197876,1.16779756546021,-0.0733044112230977,2.93427554017634,1.18823601270221,1908.496,2870.604,2945.643,936.9384,-0.14167,0.006602974,-0.02807771,0.0650657638907433,-0.227400466799736,0.119795277714729,-0.0955558400788823,-0.0411150084648172,0.0591536169647403,3
0.419998168945313,-0.0390722416341305,2.90032696723938,1.17038226127625,-0.0753034649285836,2.93341540321397,1.18947352217404,2025.797,2858.06,2769.677,988.1116,-0.1397169,0.006793989,-0.02059795,0.0593534857034683,-0.240961849689484,0.129235565662384,-0.104434660908044,-0.0449353170220673,0.0646500300148815,3
0.44000244140625,-0.0380102470517159,2.89526891708374,1.17311811447144,-0.077483988232608,2.93247718495301,1.19082336997196,2110.7,2859.426,2639.526,1016.019,-0.1375603,0.007042659,-0.01415151,0.0530994981527328,-0.252902776002884,0.136792153120041,-0.113620829717891,-0.048887868829098,0.0703367061060819,3
0.459999084472656,-0.0370820388197899,2.89000391960144,1.17595720291138,-0.0798502821969742,2.93145903476675,1.19228821865812,2148.129,2866.873,2591.005,1012.544,-0.1364646,0.007497777,-0.008927449,0.0464104451239109,-0.263252079486847,0.141952455043793,-0.123096124252221,-0.0529648233581361,0.0762023647937057,3
0.480003356933594,-0.0362959206104279,2.88455724716187,1.17885732650757,-0.0824098964715798,2.93035770425173,1.19387274182544,2140.626,2876.871,2626.05,978.1163,-0.1370021,0.008197649,-0.004677576,0.0393060445785522,-0.272337526082993,0.145008444786072,-0.132856662250146,-0.057164510180779,0.0822446027733248,4
0.5,-0.0356611236929893,2.87894463539124,1.18179655075073,-0.085166398670376,2.92917165836334,1.1955791479969,2109.221,2883.711,2713.421,927.5969,-0.1390362,0.009086839,-0.0009379653,0.0317399464547634,-0.280629336833954,0.146958351135254,-0.142884000065179,-0.0614789935111996,0.0884520025491718,4
0.519996643066406,-0.0351881086826324,2.87317395210266,1.18477141857147,-0.0881260274065667,2.92789821280061,1.19741129917127,2072.039,2888.501,2818.359,872.7303,-0.1420045,0.01006307,0.002811204,0.0236505884677172,-0.288531571626663,0.148740768432617,-0.153170920546857,-0.0659051680111775,0.0948200963613094,4
0.540000915527344,-0.0348885767161846,2.86724758148193,1.18779563903809,-0.0912951145137283,2.92653464315245,1.19937311505516,2046.817,2885.427,2904.988,834.434,-0.1451391,0.01101759,0.006903128,0.0149766560643911,-0.296322226524353,0.151208385825157,-0.163710711144578,-0.0704401454577151,0.101344728821151,4
0.55999755859375,-0.0347743481397629,2.86116600036621,1.1908894777298,-0.094676112580471,2.92507989413848,1.20146611391775,2042.37,2881.384,2956.065,811.3096,-0.1478385,0.01187089,0.01147282,0.00571148470044136,-0.304081827402115,0.154689520597458,-0.17448465888317,-0.0750758741803766,0.108014315705644,4
0.580001831054688,-0.0348564311861992,2.85493111610413,1.1940723657608,-0.0982762614093182,2.92353085067394,1.20369477754168,2055.657,2875.529,2969.257,808.5681,-0.1497511,0.01259387,0.01643546,-0.00410368852317333,-0.311746627092361,0.159145966172218,-0.185490414529404,-0.0798113433697334,0.11482740272751,4
0.599998474121094,-0.0351441502571106,2.84854745864868,1.19735932350159,-0.102097262171133,2.92188678079254,1.20606015903275,2084.618,2873.019,2951.483,816.4263,-0.1508659,0.01319865,0.0215759,-0.0143861174583435,-0.319178491830826,0.164346635341644,-0.196709126405959,-0.0846384416756885,0.121772319800455,4
0.620002746582031,-0.0356446541845798,2.84202337265015,1.20075488090515,-0.106146271928021,2.92014460501038,1.20856668895334,2116.573,2876.072,2923.071,825.4674,-0.1514534,0.01372773,0.0266791,-0.0250253193080425,-0.326209247112274,0.169780552387238,-0.208139001499973,-0.0895563976148993,0.128847956964108,4
0.639999389648438,-0.0363634675741196,2.83536839485168,1.20425879955292,-0.110424235525481,2.91830391678686,1.21121495220784,2145.636,2879.982,2895.798,836.2715,-0.1518455,0.01422979,0.03153809,-0.0359402820467949,-0.332751363515854,0.175195813179016,-0.219761081350814,-0.0945570538913933,0.136042578028218,4
0.660003662109375,-0.0373045429587364,2.82859325408936,1.20786333084106,-0.114938248900541,2.91636166293851,1.21400934151928,2165.4,2888.766,2887.063,834.1218,-0.1524127,0.01474467,0.03609078,-0.0470542684197426,-0.3387570977211,0.180225983262062,-0.231574097577923,-0.0996398647564507,0.143355397804799,4
0.680000305175781,-0.0384716540575027,2.82170724868774,1.21156358718872,-0.119688496929273,2.91431776391831,1.21694997133476,2176.593,2893.516,2893.965,831.5038,-0.1533166,0.0152947,0.04030542,-0.0583551228046417,-0.344296902418137,0.185010612010956,-0.243559016194652,-0.104796640417365,0.150774633349401,4
0.699996948242188,-0.0398680344223976,2.81471848487854,1.21535313129425,-0.124680083855354,2.91217002351282,1.22004000142426,2181.271,2901.841,2921.285,812.9464,-0.1546663,0.01588234,0.0442932,-0.0698195099830627,-0.349437743425369,0.189478784799576,-0.255710395848158,-0.11002503961202,0.158296916205407,4
0.720001220703125,-0.041497677564621,2.80763220787048,1.21923363208771,-0.129918284978346,2.90991617190799,1.22328269744952,2182.656,2903.241,2954.006,801.3529,-0.1563201,0.01649859,0.04811316,-0.0814821645617485,-0.35431632399559,0.194024249911308,-0.268023157655716,-0.11532287703907,0.16591910230247,4
0.739997863769531,-0.0433643646538258,2.80045199394226,1.22320735454559,-0.135402141159277,2.90755662179454,1.22667746565781,2187.981,2909.339,2990.264,778.0509,-0.1582035,0.01712376,0.05189429,-0.093333899974823,-0.359005123376846,0.198683500289917,-0.280478211503383,-0.120681938755799,0.173629373950669,5
0.760002136230469,-0.0454721786081791,2.79318046569824,1.22728025913239,-0.14113868194985,2.90508834855275,1.23022865767651,2192.482,2909.362,3021.581,767.1701,-0.1601098,0.01774591,0.05567188,-0.105390913784504,-0.363579630851746,0.20364473760128,-0.293075466693575,-0.12610218573757,0.181427675003881,5
0.779998779296875,-0.0478250049054623,2.7858190536499,1.23145973682404,-0.147126184485884,2.90251209348295,1.23393520697061,2204.86,2912.391,3043.87,754.3826,-0.1619415,0.01835347,0.05946663,-0.117641367018223,-0.368071228265762,0.208976536989212,-0.305795832832518,-0.131575403921268,0.189302187598958,5
0.800003051757813,-0.0504260770976543,2.77836966514587,1.23575103282928,-0.153371683173492,2.89982482987671,1.2378014681726,2218.376,2915.503,3060.766,745.3439,-0.163655,0.01894403,0.06327239,-0.130052953958511,-0.372470945119858,0.214562430977821,-0.318639638509124,-0.13710173468952,0.197253115148089,5
0.819999694824219,-0.0532782711088657,2.77083396911621,1.24016046524048,-0.159872691993147,2.89702762739878,1.24182590231796,2235.194,2918.036,3068.704,742.7295,-0.1652316,0.01952248,0.06702729,-0.142610609531403,-0.376785695552826,0.220471903681755,-0.331587821991737,-0.142672976311719,0.205268657531342,5
0.840003967285156,-0.0563833601772785,2.76321458816528,1.24468851089478,-0.166636266402775,2.89411745028271,1.24601287707125,2251.925,2924.493,3079.58,732.8318,-0.166781,0.02009444,0.07072932,-0.155254811048508,-0.380970478057861,0.226405248045921,-0.344641102544584,-0.148289438267168,0.213349260007538,5
0.860000610351563,-0.0597432367503643,2.75551342964172,1.24933958053589,-0.173659158941841,2.89109569582005,1.2503603820997,2267.123,2926.551,3085.729,734.518,-0.1682953,0.02067197,0.07429856,-0.167993485927582,-0.385055601596832,0.232553616166115,-0.357780475378537,-0.153942943326036,0.221483157706883,5
0.879997253417969,-0.0633584558963776,2.74773359298706,1.254110455513,-0.180945630646592,2.88796053060595,1.25487105518773,2282.45,2935.006,3102.605,718.4948,-0.1699352,0.02125701,0.07778506,-0.180760785937309,-0.388997405767441,0.238542914390564,-0.371001963495383,-0.159631780297098,0.229667888678032,5
0.900001525878906,-0.0672304928302765,2.73987627029419,1.25900530815125,-0.188500167066783,2.88471002463366,1.2595476731043,2293.096,2934.884,3115.51,721.1479,-0.171604,0.02186116,0.08111721,-0.193602129817009,-0.392866283655167,0.244741812348366,-0.384301823631742,-0.165354338558695,0.237901135662636,5
0.919998168945313,-0.0713596045970917,2.73194360733032,1.26402163505554,-0.196318384305134,2.8813460641717,1.26438752200817,2309.196,2944.367,3138.065,698.5448,-0.1734559,0.02247564,0.08438516,-0.206455022096634,-0.396633714437485,0.250814914703369,-0.397661187980262,-0.171102499820431,0.246171218589148,5
0.94000244140625,-0.075746938586235,2.7239363193512,1.269162774086,-0.204407453948074,2.87786556348678,1.26939504145298,2316.829,2943.044,3158.226,698.7452,-0.1753399,0.02311078,0.08754177,-0.219367101788521,-0.400367438793182,0.257059186697006,-0.411081631631503,-0.176876941799768,0.254479112513653,5
0.959999084472656,-0.0803930014371872,2.71585512161255,1.27442932128906,-0.212762239776093,2.87427073255068,1.27456705187416,2332.792,2949.867,3181.565,678.993,-0.1773239,0.02375606,0.09065086,-0.23230342566967,-0.404062271118164,0.263328790664673,-0.424544411524882,-0.18266959988136,0.262813214588797,5
0.980003356933594,-0.0852986425161362,2.70770001411438,1.27982413768768,-0.221389982382338,2.87055845593844,1.2799080355438,2343.333,2950.484,3202.946,673.2447,-0.1793096,0.02441586,0.09369461,-0.245282024145126,-0.407752603292465,0.269741475582123,-0.438051398499298,-0.18848127903492,0.271174682952979,5
1,-0.0904644280672073,2.69947099685669,1.28534984588623,-0.230284798736574,2.86673126495361,1.28541435058594,2359.535,2955.023,3222.338,659.8284,-0.1813091,0.0250848,0.09669017,-0.258288830518723,-0.411445647478104,0.276285320520401,-0.451584000205995,-0.194303979492187,0.279552008056641,5
1.01999664306641,-0.0958905518054962,2.69116830825806,1.29100739955902,-0.239450461003889,2.86278753653895,1.29108833215045,2373.052,2957.859,3242.813,649.5706,-0.1833086,0.02576389,0.09964181,-0.271306693553925,-0.415137112140656,0.282876759767532,-0.465139182559269,-0.200136395770846,0.2879433116562,5
1.04000091552734,-0.101577490568161,2.68279123306274,1.29680025577545,-0.24889099213045,2.8587255397331,1.29693247063265,2388.039,2960.154,3258.906,643.0817,-0.1852702,0.02645603,0.1025232,-0.284347116947174,-0.418848127126694,0.289640754461288,-0.478714054341683,-0.205977283860805,0.296346803950333,5
1.05999755859375,-0.107524931430817,2.67434000968933,1.3027286529541,-0.258599401509697,2.85454828239877,1.30294243851408,2405.573,2965.801,3276.742,628.5828,-0.1872671,0.0271568,0.1053572,-0.297372698783875,-0.422559022903442,0.296420127153397,-0.492290296490434,-0.211818761581115,0.30475114456651,5
1.08000183105469,-0.113732725381851,2.66581439971924,1.30879354476929,-0.268583149539609,2.85025255453512,1.30912285413647,2418.12,2967.244,3295.081,623.0272,-0.1892591,0.02787277,0.1081208,-0.31038898229599,-0.426278412342072,0.303244054317474,-0.50587040849135,-0.217661904390701,0.313157880805523,5
1.09999847412109,-0.120200589299202,2.65721416473389,1.31499660015106,-0.278834517009062,2.84584167750307,1.31546893894041,2434.761,2971.271,3312.023,612.3381,-0.1912672,0.02860305,0.1108127,-0.323393672704697,-0.430014371871948,0.310154438018799,-0.519436284009554,-0.223498921639497,0.321555803983559,5
1.12000274658203,-0.126927733421326,2.64853930473328,1.32133638858795,-0.289361068555186,2.84131239645058,1.32198537579665,2449.07,2974.792,3334.034,599.1465,-0.193321,0.02934642,0.1134551,-0.336358159780502,-0.433747142553329,0.316992461681366,-0.532990631455731,-0.229330978680957,0.329946590735853,5
1.13999938964844,-0.133914276957512,2.63978886604309,1.32781708240509,-0.300154365346813,2.83666834237095,1.3286669406667,2463.413,2976.152,3349.602,595.2037,-0.1953487,0.03010883,0.116008,-0.349326491355896,-0.437522709369659,0.324032634496689,-0.546515580872639,-0.235150386571708,0.338319178707607,5
1.16000366210938,-0.141158670186996,2.63096332550049,1.33443427085876,-0.311222084148811,2.83190621216671,1.33551838583369,2480.156,2981.927,3375.816,572.8198,-0.197467,0.03087851,0.1185455,-0.362220108509064,-0.441279739141464,0.330857038497925,-0.560014026276883,-0.240958390526247,0.34667535943296,6
1.18000030517578,-0.148661628365517,2.62206101417542,1.34119546413422,-0.322555076427271,2.82702994219644,1.34253404791935,2491.681,2979.956,3387.904,578.9226,-0.1994835,0.03167363,0.1209689,-0.375147521495819,-0.445114850997925,0.338059604167938,-0.573468357077025,-0.246747413199059,0.355004231116904,6
1.19999694824219,-0.15642061829567,2.61308288574219,1.34809219837189,-0.334156660511822,2.8220381046756,1.34971598112778,2512.443,2989.071,3418.828,543.8875,-0.2016503,0.03246621,0.1234218,-0.387951105833054,-0.448902249336243,0.344837993383408,-0.58687652428584,-0.252516572968185,0.36330452533874,6
1.22000122070313,-0.164437249302864,2.60402679443359,1.35513651371002,-0.346030421585499,2.81692915700008,1.35706640485806,2519.087,2982.417,3426.034,564.8608,-0.2036072,0.03329373,0.1257219,-0.400831282138824,-0.452806055545807,0.35221529006958,-0.600236516861372,-0.258265004538453,0.371574997167698,6
1.23999786376953,-0.172707930207253,2.59489417076111,1.36231625080109,-0.358166167196084,2.81170748469733,1.36457900949675,2547.363,2996.958,3459.085,514.08,-0.2058,0.03410527,0.1280941,-0.413534849882126,-0.456632167100906,0.358986377716064,-0.613531154887641,-0.263985315871967,0.379805011417393,6
1.26000213623047,-0.181234776973724,2.58568215370178,1.36964571475983,-0.370571882958536,2.80636965178032,1.3722587385199,2547.403,2985.756,3463.213,549.4319,-0.2077127,0.03496082,0.1302838,-0.426339894533157,-0.460596680641174,0.366470813751221,-0.626763698705669,-0.269678909802388,0.38799658639423,6
1.27999877929688,-0.190013200044632,2.57639312744141,1.37710905075073,-0.383236695417198,2.80092033679326,1.3800988607405,2580.012,3002.899,3500.433,486.9764,-0.2099167,0.03579152,0.1325753,-0.438921749591827,-0.464449226856232,0.37316820025444,-0.639917282339435,-0.275338529371412,0.396139281255613,6
1.30000305175781,-0.199046224355698,2.56702351570129,1.38472509384155,-0.396168722856641,2.79535604666509,1.38810440176341,2576.085,2988.815,3498.924,535.1364,-0.211757,0.036676,0.1346458,-0.451651275157928,-0.468475610017776,0.380804568529129,-0.652995275331231,-0.280965624398954,0.404235181908735,6
1.31999969482422,-0.208327829837799,2.55757689476013,1.39247190952301,-0.409356423791328,2.7896817473746,1.39626821685929,2614.186,3009.791,3543.297,455.2166,-0.2139957,0.03751975,0.1368731,-0.464080363512039,-0.472332119941711,0.387339681386948,-0.665981146317813,-0.286553081901244,0.412274054652251,6
1.33999633789063,-0.217862650752068,2.54804849624634,1.40037596225739,-0.422802873722428,2.78389611561957,1.40459220990988,2602.742,2990.377,3532.302,526.3456,-0.2157267,0.03843489,0.1388128,-0.476742446422577,-0.476426005363464,0.395202249288559,-0.678873453515705,-0.29210028151913,0.420255006953505,6
1.36000061035156,-0.227642089128494,2.53844356536865,1.4084038734436,-0.436511415158101,2.77799771321212,1.41307845008695,2649.743,3017.413,3590.655,415.847,-0.2180341,0.03928259,0.1410064,-0.488971263170242,-0.48024520277977,0.401395887136459,-0.691670720740693,-0.297606588091785,0.42817712498415,6
1.37999725341797,-0.237674459815025,2.52875471115112,1.41659915447235,-0.450469530727146,2.77199192602736,1.42171918854144,2626.796,2989.86,3557.739,530.089,-0.2195617,0.04023666,0.1427767,-0.501617670059204,-0.484444558620453,0.40976220369339,-0.704356955827446,-0.303065120637236,0.436030508832034,6
1.40000152587891,-0.247945308685303,2.51899170875549,1.42490363121033,-0.464685685951852,2.76587511158757,1.43051966583492,2691.624,3029.49,3645.749,356.2931,-0.2220746,0.04106601,0.1450066,-0.513543307781219,-0.48814982175827,0.415221899747849,-0.716935713767318,-0.308477408768949,0.443817359206152,7
1.41999816894531,-0.258470624685287,2.50914144515991,1.43339335918427,-0.47914673136562,2.75965292774086,1.43947174182117,2639.696,2982.289,3573.591,561.8429,-0.2232251,0.04208068,0.1465356,-0.526267170906067,-0.492515951395035,0.424488008022308,-0.729391385793766,-0.313836736470737,0.451528013536465,7
1.44000244140625,-0.269225567579269,2.49922156333923,1.44196653366089,-0.493861275572861,2.75332167044526,1.4485807456364,2744.942,3048.098,3714.024,263.4924,-0.2261226,0.04285972,0.1489009,-0.537747740745544,-0.495993286371231,0.428658485412598,-0.741727567798258,-0.319144650954242,0.459164697851088,7
1.45999908447266,-0.280240118503571,2.48920845985413,1.45075821876526,-0.508815552717244,2.74688726276417,1.45783815555978,2638.111,2966.704,3569.783,636.5568,-0.2266174,0.0439707,0.1500688,-0.550727546215057,-0.500650107860565,0.439584910869598,-0.753929052770513,-0.324394609067776,0.466717998286247,7
1.48000335693359,-0.291469991207123,2.47913455963135,1.45958602428436,-0.524018315758597,2.74034593854351,1.46724939009041,2817.364,3077.764,3807.364,111.9831,-0.2302585,0.04464101,0.1527544,-0.561490833759308,-0.503690719604492,0.44138890504837,-0.765999459475408,-0.329588167864767,0.474190155029787,7
1.5,-0.302971720695496,2.46895670890808,1.46869504451752,-0.539455198877605,2.73370387899399,1.4768055561018,2607.73,2936.429,3527.917,795.0897,-0.2295693,0.04592493,0.153325,-0.575086951255798,-0.508894503116608,0.45544958114624,-0.777924000354858,-0.334718964672088,0.481572013878822,7
1.51999664306641,-0.314673125743866,2.45872211456299,1.47780585289001,-0.555129074991064,2.72695984797977,1.48650843206629,2806.371,3219.634,3829.597,0,-0.2335901,0.04686087,0.1568303,-0.585071325302124,-0.511725008487701,0.455540895462036,-0.789701834723693,-0.339786637766398,0.488863054409188,7
1.54000091552734,-0.326650977134705,2.44837808609009,1.48722767829895,-0.571043070329722,2.72011250037111,1.49635995326965,2618.613,2864.774,3479.986,953.7509,-0.2319395,0.04857555,0.1568928,-0.598892450332642,-0.517198145389557,0.471092164516449,-0.801332006385301,-0.344790775723006,0.496062684689629,7
1.55999755859375,-0.338818490505219,2.43797874450684,1.49664258956909,-0.587181951496087,2.71316839067337,1.50635068951315,2775.086,3332.25,3792.598,0,-0.2357398,0.05016185,0.1606101,-0.608373820781708,-0.519962787628174,0.470748722553253,-0.812800388649436,-0.349725300221754,0.503162159625937,7
1.58000183105469,-0.351252555847168,2.42747831344604,1.50634145736694,-0.60355483331529,2.70612359703193,1.51648628330776,2703.277,2801.597,3495.923,960.6613,-0.2342804,0.05238304,0.1601234,-0.621704936027527,-0.525021910667419,0.484943121671677,-0.824110582941666,-0.354591760855452,0.510163708672098,7
1.59999847412109,-0.363870412111282,2.41692900657654,1.51602852344513,-0.620145926473056,2.69898491314762,1.52675696031579,2821.37,3306.746,3820.149,0,-0.2382709,0.05441262,0.1629504,-0.630891740322113,-0.527462661266327,0.484353482723236,-0.835248923368005,-0.359384277571697,0.517058871988737,7
1.62000274658203,-0.376743733882904,2.40628981590271,1.5259702205658,-0.636964489205914,2.69174835545992,1.53716845182668,2779.872,2793.256,3586.765,845.7048,-0.2378,0.05685615,0.1618332,-0.643665850162506,-0.531956493854523,0.497083187103271,-0.846218976345106,-0.364104384899943,0.523849857357655,7
1.63999938964844,-0.389800101518631,2.3956024646759,1.53591978549957,-0.653994195024907,2.68442094880091,1.54771065096602,2833.294,3292.283,3869.493,0,-0.2420515,0.05913374,0.1639084,-0.652818024158478,-0.534361839294434,0.497477382421494,-0.857007552155828,-0.368746407673381,0.530528499715628,7
1.66000366210938,-0.403096258640289,2.3848352432251,1.54607903957367,-0.671244443874359,2.67699864863716,1.55838937674714,2850.841,2797.844,3727.634,665.9634,-0.242851,0.06155491,0.1627716,-0.664808452129364,-0.538367092609406,0.507964313030243,-0.867618167158098,-0.373311858882592,0.53709697585572,7
1.68000030517578,-0.416578352451324,2.37401723861694,1.55626845359802,-0.688698391434734,2.66948870260877,1.56919420173384,2879.02,3199.273,3960.513,0,-0.2470588,0.06371579,0.1641578,-0.674106597900391,-0.540906250476837,0.509472608566284,-0.878038122530658,-0.377795274579551,0.543547424602645,8
1.69999694824219,-0.430290222167969,2.363121509552,1.56664335727692,-0.706358800111611,2.66188992212981,1.58012683598675,2899.243,2830.5,3862.934,484.4969,-0.2485171,0.06583378,0.163327,-0.685592532157898,-0.544785559177399,0.518742918968201,-0.888267004546665,-0.382196476749158,0.549879589839776,8
1.72000122070313,-0.444191873073578,2.3521671295166,1.57707595825195,-0.724228658537036,2.6542010212754,1.5911891296115,2909.263,3140.609,4027.764,0,-0.252195,0.06766848,0.1645988,-0.695084929466248,-0.547714650630951,0.521632730960846,-0.898304216251578,-0.386515208538549,0.556093102023817,8
1.73999786376953,-0.458315193653107,2.34113264083862,1.5876796245575,-0.742290383213093,2.64642956573347,1.60237019758524,2936.73,2866.408,3947.232,358.3102,-0.2536634,0.06936519,0.1644,-0.706162571907043,-0.551712393760681,0.53018182516098,-0.908137821269591,-0.39074633405868,0.562180571969536,8
1.76000213623047,-0.472628355026245,2.33003401756287,1.59835314750671,-0.76055371708895,2.63857136338517,1.61367607125764,2954.071,3085.096,4073.376,0,-0.2566616,0.07072683,0.1658308,-0.715656638145447,-0.554945826530457,0.533677637577057,-0.917771149318994,-0.394891285994308,0.568144060931169,8
1.77999877929688,-0.487158954143524,2.31885051727295,1.60919976234436,-0.779000609654483,2.63063418086074,1.62509557650306,2949.681,2903.231,3974.354,314.3538,-0.2575772,0.07199217,0.1661799,-0.726532936096191,-0.559176921844482,0.542328119277954,-0.927192788821983,-0.398945154262308,0.57397650459845,8
1.80000305175781,-0.501875400543213,2.30759906768799,1.62011826038361,-0.797640935141499,2.62261376955408,1.63663482594136,2979.892,3083.052,4082.861,0,-0.2599341,0.07294547,0.1680398,-0.735823333263397,-0.56256902217865,0.545923888683319,-0.936405971974637,-0.402909329586356,0.579679903854719,8
1.81999969482422,-0.516805946826935,2.29626059532166,1.63121426105499,-0.816456197270346,2.61451808789761,1.64828236949435,2954.485,2925.839,3961.676,333.8525,-0.2601578,0.07390633,0.1688015,-0.746527493000031,-0.56692910194397,0.554799437522888,-0.945399824400851,-0.406779133026206,0.585247526943151,8
1.83999633789063,-0.531914949417114,2.28485679626465,1.6423716545105,-0.835449117627072,2.60634596486888,1.66003989195343,3001.581,3095.4,4082.702,0,-0.2620939,0.07458275,0.1710433,-0.755448460578918,-0.570193767547607,0.557867348194122,-0.954174163352093,-0.410554485950274,0.590679260733698,8
1.86000061035156,-0.547236382961273,2.27336668968201,1.65371477603912,-0.854622615239374,2.59809614449182,1.6719092003358,2954.141,2936.431,3935.806,386.5106,-0.2616545,0.07539541,0.171937,-0.766072154045105,-0.574507474899292,0.567155838012695,-0.962728579444532,-0.414235212212131,0.595974851798267,8
1.87999725341797,-0.562728464603424,2.26181721687317,1.66510844230652,-0.873957566090845,2.58977685529642,1.6838784559643,3008.729,3132.626,4073.447,0,-0.2633424,0.0759889,0.1744694,-0.774607837200165,-0.577472805976868,0.569680988788605,-0.971053025860989,-0.417816988947023,0.601128080678429,8
1.90000152587891,-0.578430235385895,2.25018715858459,1.67668890953064,-0.893464153455626,2.58138371570432,1.69595396277071,2964.069,2934.259,3919.027,432.6324,-0.2625174,0.07679674,0.1753268,-0.785088300704956,-0.58149915933609,0.579026281833649,-0.979150439632688,-0.421301079877433,0.606140765536421,8
1.91999816894531,-0.594295799732208,2.23850727081299,1.68830847740173,-0.913122862707269,2.57292512231409,1.70812364027167,3017.169,3155.643,4077.575,0,-0.2641041,0.07742323,0.1779024,-0.793278276920319,-0.583998322486877,0.580978333950043,-0.987011339258123,-0.424683405378145,0.611007036871143,9
1.94000244140625,-0.610368311405182,2.22675561904907,1.70011472702026,-0.932943991899774,2.5643966441608,1.72039386345315,2981.777,2929.473,3920.366,454.5573,-0.2631011,0.07829294,0.1785666,-0.803625702857971,-0.587587177753448,0.590312957763672,-0.994638524886308,-0.427965170275055,0.615728628108227,9
1.95999908447266,-0.626599550247192,2.21496343612671,1.7119551897049,-0.952907658613767,2.55580683609405,1.73275232415044,3018.58,3180.283,4085.474,0,-0.2646213,0.07903069,0.1810671,-0.811558961868286,-0.589611172676086,0.592024743556976,-1.00202309041976,-0.431142542523221,0.620300025949072,9
1.98000335693359,-0.643032491207123,2.20311069488525,1.72397351264954,-0.973024270010337,2.54715122020317,1.74520546489201,3009.973,2921.719,3942.756,443.6011,-0.2636705,0.07997333,0.1815488,-0.821645855903625,-0.592640995979309,0.60091370344162,-1.00916768936771,-0.434216663853535,0.624722873042297,9
2,-0.659620404243469,2.19122695922852,1.73602497577667,-0.993273599084619,2.53843849960327,1.7577407641983,3030.701,3179.554,4104.98,0,-0.2651278,0.08078924,0.1838074,-0.829395771026611,-0.594190835952759,0.602574288845062,-1.01606400046349,-0.437183953857422,0.628992018127441,9
2.01999664306641,-0.67640346288681,2.17929434776306,1.74824190139771,-1.01365835337184,2.52966750931758,1.77035989816261,3040.293,2920.874,3982.104,401.9811,-0.2643539,0.08173753,0.1841445,-0.839152693748474,-0.59663450717926,0.610844075679779,-1.02271203275434,-0.440044416427654,0.633107466805174,9
2.04000091552734,-0.693338811397552,2.16733884811401,1.76049506664276,-1.0341813929022,2.52083701875502,1.78306463727984,3042.185,3169.776,4129.781,0,-0.2656945,0.08255988,0.1861557,-0.84676718711853,-0.597776770591736,0.6126589179039,-1.02911152474823,-0.442797939051516,0.637069057199471,9
2.05999755859375,-0.710461735725403,2.15534496307373,1.77290058135986,-1.05482201812353,2.5119559343546,1.79584216754118,3069.306,2926.307,4024.754,346.8195,-0.2650985,0.08343337,0.1864605,-0.856146037578583,-0.599692523479462,0.620277106761932,-1.03525504859546,-0.445441325732794,0.640872191117535,9
2.08000183105469,-0.727733850479126,2.14333486557007,1.78534543514252,-1.07559088172821,2.50301967256038,1.80869908347065,3055.62,3152.951,4154.803,0,-0.2662746,0.08417202,0.1882926,-0.863606572151184,-0.6004918217659,0.622242212295532,-1.04114485287423,-0.447975543971863,0.644518260536375,9
2.09999847412109,-0.745185434818268,2.13129615783691,1.79792964458466,-1.09646699912883,2.4940372624541,1.82162239460902,3089.242,2934.798,4064.775,295.8357,-0.2657467,0.08490313,0.1886664,-0.872583627700806,-0.601949334144592,0.629210472106934,-1.04677411523768,-0.450397658303471,0.648003042098304,9
2.12000274658203,-0.762782990932465,2.11924719810486,1.81055593490601,-1.11746110947495,2.48500408327971,1.83461874900143,3071.257,3134.189,4175.444,0,-0.266673,0.08548298,0.1904011,-0.879870772361755,-0.602452993392944,0.631312251091003,-1.05214490868305,-0.452708560680417,0.651327819087362,9
2.13999938964844,-0.780551910400391,2.10717678070068,1.82331073284149,-1.138551967509,2.47592927627801,1.8476749948214,3102.158,2947.455,4093.791,255.2293,-0.2660865,0.08602269,0.1909178,-0.8884516954422,-0.603518843650818,0.637741446495056,-1.05725102347782,-0.454905579228273,0.654488747383304,9
2.15999603271484,-0.798461854457855,2.09510231018066,1.83610713481903,-1.15974228854654,2.4668116731246,1.86079281297862,3085.898,3118.451,4190.422,0,-0.2667316,0.08639321,0.1926486,-0.895502030849457,-0.603726446628571,0.639823019504547,-1.06209255378819,-0.456988754464129,0.657485885279498,9
2.18000030517578,-0.816536426544189,2.08301329612732,1.84902513027191,-1.18103490068612,2.45765005696766,1.87397395420079,3105.166,2961.163,4108.413,235.4323,-0.2659358,0.08673003,0.1933302,-0.903725683689117,-0.604447782039642,0.645897746086121,-1.06666929835407,-0.458957999791384,0.660319108186354,10
2.19999694824219,-0.834746181964874,2.07092618942261,1.8619818687439,-1.20240821395574,2.44845371736898,1.88720505326679,3098.532,3111.638,4195.586,0,-0.2662953,0.08688365,0.1951324,-0.910480737686157,-0.604341685771942,0.647839725017548,-1.07097597819164,-0.460811043810786,0.662985148161421,10
2.22000122070313,-0.85311359167099,2.05883169174194,1.87505555152893,-1.22387315175433,2.43921795429519,1.90049287228091,3101.892,2974.462,4107.938,235.4902,-0.2652173,0.08703736,0.1959635,-0.91836941242218,-0.604731142520905,0.653681635856628,-1.07501419914593,-0.462548577472581,0.665484999299265,10
2.23999786376953,-0.871608316898346,2.04674696922302,1.8881596326828,-1.24540792547886,2.42995214277345,1.91382392305993,3105.265,3110.947,4198.03,0,-0.2653318,0.08699883,0.1978792,-0.924739897251129,-0.604237377643585,0.655205190181732,-1.07877930973132,-0.464168599372462,0.667815782108711,10
2.26000213623047,-0.890256106853485,2.03466057777405,1.90138292312622,-1.26702351885107,2.42065155681516,1.92720500505083,3092.076,2985.443,4090.344,260.451,-0.2638543,0.08702859,0.1987721,-0.932393312454224,-0.604319274425507,0.661162793636322,-1.08227271937422,-0.465671715947234,0.669978369091845,10
2.27999877929688,-0.909021973609924,2.02259278297424,1.91462469100952,-1.28869796983554,2.41132564607061,1.9406225227075,3099.279,3129.658,4191.183,0,-0.2637621,0.08688685,0.2008683,-0.938294112682343,-0.603389143943787,0.662087976932526,-1.08549040888332,-0.467056197851165,0.67197027217779,10
2.30000305175781,-0.927936851978302,2.0105299949646,1.92799019813538,-1.31044231452835,2.40196966201596,1.95408330789913,3081.346,2988.036,4058.8,306.8293,-0.2618351,0.08689211,0.2017257,-0.945739984512329,-0.6031414270401,0.668275892734528,-1.08843358680109,-0.468322565086307,0.673792239511894,10
2.31999969482422,-0.946958720684052,1.99849581718445,1.9413583278656,-1.33223444283894,2.39259311800549,1.96757367342642,3088.841,3155.504,4179.146,0,-0.2616071,0.08674715,0.2039606,-0.951093673706055,-0.60170179605484,0.668409705162048,-1.09109887036509,-0.469469362144493,0.675442177003072,10
2.33999633789063,-0.966125547885895,1.98647451400757,1.95485579967499,-1.35407709248145,2.38319483607731,1.98109531406483,3072.587,2984.123,4020.665,362.1895,-0.2592752,0.0868194,0.2046456,-0.958337545394897,-0.601071715354919,0.67487370967865,-1.09348640563071,-0.470496651869278,0.67692017506657,10
2.36000061035156,-0.985387206077576,1.97449314594269,1.9683381319046,-1.37597305876702,2.37377361348711,1.99464996024512,3070.144,3188.808,4164.978,0,-0.2589972,0.08677398,0.2069566,-0.963090002536774,-0.599069654941559,0.674116790294647,-1.09559602313537,-0.471404361345641,0.678226128796969,10
2.37999725341797,-1.00478959083557,1.96253287792206,1.98195517063141,-1.39790005743958,2.36433903852774,2.00822381695123,3069.176,2974.077,3980.399,417.3504,-0.2563671,0.08699179,0.2073528,-0.970113277435303,-0.598013997077942,0.680854916572571,-1.09742530100382,-0.472191448508328,0.679358538938131,10
2.40000152587891,-1.02427399158478,1.95062410831451,1.99553859233856,-1.4198692197338,2.35488632173988,2.02182377494768,3045.427,3225.602,4149.811,0,-0.2561471,0.08713054,0.2096674,-0.974225997924805,-0.595437526702881,0.679169416427612,-1.09897493039424,-0.472858210743393,0.680317833349887,10
2.41999816894531,-1.04389250278473,1.93874633312225,2.00925612449646,-1.44185817738692,2.34542508756209,2.03543598721428,3070.095,2955.409,3952.074,460.6212,-0.2533806,0.08753904,0.2097104,-0.98092645406723,-0.593885660171509,0.685871303081512,-1.10024313330221,-0.473403883025206,0.681102911362803,10
2.44000244140625,-1.0635814666748,1.9269312620163,2.02292490005493,-1.46387808506052,2.33595053645515,2.04906735901791,3024.311,3251.907,4138.133,0,-0.2532576,0.08789051,0.2118941,-0.984449326992035,-0.590761125087738,0.68344247341156,-1.10123038958312,-0.473828671822132,0.681714070030222,10
2.45999908447266,-1.08339524269104,1.91515815258026,2.03671884536743,-1.48590651627916,2.32647231790489,2.06270400730194,3079.132,2935.206,3944.28,471.6867,-0.2505779,0.08845638,0.2115947,-0.990686416625977,-0.588652968406677,0.689695119857788,-1.10193556692257,-0.474132089930926,0.682150608395601,10
2.48000335693359,-1.10326945781708,1.9034571647644,2.05045485496521,-1.50795464064698,2.31698562594271,2.07635284658344,3010.18,3259.513,4134.391,0,-0.2505646,0.08896328,0.2135314,-0.993706941604614,-0.585043132305145,0.6867955327034,-1.10235893238473,-0.47431425226183,0.68241269178437,11
2.5,-1.12325632572174,1.89180994033813,2.06429934501648,-1.52999999932945,2.30750012397766,2.08999997377396,3091.272,2918.98,3959.491,447.1568,-0.2481486,0.08958258,0.212989,-0.999351561069489,-0.582370102405548,0.692219734191895,-1.10250000050292,-0.474374949932098,0.682500019669533,11
2.51999664306641,-1.14329600334167,1.88024234771729,2.07808256149292,-1.55204535801192,2.29801462201262,2.10364710096447,3004.193,3246.587,4139.046,0,-0.2481896,0.090118,0.2146372,-1.00197815895081,-0.578375518321991,0.689158737659454,-1.10235893238473,-0.47431425226183,0.68241269178437,11
2.54000091552734,-1.16343474388123,1.86873877048492,2.091952085495,-1.57409348237975,2.28852793005043,2.11729594024597,3100.497,2910.131,3993.657,393.8755,-0.2460883,0.09064321,0.2140286,-1.0069397687912,-0.575182020664215,0.693472445011139,-1.10193556692257,-0.474132089930926,0.682150608395601,11
2.55999755859375,-1.18362045288086,1.85732042789459,2.10576343536377,-1.59612191359838,2.27904971150017,2.13093258853001,3010.331,3213.905,4147.62,0,-0.246058,0.09102906,0.2154107,-1.00929057598114,-0.570921123027802,0.690568327903748,-1.10123038958312,-0.473828671822132,0.681714070030222,11
2.58000183105469,-1.20389139652252,1.84597420692444,2.11963748931885,-1.61814182127198,2.26957516039323,2.14456396033363,3102.146,2914.118,4033.39,325.4319,-0.2442156,0.09129359,0.2149454,-1.01354444026947,-0.567304372787476,0.693698346614838,-1.10024313330221,-0.473403883025206,0.681102911362804,11
2.59999847412109,-1.22420430183411,1.83471727371216,2.13345646858215,-1.64013077892511,2.26011392621545,2.15817617260023,3021.316,3168.318,4160.775,0,-0.243978,0.09134536,0.2161845,-1.01565110683441,-0.56284898519516,0.690952777862549,-1.09897493039424,-0.472858210743393,0.680317833349887,11
2.62000274658203,-1.24459159374237,1.8235377073288,2.14732456207275,-1.66209994121933,2.25066120942759,2.17177613059669,3086.815,2931.063,4055.102,276.9302,-0.2420851,0.09124225,0.2160081,-1.01935720443726,-0.558978080749512,0.693403363227844,-1.09742530100382,-0.472191448508328,0.679358538938131,11
2.63999938964844,-1.26501476764679,1.81245017051697,2.16113686561584,-1.68402693989188,2.24122663446822,2.18534998730279,3024.234,3137.695,4163.773,0,-0.2414976,0.09087382,0.2173627,-1.02115631103516,-0.554375886917114,0.690610647201538,-1.09559602313537,-0.471404361345641,0.67822612879697,11
2.65999603271484,-1.28550517559052,1.80144190788269,2.17499828338623,-1.70591456353497,2.23180900148401,2.19889946898997,3053.368,2952.222,4036.469,282.0507,-0.239122,0.09042162,0.2175209,-1.02452826499939,-0.550411105155945,0.693071663379669,-1.09348726343002,-0.470497020956359,0.676920706085208,10
2.68000030517578,-1.30602169036865,1.79052996635437,2.18879127502441,-1.72776555581996,2.22240712994983,2.2124262741215,3014.742,3132.314,4151.318,0,-0.2381212,0.08967329,0.2192212,-1.02583003044128,-0.54560387134552,0.689654409885406,-1.09109887036509,-0.469469362144494,0.675442177003072,9
2.69999694824219,-1.32660555839539,1.77969634532928,2.20265483856201,-1.74955768413056,2.21303058593937,2.22591663964878,3004.181,2972.106,3957.682,365.7212,-0.2348083,0.08903462,0.2195472,-1.0291805267334,-0.541675806045532,0.693183183670044,-1.08843358680109,-0.468322565086308,0.673792239511893,9
2.72000122070313,-1.34719908237457,1.76896548271179,2.21642136573792,-1.77130202882336,2.20367460188472,2.23937742484041,2976.853,3177.275,4114.433,0,-0.2334958,0.08813065,0.2218098,-1.02967751026154,-0.536543846130371,0.688322484493256,-1.08549040888332,-0.467056197851165,0.671970272177789,8
2.73999786376953,-1.36786377429962,1.75831234455109,2.23029565811157,-1.79297647980783,2.19434869114016,2.25279494249708,2945.719,2973.786,3821.965,535.2942,-0.2289402,0.08762473,0.2219685,-1.03323984146118,-0.532660126686096,0.693712890148163,-1.08227271937422,-0.465671715947234,0.669978369091845,8
2.76000213623047,-1.38851642608643,1.74777173995972,2.24402809143066,-1.81459207318004,2.18504810518187,2.26617602448799,2911.89,3269.126,4055.766,0,-0.2275378,0.08693376,0.2248178,-1.03263318538666,-0.527032136917114,0.686624526977539,-1.07877930973132,-0.464168599372462,0.667815782108711,7
2.77999877929688,-1.40924668312073,1.73731052875519,2.25791382789612,-1.83612684690458,2.17578229366013,2.27950707526701,2895.54,2949.333,3649.399,760.0229,-0.2217593,0.08693767,0.224347,-1.03651368618011,-0.523062169551849,0.69428288936615,-1.07501419914593,-0.462548577472581,0.665484999299265,6
2.80000305175781,-1.4299384355545,1.72697472572327,2.27160263061523,-1.85759178470316,2.16654653058634,2.29279489428112,2820.677,3397.77,3984.201,0,-0.2206152,0.08688277,0.227625,-1.03458428382874,-0.516785562038422,0.684441387653351,-1.07097597819164,-0.460811043810786,0.662985148161422,6
2.81999969482422,-1.45071160793304,1.71672511100769,2.28548383712769,-1.87896509797278,2.15735019098767,2.30602599334712,2868.79,2891.952,3479.469,989.1706,-0.2140095,0.0877251,0.2260778,-1.03866040706635,-0.512482821941376,0.694056987762451,-1.06666929835407,-0.458957999791384,0.660319108186353,5
2.83999633789063,-1.47141933441162,1.70661532878876,2.29911470413208,-1.90024960698239,2.14819206138118,2.31920211834584,2718.372,3534.611,3912.595,0,-0.2134875,0.0886525,0.229426,-1.03538680076599,-0.505496561527252,0.681543529033661,-1.06209435025759,-0.456989527434725,0.657486997379635,4
2.86000061035156,-1.49220311641693,1.69660449028015,2.31294965744019,-1.9214480311499,2.13907097167731,2.33232495272651,2879.16,2802.922,3369.84,1145.856,-0.2068515,0.09046007,0.2265499,-1.0391970872879,-0.500540673732758,0.691744983196259,-1.05725102347782,-0.454905579228273,0.654488747383304,3
2.87999725341797,-1.51290059089661,1.68674612045288,2.3265016078949,-1.94253888918396,2.12999616467562,2.34538119854648,2639.22,3628.757,3857.572,0,-0.2072019,0.09244302,0.2293907,-1.03486704826355,-0.492915779352188,0.677594304084778,-1.05214490868305,-0.452708560680416,0.651327819087361,2
2.90000152587891,-1.53365278244019,1.67700552940369,2.34022092819214,-1.96353299953007,2.12096298550123,2.3583775529389,2932.714,2702.998,3380.618,1138.881,-0.2017068,0.09496719,0.2253162,-1.03761434555054,-0.487025618553162,0.68597137928009,-1.04677411523767,-0.450397658303471,0.648003042098304,1
2.91999816894531,-1.55430829524994,1.66742658615112,2.35365986824036,-1.98440911693069,2.11198057539494,2.37130086407726,2615.676,3618.283,3848.91,0,-0.202952,0.09763593,0.2269961,-1.03277409076691,-0.478952825069427,0.671941697597504,-1.04114485287423,-0.447975543971863,0.644518260536375,0
2.94000244140625,-1.5749819278717,1.65798509120941,2.36718153953552,-2.00517798053537,2.10304431360073,2.38415778000673,3012.219,2629.887,3539.911,918.1006,-0.19967,0.1002193,0.2223231,-1.03368449211121,-0.472076892852783,0.676089584827423,-1.03525504859546,-0.445441325732794,0.640872191117535,0
2.95999908447266,-1.59556269645691,1.64870667457581,2.38046741485596,-2.02581860575671,2.0941632292003,2.39693531026807,2659.536,3479.055,3899.011,0,-0.2014511,0.102776,0.2224861,-1.02903127670288,-0.463916659355164,0.664292752742767,-1.02911152474823,-0.442797939051516,0.637069057199471,0
2.97999572753906,-1.61611676216125,1.63958024978638,2.39372253417969,-2.04633384260397,2.08533609591429,2.40963521915279,3082.943,2619.283,3816.766,515.1989,-0.2008045,0.1045088,0.2182566,-1.02771067619324,-0.45632603764534,0.662761688232422,-1.02271452148052,-0.440045487257004,0.633109007445237,0
3,-1.63659381866455,1.63060975074768,2.40681576728821,-2.06672639957428,2.07656174835205,2.42225918334961,2761.233,3225.512,4002.892,0,-0.2023704,0.1059057,0.2171106,-1.02384865283966,-0.44852688908577,0.654665291309357,-1.01606400046349,-0.437183953857422,0.628992018127441,0
3.01999664306641,-1.65700781345367,1.62179350852966,2.41978192329407,-2.08697572864857,2.06784902775215,2.4347944826559,3099.563,2692.625,4106.033,66.14767,-0.2035656,0.1059326,0.2144575,-1.02069878578186,-0.440805673599243,0.648312449455261,-1.00916768936771,-0.434216663853534,0.624722873042298,0
3.04000091552734,-1.67736518383026,1.61311793327332,2.43266153335571,-2.10709234004513,2.05919341186127,2.44724762339747,2875.46,2951.057,4111.756,0,-0.2039891,0.1052761,0.2129779,-1.01786124706268,-0.433784872293472,0.643986225128174,-1.00202309041976,-0.43114254252322,0.620300025949072,0
3.05999755859375,-1.69766283035278,1.60457050800323,2.44545531272888,-2.12705600675913,2.05060360379452,2.45960608409476,2846.454,2961.761,4095.665,0,-0.2034879,0.1040026,0.2128566,-1.01488363742828,-0.427362024784088,0.639693439006805,-0.994638524886308,-0.427965170275055,0.615728628108227,0
3.08000183105469,-1.71789622306824,1.59614706039429,2.45814490318298,-2.14687713595163,2.04207512564123,2.47187630727625,2901.22,2868.267,4104.613,0,-0.2020237,0.1018891,0.2133771,-1.01168322563171,-0.421176314353943,0.634477436542511,-0.987011339258122,-0.424683405378145,0.611007036871143,0
3.09999847412109,-1.73807895183563,1.58783686161041,2.47078037261963,-2.16653584520328,2.033616532251,2.4840459847772,2854.372,2891.306,3995.971,112.656,-0.1987799,0.09920217,0.2142066,-1.00913870334625,-0.4155133664608,0.631772875785828,-0.979150439632689,-0.421301079877433,0.606140765536421,0
3.12000274658203,-1.75819206237793,1.5796445608139,2.48330092430115,-2.18604243256806,2.0252233926589,2.49612149158362,2868.188,2941.093,4008.048,7.571087,-0.1954915,0.09572977,0.2161432,-1.0056483745575,-0.409608334302902,0.626022279262543,-0.971053025860989,-0.417816988947023,0.601128080678429,0
3.13999938964844,-1.77827334403992,1.57155215740204,2.49585127830505,-2.20537738341953,2.01690410346351,2.50809074721212,2698.031,2994.671,3701.118,422.1927,-0.1891761,0.09243965,0.2178095,-1.0040625333786,-0.404620260000229,0.627513766288757,-0.962728579444533,-0.414235212212131,0.595974851798267,0
3.15999603271484,-1.79825377464294,1.5635883808136,2.50818824768066,-2.22454360124808,2.00865741537402,2.51995554906156,2802.021,3064.966,3906.171,0,-0.1854077,0.0883619,0.2215564,-0.999015688896179,-0.398183941841125,0.616849064826965,-0.95417746870157,-0.410555908149813,0.590681306902481,0
3.18000030517578,-1.81824994087219,1.55571317672729,2.52073359489441,-2.24354380138856,2.00048216005771,2.53171757805356,2473.689,3037.485,3207.12,1077.013,-0.1749084,0.08578304,0.222461,-0.999818980693817,-0.393766671419144,0.627262115478516,-0.94539982440085,-0.406779133026206,0.58524752694315,0
3.19999694824219,-1.83809554576874,1.5479838848114,2.53290915489197,-2.2623590635174,1.99238647840124,2.54336512160655,2521.381,3470.345,3727.381,0,-0.1713126,0.08296972,0.2287769,-0.992279589176178,-0.386478155851364,0.608776092529297,-0.936405971974636,-0.402909329586355,0.579679903854719,0
3.22000122070313,-1.85801720619202,1.54034340381622,2.54550552368164,-2.28099938900442,1.98436606709459,2.55490437104486,2321.005,2921.466,2564.576,1973.878,-0.1562216,0.08297154,0.2271965,-0.996077418327332,-0.382020980119705,0.629816114902496,-0.927192788821982,-0.398945154262308,0.573976504598449,0
3.23999786376953,-1.877725481987,1.53287267684937,2.55752897262573,-2.29944628156995,1.97642888457015,2.56632387629027,2153.31,4011.02,3496.84,0,-0.1538215,0.08341905,0.235447,-0.985416293144226,-0.373531669378281,0.601171016693115,-0.917771149318993,-0.394891285994308,0.568144060931169,0
3.26000213623047,-1.89755928516388,1.52551758289337,2.570152759552,-2.31770961544581,1.96857068222185,2.57762974996267,2312.347,2640.487,1944.811,2864.921,-0.1355565,0.08746829,0.2293704,-0.991704761981964,-0.367760956287384,0.631191611289978,-0.90813782126959,-0.39074633405868,0.562180571969535,0
3.27999877929688,-1.91712391376495,1.51835715770721,2.58202981948853,-2.33577134012187,1.96079922667992,2.58881081793642,1759.485,4615.277,3222.182,0,-0.1358713,0.09269356,0.2379639,-0.97822517156601,-0.358016967773438,0.593854308128357,-0.898304216251578,-0.386515208538549,0.556093102023818,0
3.30000305175781,-1.93680047988892,1.5113673210144,2.59449172019958,-2.35364119854729,1.95311032582551,2.59987311156116,2513.945,2185.622,1701.288,3315.425,-0.1188159,0.1009612,0.2265573,-0.98382443189621,-0.349484771490097,0.623100638389587,-0.888267004546666,-0.382196476749158,0.549879589839776,0
3.31999969482422,-1.95618343353271,1.50459933280945,2.60618019104004,-2.37130160722417,1.94551154534655,2.61080574581408,1612.488,4900.622,3021.181,0,-0.1230338,0.1105893,0.2318805,-0.969155013561249,-0.338404029607773,0.584421396255493,-0.878038122530657,-0.377795274579551,0.543547424602645,0
3.33999633789063,-1.97555637359619,1.49806547164917,2.61811375617981,-2.38875555478454,1.93800159931817,2.62161057080077,2927.948,1743.437,2231.18,2720.563,-0.1144712,0.1207431,0.2165359,-0.968638837337494,-0.326700508594513,0.596675217151642,-0.867618167158097,-0.373311858882592,0.53709697585572,0
3.36000061035156,-1.99465715885162,1.49177801609039,2.62948107719421,-2.406005803634,1.93057929915441,2.6322892965819,1922.451,4431.035,3133.03,0,-0.1223318,0.1314758,0.2140549,-0.955037295818329,-0.314364224672318,0.568366527557373,-0.857007552155826,-0.36874640767338,0.530528499715627,0
3.37999725341797,-2.01355600357056,1.48575866222382,2.64054012298584,-2.42303550945299,1.9232518924954,2.64283149572124,3381.889,1699.921,3530.838,874.1003,-0.1285886,0.13904,0.199011,-0.944940149784088,-0.300967067480087,0.552950263023376,-0.846218976345105,-0.364104384899943,0.523849857357654,0
3.40000152587891,-2.03223896026611,1.47997879981995,2.65138697624207,-2.43985407218584,1.9160153348077,2.65324298723213,2488.668,3221.622,3737.282,0,-0.1379406,0.1457674,0.1881094,-0.934147357940674,-0.289001941680908,0.542348504066467,-0.835248923368004,-0.359384277571698,0.517058871988738,0
3.41999816894531,-2.05069637298584,1.47439622879028,2.66202712059021,-2.45644516534361,1.90887665092339,2.66351366424015,2481.033,2997.66,3895.571,0,-0.1475876,0.1515856,0.1802871,-0.9228755235672,-0.279125541448593,0.532001793384552,-0.824110582941664,-0.354591760855451,0.510163708672097,0
3.44000244140625,-2.068927526474,1.46897411346436,2.67243838310242,-2.47281804716281,1.90183185728196,2.67364925803476,2496.078,2747.445,4074.108,0,-0.1550833,0.1562928,0.1742488,-0.911552906036377,-0.271104514598846,0.520566761493683,-0.812800388649434,-0.349725300221754,0.503162159625937,0
3.45999908447266,-2.08695387840271,1.46367764472961,2.682692527771,-2.48895692832918,1.89488774758421,2.68363999427827,2561.247,2633.337,4085.05,0,-0.1588139,0.1596936,0.1691347,-0.90131402015686,-0.264836251735687,0.512710869312286,-0.801332006385299,-0.344790775723006,0.496062684689628,0
3.47999572753906,-2.10478854179382,1.45847296714783,2.69285273551941,-2.50486489870395,1.88804299234919,2.69348778574196,2501.604,2798.872,3937.107,0,-0.1592235,0.1620462,0.1660725,-0.891731739044189,-0.260223209857941,0.508008122444153,-0.789706299681989,-0.339788558913217,0.488865818431069,0
3.5,-2.12242388725281,1.45334339141846,2.70288705825806,-2.5205447997813,1.88129636896134,2.70319439144611,2570.964,2790.072,3828.178,0,-0.1578088,0.1631628,0.1646937,-0.88176828622818,-0.256481260061264,0.50172221660614,-0.777924000354857,-0.334718964672089,0.481572013878822,0
3.51999664306641,-2.13985323905945,1.44828510284424,2.71275496482849,-2.53598168290031,1.87465430941181,2.7127505574575,2737.559,2620.476,3794.883,0,-0.1554743,0.1625213,0.1633476,-0.871483385562897,-0.252907067537308,0.493396133184433,-0.765999459475408,-0.329588167864767,0.474190155029786,0
3.54000091552734,-2.15708017349243,1.4432966709137,2.72246813774109,-2.55118444594166,1.86811298519115,2.72216179198813,2751.873,2638.201,3738.731,0,-0.1526567,0.1600748,0.162046,-0.86134135723114,-0.249432951211929,0.485663414001465,-0.753929052770513,-0.324394609067776,0.466717998286246,0
3.55999755859375,-2.17410397529602,1.43837523460388,2.73202991485596,-2.56613872308604,1.86167857751006,2.73141920191151,2653.297,2773.307,3677.496,0,-0.1499466,0.1560988,0.1619307,-0.851184248924255,-0.246073633432388,0.478087991476059,-0.741727567798258,-0.319144650954242,0.459164697851087,0
3.58000183105469,-2.19092082977295,1.43352365493774,2.74140286445618,-2.58085326729328,1.85534732021446,2.74052820572674,2626.229,2754.641,3700.065,0,-0.1475716,0.1505866,0.1630284,-0.840840876102448,-0.24256531894207,0.468650966882706,-0.729391385793765,-0.313836736470737,0.451528013536464,0
3.59999847412109,-2.20754909515381,1.42874073982239,2.75063872337341,-2.59531431270705,1.84912513636775,2.74948028171299,2521.936,2751.975,3626.752,172.3471,-0.1438309,0.1439408,0.1648377,-0.831424474716187,-0.239148944616318,0.461794078350067,-0.716935713767317,-0.308477408768949,0.443817359206151,0
3.62000274658203,-2.22398996353149,1.42403221130371,2.75970315933228,-2.60953046793176,1.84300832192796,2.75828075900647,2462.039,2840.337,3636.136,120.2317,-0.1396972,0.1362599,0.168373,-0.822035253047943,-0.235424488782883,0.453218817710876,-0.704356955827444,-0.303065120637236,0.436030508832034,0
3.63999938964844,-2.24028182029724,1.419393658638,2.76873278617859,-2.6234885835008,1.83700253474321,2.76692149746096,2277.9,2881.697,3367.805,534.5198,-0.1320608,0.1284852,0.172357,-0.814590990543365,-0.231922551989555,0.451475620269775,-0.691670720740692,-0.297606588091786,0.428177124984152,0
3.65999603271484,-2.25639247894287,1.41485035419464,2.77753043174744,-2.63719194552437,1.83110636089208,2.77540453133521,2405.36,2920.725,3518.562,190.8262,-0.1257672,0.1198503,0.1783149,-0.805548548698425,-0.22717559337616,0.439886689186096,-0.678878353700696,-0.292102389931838,0.420258040401444,0
3.68000030517578,-2.27242136001587,1.4103901386261,2.78650689125061,-2.65064357486757,1.82531850058072,2.78373173068862,2039.421,2938.076,2816.866,1272.061,-0.1119364,0.1126099,0.1819295,-0.801450371742249,-0.223007574677467,0.448819160461426,-0.665981146317811,-0.286553081901244,0.412274054652249,0
3.69999694824219,-2.28823852539063,1.40606510639191,2.79502820968628,-2.66383127580226,1.81964420129024,2.79189554578451,2359.963,3198.325,3436.817,0,-0.1059741,0.1042831,0.1902,-0.790863335132599,-0.216262251138687,0.426065295934677,-0.65299527533123,-0.280965624398954,0.404235181908735,0
3.72000122070313,-2.30408310890198,1.40185081958771,2.80413770675659,-2.6767633032417,1.81407991116207,2.79990108680742,1714.809,2900.314,1880.192,2588.549,-0.08419371,0.09979109,0.1900325,-0.792231857776642,-0.210713922977448,0.455473959445953,-0.639917282339434,-0.275338529371411,0.396139281255611,0
3.73999786376953,-2.31966829299927,1.39779901504517,2.81251430511475,-2.68942811570037,1.808630596175,2.80774120902801,1669.807,4216.596,3041.091,0,-0.07926952,0.09597215,0.2029591,-0.779255926609039,-0.202593922615051,0.41882735490799,-0.626763698705669,-0.269678909802388,0.38799658639423,0
3.76000213623047,-2.33536529541016,1.3939208984375,2.82174301147461,-2.70183383146282,1.803292763258,2.81542093805117,1688.875,2403.807,905.816,4074.626,-0.05108316,0.09759693,0.1968146,-0.784834325313568,-0.193889915943146,0.461432546377182,-0.613531154887639,-0.263985315871967,0.379805011417393,0
3.77999877929688,-2.35075879096985,1.39023756980896,2.82993936538696,-2.7139695770734,1.79807109095524,2.82293354268985,1181.282,5024.861,2646.329,0,-0.04921948,0.1007984,0.2101805,-0.769670188426971,-0.184168264269829,0.40981537103653,-0.60023651686137,-0.258265004538452,0.371574997167698,0
3.79999542236328,-2.36627244949341,1.3868293762207,2.83899903297424,-2.72583886061506,1.79296406983666,2.83028119461452,2021.608,1702.392,477.4658,4834.594,-0.02125149,0.1089154,0.195293,-0.775696396827698,-0.170417994260788,0.452988982200623,-0.586881630238189,-0.252518769916838,0.363307686166475,0
3.81999969482422,-2.38147258758545,1.38365685939789,2.84698963165283,-2.73744492223163,1.78797030575888,2.83746589962856,925.661,5594.836,2263.484,0,-0.02487073,0.1190155,0.2039575,-0.759992718696594,-0.158615916967392,0.399524211883545,-0.573468357077023,-0.246747413199059,0.355004231116903,0
3.83999633789063,-2.39662933349609,1.38082504272461,2.85528111457825,-2.74877791451009,1.78309403578861,2.84448156171422,2674.995,1022.233,1281.458,3945.116,-0.009766877,0.1302388,0.182834,-0.757844090461731,-0.141602993011475,0.414569675922394,-0.560014026276881,-0.240958390526246,0.346675359432959,0
3.86000061035156,-2.41147708892822,1.37828588485718,2.86283898353577,-2.75984563331209,1.77833190558438,2.85133300688122,1521.482,4816.278,2418.629,0,-0.01897715,0.1417583,0.1783591,-0.74237722158432,-0.126964807510376,0.377891093492508,-0.546515580872635,-0.235150386571708,0.338319178707605,0
3.87999725341797,-2.42603135108948,1.37606155872345,2.86990451812744,-2.77063893010371,1.77368785150474,2.85801457175126,3246.191,1232.21,3135.488,1151.957,-0.02717703,0.1491624,0.1576944,-0.727727591991425,-0.111208714544773,0.353275209665298,-0.532990631455729,-0.229330978680956,0.329946590735853,0
3.90000152587891,-2.44027304649353,1.37412238121033,2.87672829627991,-2.78116548164984,1.76915857045225,2.8645310086075,2265.5,3107.024,3375.897,0,-0.03998257,0.1547357,0.1414584,-0.712082207202911,-0.0969580188393593,0.341183930635452,-0.519436284009554,-0.223498921639498,0.32155580398356,0
3.91999816894531,-2.45418429374695,1.37239921092987,2.88333916664124,-2.79141684911929,1.7647476934202,2.87087709341145,1913.827,3232.723,3520.133,0,-0.05435991,0.1593775,0.1320754,-0.695551991462708,-0.0861577689647675,0.33053782582283,-0.505870408491346,-0.2176619043907,0.313157880805522,0
3.94000244140625,-2.46775531768799,1.37083172798157,2.88960647583008,-2.8014005971492,1.76045196555656,2.87705750903383,2023.026,2659.833,3915.961,0,-0.06668289,0.1623466,0.1261464,-0.678568720817566,-0.078373983502388,0.313363671302795,-0.492290296490434,-0.211818761581115,0.30475114456651,0
3.95999908447266,-2.48102140426636,1.36937999725342,2.89564824104309,-2.81110900652845,1.75627470822223,2.88306747691526,2287.28,2212.807,4080.889,0,-0.07291842,0.1626794,0.1201264,-0.66330361366272,-0.0725876316428185,0.302083611488342,-0.478714054341681,-0.205977283860804,0.296346803950332,0
