t,x_s1,x_s2,x_s3,x_s_d1,x_s_d2,x_s_d3,propellers_rpms1,propellers_rpms2,propellers_rpms3,propellers_rpms4,rollRad,pitchRad,yawRad,v_s1,v_s2,v_s3,v_s_d1,v_s_d2,v_s_d3,insideCount
0,-0.0599999986588955,2.94000005722046,1.17999994754791,-0.0599999986588955,2.94000005722046,1.17999994754791,0,0,0,0,0,0,0,0,0,0,-1.06581410364015E-15,4.44089209850063E-16,4.44089209850063E-16,0
0.0199966430664063,-0.0599999986588955,2.94000005722046,1.17729234695435,-0.0600018680476204,2.93999925287472,1.18000110478858,0,0,0,0,0.0163538,-0.002474609,-2.024222E-05,3.71994488546079E-08,3.50004931704007E-08,-0.135377958416939,-0.000279892991557604,-0.000120430134961378,0.000173267094926113,5
0.0400009155273438,-0.0599999986588955,2.94000005722046,1.17105865478516,-0.0600148724204753,2.93999365745638,1.18000915511487,0,0,0,0,0.03270752,-0.004950816,-5.430172E-05,3.48044650877455E-08,3.30428591155396E-08,-0.311683237552643,-0.00111101934050116,-0.00047804058392963,0.00068777389696065,6
0.05999755859375,-0.0600004307925701,2.94013142585754,1.16552257537842,-0.0600498857373401,2.93997859220429,1.18003083002592,3161.825,2810.26,1469.313,2738.756,0.03139075,-0.004977981,-0.01632784,-2.15877644222928E-05,0.00656346930190921,-0.276807010173798,-0.00247936261166862,-0.00106680046642749,0.00153484356504269,6
0.0800018310546875,-0.0599182657897472,2.94037842750549,1.16100013256073,-0.0601175574246769,2.93994947496775,1.18007272202403,3028.684,3011.916,2083.703,1979.207,0.01921203,-0.004419782,-0.04309314,0.00410818168893456,0.0123493298888206,-0.226120114326477,-0.00437268608126799,-0.00188144466206175,0.00270690098422899,6
0.0999984741210938,-0.0596519373357296,2.94066071510315,1.15742897987366,-0.0602281887669101,2.93990187339187,1.18014120809498,2572.973,3764.118,2528.294,1069.437,-0.005657087,-0.003074353,-0.06910424,0.0133165158331394,0.0141144599765539,-0.17855529487133,-0.00677637982016689,-0.00291568692648091,0.00419490191241918,6
0.120002746582031,-0.0591362863779068,2.94084787368774,1.15462076663971,-0.0603919599823235,2.93983140721312,1.18024259027882,1989.673,4004.057,3075.631,694.8639,-0.03991013,-0.0007068029,-0.08794024,0.0257826447486877,0.00936158187687397,-0.140409559011459,-0.00967921398219614,-0.00416469537060396,0.00599189453988277,5
0.139999389648438,-0.0583610981702805,2.94078660011292,1.15244734287262,-0.0606185767455666,2.93973390035084,1.18038287685052,1381.615,3936.935,3641,663.9067,-0.07574882,0.002033953,-0.09641335,0.0387593321502209,-0.00306151993572712,-0.108673363924026,-0.0130660253322238,-0.00562194567796536,0.00808849210174802,4
0.160003662109375,-0.0573621541261673,2.94033217430115,1.15091991424561,-0.0609177895434042,2.93960515744296,1.18056810382587,1009.391,3669.32,3950.332,872.3181,-0.1041248,0.003834232,-0.09478829,0.0499472506344318,-0.0227187741547823,-0.0763711929321289,-0.0169265510445065,-0.00728302204135792,0.0104783414199936,4
0.180000305175781,-0.0561950877308846,2.93938517570496,1.1501237154007,-0.0612986871007165,2.9394412678651,1.18080389755851,1011.245,3363.122,3835.434,1161.013,-0.1193469,0.003850961,-0.0859743,0.0583533197641373,-0.0473476611077785,-0.0398117154836655,-0.0212451141043368,-0.00914117907931815,0.0131517376757159,3
0.199996948242188,-0.0549090430140495,2.93791794776917,1.15010988712311,-0.0617704296168641,2.93923829023936,1.18109592864822,1332.77,3133.193,3353.534,1401.595,-0.1214119,0.002340848,-0.07415625,0.0643023177981377,-0.0733595639467239,-0.000690028071403503,-0.0260104776919234,-0.0111915819022102,0.0161017247421801,3
0.220001220703125,-0.053536131978035,2.93597269058228,1.15082943439484,-0.0623420644491781,2.93899233174064,1.18144979784016,1790.046,3014.65,2724.175,1533.394,-0.1151205,0.0002798768,-0.06327458,0.0686456114053726,-0.0972631275653839,0.0359795726835728,-0.03121219533433,-0.0134297356845702,0.019321835755004,3
0.239997863769531,-0.0520960986614227,2.93363213539124,1.1521235704422,-0.0630217183703222,2.93869989564571,1.18187053599376,2172.092,2982.641,2212.512,1546.925,-0.1071512,-0.00133957,-0.05581187,0.0720016732811928,-0.117025554180145,0.0647085681557655,-0.0368338920540454,-0.0158485947310391,0.02280193382306,3
0.260002136230469,-0.0506040193140507,2.93098068237305,1.15377116203308,-0.0638182299684225,2.938357178957,1.18236361461609,2347.314,2985.677,2005.094,1459.764,-0.1029061,-0.001919606,-0.05235562,0.074603907763958,-0.132567346096039,0.0823814123868942,-0.0428675524613532,-0.0184447102433459,0.0265370570382875,3
0.279998779296875,-0.0490742586553097,2.92807531356812,1.15557217597961,-0.0647390625194898,2.93796097043536,1.18293365383054,2308.949,2995.821,2122.746,1299.016,-0.104715,-0.001324656,-0.05185175,0.0764881148934364,-0.145271271467209,0.0900521278381348,-0.0492963837173861,-0.0212108567320638,0.030516809833474,3
0.300003051757813,-0.0475227124989033,2.92493534088135,1.15741097927094,-0.0657927507678135,2.93750759781875,1.18358593705038,2137.504,3011.329,2442.151,1106.029,-0.1118741,0.0001967396,-0.05227732,0.0775773823261261,-0.156993880867958,0.0919380784034729,-0.0561132031658829,-0.0241439437008635,0.0347367458022363,3
0.319999694824219,-0.0459694154560566,2.92155051231384,1.15926599502563,-0.0669860785243584,2.93699414222283,1.18432466377777,1943.331,3019.328,2792.466,937.5203,-0.121821,0.002154195,-0.05160993,0.077664814889431,-0.169246882200241,0.0927507653832436,-0.0633008373176985,-0.0272365818771378,0.0391862337367069,3
0.339996337890625,-0.0444396026432514,2.91789531707764,1.16117608547211,-0.068326768706371,2.93641728069206,1.18515461486636,1803.544,3001.342,3047.995,841.6628,-0.1315064,0.004016432,-0.04861175,0.0764907002449036,-0.182757139205933,0.0955070182681084,-0.0708499516420146,-0.0304847548730522,0.0438594951176439,3
0.360000610351563,-0.0429613441228867,2.91394639015198,1.16320323944092,-0.0698225328270578,2.93577369517774,1.1860805641102,1756.975,2955.431,3148.346,830.7469,-0.1384982,0.005409048,-0.04314747,0.0739127993583679,-0.197445064783096,0.10136029869318,-0.0787518717320621,-0.0338847303337087,0.0487511600740379,3
0.379997253417969,-0.0415609963238239,2.90969371795654,1.1654018163681,-0.0714791088463715,2.935060916796,1.18710606357981,1803.27,2905.382,3096.675,874.5895,-0.141743,0.006225728,-0.03593723,0.0700176134705544,-0.212632670998573,0.109927460551262,-0.0869889214763108,-0.0374289027221294,0.0538502862508218,3
0.400001525878906,-0.0402596704661846,2.9051456451416,1.16779768466949,-0.0733044112230977,2.93427554017634,1.18823601270221,1908.301,2871.107,2945.771,936.4277,-0.1416716,0.006603078,-0.02807717,0.0650663003325462,-0.22739914059639,0.119790926575661,-0.0955558400788823,-0.0411150084648172,0.0591536169647403,3
0.419998168945313,-0.0390726029872894,2.90032649040222,1.17038238048553,-0.0753034649285836,2.93341540321397,1.18947352217404,2025.558,2857.556,2769.732,988.8182,-0.1397174,0.00679426,-0.02060008,0.0593534931540489,-0.240961194038391,0.129233598709106,-0.104434660908044,-0.0449353170220673,0.0646500300148815,3
0.44000244140625,-0.0380106084048748,2.89526844024658,1.17311811447144,-0.077483988232608,2.93247718495301,1.19082336997196,2110.67,2859.688,2639.709,1015.605,-0.1375629,0.007043106,-0.01415257,0.0530996844172478,-0.252902030944824,0.136787459254265,-0.113620829717891,-0.048887868829098,0.0703367061060819,3
0.459999084472656,-0.0370824038982391,2.89000344276428,1.17595708370209,-0.0798502821969742,2.93145903476675,1.19228821865812,2148.084,2866.762,2591.074,1012.648,-0.1364668,0.007498319,-0.008927981,0.0464102737605572,-0.263252139091492,0.141950950026512,-0.123096124252221,-0.0529648233581361,0.0762023647937057,3
0.480003356933594,-0.0362962894141674,2.88455677032471,1.17885720729828,-0.0824098964715798,2.93035770425173,1.19387274182544,2140.632,2876.925,2626.094,978.0175,-0.1370037,0.008197878,-0.004677576,0.0393058061599731,-0.272337973117828,0.14500766992569,-0.132856662250146,-0.057164510180779,0.0822446027733248,4
0.5,-0.0356614999473095,2.87894415855408,1.18179643154144,-0.085166398670376,2.92917165836334,1.1955791479969,2109.233,2883.671,2713.386,927.6635,-0.1390362,0.009086919,-0.0009374327,0.0317395478487015,-0.280630260705948,0.146959528326988,-0.142884000065179,-0.0614789935111996,0.0884520025491718,4
0.519996643066406,-0.0351884961128235,2.8731734752655,1.18477129936218,-0.0881260274065667,2.92789821280061,1.19741129917127,2072.07,2888.521,2818.311,872.724,-0.1420035,0.01006301,0.002812139,0.023650236427784,-0.288532465696335,0.148742079734802,-0.153170920546857,-0.0659051680111775,0.0948200963613094,4
0.540000915527344,-0.0348889715969563,2.86724710464478,1.1877955198288,-0.0912951145137283,2.92653464315245,1.19937311505516,2046.842,2885.408,2904.92,834.4928,-0.1451375,0.01101712,0.006903886,0.0149763068184257,-0.296322911977768,0.151209950447083,-0.163710711144578,-0.0704401454577151,0.101344728821151,4
0.55999755859375,-0.0347747504711151,2.86116552352905,1.19088935852051,-0.094676112580471,2.92507989413848,1.20146611391775,2042.392,2881.398,2956.014,811.3198,-0.1478369,0.01187062,0.01147327,0.00571129005402327,-0.304082125425339,0.154690593481064,-0.17448465888317,-0.0750758741803766,0.108014315705644,4
0.580001831054688,-0.0348568186163902,2.85493063926697,1.19407224655151,-0.0982762614093182,2.92353085067394,1.20369477754168,2055.665,2875.534,2969.228,808.5815,-0.1497495,0.01259364,0.01643552,-0.00410376023501158,-0.311746537685394,0.159146472811699,-0.185490414529404,-0.0798113433697334,0.11482740272751,4
0.599998474121094,-0.0351445414125919,2.84854698181152,1.1973592042923,-0.102097262171133,2.92188678079254,1.20606015903275,2084.615,2873.027,2951.486,816.4177,-0.1508654,0.01319838,0.02157569,-0.0143860271200538,-0.319178074598312,0.164346396923065,-0.196709126405959,-0.0846384416756885,0.121772319800455,4
0.620002746582031,-0.0356450416147709,2.84202289581299,1.20075476169586,-0.106146271928021,2.92014460501038,1.20856668895334,2116.553,2876.073,2923.094,825.4645,-0.1514529,0.0137274,0.02667876,-0.0250251740217209,-0.326208680868149,0.16977995634079,-0.208139001499973,-0.0895563976148993,0.128847956964108,4
0.639999389648438,-0.0363638438284397,2.83536791801453,1.20425868034363,-0.110424235525481,2.91830391678686,1.21121495220784,2145.619,2879.983,2895.833,836.2547,-0.1518455,0.01422951,0.03153776,-0.0359401069581509,-0.332750767469406,0.175195053219795,-0.219761081350814,-0.0945570538913933,0.136042578028218,4
0.660003662109375,-0.0373049229383469,2.8285927772522,1.20786321163177,-0.114938248900541,2.91636166293851,1.21400934151928,2165.387,2888.764,2887.088,834.1144,-0.1524132,0.01474439,0.03609056,-0.0470541566610336,-0.338756561279297,0.180225566029549,-0.231574097577923,-0.0996398647564507,0.143355397804799,4
0.680000305175781,-0.0384720303118229,2.82170677185059,1.21156346797943,-0.119688496929273,2.91431776391831,1.21694997133476,2176.584,2893.515,2893.981,831.498,-0.1533166,0.01529434,0.04030537,-0.0583550855517387,-0.344296455383301,0.185010477900505,-0.243559016194652,-0.104796640417365,0.150774633349401,4
0.699996948242188,-0.0398684218525887,2.81471800804138,1.21535301208496,-0.124680083855354,2.91217002351282,1.22004000142426,2181.272,2901.836,2921.283,812.953,-0.1546663,0.01588204,0.04429331,-0.0698195174336433,-0.349437385797501,0.1894790828228,-0.255710395848158,-0.11002503961202,0.158296916205407,4
0.720001220703125,-0.041498064994812,2.80763173103333,1.21923351287842,-0.129918284978346,2.90991617190799,1.22328269744952,2182.662,2903.243,2953.993,801.3567,-0.1563196,0.01649828,0.04811336,-0.0814821422100067,-0.354315996170044,0.194024756550789,-0.268023157655716,-0.11532287703907,0.16591910230247,4
0.739997863769531,-0.0433647371828556,2.80045175552368,1.2232072353363,-0.135402141159277,2.90755662179454,1.22667746565781,2187.991,2909.34,2990.243,778.0594,-0.1582024,0.01712341,0.05189448,-0.0933338776230812,-0.359004735946655,0.198684170842171,-0.280478211503383,-0.120681938755799,0.173629373950669,5
0.760002136230469,-0.0454725585877895,2.79318022727966,1.2272801399231,-0.14113868194985,2.90508834855275,1.23022865767651,2192.503,2909.354,3021.521,767.2159,-0.1601087,0.01774571,0.05567164,-0.105390906333923,-0.363579362630844,0.203646287322044,-0.293075466693575,-0.12610218573757,0.181427675003881,5
0.779998779296875,-0.0478253848850727,2.78581881523132,1.23145961761475,-0.147126184485884,2.90251209348295,1.23393520697061,2204.858,2912.427,3043.9,754.3115,-0.161941,0.01835312,0.05946658,-0.117640979588032,-0.36807057261467,0.208975821733475,-0.305795832832518,-0.131575403921268,0.189302187598958,5
0.800003051757813,-0.0504264272749424,2.77836942672729,1.23575091362,-0.153371683173492,2.89982482987671,1.2378014681726,2218.348,2915.458,3060.747,745.4398,-0.163655,0.01894379,0.06327187,-0.130052730441093,-0.372470438480377,0.214562967419624,-0.318639638509124,-0.13710173468952,0.197253115148089,5
0.819999694824219,-0.0532786287367344,2.77083373069763,1.24016034603119,-0.159872691993147,2.89702762739878,1.24182590231796,2235.214,2918.084,3068.744,742.6188,-0.1652321,0.01952212,0.0670271,-0.142610147595406,-0.376784950494766,0.220471009612083,-0.331587821991737,-0.142672976311719,0.205268657531342,5
0.839996337890625,-0.0563837178051472,2.7632143497467,1.24468851089478,-0.166633637018892,2.89411858163313,1.24601124935738,2251.891,2924.451,3079.576,732.9168,-0.166781,0.02009417,0.07072891,-0.155254483222961,-0.380969882011414,0.226405501365662,-0.344636106234817,-0.148287288494656,0.213346167053785,5
0.860000610351563,-0.0597435496747494,2.75551342964172,1.24933910369873,-0.173659158941841,2.89109569582005,1.2503603820997,2266.512,2926.382,3086.644,734.3283,-0.1682915,0.02067219,0.07430114,-0.167991399765015,-0.385051369667053,0.232531785964966,-0.357780475378537,-0.153942943326036,0.221483157706883,5
0.879997253417969,-0.0633588880300522,2.74773335456848,1.25411093235016,-0.180945630646592,2.88796053060595,1.25487105518773,2283.522,2934.861,3100.549,719.7501,-0.1699193,0.02125704,0.07777772,-0.180766597390175,-0.38900226354599,0.238592684268951,-0.371001963495383,-0.159631780297098,0.229667888678032,5
0.900001525878906,-0.067230761051178,2.73987627029419,1.25900495052338,-0.188500167066783,2.88471002463366,1.2595476731043,2293.401,2936.383,3117.064,717.531,-0.171621,0.02185946,0.08112577,-0.193593695759773,-0.392858535051346,0.24470166862011,-0.384301823631742,-0.165354338558695,0.237901135662636,5
0.919998168945313,-0.0713599324226379,2.73194360733032,1.26402187347412,-0.196318384305134,2.8813460641717,1.26438752200817,2307.633,2942.097,3136.659,703.9973,-0.1734432,0.02247666,0.08437588,-0.206459105014801,-0.396637558937073,0.250848233699799,-0.397661187980262,-0.171102499820431,0.246171218589148,5
0.94000244140625,-0.0757471024990082,2.7239363193512,1.26916217803955,-0.204407453948074,2.87786556348678,1.26939504145298,2318.244,2945.137,3159.981,693.2969,-0.1753574,0.02310987,0.08754835,-0.219358667731285,-0.400359839200974,0.257015436887741,-0.411081631631503,-0.176876941799768,0.254479112513653,5
0.959999084472656,-0.0803932845592499,2.71585488319397,1.27442944049835,-0.212762239776093,2.87427073255068,1.27456705187416,2331.41,2947.859,3180.052,684.1244,-0.1773111,0.02375743,0.09064157,-0.232308849692345,-0.404067158699036,0.26336595416069,-0.424544411524882,-0.18266959988136,0.262813214588797,5
0.980003356933594,-0.0852987617254257,2.70770001411438,1.27982342243195,-0.221389982382338,2.87055845593844,1.2799080355438,2344.77,2952.515,3204.74,667.7779,-0.1793277,0.02441464,0.09370299,-0.24527382850647,-0.407745480537415,0.269697725772858,-0.438051398499298,-0.18848127903492,0.271174682952979,5
1,-0.0904646813869476,2.69947099685669,1.28535008430481,-0.230284798736574,2.86673126495361,1.28541435058594,2358.027,2952.918,3220.47,665.5436,-0.1812926,0.02508636,0.0966813,-0.258296370506287,-0.411452561616898,0.276331305503845,-0.451584000205995,-0.194303979492187,0.279552008056641,5
1.01999664306641,-0.0958906263113022,2.69116830825806,1.29100668430328,-0.239450461003889,2.86278753653895,1.29108833215045,2374.735,2960.052,3244.738,643.526,-0.1833262,0.0257622,0.09965204,-0.271297723054886,-0.41512992978096,0.282829731702805,-0.465139182559269,-0.200136395770846,0.2879433116562,5
1.04000091552734,-0.101577758789063,2.68279123306274,1.29680061340332,-0.24889099213045,2.8587255397331,1.29693247063265,2386.261,2957.868,3256.714,649.5958,-0.18525,0.02645775,0.1025135,-0.284356325864792,-0.418856590986252,0.289694279432297,-0.478714054341683,-0.205977283860805,0.296346803950333,5
1.05999755859375,-0.107525020837784,2.67434024810791,1.30272793769836,-0.258599401509697,2.85454828239877,1.30294243851408,2407.538,2968.22,3279.026,621.6339,-0.1872873,0.02715443,0.105369,-0.297361850738525,-0.422550410032272,0.29636424779892,-0.492290296490434,-0.211818761581115,0.30475114456651,5
1.08000183105469,-0.113732993602753,2.66581439971924,1.30879414081573,-0.268583149539609,2.85025255453512,1.30912285413647,2415.988,2964.67,3292.422,630.6985,-0.1892346,0.02787481,0.1081085,-0.310400456190109,-0.426288545131683,0.303308695554733,-0.50587040849135,-0.217661904390701,0.313157880805523,5
1.09999847412109,-0.120200589299202,2.65721440315247,1.31499576568604,-0.278834517009062,2.84584167750307,1.31546893894041,2437.164,2974.098,3314.981,603.8044,-0.1912938,0.02860024,0.1108266,-0.323379337787628,-0.430002987384796,0.310082316398621,-0.519436284009554,-0.223498921639497,0.321555803983559,5
1.12000274658203,-0.12692803144455,2.64853930473328,1.32133722305298,-0.289361068555186,2.84131239645058,1.32198537579665,2446.317,2971.679,3330.674,608.7625,-0.1932912,0.02934932,0.1134391,-0.33637335896492,-0.433759897947311,0.317074090242386,-0.532990631455731,-0.229330978680957,0.329946590735853,5
1.13999938964844,-0.133914187550545,2.63978910446167,1.32781600952148,-0.300154365346813,2.83666834237095,1.3286669406667,2466.542,2979.606,3353.525,584.2552,-0.1953839,0.03010518,0.1160257,-0.349307417869568,-0.437507420778275,0.32393741607666,-0.546515580872639,-0.235150386571708,0.338319178707607,5
1.15999603271484,-0.141159012913704,2.63096308708191,1.33443534374237,-0.311217811600473,2.8319080505249,1.33551574092274,2476.509,2978.031,3371.31,585.3803,-0.197427,0.03088286,0.1185246,-0.362241387367249,-0.441297143697739,0.330966353416443,-0.560008885098767,-0.240956178420931,0.346672176798798,6
1.18000030517578,-0.148661360144615,2.62206125259399,1.341193318367,-0.322555076427271,2.82702994219644,1.34253404791935,2495.28,2984.02,3394.61,563.8907,-0.1995278,0.0316685,0.1209967,-0.375117033720016,-0.445087671279907,0.337898164987564,-0.573468357077025,-0.246747413199059,0.355004231116904,6
1.19999694824219,-0.156421259045601,2.61308240890503,1.34809470176697,-0.334156660511822,2.8220381046756,1.34971598112778,2508.323,2984.07,3409.298,563.4236,-0.2015704,0.03247386,0.1233833,-0.387995541095734,-0.44893679022789,0.345067471265793,-0.58687652428584,-0.252516572968185,0.36330452533874,6
1.22000122070313,-0.164436757564545,2.60402727127075,1.35513377189636,-0.346030421585499,2.81692915700008,1.35706640485806,2526.288,2990.054,3436.709,538.121,-0.2037031,0.03328194,0.1257714,-0.40077531337738,-0.452762246131897,0.35195529460907,-0.600236516861372,-0.258265004538453,0.371574997167698,6
1.23999786376953,-0.172708719968796,2.59489369392395,1.36231970787048,-0.358166167196084,2.81170748469733,1.36457900949675,2536.842,2987.008,3446.215,548.8319,-0.2056887,0.0341181,0.128036,-0.413597702980042,-0.456682056188583,0.359295159578323,-0.613531154887641,-0.263985315871967,0.379805011417393,6
1.26000213623047,-0.181233823299408,2.5856831073761,1.36964130401611,-0.370571882958536,2.80636965178032,1.3722587385199,2560.019,2997.294,3479.373,507.4408,-0.2078533,0.03494446,0.1303526,-0.426256358623505,-0.4605313539505,0.366080760955811,-0.626763698705669,-0.269678909802388,0.38799658639423,6
1.27999877929688,-0.190014243125916,2.57639265060425,1.37711405754089,-0.383236695417198,2.80092033679326,1.3800988607405,2564.593,2989.14,3480.79,537.9028,-0.209749,0.03581228,0.1324879,-0.439021944999695,-0.464527249336243,0.373640716075897,-0.639917282339435,-0.275338529371412,0.396139281255613,6
1.30000305175781,-0.199044734239578,2.56702518463135,1.38471829891205,-0.396168722856641,2.79535604666509,1.38810440176341,2595.342,3005.463,3523.659,471.9293,-0.2119722,0.03664989,0.1347517,-0.4515221118927,-0.468375682830811,0.380210220813751,-0.652995275331231,-0.280965624398954,0.404235181908735,6
1.31999969482422,-0.208329573273659,2.55757594108582,1.3924800157547,-0.409356423791328,2.7896817473746,1.39626821685929,2590,2989.5,3512.28,533.9307,-0.2137315,0.03755295,0.1367396,-0.464242905378342,-0.472457736730576,0.388084441423416,-0.665981146317813,-0.286553081901244,0.412274054652251,6
1.33999633789063,-0.217860236763954,2.54805064201355,1.40036511421204,-0.422802873722428,2.78389611561957,1.40459220990988,2633.379,3015.286,3571.709,427.3502,-0.2160644,0.03839182,0.1389808,-0.476533323526382,-0.47626605629921,0.394257575273514,-0.678873453515705,-0.29210028151913,0.420255006953505,6
1.36000061035156,-0.227645084261894,2.53844165802002,1.40841722488403,-0.436511415158101,2.77799771321212,1.41307845008695,2610.607,2986.582,3540.166,541.4369,-0.2176037,0.03933818,0.1407936,-0.489241540431976,-0.480452448129654,0.402605086565018,-0.691670720740693,-0.297606588091785,0.42817712498415,6
1.37999725341797,-0.237670391798019,2.52875804901123,1.41658139228821,-0.450469530727146,2.77199192602736,1.42171918854144,2677.196,3028.406,3622.756,369.5632,-0.2201135,0.04016415,0.1430506,-0.501266241073608,-0.484178066253662,0.408206880092621,-0.704356955827446,-0.303065120637236,0.436030508832034,6
1.40000152587891,-0.247950494289398,2.51898813247681,1.42492628097534,-0.464685685951852,2.76587511158757,1.43051966583492,2626.193,2981.078,3560.967,563.381,-0.2213566,0.04116194,0.1446548,-0.514005601406097,-0.488501280546188,0.417247295379639,-0.716935713767318,-0.308477408768949,0.443817359206152,7
1.41999816894531,-0.258463591337204,2.50914692878723,1.43336308002472,-0.47914673136562,2.75965292774086,1.43947174182117,2725.268,3043.766,3684.641,292.7369,-0.2241604,0.041954,0.1469962,-0.525656223297119,-0.492055714130402,0.421837389469147,-0.729391385793766,-0.313836736470737,0.451528013536465,7
1.44000244140625,-0.269234836101532,2.49921488761902,1.4420063495636,-0.493861275572861,2.75332167044526,1.4485807456364,2631.934,2969.61,3567.04,616.4071,-0.2248869,0.0430306,0.1482989,-0.53856360912323,-0.496608138084412,0.432161778211594,-0.741727567798258,-0.319144650954242,0.459164697851088,7
1.45999908447266,-0.280227512121201,2.48921823501587,1.45070481300354,-0.508815552717244,2.74688726276417,1.45783815555978,2788.235,3067.942,3765.515,170.3969,-0.2282558,0.04374298,0.1508688,-0.549633026123047,-0.499830335378647,0.434923648834229,-0.753929052770513,-0.324394609067776,0.466717998286247,7
1.48000335693359,-0.291487008333206,2.47912216186523,1.45965766906738,-0.524018315758597,2.74034593854351,1.46724939009041,2615.927,2946.58,3544.271,733.1066,-0.2280619,0.04495416,0.1516923,-0.562976181507111,-0.504801511764526,0.447645515203476,-0.765999459475408,-0.329588167864767,0.474190155029787,7
1.5,-0.30295068025589,2.46897125244141,1.46861124038696,-0.539455198877605,2.73370387899399,1.4768055561018,2849.356,3130.865,3853.628,0,-0.2322607,0.04562303,0.1547961,-0.573180794715881,-0.507544159889221,0.447679758071899,-0.777924000354858,-0.334718964672088,0.481572013878822,7
1.51999664306641,-0.314695298671722,2.45870876312256,1.47788870334625,-0.555129074991064,2.72695984797977,1.48650843206629,2581.588,2899.44,3481.586,933.1641,-0.2306788,0.04711183,0.1549275,-0.587230265140533,-0.513128578662872,0.463871091604233,-0.789701834723693,-0.339786637766398,0.488863054409188,7
1.54000091552734,-0.326633006334305,2.44838738441467,1.48716735839844,-0.571043070329722,2.72011250037111,1.49635995326965,2739.195,3359.554,3777.095,0,-0.2344754,0.04853816,0.1590177,-0.596886277198792,-0.516067862510681,0.463934749364853,-0.801332006385301,-0.344790775723006,0.496062684689629,7
1.55999755859375,-0.338840007781982,2.43796110153198,1.49673521518707,-0.587181951496087,2.71316839067337,1.50635068951315,2675.204,2803.324,3468.407,990.3517,-0.2328242,0.05065317,0.1588758,-0.610352694988251,-0.521318912506104,0.478395879268646,-0.812800388649436,-0.349725300221754,0.503162159625937,7
1.58000183105469,-0.351231724023819,2.427485704422,1.50628125667572,-0.60355483331529,2.70612359703193,1.51648628330776,2822.199,3287.771,3814.354,0,-0.236754,0.05252902,0.1619447,-0.619585752487183,-0.52376651763916,0.477304726839066,-0.824110582941666,-0.354591760855452,0.510163708672098,7
1.59999847412109,-0.363887220621109,2.41691470146179,1.51610684394836,-0.620145926473056,2.69898491314762,1.52675696031579,2745.01,2795.512,3530.059,915.8881,-0.2357031,0.0549366,0.1608395,-0.63277393579483,-0.528545379638672,0.491280347108841,-0.835248923368005,-0.359384277571697,0.517058871988737,7
1.62000274658203,-0.376725226640701,2.40629506111145,1.52593386173248,-0.636964489205914,2.69174835545992,1.53716845182668,2799.451,3346.083,3826.225,0,-0.2398997,0.05725778,0.1633511,-0.641899824142456,-0.53098464012146,0.491353422403336,-0.846218976345106,-0.364104384899943,0.523849857357655,7
1.63999938964844,-0.389807462692261,2.39559292793274,1.53598153591156,-0.653994195024907,2.68442094880091,1.54771065096602,2831.932,2779.39,3663.093,748.1671,-0.2403407,0.05979691,0.1621695,-0.654111623764038,-0.53510993719101,0.502382040023804,-0.857007552155828,-0.368746407673381,0.530528499715628,7
1.65999603271484,-0.403073579072952,2.38484311103821,1.54604375362396,-0.671237824488362,2.67700149677403,1.55838527903188,2868.009,3217.217,3932.417,0,-0.2447275,0.06207145,0.1636461,-0.66330760717392,-0.537489116191864,0.503108203411102,-0.867614155697522,-0.373310132863173,0.537094492570531,7
1.68000030517578,-0.416574746370316,2.37401509284973,1.55630433559418,-0.688698391434734,2.66948870260877,1.56919420173384,2880.05,2814.138,3812.93,553.4565,-0.2460239,0.06436285,0.1625103,-0.675058960914612,-0.541400790214539,0.513027727603912,-0.878038122530658,-0.377795274579551,0.543547424602645,8
1.69999694824219,-0.430265188217163,2.36313033103943,1.56661736965179,-0.706358800111611,2.66188992212981,1.58012683598675,2881.005,3183.613,3993.839,0,-0.2499888,0.06642407,0.1638181,-0.684522151947021,-0.544238090515137,0.515649795532227,-0.888267004546665,-0.382196476749158,0.549879589839776,8
1.72000122070313,-0.4441779255867,2.35216808319092,1.57709610462189,-0.724228658537036,2.6542010212754,1.5911891296115,2930.505,2842.997,3930.338,386.708,-0.2517097,0.06832603,0.1633985,-0.695634305477142,-0.548113822937012,0.523939311504364,-0.898304216251578,-0.386515208538549,0.556093102023817,8
1.73999786376953,-0.458282262086868,2.3411431312561,1.58764231204987,-0.742290383213093,2.64642956573347,1.60237019758524,2951.691,3075.057,4068.687,0,-0.255036,0.06985182,0.1645631,-0.70521867275238,-0.551249563694,0.527311563491821,-0.908137821269591,-0.39074633405868,0.562180571969536,8
1.76000213623047,-0.472605586051941,2.33003520965576,1.5983579158783,-0.76055371708895,2.63857136338517,1.61367607125764,2944.488,2895.073,3984.347,300.3286,-0.2563277,0.07123172,0.1647079,-0.716167211532593,-0.555392146110535,0.535782098770142,-0.917771149318994,-0.394891285994308,0.568144060931169,8
1.77999877929688,-0.487119138240814,2.3188579082489,1.60915327072144,-0.779000609654483,2.63063418086074,1.62509557650306,2969.759,3077.317,4081.827,0,-0.2589035,0.07228514,0.1663779,-0.725674510002136,-0.558863520622253,0.539768159389496,-0.927192788821983,-0.398945154262308,0.57397650459845,8
1.80000305175781,-0.501846492290497,2.30759382247925,1.62011730670929,-0.797640935141499,2.62261376955408,1.63663482594136,2952.619,2922.455,3983.859,297.6413,-0.2595256,0.0732746,0.1671512,-0.736370861530304,-0.56319922208786,0.548204839229584,-0.936405971974637,-0.402909329586356,0.579679903854719,8
1.81999969482422,-0.516757547855377,2.29626154899597,1.63115084171295,-0.816456197270346,2.61451808789761,1.64828236949435,3008.245,3062.38,4091.906,0,-0.2615704,0.07391594,0.1692058,-0.745552062988281,-0.566618859767914,0.551675736904144,-0.945399824400851,-0.406779133026206,0.585247526943151,8
1.83999633789063,-0.531882584095001,2.28484034538269,1.64236855506897,-0.835449117627072,2.60634596486888,1.66003989195343,2945.207,2945.2,3951.569,352.1764,-0.2613466,0.07465671,0.1701982,-0.756252944469452,-0.571062862873077,0.560884475708008,-0.954174163352093,-0.410554485950274,0.590679260733698,8
1.86000061035156,-0.54718279838562,2.27335500717163,1.65364360809326,-0.854622615239374,2.59809614449182,1.6719092003358,3005.275,3115.093,4076.638,0,-0.2630271,0.07515292,0.1727563,-0.76500928401947,-0.574264764785767,0.563755869865417,-0.962728579444532,-0.414235212212131,0.595974851798267,8
1.87999725341797,-0.562695682048798,2.26178359985352,1.66511142253876,-0.873957566090845,2.58977685529642,1.6838784559643,2950.251,2943.381,3911.268,427.2075,-0.2621664,0.07587412,0.1737821,-0.775644302368164,-0.578569829463959,0.573392689228058,-0.971053025860989,-0.417816988947023,0.601128080678429,8
1.90000152587891,-0.578374326229095,2.25015759468079,1.67661845684052,-0.893464153455626,2.58138371570432,1.69595396277071,3010.006,3151.755,4070.856,0,-0.2637201,0.07640798,0.176539,-0.783936560153961,-0.581295490264893,0.575351536273956,-0.979150439632688,-0.421301079877433,0.606140765536421,8
1.91999816894531,-0.594264924526215,2.23845291137695,1.68832468986511,-0.913122862707269,2.57292512231409,1.70812364027167,2961.896,2933.129,3888.726,487.0151,-0.2624673,0.0772457,0.1773064,-0.794526875019073,-0.585238814353943,0.585311651229858,-0.987011339258123,-0.424683405378145,0.611007036871143,8
1.94000244140625,-0.610314130783081,2.22670412063599,1.70006012916565,-0.932943991899774,2.5643966441608,1.72039386345315,3003.743,3197.58,4066.645,0,-0.2639864,0.07797512,0.180065,-0.802460134029388,-0.587441980838776,0.586772382259369,-0.994638524886308,-0.427965170275055,0.615728628108227,9
1.95999908447266,-0.626570403575897,2.21488809585571,1.71198737621307,-0.952907658613767,2.55580683609405,1.73275232415044,2991.829,2916.308,3897.252,500.0234,-0.2627491,0.07898372,0.1805325,-0.812816798686981,-0.590800344944,0.596364796161652,-1.00202309041976,-0.431142542523221,0.620300025949072,9
1.97999572753906,-0.642980575561523,2.20303916931152,1.72393929958344,-0.973016570682103,2.54715453300902,1.74520069864106,3012.607,3206.583,4082.024,0,-0.2643059,0.07989892,0.1829952,-0.820506751537323,-0.592449486255646,0.597594380378723,-1.00916501115878,-0.434215511495054,0.624721215103391,9
2,-0.659590899944305,2.19113659858704,1.73606836795807,-0.993273599084619,2.53843849960327,1.7577407641983,3027.293,2907.11,3939.757,461.0353,-0.2633531,0.08100337,0.1831825,-0.830519795417786,-0.5951287150383,0.606452584266663,-1.01606400046349,-0.437183953857422,0.628992018127441,9
2.01999664306641,-0.67635315656662,2.17920970916748,1.74822795391083,-1.01365835337184,2.52966750931758,1.77035989816261,3026.293,3198.363,4105.861,0,-0.2648966,0.08201214,0.1852596,-0.838114082813263,-0.596342384815216,0.607982456684113,-1.02271203275434,-0.440044416427654,0.633107466805174,9
2.04000091552734,-0.693305552005768,2.16724300384521,1.76054084300995,-1.0341813929022,2.52083701875502,1.78306463727984,3065.741,2907.673,4006.678,378.0798,-0.2644125,0.0830718,0.185371,-0.847617566585541,-0.598339974880219,0.615644693374634,-1.02911152474823,-0.442797939051516,0.637069057199471,9
2.05999755859375,-0.710409224033356,2.15525889396667,1.77289283275604,-1.05482201812353,2.5119559343546,1.79584216754118,3051.719,3157.845,4145.357,0,-0.2658458,0.08398876,0.1870511,-0.855183660984039,-0.599204123020172,0.617601633071899,-1.03525504859546,-0.445441325732794,0.640872191117535,9
2.08000183105469,-0.727693498134613,2.14324545860291,1.7853786945343,-1.07559088172821,2.50301967256038,1.80869908347065,3093.534,2922.726,4076.043,283.8701,-0.2656812,0.08484437,0.1872636,-0.864214181900024,-0.600667357444763,0.624291300773621,-1.04114485287423,-0.447975543971863,0.644518260536375,9
2.09999847412109,-0.745128571987152,2.13121891021729,1.79791402816772,-1.09646699912883,2.4940372624541,1.82162239460902,3072.502,3122.289,4179.161,0,-0.2668343,0.08552791,0.1887704,-0.871753752231598,-0.601315140724182,0.626765489578247,-1.04677411523768,-0.450397658303471,0.648003042098304,9
2.12000274658203,-0.762735247612,2.11917114257813,1.81056761741638,-1.11746110947495,2.48500408327971,1.83461874900143,3109.493,2943.059,4127.453,209.71,-0.2667119,0.08608821,0.1892722,-0.880334615707397,-0.6023970246315,0.632680535316467,-1.05214490868305,-0.452708560680417,0.651327819087362,9
2.13999938964844,-0.780490279197693,2.10711431503296,1.82327544689178,-1.138551967509,2.47592927627801,1.8476749948214,3096.93,3087.317,4204.344,0,-0.2674719,0.0864348,0.190781,-0.887753486633301,-0.602847039699554,0.63539457321167,-1.05725102347782,-0.454905579228273,0.654488747383304,9
2.15999603271484,-0.798410475254059,2.0950403213501,1.83609616756439,-1.15974228854654,2.4668116731246,1.86079281297862,3109.812,2968.022,4147.354,176.2456,-0.2670602,0.08667434,0.1916028,-0.896003901958466,-0.603682279586792,0.641035079956055,-1.06209255378819,-0.456988754464129,0.657485885279498,9
2.18000030517578,-0.816473186016083,2.08296275138855,1.84896814823151,-1.18103490068612,2.45765005696766,1.87397395420079,3109.354,3076.84,4213.59,0,-0.2673931,0.08669148,0.193322,-0.903143763542175,-0.603888750076294,0.643602013587952,-1.06666929835407,-0.458957999791384,0.660319108186354,9
2.19999694824219,-0.834697246551514,2.07087135314941,1.86195862293243,-1.20240821395574,2.44845371736898,1.88720505326679,3098.991,2989.41,4127.418,196.74,-0.266412,0.08669093,0.1943876,-0.91119784116745,-0.604564964771271,0.649521231651306,-1.07097597819164,-0.460811043810786,0.662985148161421,10
2.22000122070313,-0.853054285049438,2.05878281593323,1.87498724460602,-1.22387315175433,2.43921795429519,1.90049287228091,3108.347,3094.684,4205.421,0,-0.2664083,0.08648993,0.196444,-0.917853593826294,-0.60441517829895,0.651428699493408,-1.07501419914593,-0.462548577472581,0.665484999299265,10
2.23999786376953,-0.871570110321045,2.04668498039246,1.88814532756805,-1.24540792547886,2.42995214277345,1.91382392305993,3080.187,2998.229,4079.698,265.5464,-0.2647209,0.08640812,0.1975678,-0.925788998603821,-0.60490345954895,0.65790319442749,-1.07877930973132,-0.464168599372462,0.667815782108711,10
2.26000213623047,-0.890206515789032,2.03459978103638,1.90132188796997,-1.26702351885107,2.42065155681516,1.92720500505083,3096.654,3133.885,4185.169,0,-0.2645057,0.08616748,0.1999313,-0.931827127933502,-0.604261159896851,0.658828318119049,-1.08227271937422,-0.465671715947234,0.669978369091845,10
2.27999877929688,-0.908999741077423,2.02251052856445,1.91463994979858,-1.28869796983554,2.41132564607061,1.9406225227075,3065.581,2994.832,4020.004,353.6706,-0.2621935,0.08617243,0.2008884,-0.939655780792236,-0.604449391365051,0.665903806686401,-1.08549040888332,-0.467056197851165,0.67197027217779,10
2.30000305175781,-0.927899777889252,2.01044654846191,1.92795360088348,-1.31044231452835,2.40196966201596,1.95408330789913,3075.831,3183.628,4161.855,0,-0.2619443,0.0860694,0.2034273,-0.945002973079681,-0.603195309638977,0.665680348873138,-1.08843358680109,-0.468322565086307,0.673792239511894,10
2.31999969482422,-0.946953117847443,1.99838805198669,1.94141697883606,-1.33223444283894,2.39259311800549,1.96757367342642,3059.592,2979.779,3966.862,436.0397,-0.2592342,0.08629236,0.2040219,-0.952670156955719,-0.602939903736115,0.673167586326599,-1.09109887036509,-0.469469362144493,0.675442177003072,10
2.33999633789063,-0.966099977493286,1.98636746406555,1.95485460758209,-1.35407709248145,2.38319483607731,1.98109531406483,3050.333,3232.072,4142.077,0,-0.2590952,0.08645647,0.2065536,-0.957340955734253,-0.601025879383087,0.671882569789886,-1.09348640563071,-0.470496651869278,0.67692017506657,10
2.36000061035156,-0.985393822193146,1.9743640422821,1.96844017505646,-1.37597305876702,2.37377361348711,1.99464996024512,3065.544,2955.476,3939.18,485.7972,-0.2563042,0.08694735,0.206695,-0.964694797992706,-0.600176215171814,0.679276466369629,-1.09559602313537,-0.471404361345641,0.678226128796969,10
2.37999725341797,-1.00477004051208,1.96241128444672,1.98198652267456,-1.39790005743958,2.36433903852774,2.00822381695123,3032.846,3261.073,4130.573,0,-0.2563463,0.08740004,0.2089929,-0.968811869621277,-0.597639679908752,0.677320420742035,-1.09742530100382,-0.472191448508328,0.679358538938131,10
2.40000152587891,-1.02428269386292,1.95048952102661,1.99566531181335,-1.4198692197338,2.35488632173988,2.02182377494768,3084.027,2931.787,3948.094,479.5785,-0.2538536,0.08808326,0.2087307,-0.97563236951828,-0.596090853214264,0.683936953544617,-1.09897493039424,-0.472858210743393,0.680317833349887,10
2.41999816894531,-1.04386973381042,1.93862903118134,2.00929951667786,-1.44185817738692,2.34542508756209,2.03543598721428,3026.181,3257.038,4137.185,0,-0.2540714,0.0887119,0.2106275,-0.979344964027405,-0.593016922473907,0.681709170341492,-1.10024313330221,-0.473403883025206,0.681102911362803,10
2.44000244140625,-1.06357979774475,1.92681336402893,2.02304291725159,-1.46387808506052,2.33595053645515,2.04906735901791,3105.554,2917.19,3989.421,422.3162,-0.2520639,0.08942049,0.2101257,-0.985503673553467,-0.590789020061493,0.687165796756744,-1.10123038958312,-0.473828671822132,0.681714070030222,10
2.45999908447266,-1.08335900306702,1.9150664806366,2.03674530982971,-1.48590651627916,2.32647231790489,2.06270400730194,3027.977,3229.445,4154.057,0,-0.2523254,0.09003962,0.2116277,-0.988966941833496,-0.587342262268066,0.685120284557343,-1.10193556692257,-0.474132089930926,0.682150608395601,10
2.47999572753906,-1.10324656963348,1.90337562561035,2.05052900314331,-1.50794623031618,2.31698924467309,2.07634764018804,3122.746,2914.274,4047.979,334.1282,-0.2507877,0.0905757,0.2111521,-0.994380831718445,-0.584544003009796,0.689182817935944,-1.10235882472314,-0.474314205938057,0.682412625136718,10
2.5,-1.12320017814636,1.89175844192505,2.06427907943726,-1.52999999932945,2.30750012397766,2.08999997377396,3040.805,3179.174,4177.864,0,-0.2508932,0.09095682,0.2123616,-0.997679531574249,-0.580860316753387,0.687501311302185,-1.10250000050292,-0.474374949932098,0.682500019669533,11
2.51999664306641,-1.14324915409088,1.8802045583725,2.07808995246887,-1.55204535801192,2.29801462201262,2.10364710096447,3125.974,2928.151,4094.97,250.6681,-0.2495488,0.09114907,0.2121328,-1.00244975090027,-0.577695846557617,0.690540850162506,-1.10235893238473,-0.47431425226183,0.68241269178437,11
2.54000091552734,-1.16335999965668,1.86872696876526,2.09187197685242,-1.57409348237975,2.28852793005043,2.11729594024597,3051.145,3135.489,4193.153,0,-0.2493289,0.09112826,0.2133161,-1.00554132461548,-0.573879837989807,0.689099490642548,-1.10193556692257,-0.474132089930926,0.682150608395601,11
2.55999755859375,-1.18355655670166,1.85731613636017,2.10570454597473,-1.59612191359838,2.27904971150017,2.13093258853001,3107.491,2949.422,4109.656,211.839,-0.2477496,0.09091777,0.2134725,-1.0098237991333,-0.570539653301239,0.69163453578949,-1.10123038958312,-0.473828671822132,0.681714070030222,11
2.58000183105469,-1.20380806922913,1.84598422050476,2.11950516700745,-1.61814182127198,2.26957516039323,2.14456396033363,3057.322,3108.357,4193.079,0,-0.2470854,0.09044184,0.2148719,-1.01257503032684,-0.566587626934052,0.690028250217438,-1.10024313330221,-0.473403883025206,0.681102911362804,11
2.59999847412109,-1.22414016723633,1.83471989631653,2.13336253166199,-1.64013077892511,2.26011392621545,2.15817617260023,3070.053,2974.261,4074.611,238.6281,-0.2448308,0.0898915,0.2153731,-1.01661026477814,-0.563214123249054,0.692868232727051,-1.09897493039424,-0.472858210743393,0.680317833349887,11
2.62000274658203,-1.24451589584351,1.82353949546814,2.14717125892639,-1.66209994121933,2.25066120942759,2.17177613059669,3045.691,3117.453,4172.408,0,-0.2437469,0.08905951,0.2172122,-1.01878273487091,-0.559026181697845,0.690438985824585,-1.09742530100382,-0.472191448508328,0.679358538938131,11
2.63999938964844,-1.26497232913971,1.81242573261261,2.16106033325195,-1.68402693989188,2.24122663446822,2.18534998730279,3017.871,2991.671,3983.235,345.6463,-0.2404568,0.08837912,0.2178391,-1.02282893657684,-0.555685460567474,0.694454312324524,-1.09559602313537,-0.471404361345641,0.67822612879697,11
2.65999603271484,-1.28545498847961,1.80140376091003,2.1748685836792,-1.70591456353497,2.23180900148401,2.19889946898997,3007.906,3171.736,4130.987,0,-0.2391061,0.08745298,0.2202456,-1.02413010597229,-0.551094532012939,0.690414667129517,-1.09348726343002,-0.470497020956359,0.676920706085208,10
2.68000030517578,-1.30602252483368,1.79044902324677,2.18879389762878,-1.72776555581996,2.22240712994983,2.2124262741215,2961.813,2989.632,3845.073,524.3531,-0.2345995,0.08696786,0.2206264,-1.02838563919067,-0.547737121582031,0.696269035339355,-1.09109887036509,-0.469469362144494,0.675442177003072,9
2.69999694824219,-1.3265939950943,1.77959764003754,2.20259428024292,-1.74955768413056,2.21303058593937,2.22591663964878,2945.03,3268.686,4070.342,0,-0.2332386,0.08631923,0.2235573,-1.02857387065887,-0.542573690414429,0.690021455287933,-1.08843358680109,-0.468322565086308,0.673792239511893,9
2.72000122070313,-1.34725522994995,1.76881694793701,2.21655082702637,-1.77130202882336,2.20367460188472,2.23937742484041,2918.845,2961.295,3685.499,737.2454,-0.2276891,0.0863722,0.2232622,-1.03305912017822,-0.539025902748108,0.69782280921936,-1.08549040888332,-0.467056197851165,0.671970272177789,8
2.73999786376953,-1.36789488792419,1.75815403461456,2.23033046722412,-1.79297647980783,2.19434869114016,2.25279494249708,2861.629,3387.319,4006.222,0,-0.2266558,0.0863738,0.2264889,-1.03197813034058,-0.533144354820251,0.688987195491791,-1.08227271937422,-0.465671715947234,0.669978369091845,8
2.76000213623047,-1.38862586021423,1.74757063388824,2.24429750442505,-1.81459207318004,2.18504810518187,2.26617602448799,2900.344,2904.721,3540.988,935.6505,-0.2205049,0.08722697,0.2251285,-1.03655219078064,-0.529168963432312,0.698349475860596,-1.07877930973132,-0.464168599372462,0.667815782108711,7
2.77999877929688,-1.40931057929993,1.73711967468262,2.25804162025452,-1.83612684690458,2.17578229366013,2.27950707526701,2769.662,3507.99,3945.283,0,-0.2200938,0.0881574,0.228307,-1.03424525260925,-0.522555649280548,0.687207877635956,-1.07501419914593,-0.462548577472581,0.665484999299265,6
2.79999542236328,-1.43007946014404,1.72676217556,2.27197647094727,-1.85758361379882,2.16655004629821,2.2927898361021,2917.751,2822.286,3459.644,1053.197,-0.2141107,0.08987135,0.2257263,-1.03844046592712,-0.51787805557251,0.69674414396286,-1.07097756992209,-0.460811728687929,0.662986133518392,5
2.81999969482422,-1.45078313350677,1.71654963493347,2.28566122055054,-1.87896509797278,2.15735019098767,2.30602599334712,2701.448,3578.585,3907.011,0,-0.2144905,0.09173468,0.2283369,-1.03518497943878,-0.510622799396515,0.684240520000458,-1.06666929835407,-0.458957999791384,0.660319108186353,5
2.83999633789063,-1.47155034542084,1.70644855499268,2.2995023727417,-1.90024960698239,2.14819206138118,2.31920211834584,2970.675,2736.543,3481.719,1024.522,-0.2096211,0.0940464,0.2246948,-1.03836143016815,-0.505054295063019,0.692056596279144,-1.06209435025759,-0.456989527434725,0.657486997379635,4
2.86000061035156,-1.49224305152893,1.69650077819824,2.31309747695923,-1.9214480311499,2.13907097167731,2.33232495272651,2677.887,3564.743,3904.729,0,-0.2107604,0.09648856,0.226265,-1.0346405506134,-0.497395247220993,0.679754555225372,-1.05725102347782,-0.454905579228273,0.654488747383304,3
2.87999725341797,-1.51296555995941,1.68668222427368,2.32677173614502,-1.94253888918396,2.12999616467562,2.34538119854648,3041.582,2672.753,3629.658,817.8841,-0.2078464,0.09881414,0.2221492,-1.03611671924591,-0.490918040275574,0.683708608150482,-1.05214490868305,-0.452708560680416,0.651327819087361,2
2.90000152587891,-1.53361618518829,1.67701864242554,2.34023952484131,-1.96353299953007,2.12096298550123,2.3583775529389,2718.543,3434.009,3952.152,0,-0.2093772,0.101109,0.2223866,-1.03254652023315,-0.483194500207901,0.673383891582489,-1.04677411523767,-0.450397658303471,0.648003042098304,0
2.91999816894531,-1.55425667762756,1.66749739646912,2.35368633270264,-1.98440911693069,2.11198057539494,2.37130086407726,3102.349,2666.164,3872.632,459.5251,-0.208705,0.102642,0.2187101,-1.03202033042908,-0.47605687379837,0.672346293926239,-1.04114485287423,-0.447975543971863,0.644518260536375,0
2.94000244140625,-1.57483887672424,1.65812373161316,2.36699080467224,-2.00517798053537,2.10304431360073,2.38415778000673,2807.245,3211.167,4040.669,0,-0.2099769,0.1038696,0.2178493,-1.02911949157715,-0.468674778938293,0.665224969387054,-1.03525504859546,-0.445441325732794,0.640872191117535,0
2.95999908447266,-1.59537744522095,1.64889621734619,2.38018822669983,-2.02581860575671,2.0941632292003,2.39693531026807,3112.784,2730.147,4123.783,69.06428,-0.2108254,0.1038694,0.2156079,-1.02692067623138,-0.461381822824478,0.659869492053986,-1.02911152474823,-0.442797939051516,0.637069057199471,0
2.97999572753906,-1.61587524414063,1.6398024559021,2.39330792427063,-2.04633384260397,2.08533609591429,2.40963521915279,2910.205,2968.017,4132.328,0,-0.2110299,0.1032468,0.214482,-1.02488768100739,-0.4546799659729,0.655989706516266,-1.02271452148052,-0.440045487257004,0.633109007445237,0
3,-1.63632941246033,1.63083326816559,2.40634989738464,-2.06672639957428,2.07656174835205,2.42225918334961,2897.832,2958.925,4122.158,0,-0.2104089,0.1020161,0.214481,-1.02271354198456,-0.448464602231979,0.652102768421173,-1.01606400046349,-0.437183953857422,0.628992018127441,0
3.01999664306641,-1.65673685073853,1.62198400497437,2.41930222511292,-2.08697572864857,2.06784902775215,2.4347944826559,2940.223,2887.314,4124.099,0,-0.2089207,0.1000034,0.2150544,-1.02036666870117,-0.442466229200363,0.647611021995544,-1.00916768936771,-0.434216663853534,0.624722873042298,0
3.04000091552734,-1.6771068572998,1.61324572563171,2.43220281600952,-2.10709234004513,2.05919341186127,2.44724762339747,2889.139,2914.722,4033.882,94.164,-0.2058996,0.09745862,0.2160162,-1.01849186420441,-0.436908572912216,0.645025789737701,-1.00202309041976,-0.43114254252322,0.620300025949072,0
3.05999755859375,-1.69742572307587,1.60462141036987,2.44501209259033,-2.12705600675913,2.05060360379452,2.45960608409476,2890.718,2959.218,4018.401,37.34367,-0.2025835,0.09426861,0.2179139,-1.01594460010529,-0.431217551231384,0.640465259552002,-0.994638524886308,-0.427965170275055,0.615728628108227,0
3.08000183105469,-1.71771836280823,1.59609842300415,2.45782589912415,-2.14687713595163,2.04207512564123,2.47187630727625,2762.251,3001.863,3788.821,340.7745,-0.1969743,0.09113081,0.2197686,-1.01463854312897,-0.426159411668777,0.640691220760345,-0.987011339258122,-0.424683405378145,0.611007036871143,0
3.09999847412109,-1.73793148994446,1.58770203590393,2.47045755386353,-2.16653584520328,2.033616532251,2.4840459847772,2884.918,3009.779,3953.771,10.00299,-0.1933455,0.0871485,0.2230048,-1.01065301895142,-0.419808328151703,0.631587624549866,-0.979150439632689,-0.421301079877433,0.606140765536421,0
3.12000274658203,-1.75816357135773,1.57939541339874,2.48326349258423,-2.18604243256806,2.0252233926589,2.49612149158362,2539.93,3069.07,3351.751,913.9037,-0.1839925,0.08445726,0.2241961,-1.01160681247711,-0.41532301902771,0.640298128128052,-0.971053025860989,-0.417816988947023,0.601128080678429,0
3.13999938964844,-1.77826857566833,1.57123208045959,2.49574589729309,-2.20537738341953,2.01690410346351,2.50809074721212,2613.472,3392.199,3801.167,0,-0.1805043,0.08146257,0.2299932,-1.00524914264679,-0.408165216445923,0.624116957187653,-0.962728579444533,-0.414235212212131,0.595974851798267,0
3.15999603271484,-1.79845070838928,1.56315457820892,2.50860953330994,-2.22454360124808,2.00865741537402,2.51995554906156,2376.093,2975.063,2744.386,1764.608,-0.1666148,0.08106762,0.2290957,-1.00911295413971,-0.403884261846542,0.643181443214417,-0.95417746870157,-0.410555908149813,0.590681306902481,0
3.18000030517578,-1.81844353675842,1.55524325370789,2.52095437049866,-2.24354380138856,2.00048216005771,2.53171757805356,2266.831,3894.992,3589.201,0,-0.1640001,0.08100533,0.2369308,-0.999641180038452,-0.395564526319504,0.617245435714722,-0.94539982440085,-0.406779133026206,0.58524752694315,0
3.19999694824219,-1.83856856822968,1.54743611812592,2.53387713432312,-2.2623590635174,1.99238647840124,2.54336512160655,2343.591,2732.743,2103.848,2664.359,-0.1464968,0.08444127,0.2318654,-1.00625097751617,-0.390362232923508,0.646142065525055,-0.936405971974636,-0.402909329586355,0.579679903854719,0
3.22000122070313,-1.85844242572784,1.53981995582581,2.54609560966492,-2.28099938900442,1.98436606709459,2.55490437104486,1862.77,4506.936,3318.184,0,-0.1462683,0.08896151,0.2404579,-0.993687689304352,-0.380800127983093,0.610928535461426,-0.927192788821982,-0.398945154262308,0.573976504598449,0
3.23999786376953,-1.87845015525818,1.5323566198349,2.558926820755,-2.29944628156995,1.97642888457015,2.56632387629027,2502.329,2310.131,1753.818,3238.809,-0.1289194,0.09672894,0.2301141,-1.00038599967957,-0.37315645813942,0.641559779644012,-0.917771149318993,-0.394891285994308,0.568144060931169,0
3.26000213623047,-1.89817261695862,1.52511072158813,2.57098722457886,-2.31770961544581,1.96857068222185,2.57762974996267,1646.244,4887.287,3089.954,0,-0.132471,0.1059141,0.2362908,-0.986122071743011,-0.36230394244194,0.603014588356018,-0.90813782126959,-0.39074633405868,0.562180571969535,0
3.27999877929688,-1.91792726516724,1.51808309555054,2.58338737487793,-2.33577134012187,1.96079922667992,2.58881081793642,2878.565,1841.069,2111.393,2890.739,-0.1220734,0.116222,0.2215292,-0.987740218639374,-0.351396232843399,0.620005965232849,-0.898304216251578,-0.386515208538549,0.556093102023818,0
3.29999542236328,-1.93741023540497,1.51129746437073,2.59517693519592,-2.35363442159312,1.95311324175956,2.5998689163037,1859.572,4594.096,3117.937,0,-0.1294855,0.1273898,0.2207567,-0.974140524864197,-0.339269727468491,0.589473724365234,-0.888270870184445,-0.382198140025101,0.549881982853707,0
3.31999969482422,-1.95673561096191,1.50477576255798,2.60676503181458,-2.37130160722417,1.94551154534655,2.61080574581408,3351.746,1678.196,3301.467,1259.449,-0.1330872,0.1360565,0.2053019,-0.966267883777618,-0.326079666614532,0.579405188560486,-0.878038122530657,-0.377795274579551,0.543547424602645,0
3.33999633789063,-1.97584331035614,1.49849843978882,2.61808371543884,-2.38875555478454,1.93800159931817,2.62161057080077,2421.836,3478.011,3632.968,0,-0.1425025,0.144227,0.1955948,-0.955391943454742,-0.313874661922455,0.565936863422394,-0.867618167158097,-0.373311858882592,0.53709697585572,0
3.36000061035156,-1.99472320079803,1.49244093894958,2.62911486625671,-2.406005803634,1.93057929915441,2.6322892965819,2797.388,2687.907,3981.847,0,-0.1531275,0.1506098,0.1859389,-0.943983912467957,-0.302872449159622,0.551555752754211,-0.857007552155826,-0.36874640767338,0.530528499715627,0
3.37999725341797,-2.01339626312256,1.48656129837036,2.63996195793152,-2.42303550945299,1.9232518924954,2.64283149572124,2582.483,2744.232,4098.434,0,-0.1613726,0.1558674,0.177647,-0.933670103549957,-0.293982237577438,0.542353987693787,-0.846218976345105,-0.364104384899943,0.523849857357654,0
3.40000152587891,-2.03187704086304,1.48081159591675,2.65069508552551,-2.43985407218584,1.9160153348077,2.65324298723213,2402.871,2936.873,4032.708,0,-0.166333,0.1605572,0.1725588,-0.924045145511627,-0.287491828203201,0.536650836467743,-0.835248923368004,-0.359384277571698,0.517058871988738,0
3.41999816894531,-2.05016160011292,1.47516059875488,2.66128301620483,-2.45644516534361,1.90887665092339,2.66351366424015,2500.35,2819.735,3996.506,0,-0.1684567,0.1643416,0.1696478,-0.914200961589813,-0.282538294792175,0.529395341873169,-0.824110582941664,-0.354591760855451,0.510163708672097,0
3.44000244140625,-2.06825065612793,1.46959328651428,2.67171478271484,-2.47281804716281,1.90183185728196,2.67364925803476,2709.243,2601.712,3966.511,0,-0.1680737,0.16659,0.1668385,-0.904462099075317,-0.278364986181259,0.521590411663055,-0.812800388649434,-0.349725300221754,0.503162159625937,0
3.45999908447266,-2.08615207672119,1.46409595012665,2.68203139305115,-2.48895692832918,1.89488774758421,2.68363999427827,2735.179,2671.348,3840.477,0,-0.1659282,0.1672939,0.1643573,-0.895087540149689,-0.27487850189209,0.515835821628571,-0.801332006385299,-0.344790775723006,0.496062684689628,0
3.47999572753906,-2.10385918617249,1.45865952968597,2.69222378730774,-2.50486489870395,1.88804299234919,2.69348778574196,2668.605,2820.439,3721.325,0,-0.1634041,0.1666738,0.163266,-0.885359644889832,-0.271814614534378,0.509613990783691,-0.789706299681989,-0.339788558913217,0.488865818431069,0
3.5,-2.12135982513428,1.45328688621521,2.70223379135132,-2.5205447997813,1.88129636896134,2.70319439144611,2717.567,2739.219,3720.906,0,-0.1612874,0.1645084,0.1629158,-0.875034868717194,-0.268645077943802,0.500494539737701,-0.777924000354857,-0.334718964672089,0.481572013878822,0
3.51999664306641,-2.1386559009552,1.44798159599304,2.7120475769043,-2.53598168290031,1.87465430941181,2.7127505574575,2755.667,2642.974,3761.82,0,-0.1593023,0.1606011,0.1626325,-0.864804327487946,-0.265259236097336,0.490691184997559,-0.765999459475408,-0.329588167864767,0.474190155029786,0
3.54000091552734,-2.15575766563416,1.44274425506592,2.72169256210327,-2.55118444594166,1.86811298519115,2.72216179198813,2661.501,2727.499,3760.458,0,-0.1570397,0.1551905,0.1632816,-0.855084776878357,-0.261867344379425,0.48225337266922,-0.753929052770513,-0.324394609067776,0.466717998286246,0
3.55999755859375,-2.17267179489136,1.43757605552673,2.73117113113403,-2.56613872308604,1.86167857751006,2.73141920191151,2583.358,2786.972,3765.796,0,-0.1543781,0.1484597,0.1655254,-0.845706880092621,-0.258410394191742,0.473924219608307,-0.741727567798258,-0.319144650954242,0.459164697851087,0
3.58000183105469,-2.18942070007324,1.43247413635254,2.74054408073425,-2.58085326729328,1.85534732021446,2.74052820572674,2450.512,2822.571,3652.668,204.9422,-0.1496084,0.140954,0.1689991,-0.837447047233582,-0.255093634128571,0.468642473220825,-0.729391385793765,-0.313836736470737,0.451528013536464,0
3.59999847412109,-2.20600700378418,1.42744731903076,2.74977850914001,-2.59531431270705,1.84912513636775,2.74948028171299,2422.494,2872.06,3615.884,208.0142,-0.1436909,0.1327486,0.1740521,-0.829320430755615,-0.251346588134766,0.461717963218689,-0.716935713767317,-0.308477408768949,0.443817359206151,0
3.6199951171875,-2.22247004508972,1.42249536514282,2.75900459289551,-2.60952509409627,1.84301063413925,2.75827743234631,2274.989,2904.815,3312.24,630.9838,-0.1339948,0.1247145,0.1791275,-0.823139727115631,-0.247585192322731,0.46130496263504,-0.704361775018033,-0.303067194200314,0.436033492140578,0
3.63999938964844,-2.238774061203,1.41764998435974,2.76802110671997,-2.6234885835008,1.83700253474321,2.76692149746096,2427.297,2943.281,3436.052,290.7506,-0.1257603,0.1159969,0.1856197,-0.815210998058319,-0.242272540926933,0.45083087682724,-0.691670720740692,-0.297606588091786,0.428177124984152,0
3.65999603271484,-2.25501799583435,1.41290462017059,2.77723145484924,-2.63719194552437,1.83110636089208,2.77540453133521,2072.914,2980.579,2718.843,1354.423,-0.1105984,0.1088267,0.1893377,-0.812190890312195,-0.237257778644562,0.460515767335892,-0.678878353700696,-0.292102389931838,0.420258040401444,0
3.68000030517578,-2.27105617523193,1.40831673145294,2.78595447540283,-2.65064357486757,1.82531850058072,2.78373173068862,2433.582,3192.939,3424.581,0,-0.1044279,0.1003626,0.1973434,-0.80191844701767,-0.229400023818016,0.436156094074249,-0.665981146317811,-0.286553081901244,0.412274054652249,0
3.69999694824219,-2.28715515136719,1.4038610458374,2.7953405380249,-2.66383127580226,1.81964420129024,2.79189554578451,1671.728,2974.613,1724.097,2775.981,-0.08171963,0.09624675,0.196398,-0.804951131343842,-0.222790390253067,0.469301402568817,-0.65299527533123,-0.280965624398954,0.404235181908735,0
3.72000122070313,-2.30298972129822,1.39958453178406,2.80393147468567,-2.6767633032417,1.81407991116207,2.79990108680742,1541.792,4407.449,3022.714,0,-0.07740211,0.09312555,0.2101154,-0.791717946529388,-0.213815063238144,0.429542750120163,-0.639917282339434,-0.275338529371411,0.396139281255611,0
3.73999786376953,-2.31897449493408,1.39550411701202,2.81346559524536,-2.68942811570037,1.808630596175,2.80774120902801,1650.947,2373.653,697.6841,4407.593,-0.04787778,0.09608454,0.2029016,-0.79925525188446,-0.204025536775589,0.47670242190361,-0.626763698705669,-0.269678909802388,0.38799658639423,0
3.76000213623047,-2.33464622497559,1.39162993431091,2.82188177108765,-2.70183383146282,1.803292763258,2.81542093805117,1013.857,5259.13,2616.011,0,-0.04667509,0.1009876,0.2171657,-0.783583760261536,-0.193713411688805,0.420811712741852,-0.613531154887639,-0.263985315871967,0.379805011417393,0
3.77999877929688,-2.35047292709351,1.38805878162384,2.8312394618988,-2.7139695770734,1.79807109095524,2.82293354268985,2063.446,1570.339,280.0464,5173.569,-0.01735475,0.111155,0.2004304,-0.791340827941895,-0.178554520010948,0.467883974313736,-0.60023651686137,-0.258265004538452,0.371574997167698,0
3.79999542236328,-2.36597967147827,1.38473653793335,2.8394730091095,-2.72583886061506,1.79296406983666,2.83028119461452,771.706,5870.961,2172.006,0,-0.02186508,0.1236454,0.209345,-0.775321125984192,-0.166112899780273,0.411675661802292,-0.586881630238189,-0.252518769916838,0.363307686166475,0
3.81999969482422,-2.38143920898438,1.38178014755249,2.84796237945557,-2.73744492223163,1.78797030575888,2.83746589962856,2833.141,804.7949,1279.819,4038.527,-0.007505853,0.1368125,0.1861076,-0.772980988025665,-0.147818520665169,0.424462974071503,-0.573468357077023,-0.246747413199059,0.355004231116903,0
3.83999633789063,-2.39658546447754,1.37913846969604,2.85573840141296,-2.74877791451009,1.78309403578861,2.84448156171422,1557.798,4857.298,2375.353,0,-0.0178778,0.1501552,0.179508,-0.757315099239349,-0.132081925868988,0.388802796602249,-0.560014026276881,-0.240958390526246,0.346675359432959,0
3.86000061035156,-2.41139650344849,1.37682437896729,2.86286520957947,-2.75984563331209,1.77833190558438,2.85133300688122,3470.31,1141.685,3420.397,745.8179,-0.03040371,0.158215,0.1573872,-0.740567564964294,-0.115711741149426,0.356339067220688,-0.546515580872635,-0.235150386571708,0.338319178707605,0
3.87999725341797,-2.4258885383606,1.37480926513672,2.86982083320618,-2.77063893010371,1.77368785150474,2.85801457175126,2385.499,2865.994,3534.355,0,-0.04465695,0.164121,0.137892,-0.724599182605743,-0.100754529237747,0.34778305888176,-0.532990631455729,-0.229330978680956,0.329946590735853,0
3.90000152587891,-2.44004726409912,1.37300360202789,2.87668800354004,-2.78116548164984,1.76915857045225,2.8645310086075,1545.124,3730.49,3411.82,0,-0.05995308,0.1703203,0.1296141,-0.707928955554962,-0.0902752429246902,0.343355447053909,-0.519436284009554,-0.223498921639498,0.32155580398356,0
3.91999816894531,-2.45384359359741,1.3713401556015,2.88312792778015,-2.79141684911929,1.7647476934202,2.87087709341145,1898.936,2742.634,3947.646,0,-0.07380632,0.1751984,0.1258303,-0.689830839633942,-0.0831737220287323,0.322000950574875,-0.505870408491346,-0.2176619043907,0.313157880805522,0
3.94000244140625,-2.46732115745544,1.36978852748871,2.88924193382263,-2.8014005971492,1.76045196555656,2.87705750903383,2547.957,1727.053,4313.72,0,-0.08014357,0.1765496,0.1182124,-0.67386394739151,-0.0775812268257141,0.305705338716507,-0.492290296490434,-0.211818761581115,0.30475114456651,0
3.95999908447266,-2.48054051399231,1.36830496788025,2.89545488357544,-2.81110900652845,1.75627470822223,2.88306747691526,2173.337,2620.352,3795.93,0,-0.07887537,0.175799,0.1131787,-0.66098415851593,-0.0741851776838303,0.310649752616882,-0.478714054341681,-0.205977283860804,0.296346803950332,0
