t,x_s1,x_s2,x_s3,x_s_d1,x_s_d2,x_s_d3,propellers_rpms1,propellers_rpms2,propellers_rpms3,propellers_rpms4,rollRad,pitchRad,yawRad,v_s1,v_s2,v_s3,v_s_d1,v_s_d2,v_s_d3,insideCount
0,-0.0599999986588955,2.94000005722046,1.17999994754791,-0.0599999986588955,2.94000005722046,1.17999994754791,0,0,0,0,0,0,0,0,0,0,-1.06581410364015E-15,4.44089209850063E-16,4.44089209850063E-16,0
0.0200042724609375,-0.0599999986588955,2.94000005722046,1.17811644077301,-0.0600018701838461,2.93999925195556,1.18000110611101,0,0,0,0,-0.01635288,0.0001297794,-0.01587137,-1.10653664009419E-09,-7.76775763711157E-08,-0.0941759571433067,-0.000280105751305916,-0.000120521679537258,0.00017339880334547,9
0.0399932861328125,-0.0599999986588955,2.94000005722046,1.17242503166199,-0.060014863945674,2.93999366110285,1.18000914986856,0,0,0,0,-0.03270202,0.0005238493,-0.03175127,-1.08383135799528E-09,-7.60859677484405E-08,-0.284568399190903,-0.00111059898697896,-0.000477859717552347,0.000687513678106196,9
0.05999755859375,-0.0599058829247952,2.93990302085876,1.16596519947052,-0.0600498857373401,2.93997859220429,1.18003083002592,1867.904,3252.744,3184.064,1722.533,-0.04942081,0.0003291642,-0.01369451,0.00470578344538808,-0.00484931888058782,-0.322993487119675,-0.00247936261166862,-0.00106680046642749,0.00153484356504269,9
0.0800018310546875,-0.0598203651607037,2.93960738182068,1.16000318527222,-0.0601175574246769,2.93994947496775,1.18007272202403,1925.689,2314.406,3251.882,2829.42,-0.07542925,-0.002135855,0.02094752,0.00427580904215574,-0.0147780273109674,-0.298102557659149,-0.00437268608126799,-0.00188144466206175,0.00270690098422899,9
0.0999908447265625,-0.0599374361336231,2.93904495239258,1.15498661994934,-0.0602281370710988,2.93990189563514,1.18014117609281,980.3461,1498.873,3914.857,3896.541,-0.1031932,-0.008062454,0.06330631,-0.00585355889052153,-0.0281156711280346,-0.250828981399536,-0.00677536694902951,-0.00291525111632684,0.0041942748969354,8
0.1199951171875,-0.060463834553957,2.93818354606628,1.15081334114075,-0.0603918861403606,2.93983143898525,1.18024254456713,346.1977,980.26,4173.206,4613.362,-0.1214295,-0.01542077,0.1040004,-0.0263199284672737,-0.0430677868425846,-0.20866422355175,-0.00967801353495435,-0.00416417885169243,0.00599115140585487,8
0.139999389648438,-0.0615635700523853,2.93704128265381,1.1472829580307,-0.0606185767455666,2.93973390035084,1.18038287685052,353.0333,747.2346,3975.123,4854.899,-0.1253987,-0.02116627,0.1351041,-0.0549868755042553,-0.0571124851703644,-0.176520496606827,-0.0130660253322238,-0.00562194567796536,0.00808849210174802,7
0.160003662109375,-0.0633407756686211,2.93568110466003,1.14427495002747,-0.0609177895434042,2.93960515744296,1.18056810382587,821.0941,815.0187,3462.568,4692.36,-0.118459,-0.02352317,0.1522677,-0.0888603180646896,-0.0680128633975983,-0.150397926568985,-0.0169265510445065,-0.00728302204135792,0.0104783414199936,7
0.17999267578125,-0.065846785902977,2.93417263031006,1.14182543754578,-0.0612985250199726,2.93944133760391,1.18080379722281,1348.71,1083.38,3006.764,4255.208,-0.1079832,-0.02277908,0.155776,-0.12530043721199,-0.0754290074110031,-0.122478008270264,-0.0212433804254414,-0.00914043312572283,0.0131506644458931,7
0.199996948242188,-0.0690848380327225,2.93255424499512,1.14006185531616,-0.0617704296168641,2.93923829023936,1.18109592864822,1636.077,1380.892,2919.077,3666.346,-0.09982806,-0.02030128,0.1501562,-0.16190280020237,-0.080915242433548,-0.0881805270910263,-0.0260104776919234,-0.0111915819022102,0.0161017247421801,7
0.220001220703125,-0.073010116815567,2.93082642555237,1.139035820961,-0.0623420644491781,2.93899233174064,1.18144979784016,1641.519,1580.823,3147.889,3113.139,-0.09583758,-0.01735475,0.1421895,-0.196263834834099,-0.086386151611805,-0.0512993223965168,-0.03121219533433,-0.0134297356845702,0.019321835755004,7
0.239990234375,-0.0775497853755951,2.92897391319275,1.13863325119019,-0.0630214373585105,2.93870001655724,1.18187036203406,1524.439,1624.352,3417.368,2777.422,-0.09475687,-0.01467721,0.1377334,-0.226983532309532,-0.0926236659288406,-0.0201296862214804,-0.0368316683029241,-0.015847637913056,0.022800557215184,7
0.259994506835938,-0.0826386585831642,2.92699265480042,1.13863575458527,-0.0638179029240226,2.93835731967507,1.18236341216003,1438.579,1500.522,3533.855,2744.336,-0.09438935,-0.01258876,0.1393034,-0.254443824291229,-0.099057249724865,0.000124411657452583,-0.0428651747123285,-0.0184436871643672,0.0265355850983733,7
0.279998779296875,-0.0882444828748703,2.92490100860596,1.13885235786438,-0.0647390625194898,2.93796097043536,1.18293365383054,1400.588,1276.089,3476.342,2977.746,-0.09320798,-0.01110591,0.1456843,-0.280291497707367,-0.104583360254765,0.010827487334609,-0.0492963837173861,-0.0212108567320638,0.030516809833474,7
0.300003051757813,-0.0943702012300491,2.92273283004761,1.13920712471008,-0.0657927507678135,2.93750759781875,1.18358593705038,1350.97,1061.788,3344.724,3324.672,-0.09053203,-0.009934124,0.153308,-0.306285858154297,-0.108404822647572,0.0177371725440025,-0.0561132031658829,-0.0241439437008635,0.0347367458022363,7
0.319992065429688,-0.101035475730896,2.92052602767944,1.13972520828247,-0.0669855955880233,2.93699435001684,1.18432436481717,1280.978,941.1936,3237.583,3590.4,-0.08598229,-0.008523181,0.1583567,-0.33326381444931,-0.11034045368433,0.0259067416191101,-0.0632980253096114,-0.0272353719486164,0.0391844929697465,7
0.339996337890625,-0.108251065015793,2.91831231117249,1.14046216011047,-0.068326768706371,2.93641728069206,1.18515461486636,1252.403,943.7586,3172.106,3649.861,-0.07944742,-0.006292517,0.1584773,-0.360779315233231,-0.110680237412453,0.0368454642593861,-0.0708499516420146,-0.0304847548730522,0.0438594951176439,7
0.360000610351563,-0.116002537310123,2.91611504554749,1.14145302772522,-0.0698225328270578,2.93577369517774,1.1860805641102,1319.853,1047.346,3120.22,3498.214,-0.07154422,-0.002963033,0.1534754,-0.387573957443237,-0.109859175980091,0.0495450682938099,-0.0787518717320621,-0.0338847303337087,0.0487511600740379,8
0.379989624023438,-0.124250799417496,2.91394996643066,1.14270770549774,-0.0714784451857985,2.93506120235061,1.1871056527423,1456.145,1181.959,3089.952,3231.099,-0.06361333,0.001260035,0.1450383,-0.41241380572319,-0.10825552046299,0.0627332478761673,-0.0869857157641562,-0.0374275233937465,0.0538483017622888,8
0.399993896484375,-0.132942572236061,2.91182661056519,1.1442174911499,-0.0733036822025899,2.9342758538535,1.18823556140379,1578.919,1273.216,3105.674,2981.978,-0.05701828,0.005825697,0.1357498,-0.434588968753815,-0.106163688004017,0.0754882618784904,-0.0955525119207663,-0.0411135764513579,0.0591515566763244,8
0.419998168945313,-0.142022892832756,2.90975069999695,1.14595794677734,-0.0753034649285836,2.93341540321397,1.18947352217404,1631.031,1288.617,3158.8,2845.138,-0.05243764,0.01017519,0.1278584,-0.454016387462616,-0.103800646960735,0.08702352643013,-0.104434660908044,-0.0449353170220673,0.0646500300148815,8
0.44000244140625,-0.151445254683495,2.90772485733032,1.1478955745697,-0.077483988232608,2.93247718495301,1.19082336997196,1607.598,1238.41,3218.794,2842.564,-0.04965623,0.01397622,0.1224584,-0.47111839056015,-0.10128815472126,0.0968843325972557,-0.113620829717891,-0.048887868829098,0.0703367061060819,8
0.459991455078125,-0.161175921559334,2.90575218200684,1.1499969959259,-0.0798493430620752,2.93145943885026,1.19228763728888,1541.649,1158.305,3252.846,2937.995,-0.04789109,0.01718686,0.1193364,-0.486533433198929,-0.0986366048455238,0.105069547891617,-0.123092454730403,-0.0529632444654124,0.0762000931848968,8
0.479995727539063,-0.17119275033474,2.90383672714233,1.15223956108093,-0.0824088828700873,2.93035814037613,1.19387211435783,1473.136,1085.77,3249.53,3067.268,-0.0462916,0.01998593,0.1173789,-0.500841498374939,-0.0957776680588722,0.112125687301159,-0.132852887402757,-0.0571628859694044,0.0822422659629699,8
0.5,-0.18148010969162,2.90198397636414,1.15461599826813,-0.085166398670376,2.92917165836334,1.1955791479969,1431.915,1046.394,3215.817,3169.854,-0.04433045,0.02264385,0.115225,-0.51436847448349,-0.0926400423049927,0.118820950388908,-0.142884000065179,-0.0614789935111996,0.0884520025491718,8
0.520004272460938,-0.19202321767807,2.90019941329956,1.15713465213776,-0.088127196023106,2.92789770997757,1.19741202260058,1424.966,1045.393,3176.508,3209.656,-0.04191762,0.02538084,0.1118836,-0.527155935764313,-0.0892264097929001,0.125932276248932,-0.153174893518032,-0.065906877469682,0.0948225558197254,9
0.539993286132813,-0.202803432941437,2.89848661422729,1.15980982780457,-0.091293865515634,2.92653518056143,1.19937234186584,1445.688,1073.384,3148.888,3184.558,-0.03930186,0.02828937,0.1070485,-0.539011299610138,-0.0856369659304619,0.133759409189224,-0.163706645289342,-0.0704383960337938,0.101342211863077,9
0.55999755859375,-0.213796749711037,2.8968460559845,1.16265332698822,-0.094676112580471,2.92507989413848,1.20146611391775,1482.289,1113.391,3140.24,3114.946,-0.03689544,0.03132487,0.1010649,-0.549665033817291,-0.0820321440696716,0.142176941037178,-0.17448465888317,-0.0750758741803766,0.108014315705644,9
0.580001831054688,-0.224975004792213,2.89527440071106,1.16566812992096,-0.0982762614093182,2.92353085067394,1.20369477754168,1520.978,1148.8,3145.27,3035.368,-0.0351255,0.03434414,0.09466036,-0.558912873268127,-0.0785785913467407,0.150742053985596,-0.185490414529404,-0.0798113433697334,0.11482740272751,9
0.599990844726563,-0.23630964756012,2.89376592636108,1.16885125637054,-0.102095761416081,2.92188742652551,1.20605922999388,1542.548,1167.428,3162.252,2977.927,-0.03428553,0.03716309,0.08861392,-0.566732406616211,-0.0754194781184196,0.159155964851379,-0.19670480600515,-0.0846365827279185,0.121769645266545,9
0.6199951171875,-0.247774958610535,2.89231252670288,1.17219460010529,-0.106144683970236,2.92014528826426,1.20856570593183,1533.865,1167.023,3183.155,2964.381,-0.03441869,0.03963171,0.08345995,-0.573266744613647,-0.0726648196578026,0.167168140411377,-0.208134604141382,-0.0895545055543457,0.128845234789665,9
0.639999389648438,-0.259350210428238,2.89090490341187,1.17568683624268,-0.110424235525481,2.91830391678686,1.21121495220784,1506.237,1156.337,3194.452,2987.765,-0.03534281,0.0416978,0.07929826,-0.578761339187622,-0.0703795403242111,0.174613535404205,-0.219761081350814,-0.0945570538913933,0.136042578028218,9
0.660003662109375,-0.27101993560791,2.88953304290771,1.1793200969696,-0.114938248900541,2.91636166293851,1.21400934151928,1468.26,1144.641,3197.024,3030.165,-0.03677825,0.04338717,0.07589964,-0.583488047122955,-0.0685942098498344,0.181665569543839,-0.231574097577923,-0.0996398647564507,0.143355397804799,9
0.67999267578125,-0.282772898674011,2.88818669319153,1.18308937549591,-0.119686638739014,2.91431856344567,1.21694882102647,1429.338,1139.751,3190.694,3075,-0.03845338,0.04477733,0.0728796,-0.587647974491119,-0.0673232153058052,0.188463613390923,-0.243554411173546,-0.104794659005432,0.150771782621969,9
0.699996948242188,-0.294599950313568,2.88685512542725,1.18699264526367,-0.124680083855354,2.91217002351282,1.22004000142426,1402.178,1145.895,3178.877,3102.98,-0.04017751,0.04596468,0.06986264,-0.591350674629211,-0.0665756240487099,0.195164054632187,-0.255710395848158,-0.11002503961202,0.158296916205407,9
0.720001220703125,-0.306492179632187,2.88552784919739,1.1910285949707,-0.129918284978346,2.90991617190799,1.22328269744952,1393.821,1162.835,3162.752,3107.122,-0.04192881,0.04702038,0.06663261,-0.594613134860992,-0.0663620829582214,0.201798021793365,-0.268023157655716,-0.11532287703907,0.16591910230247,9
0.739990234375,-0.318440616130829,2.88419365882874,1.19519889354706,-0.135400001298574,2.90755754251682,1.2266761409821,1394.814,1185.398,3152.539,3092.352,-0.04382445,0.0479553,0.06321374,-0.597420632839203,-0.0667097419500351,0.208516329526901,-0.280473432677602,-0.12067988256057,0.173626415629864,9
0.759994506835938,-0.330435752868652,2.88284039497375,1.19950449466705,-0.14113644597991,2.90508931062815,1.2302272735046,1390.801,1207.385,3150.869,3075.369,-0.04600238,0.04873309,0.05981529,-0.599756717681885,-0.0676616132259369,0.215279161930084,-0.293070637251543,-0.126100107763583,0.181424685349205,9
0.779998779296875,-0.342468529939651,2.88145518302917,1.20394194126129,-0.147126184485884,2.90251209348295,1.23393520697061,1386.803,1226.408,3150.368,3060.199,-0.04853931,0.04931715,0.05665375,-0.601640343666077,-0.0692547559738159,0.22187252342701,-0.305795832832518,-0.131575403921268,0.189302187598958,9
0.800003051757813,-0.354531556367874,2.88002490997314,1.20850813388824,-0.153371683173492,2.89982482987671,1.2378014681726,1375.984,1240.874,3153.498,3052.881,-0.05146985,0.04966287,0.05392829,-0.60314953327179,-0.0715180933475494,0.228311017155647,-0.318639638509124,-0.13710173468952,0.197253115148089,9
0.819992065429688,-0.366619348526001,2.8785355091095,1.21319818496704,-0.159870162197751,2.89702871589906,1.2418243362541,1352.62,1251.006,3156.39,3061.968,-0.05475513,0.04974011,0.05175536,-0.604390680789948,-0.0744665786623955,0.234504103660583,-0.33158286215529,-0.142670842232658,0.205265587156312,9
0.839996337890625,-0.378729194402695,2.8769736289978,1.21800708770752,-0.166633637018892,2.89411858163313,1.24601124935738,1324.211,1259.302,3157.374,3079.211,-0.05826304,0.04955721,0.05010807,-0.605490446090698,-0.0780994892120361,0.240446329116821,-0.344636106234817,-0.148287288494656,0.213346167053785,8
0.860000610351563,-0.390860259532928,2.87532567977905,1.22292840480804,-0.173659158941841,2.89109569582005,1.2503603820997,1300.579,1268.99,3150.981,3097.67,-0.06187056,0.04915106,0.04886582,-0.606553852558136,-0.0823933184146881,0.246065691113472,-0.357780475378537,-0.153942943326036,0.221483157706883,8
0.879989624023438,-0.403013646602631,2.87357926368713,1.22795951366425,-0.18094280014554,2.88796174849148,1.25486930297274,1280.428,1281.206,3144.47,3111.269,-0.06550418,0.04855767,0.04791184,-0.607668995857239,-0.0873247608542442,0.251553386449814,-0.370996904517929,-0.159629603560431,0.229664756929996,8
0.899993896484375,-0.415191292762756,2.87172198295593,1.23309862613678,-0.18849723509595,2.8847112861788,1.25954585807468,1257.278,1295.098,3139.745,3124.97,-0.06911702,0.04780487,0.04718464,-0.608884632587433,-0.0928697288036346,0.256953746080399,-0.384296738353309,-0.165352150505452,0.237897987633041,8
0.919998168945313,-0.427395820617676,2.86974215507507,1.23834192752838,-0.196318384305134,2.8813460641717,1.26438752200817,1245.863,1310.701,3131.913,3129.179,-0.07266435,0.04693273,0.04661385,-0.610225319862366,-0.0989941358566284,0.26216521859169,-0.397661187980262,-0.171102499820431,0.246171218589148,8
0.94000244140625,-0.439630120992661,2.86762881278992,1.24368858337402,-0.204407453948074,2.87786556348678,1.26939504145298,1238.94,1326.835,3127.567,3126.503,-0.07617386,0.04595165,0.04622338,-0.61171567440033,-0.105671867728233,0.267332047224045,-0.411081631631503,-0.176876941799768,0.254479112513653,8
0.959991455078125,-0.45189756155014,2.8653712272644,1.24913692474365,-0.212759000778906,2.87427212620069,1.27456504678061,1227.066,1341.254,3125.951,3128.502,-0.07968284,0.04485397,0.04609565,-0.613373577594757,-0.112874493002892,0.27241975069046,-0.424539267042903,-0.182667386354485,0.262810029909387,8
0.979995727539063,-0.464202284812927,2.86295986175537,1.25468528270721,-0.22138664033507,2.87055989392801,1.27990596665734,1213.757,1353.09,3127.017,3132.249,-0.0831636,0.04364118,0.04627858,-0.615236282348633,-0.12057351320982,0.277420789003372,-0.438046240701377,-0.188479059778567,0.271171490030365,8
1,-0.476549088954926,2.86038541793823,1.26032960414886,-0.230284798736574,2.86673126495361,1.28541435058594,1205.21,1363.465,3124.063,3137.274,-0.08658896,0.04232532,0.04677789,-0.617341041564941,-0.128722503781319,0.282213449478149,-0.451584000205995,-0.194303979492187,0.279552008056641,8
1.02000427246094,-0.488943964242935,2.8576397895813,1.26606869697571,-0.239454009753966,2.86278600961093,1.2910905289958,1195.745,1372.583,3123.239,3143.459,-0.08995199,0.04091094,0.04759565,-0.619743227958679,-0.137285500764847,0.286955863237381,-0.465144357597929,-0.200138622445408,0.287946515251652,8
1.03999328613281,-0.501393616199493,2.85471534729004,1.27190148830414,-0.248887339851819,2.85872711120656,1.2969302096982,1179.944,1380.339,3123.279,3156.807,-0.09322555,0.03940754,0.04872288,-0.622483432292938,-0.146220952272415,0.291638821363449,-0.478708875293167,-0.205975055460915,0.29634359787259,8
1.05999755859375,-0.513905644416809,2.85160565376282,1.27782714366913,-0.258599401509697,2.85454828239877,1.30294243851408,1165.619,1387.137,3124.345,3168.947,-0.09632387,0.03784353,0.05009628,-0.625600159168243,-0.15548574924469,0.296280175447464,-0.492290296490434,-0.211818761581115,0.30475114456651,8
1.08000183105469,-0.526487827301025,2.84830522537231,1.28384268283844,-0.268583149539609,2.85025255453512,1.30912285413647,1161.61,1394.595,3120.155,3176.268,-0.09920382,0.03625505,0.05163721,-0.629107356071472,-0.16501747071743,0.300780028104782,-0.50587040849135,-0.217661904390701,0.313157880805523,8
1.09999084472656,-0.539148271083832,2.84480977058411,1.28994917869568,-0.278830554044452,2.84584338265603,1.31546648567654,1160.692,1402.17,3118.423,3179.593,-0.1018872,0.03465762,0.0533189,-0.633024156093597,-0.174771890044212,0.305326372385025,-0.519431110871131,-0.223496695782555,0.321552601564445,7
1.1199951171875,-0.551895320415497,2.84111571311951,1.2961483001709,-0.289357002179081,2.84131414609862,1.32198285851614,1152.233,1408.287,3120.82,3188.39,-0.1043901,0.03305421,0.05516027,-0.637352108955383,-0.184707820415497,0.309958964586258,-0.532985466132485,-0.229328756186667,0.329943393154705,7
1.13999938964844,-0.564737021923065,2.83722043037415,1.30243897438049,-0.300154365346813,2.83666834237095,1.3286669406667,1152.63,1413.534,3120.021,3192.875,-0.106682,0.03147133,0.05711606,-0.642085552215576,-0.194769710302353,0.314535588026047,-0.546515580872639,-0.235150386571708,0.338319178707607,7
1.16000366210938,-0.577681720256805,2.83312201499939,1.3088231086731,-0.311222084148811,2.83190621216671,1.33551838583369,1155.59,1418.143,3121.795,3194.14,-0.1087837,0.02991571,0.05918583,-0.647234618663788,-0.204919397830963,0.319206684827805,-0.560014026276883,-0.240958390526247,0.34667535943296,7
1.17999267578125,-0.590737640857697,2.8288197517395,1.31530225276947,-0.322550701230474,2.8270318247214,1.34253133946411,1153.101,1421.111,3125.269,3201.212,-0.1107156,0.02838521,0.06139494,-0.652795135974884,-0.215114921331406,0.323957622051239,-0.573463232144024,-0.246745208083563,0.355001058539242,7
1.19999694824219,-0.603913128376007,2.8243134021759,1.32187807559967,-0.334156660511822,2.8220381046756,1.34971598112778,1150.333,1422.185,3130.48,3208.88,-0.1124392,0.02689162,0.06372354,-0.658771812915802,-0.225316748023033,0.328791469335556,-0.58687652428584,-0.252516572968185,0.36330452533874,7
1.22000122070313,-0.617216229438782,2.81960415840149,1.32854998111725,-0.346030421585499,2.81692915700008,1.35706640485806,1155.967,1423.37,3130.365,3213.885,-0.1139418,0.02545724,0.06611916,-0.665155172348022,-0.235467776656151,0.333596110343933,-0.600236516861372,-0.258265004538453,0.371574997167698,7
1.239990234375,-0.630655229091644,2.81469345092773,1.33532106876373,-0.358161486344149,2.81170949873715,1.36457611182642,1161.856,1424.185,3132.796,3217.588,-0.1152584,0.02408608,0.06856315,-0.671953558921814,-0.245535343885422,0.33855527639389,-0.613526094901141,-0.263983138701136,0.379801879044709,7
1.25999450683594,-0.644238412380219,2.80958366394043,1.34219527244568,-0.3705671011502,2.80637170925886,1.37225577835275,1158.799,1423.44,3139.576,3227.422,-0.1163945,0.0227763,0.07106224,-0.679156720638275,-0.255491822957993,0.343707621097565,-0.626758665639206,-0.269676744214496,0.387993470686331,7
1.27999877929688,-0.657973110675812,2.8042778968811,1.34917283058167,-0.383236695417198,2.80092033679326,1.3800988607405,1164.965,1422.75,3141.609,3232.643,-0.1173133,0.02155488,0.07354983,-0.68673849105835,-0.265289574861526,0.34887957572937,-0.639917282339435,-0.275338529371412,0.396139281255613,8
1.30000305175781,-0.6718670129776,2.79877996444702,1.35625720024109,-0.396168722856641,2.79535604666509,1.38810440176341,1174.83,1422.191,3145.291,3233.324,-0.1180398,0.02042845,0.07600564,-0.694692552089691,-0.274901747703552,0.354220420122147,-0.652995275331231,-0.280965624398954,0.404235181908735,8
1.31999206542969,-0.685926854610443,2.79309391975403,1.36345183849335,-0.409351342777246,2.78968393359302,1.39626507146953,1179.323,1420.66,3150.768,3238.671,-0.1186113,0.0193894,0.07844954,-0.702993273735046,-0.284301161766052,0.359729886054993,-0.665976209205206,-0.286550957599616,0.412270998344359,8
1.33999633789063,-0.700159311294556,2.78722453117371,1.37075996398926,-0.422802873722428,2.78389611561957,1.40459220990988,1182.67,1417.641,3158.537,3244.075,-0.1190044,0.01844219,0.08086969,-0.711621940135956,-0.293466299772263,0.365409314632416,-0.678873453515705,-0.29210028151913,0.420255006953505,8
1.36000061035156,-0.714570164680481,2.78117752075195,1.37818229198456,-0.436511415158101,2.77799771321212,1.41307845008695,1194.273,1415.375,3160.415,3246.392,-0.1192233,0.01760176,0.08322568,-0.720544040203094,-0.302356362342834,0.371116578578949,-0.691670720740693,-0.297606588091785,0.42817712498415,8
1.37998962402344,-0.729165256023407,2.77495837211609,1.3857227563858,-0.450464156928423,2.77199423822282,1.42171586190405,1205.666,1412.806,3164.926,3247.255,-0.1193171,0.01686222,0.085515,-0.729753375053406,-0.310958027839661,0.377026200294495,-0.704352136620515,-0.303063047067127,0.436027525513373,8
1.39999389648438,-0.743949770927429,2.76857304573059,1.39338612556458,-0.464680216184654,2.76587746507559,1.43051627978847,1206.854,1408.51,3174.343,3254.565,-0.119299,0.01620949,0.08776394,-0.739226877689362,-0.319265276193619,0.383171558380127,-0.716930938559026,-0.308475354130225,0.443814403124744,8
1.41999816894531,-0.758928239345551,2.76202797889709,1.40117311477661,-0.47914673136562,2.75965292774086,1.43947174182117,1216.24,1404.829,3177.996,3258.156,-0.1191386,0.0156626,0.08991963,-0.748923361301422,-0.327249497175217,0.38934725522995,-0.729391385793766,-0.313836736470737,0.451528013536465,8
1.44000244140625,-0.774104833602905,2.75532984733582,1.40908694267273,-0.493861275572861,2.75332167044526,1.4485807456364,1228.623,1401.44,3182.873,3257.652,-0.1188622,0.01522119,0.09196726,-0.758831858634949,-0.33490264415741,0.395693510770798,-0.741727567798258,-0.319144650954242,0.459164697851088,8
1.45999145507813,-0.789483249187469,2.74848556518555,1.41713106632233,-0.508809800712713,2.74688973769103,1.45783459479497,1234.924,1397.349,3189.489,3261.813,-0.1185059,0.01487152,0.09392978,-0.768921494483948,-0.342218339443207,0.402209222316742,-0.753924423002454,-0.324392617007921,0.466715132239272,8
1.47999572753906,-0.805066645145416,2.74150156974792,1.42530870437622,-0.524012471663969,2.74034845309416,1.46724577231745,1239.175,1392.165,3198.138,3266.28,-0.118043,0.01461329,0.09579861,-0.779166996479034,-0.349194943904877,0.408882796764374,-0.765994882555672,-0.329586198544069,0.474187321698441,8
1.5,-0.820857107639313,2.7343852519989,1.43361985683441,-0.539455198877605,2.73370387899399,1.4768055561018,1251.917,1388.544,3199.963,3267.119,-0.1174763,0.01445875,0.09753361,-0.789525032043457,-0.355810135602951,0.41555517911911,-0.777924000354858,-0.334718964672088,0.481572013878822,8
1.51998901367188,-0.83685690164566,2.72714400291443,1.44206786155701,-0.555123050061237,2.72696244033876,1.48650470234772,1264.27,1384.925,3204.387,3266.075,-0.1168574,0.01439695,0.09913812,-0.799986481666565,-0.362068295478821,0.422400772571564,-0.789697369743256,-0.339784716610053,0.488860290373601,8
1.53999328613281,-0.853067338466644,2.71978425979614,1.45065677165985,-0.571036956668503,2.72011513090874,1.49635616862212,1265.751,1379.639,3214.008,3271.417,-0.1162001,0.01440795,0.1006492,-0.810524225234985,-0.36798295378685,0.42944797873497,-0.801327600455846,-0.344788879974649,0.496059957209413,8
1.55999755859375,-0.869489133358002,2.71231341362,1.45938622951508,-0.587181951496087,2.71316839067337,1.50635068951315,1275.152,1375.561,3217.232,3272.997,-0.1154752,0.01450697,0.1020245,-0.821090877056122,-0.373544007539749,0.436474680900574,-0.812800388649436,-0.349725300221754,0.503162159625937,8
1.58000183105469,-0.886122763156891,2.7047381401062,1.46825850009918,-0.60355483331529,2.70612359703193,1.51648628330776,1287.08,1371.873,3221.522,3270.707,-0.1147103,0.01468835,0.1032598,-0.831676006317139,-0.378758907318115,0.443613052368164,-0.824110582941666,-0.354591760855452,0.510163708672098,8
1.59999084472656,-0.902967691421509,2.69706535339355,1.47727572917938,-0.620139554045575,2.69898765502515,1.52675301547962,1292.367,1367.533,3227.674,3273.169,-0.1139386,0.01493348,0.1043874,-0.842250883579254,-0.383638590574265,0.450861304998398,-0.835244706287931,-0.359382463079953,0.517056261415284,8
1.6199951171875,-0.920023560523987,2.68930149078369,1.48643970489502,-0.636958033083316,2.69175113334911,1.53716445517924,1294.918,1362.245,3235.748,3276.279,-0.1131279,0.01523876,0.1054077,-0.852792620658875,-0.388196647167206,0.458198428153992,-0.846214826007804,-0.364102599125749,0.523847288101157,8
1.63999938964844,-0.937288701534271,2.68145298957825,1.49574863910675,-0.653994195024907,2.68442094880091,1.54771065096602,1305.906,1358.998,3235.991,3276.107,-0.1122778,0.01561521,0.1062834,-0.863258957862854,-0.392423838376999,0.4654461145401,-0.857007552155828,-0.368746407673381,0.530528499715628,8
1.66000366210938,-0.954761743545532,2.67352628707886,1.5052045583725,-0.671244443874359,2.67699864863716,1.55838937674714,1316.515,1355.902,3238.992,3273.6,-0.1114378,0.01605017,0.1070198,-0.873648881912231,-0.396336555480957,0.472793608903885,-0.867618167158098,-0.373311858882592,0.53709697585572,8
1.67999267578125,-0.972440481185913,2.66552710533142,1.5148092508316,-0.688691692550512,2.66949158495151,1.56919005480539,1318.222,1351.92,3245.253,3276.638,-0.110632,0.01652382,0.1076527,-0.883936822414398,-0.399957656860352,0.480233728885651,-0.878034183119987,-0.377793579561193,0.543544985919778,8
1.69999694824219,-0.990322470664978,2.65746092796326,1.5245635509491,-0.706358800111611,2.66188992212981,1.58012683598675,1318.189,1347.149,3253.307,3279.036,-0.1098043,0.01703734,0.1081795,-0.89409989118576,-0.403308063745499,0.487712383270264,-0.888267004546665,-0.382196476749158,0.549879589839776,8
1.72000122070313,-1.00840425491333,2.64933323860168,1.53446400165558,-0.724228658537036,2.6542010212754,1.5911891296115,1328.552,1344.823,3252.1,3277.234,-0.1089478,0.01760379,0.1085644,-0.904094755649567,-0.406379461288452,0.495022058486938,-0.898304216251578,-0.386515208538549,0.556093102023817,8
1.739990234375,-1.02668273448944,2.64114952087402,1.54451131820679,-0.74228345468553,2.64643254688532,1.60236590849663,1339.086,1342.725,3253.202,3273.116,-0.1081227,0.01820811,0.1088193,-0.91392594575882,-0.409188091754913,0.502368748188019,-0.908134108040217,-0.390744736359816,0.562178273303667,8
1.75999450683594,-1.04515433311462,2.63291430473328,1.55470740795135,-0.760546715064628,2.63857437616062,1.61367173667103,1336.199,1338.766,3260.596,3276.909,-0.1073467,0.01882379,0.1089982,-0.923579812049866,-0.411764711141586,0.509805798530579,-0.917767514700581,-0.394889722119545,0.568141810929231,8
1.77999877929688,-1.06381464004517,2.62463188171387,1.56504917144775,-0.779000609654483,2.63063418086074,1.62509557650306,1340.164,1336.336,3261.233,3277.762,-0.1065813,0.01946637,0.1090633,-0.933017313480377,-0.414116024971008,0.517087459564209,-0.927192788821983,-0.398945154262308,0.57397650459845,8
1.80000305175781,-1.08265948295593,2.6163067817688,1.57553613185883,-0.797640935141499,2.62261376955408,1.63663482594136,1347.493,1334.481,3263.034,3273.504,-0.1058367,0.02013261,0.1090098,-0.942241668701172,-0.416260629892349,0.524347722530365,-0.936405971974637,-0.402909329586356,0.579679903854719,7
1.81999206542969,-1.10168409347534,2.60794234275818,1.58616757392883,-0.816448984455027,2.61452119137054,1.64827790441807,1348.156,1332.194,3266.15,3274.316,-0.1051373,0.02080421,0.108877,-0.951233685016632,-0.418217390775681,0.531569540500641,-0.945396434568188,-0.406777674475912,0.585245428475252,7
1.83999633789063,-1.1208838224411,2.59954214096069,1.59694242477417,-0.835449117627072,2.60634596486888,1.66003989195343,1346.388,1329.119,3271.085,3275.475,-0.1044465,0.02147866,0.1086703,-0.959984362125397,-0.420007050037384,0.53874146938324,-0.954174163352093,-0.410554485950274,0.590679260733698,7
1.86000061035156,-1.1402530670166,2.59110951423645,1.60785603523254,-0.854622615239374,2.59809614449182,1.6719092003358,1352.839,1328.281,3267.674,3273.962,-0.1037637,0.02216677,0.1083582,-0.968463122844696,-0.421626299619675,0.545679330825806,-0.962728579444532,-0.414235212212131,0.595974851798267,7
1.87998962402344,-1.15978670120239,2.58264756202698,1.6189079284668,-0.873950157556149,2.58978004298193,1.6838738697284,1358.75,1327.577,3267.527,3269.893,-0.1031341,0.02285702,0.1079493,-0.976685047149658,-0.423095375299454,0.552593588829041,-0.971049893464309,-0.417815641164241,0.601126141575667,7
1.89999389648438,-1.17947959899902,2.57415866851807,1.63009822368622,-0.893456683142228,2.58138692997148,1.69594933829086,1351.831,1325.189,3273.411,3273.184,-0.1025573,0.02352739,0.1074953,-0.984642386436462,-0.424445182085037,0.559514284133911,-0.979147395688901,-0.421299770153459,0.606138881190213,7
1.91999816894531,-1.19932579994202,2.56564521789551,1.64142179489136,-0.913122862707269,2.57292512231409,1.70812364027167,1353.535,1324.536,3271.455,3272.807,-0.1019884,0.02419762,0.1069561,-0.992302179336548,-0.425678640604019,0.566177248954773,-0.987011339258123,-0.424683405378145,0.611007036871143,7
1.94000244140625,-1.2193192243576,2.55710911750793,1.65287661552429,-0.932943991899774,2.5643966441608,1.72039386345315,1359.146,1324.5,3270.586,3267.122,-0.1014451,0.02486485,0.10633,-0.999676942825317,-0.426809728145599,0.572741091251373,-0.994638524886308,-0.427965170275055,0.615728628108227,7
1.95999145507813,-1.23945450782776,2.5485520362854,1.66446077823639,-0.952900013794853,2.55581012544606,1.73274759164336,1356.872,1323.866,3271.738,3267.359,-0.1009594,0.02550924,0.1056641,-1.00675773620605,-0.42785581946373,0.579209506511688,-1.00202031904361,-0.431141350077486,0.620298310335216,7
1.97999572753906,-1.25972533226013,2.53997540473938,1.67617213726044,-0.973016570682103,2.54715453300902,1.74520069864106,1351.221,1322.229,3275.172,3268.663,-0.1004864,0.02612957,0.1049662,-1.0135440826416,-0.428835988044739,0.585568308830261,-1.00916501115878,-0.434215511495054,0.624721215103391,7
2,-1.28012561798096,2.53138065338135,1.68800449371338,-0.993273599084619,2.53843849960327,1.7577407641983,1354.753,1322.75,3270.023,3266.709,-0.100015,0.02674117,0.1042,-1.02001345157623,-0.429743230342865,0.591620862483978,-1.01606400046349,-0.437183953857422,0.628992018127441,6
2.01998901367188,-1.30064928531647,2.52276873588562,1.69995617866516,-1.01365055070775,2.52967086658596,1.77035506794184,1358.428,1323.466,3267.956,3261.838,-0.09958625,0.0273349,0.1033732,-1.02618801593781,-0.430591702461243,0.597584426403046,-1.02270954399163,-0.440043345582587,0.633105926142498,6
2.03999328613281,-1.32129073143005,2.51414060592651,1.71202611923218,-1.03417354141348,2.52084039703127,1.78305977683431,1349.009,1322.535,3271.867,3264.795,-0.09920169,0.02789054,0.1025395,-1.03206753730774,-0.43140572309494,0.603496491909027,-1.02910913225408,-0.442796909628122,0.637067576131623,6
2.05999755859375,-1.34204316139221,2.50549697875977,1.72420799732208,-1.05482201812353,2.5119559343546,1.79584216754118,1348.333,1323.115,3267.968,3264.313,-0.09881446,0.02842986,0.1016563,-1.03762722015381,-0.432182461023331,0.609093427658081,-1.03525504859546,-0.445441325732794,0.640872191117535,6
2.08000183105469,-1.36290097236633,2.49683833122253,1.73649895191193,-1.07559088172821,2.50301967256038,1.80869908347065,1351.883,1324.258,3265.534,3258.054,-0.09843896,0.02895236,0.1007194,-1.04288673400879,-0.432930469512939,0.61454963684082,-1.04114485287423,-0.447975543971863,0.644518260536375,6
2.09999084472656,-1.38385772705078,2.48816514015198,1.74889624118805,-1.09645901288412,2.49404069871208,1.82161745074311,1347.049,1324.763,3265.207,3258.291,-0.09810606,0.02944008,0.09977715,-1.04784202575684,-0.433660984039307,0.619866788387299,-1.04677201701582,-0.450396755497224,0.648001743199023,5
2.1199951171875,-1.40490770339966,2.4794774055481,1.76139676570892,-1.11745308225396,2.48500753716864,1.83461377976925,1339.497,1324.216,3267.052,3259.232,-0.09776677,0.02989492,0.09883361,-1.05249786376953,-0.434385806322098,0.625029027462006,-1.0521429102862,-0.45270770082608,0.651326581984514,5
2.13999938964844,-1.42604458332062,2.47077560424805,1.77399361133575,-1.138551967509,2.47592927627801,1.8476749948214,1341.616,1325.605,3260.425,3256.725,-0.09740724,0.03033486,0.09785105,-1.05683779716492,-0.43509104847908,0.629844427108765,-1.05725102347782,-0.454905579228273,0.654488747383304,4
2.16000366210938,-1.44726228713989,2.46205997467041,1.78668439388275,-1.15975039167652,2.46680818657414,1.86079782920208,1343.959,1327.129,3257.015,3251.319,-0.09707062,0.03075184,0.09683774,-1.06088733673096,-0.435783863067627,0.634539306163788,-1.0620943502576,-0.456989527434725,0.657486997379635,4
2.17999267578125,-1.46855521202087,2.45333051681519,1.79946660995483,-1.18102676265167,2.45765355853653,1.8739689163698,1336.134,1327.735,3256.982,3252.998,-0.09677661,0.0311293,0.09583735,-1.06464564800262,-0.436477243900299,0.639111042022705,-1.06666760390386,-0.458957270716794,0.660318059240953,3
2.19999694824219,-1.48991751670837,2.44458699226379,1.81233692169189,-1.20240821395574,2.44845371736898,1.88720505326679,1326.755,1327.348,3259,3254.14,-0.09645384,0.03147668,0.09484399,-1.06811678409576,-0.437181234359741,0.643514513969421,-1.07097597819164,-0.460811043810786,0.662985148161421,1
2.22000122070313,-1.51134312152863,2.43582940101624,1.8252876996994,-1.22387315175433,2.43921795429519,1.90049287228091,1329.355,1329.001,3251.619,3250.467,-0.09608153,0.03181505,0.0938154,-1.07128238677979,-0.437875181436539,0.647537469863892,-1.07501419914593,-0.462548577472581,0.665484999299265,0
2.239990234375,-1.53282642364502,2.42705821990967,1.83831608295441,-1.24539969505118,2.42995568409656,1.91381882803312,1333.011,1330.856,3247.034,3243.695,-0.09571188,0.03213524,0.09276406,-1.07416760921478,-0.43855944275856,0.651421070098877,-1.07877792518082,-0.464168003639063,0.667814925005999,0
2.25999450683594,-1.55436182022095,2.41827321052551,1.85142052173615,-1.26701526177039,2.4206551096063,1.92719989352455,1321.919,1330.942,3248.605,3246.635,-0.09536514,0.03241565,0.09175008,-1.0767776966095,-0.43924680352211,0.655221700668335,-1.08227143928024,-0.465671165158559,0.669977576652695,0
2.27999877929688,-1.57594394683838,2.40947437286377,1.8645943403244,-1.28869796983554,2.41132564607061,1.9406225227075,1319.207,1331.831,3243.525,3246.159,-0.0949891,0.03267977,0.09072582,-1.0790981054306,-0.43992680311203,0.658690929412842,-1.08549040888332,-0.467056197851165,0.67197027217779,0
2.30000305175781,-1.59756708145142,2.40066266059875,1.87783432006836,-1.31044231452835,2.40196966201596,1.95408330789913,1320.635,1333.152,3240.294,3239.807,-0.09458909,0.03293089,0.08968306,-1.08115077018738,-0.440600365400314,0.662001430988312,-1.08843358680109,-0.468322565086307,0.673792239511894,0
2.31999206542969,-1.61922562122345,2.39183735847473,1.89113700389862,-1.33222611841886,2.3925966997709,1.96756852021384,1314.627,1333.953,3238.295,3239.886,-0.09418909,0.03315591,0.08866277,-1.08293235301971,-0.441266775131226,0.665133476257324,-1.09109790637238,-0.469468947365361,0.675441580245663,0
2.33999633789063,-1.64091455936432,2.38299870491028,1.9044988155365,-1.35407709248145,2.38319483607731,1.98109531406483,1307.179,1333.657,3238.476,3239.719,-0.09374114,0.03336009,0.08766226,-1.08445155620575,-0.441927224397659,0.668091714382172,-1.09348640563071,-0.470496651869278,0.67692017506657,0
2.36000061035156,-1.66262853145599,2.37414741516113,1.91791272163391,-1.37597305876702,2.37377361348711,1.99464996024512,1309.074,1334.871,3230.649,3236.6,-0.09323833,0.03356032,0.08664478,-1.08569467067719,-0.442558854818344,0.670692920684814,-1.09559602313537,-0.471404361345641,0.678226128796969,0
2.37998962402344,-1.68436229228973,2.36528396606445,1.93137609958649,-1.39789168475144,2.36434264106153,2.00821863385843,1311.211,1336.131,3226.259,3230.573,-0.09272435,0.03375029,0.08561654,-1.08668637275696,-0.443161308765411,0.673170864582062,-1.09742465646102,-0.47219117117957,0.679358139935436,0
2.39999389648438,-1.70611083507538,2.35640931129456,1.94488739967346,-1.41986083522252,2.35488992936084,2.02181858453579,1299.654,1335.856,3227.619,3233.339,-0.09220609,0.03391307,0.08462882,-1.08743000030518,-0.443742960691452,0.675563633441925,-1.09897439291323,-0.472857979480329,0.680317500623536,0
2.41999816894531,-1.72786903381348,2.34752345085144,1.95843958854675,-1.44185817738692,2.34542508756209,2.03543598721428,1297.917,1336.254,3221.793,3232.034,-0.09162925,0.03407458,0.08362877,-1.08790969848633,-0.444287329912186,0.67761093378067,-1.10024313330221,-0.473403883025206,0.681102911362803,0
2.44000244140625,-1.74963200092316,2.33862733840942,1.97202968597412,-1.46387808506052,2.33595053645515,2.04906735901791,1301.047,1337.141,3217.83,3224.267,-0.09100661,0.03423713,0.08260866,-1.08814585208893,-0.444791048765182,0.679506003856659,-1.10123038958312,-0.473828671822132,0.681714070030222,0
2.45999145507813,-1.77139461040497,2.32972264289856,1.98565447330475,-1.48589810917879,2.32647593524532,2.06269880290633,1295.478,1337.412,3215.553,3223.916,-0.09037437,0.03438495,0.08161632,-1.08813393115997,-0.445250689983368,0.681240797042847,-1.10193535162022,-0.474131997292339,0.68215047511319,0
2.47999572753906,-1.79315233230591,2.32080936431885,1.99931061267853,-1.50794623031618,2.31698924467309,2.07634764018804,1288.041,1336.403,3215.288,3224.063,-0.08968674,0.0345235,0.08064637,-1.08788108825684,-0.445664942264557,0.682805299758911,-1.10235882472314,-0.474314205938057,0.682412625136718,0
2.5,-1.81489968299866,2.31188917160034,2.01299118995667,-1.52999999932945,2.30750012397766,2.08999997377396,1290.654,1336.696,3207.651,3220.149,-0.0889288,0.03467121,0.07965637,-1.08737635612488,-0.44601121544838,0.684033036231995,-1.10250000050292,-0.474374949932098,0.682500019669533,0
2.51998901367188,-1.83663249015808,2.30296349525452,2.02669405937195,-1.5520369476803,2.29801824074336,2.10364189456856,1293.287,1337.137,3203.216,3213.68,-0.08814584,0.03482122,0.07865427,-1.08663928508759,-0.446287244558334,0.685145616531372,-1.10235904000526,-0.474314298567936,0.682412758406603,0
2.53999328613281,-1.85834610462189,2.29403352737427,2.04041767120361,-1.57408507527774,2.28853154739156,2.11729073584934,1282.643,1336.156,3204.061,3215.987,-0.08734689,0.0349575,0.0776884,-1.08567106723785,-0.446498513221741,0.68617582321167,-1.10193578218388,-0.474132182551855,0.682150741652607,0
2.55999755859375,-1.88003516197205,2.28510093688965,2.05415511131287,-1.59612191359838,2.27904971150017,2.13093258853001,1281.974,1335.598,3198.194,3213.911,-0.08647976,0.03510499,0.07670476,-1.08445763587952,-0.446628481149673,0.686877906322479,-1.10123038958312,-0.473828671822132,0.681714070030222,0
2.58000183105469,-1.90169548988342,2.27616739273071,2.06790375709534,-1.61814182127198,2.26957516039323,2.14456396033363,1285.859,1335.579,3194.003,3205.823,-0.08556044,0.0352649,0.07569594,-1.08301508426666,-0.446672827005386,0.687438070774078,-1.10024313330221,-0.473403883025206,0.681102911362804,0
2.59999084472656,-1.92332220077515,2.26723480224609,2.08166074752808,-1.64012239440973,2.26011753383818,2.15817098218581,1281.147,1335.012,3191.529,3204.97,-0.08462727,0.03542195,0.07470696,-1.08133828639984,-0.446628421545029,0.687853515148163,-1.09897546783438,-0.47285844198887,0.680318166050934,0
2.6199951171875,-1.94491100311279,2.25830459594727,2.09542298316956,-1.66209156852628,2.2506648119635,2.17177094750084,1274.442,1333.162,3191.304,3204.511,-0.08363551,0.03558109,0.07373244,-1.07943284511566,-0.446494907140732,0.688117504119873,-1.09742594550583,-0.472191725819537,0.679358937915576,0
2.63999938964844,-1.96645665168762,2.24937987327576,2.10918402671814,-1.68402693989188,2.24122663446822,2.18534998730279,1277.71,1332.429,3183.784,3200.145,-0.08256971,0.03575973,0.07273035,-1.0772864818573,-0.446251213550568,0.688055336475372,-1.09559602313537,-0.471404361345641,0.67822612879697,0
2.66000366210938,-1.98795509338379,2.24046182632446,2.12294173240662,-1.70592290617745,2.23180541187802,2.19890463348308,1281.535,1331.959,3179.071,3192.979,-0.08147515,0.03595111,0.07170603,-1.07491517066956,-0.445894956588745,0.687884092330933,-1.09348640563071,-0.470496651869278,0.67692017506657,0
2.67999267578125,-2.00940155982971,2.23155331611633,2.13669395446777,-1.72775723139253,2.2224107117184,2.21242112090437,1275.315,1330.729,3177.526,3193.02,-0.08038219,0.03614108,0.07069911,-1.07231616973877,-0.445429503917694,0.687609970569611,-1.09109983431736,-0.469469776906228,0.675442773735451,0
2.69999694824219,-2.03079104423523,2.22265648841858,2.15043759346008,-1.74955768413056,2.21303058593937,2.22591663964878,1267.593,1328.338,3177.923,3192.92,-0.07922691,0.03633812,0.06969787,-1.06949162483215,-0.44485729932785,0.687187075614929,-1.08843358680109,-0.468322565086308,0.673792239511893,0
2.72000122070313,-2.0521194934845,2.21377325057983,2.16416597366333,-1.77130202882336,2.20367460188472,2.23937742484041,1272.295,1327.177,3170.232,3187.186,-0.07798428,0.03656242,0.06865451,-1.06642735004425,-0.444157034158707,0.686424076557159,-1.08549040888332,-0.467056197851165,0.671970272177789,0
2.739990234375,-2.07338213920593,2.20490670204163,2.17787718772888,-1.79296822271738,2.1943522439355,2.25278983096475,1277.95,1326.416,3165.257,3178.388,-0.07671129,0.03680434,0.06758189,-1.06313645839691,-0.44332554936409,0.68555611371994,-1.08227399942825,-0.465672266718727,0.669979161506271,0
2.75999450683594,-2.09457421302795,2.19605922698975,2.19156956672668,-1.81458384274179,2.18505164650952,2.26617092945464,1269.096,1324.398,3165.251,3179.842,-0.0754383,0.03704425,0.06653642,-1.05961740016937,-0.442368894815445,0.684622347354889,-1.07878069424208,-0.464169195088763,0.667816639186824,0
2.77999877929688,-2.11569166183472,2.18723368644714,2.20523762702942,-1.83612684690458,2.17578229366013,2.27950707526701,1269.074,1322.29,3159.755,3177.299,-0.07411417,0.0373029,0.06546531,-1.05586099624634,-0.441277891397476,0.683397591114044,-1.07501419914593,-0.462548577472581,0.665484999299265,0
2.80000305175781,-2.13672924041748,2.17843246459961,2.21887874603271,-1.85759178470316,2.16654653058634,2.29279489428112,1272.797,1320.8,3156.058,3169.18,-0.07274957,0.03758145,0.06435986,-1.05187928676605,-0.440053045749664,0.682054340839386,-1.07097597819164,-0.460811043810786,0.662985148161422,0
2.81999206542969,-2.15768241882324,2.16965889930725,2.2324903011322,-1.87895695992541,2.1573536925621,2.30602095550813,1269.046,1319.034,3153.508,3167.402,-0.07137378,0.0378668,0.06325861,-1.04766535758972,-0.438694149255753,0.680573463439941,-1.06667099276523,-0.458958728849171,0.660320157107579,0
2.83999633789063,-2.17854714393616,2.1609148979187,2.24606919288635,-1.90024960698239,2.14819206138118,2.31920211834584,1264.112,1316.213,3152.53,3165.742,-0.06994739,0.03816339,0.0621544,-1.04322254657745,-0.437202841043472,0.678942918777466,-1.06209435025759,-0.456989527434725,0.657486997379635,0
2.86000061035156,-2.19931745529175,2.15220355987549,2.25960946083069,-1.9214480311499,2.13907097167731,2.33232495272651,1268.681,1314.29,3145.092,3160.105,-0.06846029,0.0384847,0.061009,-1.03854095935822,-0.435564666986465,0.677013754844666,-1.05725102347782,-0.454905579228273,0.654488747383304,0
2.87998962402344,-2.21999049186707,2.14352774620056,2.27310943603516,-1.94253086194772,2.12999961857111,2.34537622930486,1273.137,1312.765,3140.557,3152.034,-0.06696146,0.03882228,0.05983288,-1.03363120555878,-0.433781147003174,0.674995124340057,-1.05214690704168,-0.452709420518306,0.651329056166547,0
2.89999389648438,-2.24056029319763,2.13489055633545,2.28656768798828,-1.96352501326936,2.1209664217661,2.35837260906308,1264.227,1310.263,3140.616,3153.094,-0.06546742,0.03915943,0.05867428,-1.02849185466766,-0.431861132383347,0.672913014888763,-1.04677621342161,-0.450398561093403,0.648004340974112,0
2.91999816894531,-2.26102256774902,2.1262948513031,2.29997849464417,-1.98440911693069,2.11198057539494,2.37130086407726,1264.922,1307.652,3134.934,3149.694,-0.06392545,0.03951713,0.05747991,-1.02311444282532,-0.429798513650894,0.670536160469055,-1.04114485287423,-0.447975543971863,0.644518260536375,0
2.94000244140625,-2.28137278556824,2.11774277687073,2.31333923339844,-2.00517798053537,2.10304431360073,2.38415778000673,1269.953,1305.825,3130.766,3140.345,-0.06235152,0.03989506,0.05624325,-1.01750826835632,-0.427594661712646,0.668041586875916,-1.03525504859546,-0.445441325732794,0.640872191117535,0
2.95999145507813,-2.30160617828369,2.10923790931702,2.32664775848389,-2.02581075424974,2.0941666074844,2.39693044981124,1266.622,1303.798,3127.936,3138.013,-0.06078399,0.04027783,0.05500899,-1.01166713237762,-0.425252079963684,0.665420711040497,-1.02911391720548,-0.442798968459032,0.637070538244476,0
2.97999572753906,-2.32171773910522,2.10078239440918,2.33990097045898,-2.04633384260397,2.08533609591429,2.40963521915279,1261.568,1300.664,3126.798,3136.238,-0.05918503,0.04066808,0.05377162,-1.00559556484222,-0.422775864601135,0.662657797336578,-1.02271452148052,-0.440045487257004,0.633109007445237,0
3,-2.34170365333557,2.09237909317017,2.35309314727783,-2.06672639957428,2.07656174835205,2.42225918334961,1265.935,1298.269,3119.615,3130.264,-0.05753972,0.04107945,0.05249261,-0.999286592006683,-0.420156985521317,0.659606397151947,-1.01606400046349,-0.437183953857422,0.628992018127441,0
3.01998901367188,-2.36155867576599,2.0840311050415,2.3662223815918,-2.0869680292999,2.06785234056679,2.43478971639231,1270.086,1296.417,3115.121,3121.995,-0.05589123,0.04150316,0.05118306,-0.992748916149139,-0.417398482561111,0.656466603279114,-1.00917036754089,-0.434217816196637,0.624724530959079,0
3.03999328613281,-2.3812780380249,2.07574129104614,2.37928748130798,-2.10708469520508,2.05919670122237,2.4472428908773,1261.913,1293.86,3114.414,3122.401,-0.05425924,0.04192414,0.04988787,-0.985981523990631,-0.414509475231171,0.65325266122818,-1.00202586176059,-0.431143734953757,0.620301741541063,0
3.05999755859375,-2.40085792541504,2.06751155853271,2.39228272438049,-2.12705600675913,2.05060360379452,2.45960608409476,1262.778,1291.034,3108.611,3118.523,-0.0525937,0.04236072,0.04855696,-0.978980481624603,-0.411488145589828,0.649757623672485,-0.994638524886308,-0.427965170275055,0.615728628108227,0
3.08000183105469,-2.42029309272766,2.05934429168701,2.40520596504211,-2.14687713595163,2.04207512564123,2.47187630727625,1267.251,1289.049,3104.597,3109.055,-0.05090952,0.04281153,0.04718711,-0.971753895282745,-0.408338189125061,0.64615660905838,-0.987011339258122,-0.424683405378145,0.611007036871143,0
3.09999084472656,-2.43957877159119,2.0512433052063,2.4180543422699,-2.16652837486666,2.03361974652815,2.48404136028297,1263.647,1286.963,3101.457,3106.65,-0.04924291,0.04326231,0.04582137,-0.964296460151672,-0.405063599348068,0.642423570156097,-0.979153483542501,-0.421302389586788,0.606142649861596,0
3.1199951171875,-2.45871114730835,2.04320979118347,2.43082523345947,-2.18603502400946,2.02522658035469,2.49611690533293,1259.273,1283.894,3099.618,3104.216,-0.0475566,0.0437168,0.04445102,-0.956614255905151,-0.40167048573494,0.638543844223022,-0.971056158224178,-0.417818336715394,0.601130019760458,0
3.13999938964844,-2.47768545150757,2.0352463722229,2.44351315498352,-2.20537738341953,2.01690410346351,2.50809074721212,1263.282,1281.441,3092.651,3097.897,-0.0458378,0.0441855,0.04304319,-0.948704123497009,-0.398154050111771,0.634397447109222,-0.962728579444533,-0.414235212212131,0.595974851798267,0
3.15998840332031,-2.49649667739868,2.02735614776611,2.45611643791199,-2.22453632143911,2.00866054767245,2.51995104251302,1266.733,1279.583,3088.138,3089.733,-0.04412805,0.04466013,0.04161099,-0.940572619438171,-0.394518256187439,0.630162835121155,-0.954180774018563,-0.410557330335374,0.590683353051152,0
3.17999267578125,-2.515141248703,2.01954078674316,2.46863341331482,-2.24353658854737,2.00048526354177,2.53171311296128,1258.9,1277.208,3086.749,3089.736,-0.0424444,0.04512719,0.04019521,-0.932220578193665,-0.390772253274918,0.625845611095428,-0.945403214201559,-0.406780591562751,0.585249625391267,0
3.19999694824219,-2.53361392021179,2.01180219650269,2.48105883598328,-2.2623590635174,1.99238647840124,2.54336512160655,1259.545,1274.406,3081.094,3085.446,-0.04073944,0.04560316,0.03874959,-0.923648953437805,-0.386917680501938,0.621266305446625,-0.936405971974636,-0.402909329586355,0.579679903854719,0
3.22000122070313,-2.55191135406494,2.00414323806763,2.49339032173157,-2.28099938900442,1.98436606709459,2.55490437104486,1263.48,1272.515,3076.896,3076.105,-0.0390265,0.0460865,0.03727308,-0.914864301681519,-0.382958292961121,0.616580307483673,-0.927192788821982,-0.398945154262308,0.573976504598449,0
3.239990234375,-2.57002854347229,1.99656510353088,2.5056254863739,-2.2994392795179,1.97643189735754,2.5663195416865,1259.747,1270.6,3073.181,3073.795,-0.03734072,0.04656437,0.035805,-0.9058638215065,-0.378898531198502,0.611759066581726,-0.917774783907129,-0.394892849856044,0.568146310914365,0
3.25999450683594,-2.58796167373657,1.98907029628754,2.51776170730591,-2.31770268688992,1.96857366338589,2.57762546085652,1255.59,1267.817,3071.302,3070.568,-0.03564588,0.04703998,0.03433684,-0.896656334400177,-0.374745905399323,0.6068115234375,-0.90814153446928,-0.390747931744771,0.562182870617026,0
3.27999877929688,-2.60570645332336,1.98166012763977,2.52979373931885,-2.33577134012187,1.96079922667992,2.58881081793642,1258.387,1265.479,3064.321,3064.994,-0.03393027,0.04752219,0.03284203,-0.887240469455719,-0.370497792959213,0.601601183414459,-0.898304216251578,-0.386515208538549,0.556093102023818,0
3.30000305175781,-2.62325882911682,1.97433722019196,2.54171991348267,-2.35364119854729,1.95311032582551,2.59987311156116,1262.001,1263.754,3059.74,3056.273,-0.03222745,0.04800532,0.03132782,-0.877623081207275,-0.366157829761505,0.596307873725891,-0.888267004546666,-0.382196476749158,0.549879589839776,0
3.31999206542969,-2.64061498641968,1.96710240840912,2.55353808403015,-2.37129490830989,1.94551442770222,2.61080159886703,1256.7,1261.921,3056.325,3055.093,-0.03056883,0.0484772,0.02983063,-0.867804884910583,-0.361733108758926,0.590902864933014,-0.878042061913513,-0.37779696958594,0.54354986326829,0
3.33999633789063,-2.65777087211609,1.95995783805847,2.56524562835693,-2.38875555478454,1.93800159931817,2.62161057080077,1251.355,1259.274,3054.78,3052.423,-0.02890382,0.04894401,0.02833566,-0.857796251773834,-0.357232958078384,0.585379838943481,-0.867618167158097,-0.373311858882592,0.53709697585572,0
3.36000061035156,-2.67472290992737,1.95290446281433,2.57683753967285,-2.406005803634,1.93057929915441,2.6322892965819,1254.063,1257.081,3048.006,3046.446,-0.02721271,0.04941606,0.02681381,-0.847596943378448,-0.352655321359634,0.579594731330872,-0.857007552155826,-0.36874640767338,0.530528499715627,0
3.37998962402344,-2.69146704673767,1.9459445476532,2.58831191062927,-2.42302905329872,1.92325467039821,2.6428274990542,1258.35,1255.594,3043.099,3037.102,-0.02552906,0.04988789,0.02527461,-0.837211430072784,-0.348001778125763,0.573720574378967,-0.846223126656603,-0.364106170663035,0.523852426598178,0
3.39999389648438,-2.70799970626831,1.9390789270401,2.59966731071472,-2.43984769972619,1.91601807669906,2.65323904237604,1251.419,1253.929,3040.544,3036.53,-0.02388749,0.05034475,0.02376441,-0.82664167881012,-0.343278646469116,0.567767024040222,-0.835253140422974,-0.35938609205264,0.51706148254665,0
3.41999816894531,-2.72431755065918,1.93230938911438,2.6108992099762,-2.45644516534361,1.90887665092339,2.66351366424015,1251.362,1251.401,3035.113,3032.435,-0.02224485,0.05079972,0.02224366,-0.815895915031433,-0.338490724563599,0.561591804027557,-0.824110582941664,-0.354591760855451,0.510163708672097,0
3.44000244140625,-2.74041748046875,1.92563629150391,2.62200570106506,-2.47281804716281,1.90183185728196,2.67364925803476,1253.482,1249.798,3031.027,3024.414,-0.02061074,0.05125166,0.02071134,-0.80498081445694,-0.333641976118088,0.555327892303467,-0.812800388649434,-0.349725300221754,0.503162159625937,0
3.45999145507813,-2.7562952041626,1.91906154155731,2.63298463821411,-2.48895081463434,1.8948903781363,2.68363620960993,1249.34,1248.303,3027.446,3021.906,-0.01900751,0.05169156,0.01919897,-0.793898224830627,-0.328736901283264,0.548949778079987,-0.80133641229185,-0.344792671461508,0.496065412155666,0
3.47999572753906,-2.77194857597351,1.91258609294891,2.64383339881897,-2.50486489870395,1.88804299234919,2.69348778574196,1245.404,1246.093,3024.672,3018.86,-0.01740269,0.05212341,0.01769731,-0.782657623291016,-0.323780953884125,0.542443513870239,-0.789706299681989,-0.339788558913217,0.488865818431069,0
3.5,-2.78737354278564,1.90621066093445,2.65454769134521,-2.5205447997813,1.88129636896134,2.70319439144611,1248.186,1244.112,3018.073,3012.839,-0.01578562,0.05255464,0.01618201,-0.771262943744659,-0.318773329257965,0.53572005033493,-0.777924000354857,-0.334718964672089,0.481572013878822,0
3.51998901367188,-2.80256819725037,1.89993619918823,2.66512632369995,-2.53597583877076,1.87465682397749,2.71274693966292,1250.723,1242.852,3013.496,3004.976,-0.01419145,0.05297906,0.01466555,-0.759718239307404,-0.313715875148773,0.528932273387909,-0.766004036374581,-0.329590137176618,0.474192988348404,0
3.53999328613281,-2.81752872467041,1.89376389980316,2.6755678653717,-2.55117869390181,1.86811546013321,2.72215823120146,1243.269,1241.454,3011.105,3004.759,-0.0126399,0.05338627,0.01318496,-0.748028576374054,-0.30861485004425,0.522079586982727,-0.753933682518821,-0.324396601119134,0.466720864320997,0
3.55999755859375,-2.83225274085999,1.8876941204071,2.68586826324463,-2.56613872308604,1.86167857751006,2.73141920191151,1243.05,1239.157,3005.827,3000.785,-0.01108621,0.05378928,0.0117,-0.736204445362091,-0.303474932909012,0.515020847320557,-0.741727567798258,-0.319144650954242,0.459164697851087,0
3.58000183105469,-2.8467378616333,1.88172841072083,2.69602608680725,-2.58085326729328,1.85534732021446,2.74052820572674,1245.67,1237.869,3001.738,2992.394,-0.009537845,0.05418763,0.01021012,-0.724250674247742,-0.29829803109169,0.507890045642853,-0.729391385793765,-0.313836736470737,0.451528013536464,0
3.59999084472656,-2.86098146438599,1.87586665153503,2.70603919029236,-2.59530884290342,1.84912748987145,2.74947689564398,1241.828,1236.713,2997.608,2990.334,-0.0080273,0.05457203,0.008748285,-0.712169766426086,-0.29308694601059,0.500653445720673,-0.716940488958392,-0.308479463400265,0.4438203152769,0
3.6199951171875,-2.87498068809509,1.87010955810547,2.71590566635132,-2.60952509409627,1.84301063413925,2.75827743234631,1238.448,1234.827,2995.004,2986.908,-0.006524212,0.05494621,0.007304316,-0.699972689151764,-0.287847071886063,0.493327438831329,-0.704361775018033,-0.303067194200314,0.436033492140578,0
3.63999938964844,-2.88873386383057,1.86445820331573,2.72562217712402,-2.6234885835008,1.83700253474321,2.76692149746096,1239.919,1233.096,2989.141,2981.827,-0.005019526,0.05531546,0.005861881,-0.687665224075317,-0.282578825950623,0.485820531845093,-0.691670720740692,-0.297606588091786,0.428177124984152,0
3.65998840332031,-2.90223932266235,1.85891246795654,2.735187292099,-2.63718676607487,1.8311085894645,2.77540132500924,1241.86,1231.91,2984.759,2974.843,-0.003537743,0.05567651,0.004427671,-0.675251662731171,-0.27728345990181,0.478255867958069,-0.678883253871145,-0.292104498338286,0.420261073840379,0
3.67999267578125,-2.91549348831177,1.85347318649292,2.74460005760193,-2.65063849381582,1.82532068681534,2.78372858527554,1235.765,1230.787,2982.153,2973.921,-0.002096973,0.0560208,0.003032235,-0.662737846374512,-0.271965235471725,0.470643103122711,-0.665986083416798,-0.286555206197011,0.41227711095171,0
3.69999694824219,-2.92849636077881,1.84814071655273,2.75385737419128,-2.66383127580226,1.81964420129024,2.79189554578451,1235.514,1228.776,2977.194,2970.205,-0.0006615292,0.05635848,0.001643882,-0.650135517120361,-0.266628623008728,0.46286204457283,-0.65299527533123,-0.280965624398954,0.404235181908735,0
3.72000122070313,-2.94124507904053,1.84291505813599,2.76295804977417,-2.6767633032417,1.81407991116207,2.79990108680742,1237.395,1227.63,2973.344,2962.965,0.0007605518,0.05668909,0.0002620896,-0.637449204921722,-0.261274933815002,0.455031126737595,-0.639917282339434,-0.275338529371411,0.396139281255611,0
3.739990234375,-2.95373868942261,1.8377970457077,2.77190065383911,-2.68942333385363,1.80863265367006,2.80773824883709,1233.986,1226.651,2969.61,2960.74,0.002144474,0.05700574,-0.001086037,-0.624683320522308,-0.255906730890274,0.447124987840652,-0.62676873176137,-0.26968107538565,0.387999702095468,0
3.75999450683594,-2.96597576141357,1.83278632164001,2.78068351745605,-2.70182915057228,1.80329477731443,2.81541804035694,1230.852,1225.019,2966.789,2957.935,0.003514727,0.05731158,-0.002408563,-0.611848592758179,-0.250528186559677,0.439144045114517,-0.613536214864365,-0.263987493038594,0.379808143784027,0
3.77999877929688,-2.97795510292053,1.82788348197937,2.78930401802063,-2.7139695770734,1.79807109095524,2.82293354268985,1232.367,1223.453,2961.646,2952.922,0.004880623,0.05761146,-0.003722567,-0.598952412605286,-0.24514040350914,0.431030035018921,-0.60023651686137,-0.258265004538452,0.371574997167698,0
3.80000305175781,-2.98967504501343,1.82308864593506,2.79776167869568,-2.72584333814708,1.79296214327972,2.83028396642013,1233.689,1222.467,2957.662,2946.905,0.006218902,0.0579016,-0.005018461,-0.585998117923737,-0.239744007587433,0.422881424427032,-0.586876524285838,-0.252516572968186,0.363304525338741,0
3.81999206542969,-3.00113487243652,1.81840181350708,2.80605530738831,-2.73744054699573,1.78797218830065,2.83746319114912,1230.232,1221.439,2954.228,2945.144,0.007510995,0.05817747,-0.006276538,-0.57299268245697,-0.234342515468597,0.41468220949173,-0.573473482003301,-0.246749618311662,0.355007403690404,0
3.83999633789063,-3.01233386993408,1.81382298469543,2.81418395042419,-2.74877791451009,1.78309403578861,2.84448156171422,1226.844,1219.962,2951.837,2942.659,0.008783012,0.05844188,-0.007505853,-0.559947311878204,-0.228940814733505,0.406434595584869,-0.560014026276881,-0.240958390526246,0.346675359432959,0
3.86000061035156,-3.02327108383179,1.8093523979187,2.82214546203613,-2.75984563331209,1.77833190558438,2.85133300688122,1227.776,1218.496,2947.166,2938.274,0.01004811,0.05870017,-0.008722385,-0.546870231628418,-0.223540678620338,0.398071616888046,-0.546515580872635,-0.235150386571708,0.338319178707605,0
3.87998962402344,-3.03394675254822,1.80498933792114,2.82993912696838,-2.7706348636882,1.77368960116974,2.85801205444635,1229.608,1217.559,2943.366,2932.151,0.01128802,0.05894995,-0.009919209,-0.53376442193985,-0.218142330646515,0.38968300819397,-0.532995796775444,-0.22933320117373,0.329949788314816,0
3.89999389648438,-3.04435896873474,1.8007345199585,2.83756470680237,-2.78116151864576,1.76916027562219,2.86452855531919,1225.498,1216.731,2940.69,2930.783,0.01248304,0.05918464,-0.01107236,-0.520636022090912,-0.212748393416405,0.381277859210968,-0.519441457145543,-0.223501147495394,0.321559006401168,0
3.91999816894531,-3.05450916290283,1.79658722877502,2.84502029418945,-2.79141684911929,1.7647476934202,2.87087709341145,1225.385,1215.046,2936.567,2927.692,0.01365591,0.05941088,-0.0122026,-0.507497549057007,-0.207363337278366,0.372775763273239,-0.505870408491346,-0.2176619043907,0.313157880805522,0
