t,x_s1,x_s2,x_s3,x_s_d1,x_s_d2,x_s_d3,propellers_rpms1,propellers_rpms2,propellers_rpms3,propellers_rpms4,rollRad,pitchRad,yawRad,v_s1,v_s2,v_s3,v_s_d1,v_s_d2,v_s_d3,insideCount
0,-0.0599999986588955,2.94000005722046,1.17999994754791,-0.0599999986588955,2.94000005722046,1.17999994754791,0,0,0,0,0,0,0,0,0,0,-1.06581410364015E-15,4.44089209850063E-16,4.44089209850063E-16,0
0.019989013671875,-0.0599999986588955,2.94000005722046,1.17811644077301,-0.0600018659130177,2.93999925379318,1.18000110346716,0,0,0,0,-0.01635288,0.0001297794,-0.01587137,-1.10653664009419E-09,-7.76775763711157E-08,-0.0941759571433067,-0.000279680311988734,-0.000120338624884473,0.000173135436141649,9
0.040008544921875,-0.0599999986588955,2.94000005722046,1.17242503166199,-0.060014880898484,2.93999365380853,1.18000916036316,0,0,0,0,-0.03270202,0.0005238493,-0.03175127,-1.08383135799528E-09,-7.60859677484405E-08,-0.284568399190903,-0.00111143977225461,-0.000478221483967637,0.00068803416424398,9
0.05999755859375,-0.0599058866500854,2.93990302085876,1.16596496105194,-0.0600498857373401,2.93997859220429,1.18003083002592,1868.637,3252.903,3183.539,1722.181,-0.04942454,0.000330191,-0.0136961,0.00470551569014788,-0.00484904320910573,-0.32300192117691,-0.00247936261166862,-0.00106680046642749,0.00153484356504269,9
0.08001708984375,-0.0598203726112843,2.93960738182068,1.16000318527222,-0.0601176241590912,2.9399494462538,1.18007276333581,1925.04,2314.229,3252.61,2829.559,-0.07543723,-0.00213692,0.0209493,0.00427562370896339,-0.0147794876247644,-0.298089414834976,-0.00437432711648753,-0.0018821507536715,0.00270791686320324,9
0.100006103515625,-0.0599374510347843,2.93904495239258,1.15498661994934,-0.0602282404704493,2.93990185114529,1.18014124010193,980.3967,1499.072,3914.581,3896.515,-0.1032033,-0.008063519,0.0633103,-0.00585383456200361,-0.0281180813908577,-0.250829696655273,-0.00677739276378709,-0.00291612276782231,0.00419552897277328,8
0.1199951171875,-0.0604638904333115,2.93818354606628,1.15081334114075,-0.0603918861403606,2.93983143898525,1.18024254456713,345.9401,980.0927,4173.463,4613.542,-0.1214396,-0.0154229,0.1040073,-0.0263219550251961,-0.043072085827589,-0.208662584424019,-0.00967801353495435,-0.00416417885169243,0.00599115140585487,8
0.1400146484375,-0.0615637116134167,2.93704128265381,1.1472829580307,-0.0606187761383957,2.93973381455767,1.18038300028418,352.5969,746.9297,3975.605,4855.13,-0.1254029,-0.02116947,0.1351135,-0.0549910292029381,-0.0571186505258083,-0.17651703953743,-0.0130687916036232,-0.00562313592726786,0.00809020455552005,7
0.160003662109375,-0.0633409842848778,2.93568086624146,1.14427471160889,-0.0609177895434042,2.93960515744296,1.18056810382587,821.5118,815.3364,3461.66,4692.52,-0.1184606,-0.02352477,0.1522744,-0.0888637006282806,-0.0680173560976982,-0.150412932038307,-0.0169265510445065,-0.00728302204135792,0.0104783414199936,7
0.17999267578125,-0.0658471435308456,2.9341721534729,1.1418251991272,-0.0612985250199726,2.93944133760391,1.18080379722281,1348.6,1083.1,3007.193,4255.229,-0.1079816,-0.02278068,0.1557798,-0.125308126211166,-0.0754333287477493,-0.122476577758789,-0.0212433804254414,-0.00914043312572283,0.0131506644458931,7
0.20001220703125,-0.0690853521227837,2.93255376815796,1.14006161689758,-0.0617708265342762,2.93923811945689,1.181096174359,1636.082,1380.98,2918.971,3666.343,-0.0998238,-0.02030234,0.1501568,-0.161910444498062,-0.0809188783168793,-0.0881816148757935,-0.0260142813927851,-0.0111932185284278,0.0161040794142088,7
0.220001220703125,-0.0730107501149178,2.93082594871521,1.13903546333313,-0.0623420644491781,2.93899233174064,1.18144979784016,1642.089,1581.349,3147.031,3112.937,-0.09583758,-0.01735422,0.142185,-0.196269989013672,-0.0863880068063736,-0.0513078197836876,-0.03121219533433,-0.0134297356845702,0.019321835755004,7
0.239990234375,-0.0775505974888802,2.92897343635559,1.13863325119019,-0.0630214373585105,2.93870001655724,1.18187036203406,1523.957,1624.043,3418.388,2777.241,-0.09475794,-0.01467775,0.1377293,-0.226992428302765,-0.0926271602511406,-0.0201133508235216,-0.0368316683029241,-0.015847637913056,0.022800557215184,7
0.260009765625,-0.0826395899057388,2.92699217796326,1.13863587379456,-0.0638185570309634,2.93835703823113,1.18236381708338,1438.317,1500.527,3534.023,2744.343,-0.09438775,-0.0125893,0.1393018,-0.254449903964996,-0.0990620627999306,0.000129412859678268,-0.0428699302682246,-0.0184457333472145,0.0265385290140116,7
0.279998779296875,-0.0882454738020897,2.9249005317688,1.1388521194458,-0.0647390625194898,2.93796097043536,1.18293365383054,1401.409,1276.574,3475.268,2977.522,-0.0932101,-0.01110485,0.1456819,-0.280294209718704,-0.104586802423,0.0108132660388947,-0.0492963837173861,-0.0212108567320638,0.030516809833474,7
0.29998779296875,-0.0943713188171387,2.92273235321045,1.13920712471008,-0.0657918945890516,2.93750796620855,1.18358540703494,1350.456,1061.273,3345.752,3324.743,-0.09053522,-0.009935189,0.1533095,-0.306292206048965,-0.108409240841866,0.0177484788000584,-0.0561078595514081,-0.0241416444928383,0.0347334378503248,7
0.32000732421875,-0.101036712527275,2.92052531242371,1.13972544670105,-0.0669865614821475,2.93699393441958,1.18432496275165,1280.033,940.6133,3238.485,3590.915,-0.08597483,-0.008525311,0.1583634,-0.333269864320755,-0.110346347093582,0.0259149447083473,-0.0633036493784043,-0.0272377918282996,0.0391879745362408,7
0.339996337890625,-0.108252286911011,2.91831159591675,1.14046156406403,-0.068326768706371,2.93641728069206,1.18515461486636,1254.095,944.9041,3169.384,3649.739,-0.07944316,-0.006291452,0.1584763,-0.360778450965881,-0.110681630671024,0.0368079170584679,-0.0708499516420146,-0.0304847548730522,0.0438594951176439,7
0.360015869140625,-0.116003900766373,2.91611433029175,1.14145278930664,-0.0698237345322385,2.93577317811757,1.18608130802295,1319.679,1046.985,3121.297,3497.871,-0.07154848,-0.0029625,0.1534719,-0.3875812292099,-0.109859213232994,0.0495602190494537,-0.0787580297418618,-0.0338873799532906,0.0487549721754506,8
0.3800048828125,-0.124252289533615,2.91394925117493,1.14270758628845,-0.0714797725314022,2.93506063123087,1.18710647443246,1455.454,1181.881,3090.267,3231.518,-0.06362186,0.001259002,0.1450362,-0.412419587373734,-0.108257576823235,0.0627417862415314,-0.0869921272359981,-0.0374302820709642,0.0538522707687797,8
0.399993896484375,-0.132944196462631,2.91182589530945,1.14421761035919,-0.0733036822025899,2.9342758538535,1.18823556140379,1578.956,1273.368,3105.962,2981.484,-0.05702573,0.00582548,0.1357481,-0.434595465660095,-0.106168374419212,0.0755003988742828,-0.0955525119207663,-0.0411135764513579,0.0591515566763244,8
0.420013427734375,-0.142024666070938,2.90974974632263,1.14595830440521,-0.0753050585276311,2.93341471753282,1.18947450868777,1630.184,1288.082,3159.884,2845.357,-0.05243551,0.01017394,0.127864,-0.45402330160141,-0.103808015584946,0.087037518620491,-0.104441553474511,-0.0449382827008623,0.0646542968418633,8
0.44000244140625,-0.151447057723999,2.90772390365601,1.14789533615112,-0.077483988232608,2.93247718495301,1.19082336997196,1608.96,1238.879,3216.951,2842.536,-0.04965038,0.01397732,0.1224621,-0.471120089292526,-0.101293697953224,0.0968521907925606,-0.113620829717891,-0.048887868829098,0.0703367061060819,8
0.459991455078125,-0.161177843809128,2.90575122833252,1.14999687671661,-0.0798493430620752,2.93145943885026,1.19228763728888,1541.693,1158.064,3253.384,2937.815,-0.0478879,0.01718696,0.1193402,-0.486539840698242,-0.0986394062638283,0.105075277388096,-0.123092454730403,-0.0529632444654124,0.0762000931848968,8
0.480010986328125,-0.171194791793823,2.90383553504944,1.15223944187164,-0.0824109101018722,2.93035726811493,1.19387336931088,1472.103,1085.475,3249.795,3068.298,-0.04628787,0.01998459,0.117384,-0.500847697257996,-0.0957797169685364,0.11212745308876,-0.132860437136906,-0.0571661344090936,0.082246939608052,8
0.5,-0.181482270359993,2.90198278427124,1.15461564064026,-0.085166398670376,2.92917165836334,1.1955791479969,1433.269,1047.055,3214.493,3169.197,-0.04432992,0.02264554,0.1152198,-0.514373362064362,-0.0926404818892479,0.118807420134544,-0.142884000065179,-0.0614789935111996,0.0884520025491718,8
0.519989013671875,-0.192025572061539,2.90019822120667,1.15713500976563,-0.0881248588203387,2.92789871561062,1.19741057576073,1423.943,1045.05,3178.205,3209.403,-0.04191869,0.02538077,0.1118806,-0.527165234088898,-0.089227594435215,0.125966086983681,-0.153166947611899,-0.0659034585682559,0.0948176369253132,9
0.540008544921875,-0.202805921435356,2.8984854221344,1.1598105430603,-0.0912963635428427,2.92653410573011,1.19937388826368,1443.667,1072.779,3150.104,3185.742,-0.03928749,0.02828814,0.107053,-0.539018452167511,-0.0856407359242439,0.133777424693108,-0.163714777034477,-0.0704418948965508,0.101347245800684,9
0.55999755859375,-0.213799178600311,2.8968448638916,1.16265273094177,-0.094676112580471,2.92507989413848,1.20146611391775,1486.424,1114.597,3136.28,3113.545,-0.03687839,0.03133125,0.1010526,-0.54966276884079,-0.0820318311452866,0.142112404108047,-0.17448465888317,-0.0750758741803766,0.108014315705644,9
0.58001708984375,-0.224977523088455,2.89527344703674,1.16566824913025,-0.0982790918331175,2.92352963282165,1.20369652970884,1521.381,1148.739,3146.773,3033.922,-0.03512816,0.03434765,0.09464993,-0.558916628360748,-0.0785743147134781,0.150774911046028,-0.185498893714783,-0.0798149917263209,0.114832651747179,9
0.600006103515625,-0.236312180757523,2.89376521110535,1.16885161399841,-0.102098762959148,2.92188613504538,1.20606108809202,1539.986,1167.024,3162.716,2980.348,-0.03430631,0.03716083,0.08861655,-0.5667325258255,-0.0754176303744316,0.15916582942009,-0.196713446836865,-0.0846403006364086,0.121774994352997,9
0.6199951171875,-0.247777551412582,2.89231181144714,1.17219543457031,-0.106144683970236,2.92014528826426,1.20856570593183,1534.069,1167.143,3183.666,2963.489,-0.03443574,0.03963062,0.0834607,-0.573269963264465,-0.0726669281721115,0.167188853025436,-0.208134604141382,-0.0895545055543457,0.128845234789665,9
0.6400146484375,-0.259352892637253,2.89090418815613,1.17568826675415,-0.110427588881679,2.91830247393137,1.21121702809507,1504.199,1155.795,3196.022,2988.609,-0.03534707,0.0416947,0.07930953,-0.578766703605652,-0.0703858658671379,0.174641519784927,-0.21977002223474,-0.0945609009039674,0.136048112861281,9
0.660003662109375,-0.27102267742157,2.8895320892334,1.17932057380676,-0.114938248900541,2.91636166293851,1.21400934151928,1470.577,1144.904,3194.576,3029.894,-0.03676867,0.04338873,0.07590318,-0.583489298820496,-0.0685995668172836,0.181615218520164,-0.231574097577923,-0.0996398647564507,0.143355397804799,9
0.67999267578125,-0.282775789499283,2.88818550109863,1.18309009075165,-0.119686638739014,2.91431856344567,1.21694882102647,1430.249,1139.77,3191.321,3073.695,-0.0384438,0.04477889,0.07288104,-0.587653875350952,-0.0673255994915962,0.188476100564003,-0.243554411173546,-0.104794659005432,0.150771782621969,9
0.70001220703125,-0.29460284113884,2.88685393333435,1.18699336051941,-0.124683985757554,2.91216834463331,1.22004241688759,1400.067,1145.586,3178.973,3105.251,-0.04017272,0.04596283,0.06987078,-0.59135490655899,-0.0665763691067696,0.195162385702133,-0.255719729227087,-0.11002905550423,0.158302694011575,9
0.720001220703125,-0.306495159864426,2.88552665710449,1.19102883338928,-0.129918284978346,2.90991617190799,1.22328269744952,1396.445,1163.34,3161.076,3105.722,-0.04192508,0.04702335,0.06662392,-0.594616651535034,-0.0663603395223618,0.201773032546043,-0.268023157655716,-0.11532287703907,0.16591910230247,9
0.739990234375,-0.318443715572357,2.88419246673584,1.19520020484924,-0.135400001298574,2.90755754251682,1.2266761409821,1393.06,1185.335,3154.701,3092.157,-0.04382977,0.04795497,0.06321014,-0.597427785396576,-0.0667093619704247,0.208568334579468,-0.280473432677602,-0.12067988256057,0.173626415629864,9
0.760009765625,-0.330438911914825,2.88283920288086,1.19950592517853,-0.141140917956636,2.9050873864615,1.23023004187122,1388.595,1207.1,3151.109,3077.34,-0.04599972,0.04873184,0.05981791,-0.599760115146637,-0.0676631703972816,0.215284287929535,-0.293080296154222,-0.126104263719567,0.181430664670081,9
0.779998779296875,-0.342471718788147,2.88145422935486,1.20394253730774,-0.147126184485884,2.90251209348295,1.23393520697061,1391.394,1226.899,3148.179,3057.334,-0.04852705,0.0493234,0.05663846,-0.601641118526459,-0.0692540556192398,0.221833124756813,-0.305795832832518,-0.131575403921268,0.189302187598958,9
0.79998779296875,-0.35453474521637,2.88002395629883,1.20850956439972,-0.153366821193532,2.89982692185086,1.2377984583754,1374.673,1240.82,3155.243,3052.763,-0.05147304,0.04966396,0.05392598,-0.603151977062225,-0.0715179070830345,0.228351131081581,-0.318629798715703,-0.137097500901303,0.197247023847227,9
0.82000732421875,-0.366622567176819,2.87853455543518,1.21320009231567,-0.159875221826383,2.89702653888221,1.24182746840525,1347.827,1250.291,3157.91,3065.653,-0.05475193,0.04973565,0.05177131,-0.604391574859619,-0.0744681879878044,0.234529033303261,-0.331592781842754,-0.14267511039705,0.205271727915392,9
0.839996337890625,-0.378732323646545,2.87697267532349,1.21800720691681,-0.166633637018892,2.89411858163313,1.24601124935738,1330.665,1259.74,3153.137,3076.449,-0.05824227,0.04956403,0.05009367,-0.605487108230591,-0.0780948102474213,0.240357846021652,-0.344636106234817,-0.148287288494656,0.213346167053785,8
0.860015869140625,-0.390863448381424,2.87532496452332,1.22292959690094,-0.173664618315387,2.89109334680413,1.25036376171199,1301.069,1269.386,3152.917,3095.381,-0.06187215,0.04915434,0.04885488,-0.606555879116058,-0.0823894515633583,0.246117755770683,-0.357790534090669,-0.153947271308859,0.221489384528856,8
0.8800048828125,-0.403016746044159,2.8735785484314,1.22796070575714,-0.180948461186242,2.88795931270381,1.25487280742661,1276.49,1280.981,3144.262,3115.486,-0.0655324,0.04855402,0.04791935,-0.607665538787842,-0.0873213186860085,0.25155320763588,-0.371007022483504,-0.159633957038354,0.229671020432672,8
0.899993896484375,-0.415194451808929,2.87172102928162,1.23310029506683,-0.18849723509595,2.8847112861788,1.25954585807468,1258.686,1295.054,3140.633,3122.684,-0.06913726,0.04780387,0.04718297,-0.608886241912842,-0.0928718969225883,0.256978869438171,-0.384296738353309,-0.165352150505452,0.237897987633041,8
0.920013427734375,-0.427398979663849,2.86974096298218,1.23834443092346,-0.196324452211266,2.88134345332121,1.26439127833112,1242.105,1310.46,3133.817,3131.07,-0.072675,0.04692728,0.04662933,-0.610228478908539,-0.0990022122859955,0.262207597494125,-0.397671404529394,-0.171106895716105,0.246177543119742,8
0.94000244140625,-0.439633309841156,2.86762738227844,1.24368977546692,-0.204407453948074,2.87786556348678,1.26939504145298,1242.281,1326.804,3124.775,3125.753,-0.07616162,0.04595252,0.04622627,-0.611715316772461,-0.105675302445889,0.267265647649765,-0.411081631631503,-0.176876941799768,0.254479112513653,8
0.959991455078125,-0.451900899410248,2.86536979675293,1.24913847446442,-0.212759000778906,2.87427212620069,1.27456504678061,1228.445,1341.403,3126.696,3126.557,-0.07967006,0.04485505,0.04609673,-0.613379061222076,-0.112878106534481,0.272434800863266,-0.424539267042903,-0.182667386354485,0.262810029909387,8
0.980010986328125,-0.464205652475357,2.8629584312439,1.25468671321869,-0.221393324468958,2.87055701793193,1.27991010445463,1210.686,1352.919,3126.756,3135.686,-0.08316093,0.04363813,0.04629046,-0.615239202976227,-0.120573826134205,0.277412891387939,-0.438056556301695,-0.188483498293199,0.271177875878363,8
1,-0.476552546024323,2.86038398742676,1.2603303194046,-0.230284798736574,2.86673126495361,1.28541435058594,1209.18,1363.689,3122.317,3134.91,-0.08658416,0.0423288,0.04676602,-0.617344737052917,-0.12871877849102,0.282179117202759,-0.451584000205995,-0.194303979492187,0.279552008056641,8
1.01998901367188,-0.488947600126266,2.85763812065125,1.26607072353363,-0.239446912293295,2.86278906344998,1.29108613532954,1192.921,1372.752,3125.83,3143.728,-0.08996158,0.0409097,0.04759318,-0.619751155376434,-0.137288168072701,0.287022531032562,-0.46513400752272,-0.200134169097193,0.287940108062054,8
1.04000854492188,-0.501397311687469,2.85471367835999,1.2719042301178,-0.248894644448595,2.85872396824263,1.29693473159157,1174.575,1379.739,3125.146,3160.419,-0.0932149,0.03940308,0.04873433,-0.622487246990204,-0.146226465702057,0.291674494743347,-0.47871923339115,-0.205979512261105,0.296350010028666,8
1.05999755859375,-0.513909220695496,2.85160422325134,1.277827501297,-0.258599401509697,2.85454828239877,1.30294243851408,1175.163,1387.63,3119.001,3164.144,-0.09628393,0.03785543,0.05006734,-0.625595033168793,-0.155477270483971,0.29616379737854,-0.492290296490434,-0.211818761581115,0.30475114456651,8
1.08001708984375,-0.526491403579712,2.84830403327942,1.28384399414063,-0.268590868588476,2.85024923324404,1.30912763259543,1162.769,1395.174,3121.834,3173.627,-0.09920062,0.03626176,0.05161772,-0.629108607769012,-0.165012419223785,0.300827413797379,-0.505880764601332,-0.21766636033551,0.313164291730931,8
1.10000610351563,-0.539151787757874,2.84480881690979,1.28995072841644,-0.278838480013141,2.84583997233313,1.31547139222872,1155.59,1401.917,3118.6,3184.706,-0.1019272,0.03465353,0.05332875,-0.63301807641983,-0.174766659736633,0.305337429046631,-0.519441457145546,-0.223501147495394,0.321559006401169,7
1.1199951171875,-0.551898837089539,2.84111452102661,1.29615068435669,-0.289357002179081,2.84131414609862,1.32198285851614,1152.463,1407.863,3122.412,3186.874,-0.1044241,0.03305054,0.05516626,-0.637352406978607,-0.184711560606956,0.309995859861374,-0.532985466132485,-0.229328756186667,0.329943393154705,7
1.1400146484375,-0.564740598201752,2.83721876144409,1.30244243144989,-0.300162704591434,2.83666475422696,1.32867210305637,1148.267,1413.146,3122.336,3194.965,-0.1066974,0.03146252,0.05714015,-0.642088651657104,-0.194782391190529,0.314585566520691,-0.54652589017629,-0.235154822377061,0.338325560657667,7
1.16000366210938,-0.577685296535492,2.83312034606934,1.30882489681244,-0.311222084148811,2.83190621216671,1.33551838583369,1159.934,1418.244,3118.268,3192.919,-0.1087667,0.02991575,0.05919293,-0.647231996059418,-0.204922959208488,0.319124698638916,-0.560014026276883,-0.240958390526247,0.34667535943296,7
1.17999267578125,-0.590741276741028,2.82881808280945,1.31530404090881,-0.322550701230474,2.8270318247214,1.34253133946411,1154.835,1421.296,3125.56,3199.399,-0.1106986,0.02838568,0.06139764,-0.652801871299744,-0.215118363499641,0.323959857225418,-0.573463232144024,-0.246745208083563,0.355001058539242,7
1.20001220703125,-0.603916823863983,2.82431173324585,1.32187974452972,-0.334165615614823,2.82203425154496,1.34972152476313,1147.112,1422.098,3130.331,3212.335,-0.112436,0.02688777,0.06373469,-0.658776998519897,-0.225316360592842,0.328786879777908,-0.586886736182789,-0.252520966862155,0.363310846989412,7
1.22000122070313,-0.617220103740692,2.81960248947144,1.32855105400085,-0.346030421585499,2.81692915700008,1.35706640485806,1159.734,1423.764,3128.531,3211.651,-0.1139391,0.02546099,0.06610406,-0.665160357952118,-0.235462471842766,0.333563983440399,-0.600236516861372,-0.258265004538453,0.371574997167698,7
1.239990234375,-0.630659401416779,2.81469178199768,1.3353236913681,-0.358161486344149,2.81170949873715,1.36457611182642,1158.762,1424.179,3135.989,3217.683,-0.115268,0.02408534,0.06855665,-0.671965479850769,-0.245540112257004,0.338631898164749,-0.613526094901141,-0.263983138701136,0.379801879044709,7
1.260009765625,-0.644242584705353,2.8095817565918,1.34219801425934,-0.37057666480527,2.80636759428526,1.37226169871082,1156.054,1423.089,3140.098,3229.561,-0.1163887,0.0227749,0.07106405,-0.679159343242645,-0.255497187376022,0.343718022108078,-0.626768731761373,-0.26968107538565,0.387999702095469,7
1.27999877929688,-0.657977283000946,2.80427598953247,1.34917426109314,-0.383236695417198,2.80092033679326,1.3800988607405,1172.125,1423.354,3138.207,3228.331,-0.1172925,0.02156469,0.0735279,-0.686734318733215,-0.265285968780518,0.348812252283096,-0.639917282339435,-0.275338529371412,0.396139281255613,8
1.29998779296875,-0.67187112569809,2.79877781867981,1.35625958442688,-0.396158759015336,2.79536033382764,1.388098233671,1172.939,1422.093,3147.416,3233.627,-0.1180457,0.02042938,0.07600514,-0.694695711135864,-0.274903208017349,0.354266554117203,-0.652985332144132,-0.280961346123326,0.404229026602261,8
1.32000732421875,-0.685931026935577,2.79309177398682,1.36345505714417,-0.409361504843077,2.78967956113998,1.39627136227237,1172.129,1419.483,3153.549,3243.836,-0.1186092,0.01938089,0.07847679,-0.702994644641876,-0.284306973218918,0.359775304794312,-0.6659860834168,-0.286555206197011,0.41227711095171,8
1.33999633789063,-0.700163245201111,2.78722262382507,1.37076079845428,-0.422802873722428,2.78389611561957,1.40459220990988,1191.155,1418.549,3152.36,3240.645,-0.1189778,0.01845068,0.08085521,-0.71161150932312,-0.29345440864563,0.365286976099014,-0.678873453515705,-0.29210028151913,0.420255006953505,8
1.36001586914063,-0.71457427740097,2.78117561340332,1.37818419933319,-0.4365219692899,2.77799317206405,1.4130849835973,1195.074,1415.751,3162.455,3243.89,-0.1192271,0.01760634,0.08321029,-0.72055047750473,-0.302350252866745,0.371167927980423,-0.691680442442074,-0.297610771068296,0.428183143180414,8
1.3800048828125,-0.729169309139252,2.77495646476746,1.38572514057159,-0.450474904562636,2.77198961381608,1.4217225152016,1201.098,1412.74,3165.413,3251.299,-0.1193544,0.01685783,0.08552018,-0.729752540588379,-0.310953974723816,0.377047508955002,-0.704361775018035,-0.303067194200314,0.436033492140578,8
1.39999389648438,-0.743953883647919,2.76857113838196,1.3933892250061,-0.464680216184654,2.76587746507559,1.43051627978847,1207.462,1408.242,3175.768,3252.662,-0.1193261,0.01620715,0.08776429,-0.739230275154114,-0.319270372390747,0.383205860853195,-0.716930938559026,-0.308475354130225,0.443814403124744,8
1.42001342773438,-0.758932411670685,2.76202583312988,1.40117704868317,-0.479157861067077,2.75964813894125,1.43947863163655,1212.633,1404.133,3180.505,3259.635,-0.1191434,0.01565588,0.08993967,-0.748928070068359,-0.327263683080673,0.389392018318176,-0.729400843645231,-0.313840805920001,0.451533868397062,8
1.44000244140625,-0.774108946323395,2.7553277015686,1.40908908843994,-0.493861275572861,2.75332167044526,1.4485807456364,1233.337,1401.961,3178.443,3256.63,-0.1188441,0.01522331,0.09197377,-0.758824825286865,-0.334904611110687,0.395599275827408,-0.741727567798258,-0.319144650954242,0.459164697851088,8
1.45999145507813,-0.789487421512604,2.74848341941833,1.41713345050812,-0.508809800712713,2.74688973769103,1.45783459479497,1235.896,1397.284,3190.181,3260.674,-0.1184958,0.01487192,0.09393491,-0.768928408622742,-0.342219650745392,0.402215600013733,-0.753924423002454,-0.324392617007921,0.466715132239272,8
1.48001098632813,-0.80507093667984,2.74149942398071,1.4253112077713,-0.524024159888143,2.74034342397783,1.467253007885,1235.219,1391.865,3198.677,3269.937,-0.1180441,0.01460805,0.09581266,-0.779173910617828,-0.34919473528862,0.408890902996063,-0.766004036374583,-0.329590137176618,0.474192988348404,8
1.5,-0.820861458778381,2.73438334465027,1.43362152576447,-0.539455198877605,2.73370387899399,1.4768055561018,1255.72,1389.306,3197.572,3264.962,-0.1174758,0.01446287,0.09751889,-0.789529621601105,-0.355804771184921,0.415518909692764,-0.777924000354858,-0.334718964672088,0.481572013878822,8
1.51998901367188,-0.836861550807953,2.72714185714722,1.44207108020782,-0.555123050061237,2.72696244033876,1.48650470234772,1261.763,1384.635,3207.873,3265.575,-0.1168638,0.01439698,0.0991292,-0.800001382827759,-0.362072855234146,0.422475844621658,-0.789697369743256,-0.339784716610053,0.488860290373601,8
1.54000854492188,-0.853072106838226,2.71978211402893,1.45066022872925,-0.571049184024557,2.72010986981902,1.49636373793799,1263.191,1379.275,3214.612,3273.32,-0.1161884,0.01440717,0.1006507,-0.810527741909027,-0.367989152669907,0.42945858836174,-0.801336412291853,-0.344792671461508,0.496065412155667,8
1.55999755859375,-0.869493782520294,2.71231126785278,1.45938813686371,-0.587181951496087,2.71316839067337,1.50635068951315,1282.277,1376.608,3212.864,3269.275,-0.115456,0.0145177,0.1020031,-0.821083605289459,-0.373539209365845,0.436394780874252,-0.812800388649436,-0.349725300221754,0.503162159625937,8
1.57998657226563,-0.886127412319183,2.70473599433899,1.46826148033142,-0.603542258451077,2.7061290076447,1.51647849886779,1285.144,1371.431,3224.309,3270.791,-0.1147199,0.01468927,0.1032582,-0.831681489944458,-0.378758937120438,0.44366654753685,-0.82410201904291,-0.354588076049064,0.510158407210813,8
1.60000610351563,-0.902972519397736,2.69706296920776,1.47727990150452,-0.620152298932711,2.69898217125626,1.52676090517188,1284.382,1365.978,3231.348,3278.534,-0.1139343,0.01492334,0.1044165,-0.842255294322968,-0.383645564317703,0.450919568538666,-0.835253140422976,-0.35938609205264,0.51706148254665,8
1.6199951171875,-0.92002809047699,2.68929934501648,1.48644113540649,-0.636958033083316,2.69175113334911,1.53716445517924,1303.895,1363.858,3228.177,3272.989,-0.1130986,0.01524844,0.1053923,-0.852777779102325,-0.388185024261475,0.458059579133987,-0.846214826007804,-0.364102599125749,0.523847288101157,8
1.6400146484375,-0.937293350696564,2.68145108222961,1.49575102329254,-0.654007271984653,2.68441532215046,1.54771874622704,1307.416,1359.241,3238.152,3272.998,-0.112281,0.01562147,0.1062634,-0.863265693187714,-0.392414748668671,0.465495318174362,-0.857015715678588,-0.368749920209162,0.530533553325099,8
1.66000366210938,-0.954766392707825,2.67352437973022,1.50520741939545,-0.671244443874359,2.67699864863716,1.55838937674714,1311.536,1355.795,3239.747,3277.869,-0.1114799,0.0160454,0.1070227,-0.873648226261139,-0.396331250667572,0.472820520401001,-0.867618167158098,-0.373311858882592,0.53709697585572,8
1.67999267578125,-0.972445249557495,2.66552495956421,1.51481366157532,-0.688691692550512,2.66949158495151,1.56919005480539,1315.469,1350.841,3249.404,3275.983,-0.110648,0.01651822,0.1076618,-0.883944988250732,-0.39996749162674,0.48031285405159,-0.878034183119987,-0.377793579561193,0.543544985919778,8
1.70001220703125,-0.990327179431915,2.65745854377747,1.52456724643707,-0.706372354049449,2.66188409024902,1.58013522651994,1318.361,1347.025,3252.06,3279.691,-0.1097792,0.01703633,0.1081918,-0.894095182418823,-0.403316617012024,0.487680524587631,-0.888274735793774,-0.382199803288802,0.549884375850026,8
1.72000122070313,-1.00840878486633,2.64933109283447,1.53446531295776,-0.724228658537036,2.6542010212754,1.5911891296115,1337.14,1346.261,3246.105,3273.513,-0.1089233,0.01761438,0.1085501,-0.90408182144165,-0.406371235847473,0.494906216859818,-0.898304216251578,-0.386515208538549,0.556093102023817,8
1.739990234375,-1.02668738365173,2.64114737510681,1.54451394081116,-0.74228345468553,2.64643254688532,1.60236590849663,1335.898,1342.183,3256.499,3274.227,-0.1081419,0.01820573,0.1088235,-0.913933098316193,-0.40918293595314,0.502429723739624,-0.908134108040217,-0.390744736359816,0.562178273303667,8
1.760009765625,-1.04515898227692,2.63291215896606,1.55471098423004,-0.760560719141003,2.63856835059778,1.61368040586141,1329.288,1337.819,3263.105,3281.831,-0.1073675,0.01881295,0.1090204,-0.923585653305054,-0.411766767501831,0.509853303432465,-0.91777478390713,-0.394892849856044,0.568146310914365,8
1.77999877929688,-1.06381940841675,2.62462997436523,1.56505167484283,-0.779000609654483,2.63063418086074,1.62509557650306,1345.62,1337.311,3257.811,3274.48,-0.1065754,0.01947036,0.1090512,-0.93301522731781,-0.414114534854889,0.517031967639923,-0.927192788821983,-0.398945154262308,0.57397650459845,8
1.79998779296875,-1.08266448974609,2.61630463600159,1.57553958892822,-0.797626646773287,2.62261991743975,1.63662598076079,1347.21,1334.303,3265.449,3271.836,-0.1058314,0.02013476,0.1090016,-0.942250311374664,-0.416264057159424,0.52439421415329,-0.936399026186941,-0.402906341007953,0.579675604081262,7
1.82000732421875,-1.10168921947479,2.60794019699097,1.58617162704468,-0.816463410111527,2.61451498441355,1.64828683458664,1342.351,1331.023,3268.783,3278.249,-0.1051102,0.02079962,0.1088937,-0.951237261295319,-0.418224096298218,0.531604290008545,-0.94540321420156,-0.406780591562751,0.585249625391268,7
1.83999633789063,-1.12088847160339,2.59954047203064,1.5969432592392,-0.835449117627072,2.60634596486888,1.66003989195343,1356.493,1331.077,3262.4,3272.074,-0.1044103,0.02149291,0.1086439,-0.959964990615845,-0.419991970062256,0.538579881191254,-0.954174163352093,-0.410554485950274,0.590679260733698,7
1.86001586914063,-1.14025783538818,2.59110832214355,1.60785818099976,-0.854637305360818,2.59808982374295,1.67191829422076,1353.49,1328.342,3270.832,3271.084,-0.1037781,0.02217347,0.1083338,-0.968468129634857,-0.421613365411758,0.545748472213745,-0.962735018414262,-0.414237982720922,0.595978837827261,7
1.8800048828125,-1.15979146957397,2.58264660835266,1.61891102790833,-0.873964974649439,2.58977366760063,1.68388304221498,1351.765,1327.19,3269.217,3275.408,-0.1031922,0.02284926,0.107956,-0.976682543754578,-0.423090428113937,0.552640557289124,-0.971056158224177,-0.417818336715394,0.601130019760457,7
1.89999389648438,-1.17948424816132,2.57415747642517,1.63010227680206,-0.893456683142228,2.58138692997148,1.69594933829086,1352.114,1324.77,3275.365,3271.027,-0.1025951,0.0235232,0.1074983,-0.984644532203674,-0.424454152584076,0.559560358524323,-0.979147395688901,-0.421299770153459,0.606138881190213,7
1.92001342773438,-1.19933032989502,2.56564354896545,1.64142668247223,-0.913137923350175,2.5729186421402,1.70813296352707,1350.504,1323.57,3274.14,3273.685,-0.1019879,0.02419046,0.1069813,-0.99230569601059,-0.425698280334473,0.566218078136444,-0.987017247723777,-0.424685947625853,0.611010694492843,7
1.94000244140625,-1.21932375431061,2.5571072101593,1.65287888050079,-0.932943991899774,2.5643966441608,1.72039386345315,1365.051,1325.335,3264.519,3266.261,-0.1014206,0.02486747,0.1063416,-0.99966436624527,-0.426815509796143,0.572612226009369,-0.994638524886308,-0.427965170275055,0.615728628108227,7
1.95999145507813,-1.23945891857147,2.54855012893677,1.66446316242218,-0.952900013794853,2.55581012544606,1.73274759164336,1358.166,1323.734,3272.549,3266.021,-0.1009503,0.02550859,0.1056736,-1.00676417350769,-0.427856773138046,0.579213917255402,-1.00202031904361,-0.431141350077486,0.620298310335216,7
1.98001098632813,-1.25973010063171,2.53997349739075,1.6761748790741,-0.973031969359004,2.54714790738853,1.74521023115561,1345.599,1321.816,3276.154,3273.648,-0.1004949,0.02612038,0.1049872,-1.01355266571045,-0.428835809230804,0.585584580898285,-1.00917036754089,-0.434217816196637,0.624724530959079,7
2,-1.28013050556183,2.53137874603271,1.6880065202713,-0.993273599084619,2.53843849960327,1.7577407641983,1358.606,1323.678,3267.421,3264.47,-0.1000182,0.02674371,0.1041843,-1.02001988887787,-0.429739475250244,0.591583490371704,-1.01606400046349,-0.437183953857422,0.628992018127441,6
2.01998901367188,-1.3006546497345,2.52276682853699,1.69995999336243,-1.01365055070775,2.52967086658596,1.77035506794184,1356.203,1323.209,3272.052,3260.407,-0.09958944,0.02733531,0.1033593,-1.02620661258698,-0.430597990751266,0.597672402858734,-1.02270954399163,-0.440043345582587,0.633105926142498,6
2.04000854492188,-1.32129621505737,2.5141384601593,1.71202993392944,-1.03418924440916,2.52083364047092,1.78306949773667,1346.296,1322.235,3272.167,3267.047,-0.09918411,0.02789067,0.1025379,-1.03207147121429,-0.431414127349854,0.603499591350555,-1.02911391720548,-0.442798968459032,0.637070538244476,6
2.05999755859375,-1.34204840660095,2.50549483299255,1.72420990467072,-1.05482201812353,2.5119559343546,1.79584216754118,1356.978,1324.269,3262.95,3259.694,-0.09878996,0.02844274,0.1016282,-1.03761851787567,-0.43217933177948,0.608998239040375,-1.03525504859546,-0.445441325732794,0.640872191117535,6
2.07998657226563,-1.36290621757507,2.49683618545532,1.73650217056274,-1.07557499515204,2.50302650811029,1.80868924892322,1349.59,1323.787,3268.879,3258.089,-0.0984512,0.02895295,0.1007169,-1.04289138317108,-0.432930797338486,0.614614903926849,-1.04114045847258,-0.4479736531836,0.644515540192423,6
2.10000610351563,-1.38386297225952,2.48816275596619,1.74890089035034,-1.09647498538954,2.49403382618922,1.82162733848484,1337.293,1323.057,3269.361,3265.017,-0.09810659,0.02942743,0.09981349,-1.04784572124481,-0.433669209480286,0.619934797286987,-1.04677621342161,-0.450398561093403,0.648004340974112,5
2.1199951171875,-1.40491271018982,2.47947525978088,1.76139831542969,-1.11745308225396,2.48500753716864,1.83461377976925,1349.584,1325.683,3258.754,3255.617,-0.09773482,0.02990452,0.09881874,-1.05248200893402,-0.434376806020737,0.6248699426651,-1.0521429102862,-0.45270770082608,0.651326581984514,5
2.1400146484375,-1.42604947090149,2.47077369689941,1.77399635314941,-1.13856809990831,2.47592233495728,1.84768498154507,1343.951,1325.988,3262.866,3252.48,-0.09740831,0.03034143,0.0978293,-1.05684435367584,-0.435082942247391,0.629901528358459,-1.05725481901126,-0.454907212340279,0.654491096999312,4
2.16000366210938,-1.44726729393005,2.46205806732178,1.78668761253357,-1.15975039167652,2.46680818657414,1.86079782920208,1337.814,1327.099,3257.491,3256.944,-0.09711803,0.03074515,0.09684402,-1.06088495254517,-0.435778796672821,0.634562253952026,-1.0620943502576,-0.456989527434725,0.657486997379635,4
2.17999267578125,-1.46856033802032,2.45332837104797,1.799471616745,-1.18102676265167,2.45765355853653,1.8739689163698,1333.379,1326.662,3261.459,3251.994,-0.09679525,0.03112302,0.09584665,-1.06465435028076,-0.436487674713135,0.639198303222656,-1.06666760390386,-0.458957270716794,0.660318059240953,3
2.20001220703125,-1.48992276191711,2.444584608078,1.81234121322632,-1.20242455577657,2.44844668594002,1.88721516963236,1326.515,1327.2,3257.79,3255.132,-0.0964288,0.03147525,0.09485616,-1.06811356544495,-0.437191545963287,0.643482625484467,-1.07097916161324,-0.460812413548163,0.662987118851036,1
2.22000122070313,-1.5113480091095,2.43582725524902,1.82528948783875,-1.22387315175433,2.43921795429519,1.90049287228091,1339.173,1330.231,3245.542,3245.805,-0.09604957,0.03182686,0.0937964,-1.0712708234787,-0.437869489192963,0.647413074970245,-1.07501419914593,-0.462548577472581,0.665484999299265,0
2.239990234375,-1.53283143043518,2.42705607414246,1.83831918239594,-1.24539969505118,2.42995568409656,1.91381882803312,1329.922,1330.582,3250.292,3244.555,-0.09572839,0.03213346,0.09276711,-1.0741730928421,-0.438555628061295,0.651486039161682,-1.07877792518082,-0.464168003639063,0.667814925005999,0
2.260009765625,-1.55436706542969,2.4182710647583,1.8514244556427,-1.26703177594152,2.42064800401982,1.92721011658316,1314.047,1330.071,3250.859,3252.686,-0.09538963,0.03240407,0.09177581,-1.0767810344696,-0.43924880027771,0.655265688896179,-1.08227399942825,-0.465672266718726,0.669979161506271,0
2.27999877929688,-1.57594895362854,2.40947246551514,1.86459708213806,-1.28869796983554,2.41132564607061,1.9406225227075,1325.213,1332.481,3240.285,3242.459,-0.0949843,0.03268366,0.09071289,-1.07909655570984,-0.439925909042358,0.658632338047028,-1.08549040888332,-0.467056197851165,0.67197027217779,0
2.29998779296875,-1.59757208824158,2.40066027641296,1.87783825397491,-1.31042570636616,2.40197680804417,1.95407302665558,1320.102,1333.176,3242.955,3237.956,-0.09458483,0.03293235,0.08967501,-1.08115935325623,-0.440605163574219,0.662058353424072,-1.08843144721369,-0.468321644481621,0.673790915005368,0
2.32000732421875,-1.6192307472229,2.39183473587036,1.89114165306091,-1.33224276726637,2.39258953623693,1.96757882664355,1307.975,1332.963,3240.818,3244.534,-0.09416245,0.03315036,0.0886821,-1.08293521404266,-0.441274613142014,0.665170073509216,-1.09109983431736,-0.469469776906228,0.675442773735451,0
2.33999633789063,-1.64091944694519,2.38299655914307,1.90450000762939,-1.35407709248145,2.38319483607731,1.98109531406483,1318.685,1335.025,3229.873,3235.393,-0.09369693,0.03337494,0.08763316,-1.08443427085876,-0.441913723945618,0.667916595935822,-1.09348640563071,-0.470496651869278,0.67692017506657,0
2.36001586914063,-1.66263341903687,2.3741455078125,1.91791534423828,-1.3759897762471,2.37376642042246,1.99466030916165,1310.22,1335.24,3233.669,3233.156,-0.09324792,0.03356702,0.08662023,-1.08569753170013,-0.442546784877777,0.670764207839966,-1.09559752564474,-0.471405007833448,0.678227058921845,0
2.3800048828125,-1.68436706066132,2.3652822971344,1.93137955665588,-1.39790843013262,2.36433543599182,2.00822900004707,1303.087,1335.87,3227.591,3237.461,-0.09278719,0.03374119,0.08562857,-1.08668124675751,-0.443155109882355,0.673212945461273,-1.09742594550583,-0.472191725819537,0.679358937915576,0
2.39999389648438,-1.70611560344696,2.35640740394592,1.94489181041718,-1.41986083522252,2.35488992936084,2.02181858453579,1300.021,1335.29,3229.827,3230.978,-0.09224711,0.03390814,0.08463293,-1.08743178844452,-0.443750560283661,0.67561274766922,-1.09897439291323,-0.472857979480329,0.680317500623536,0
2.42001342773438,-1.72787404060364,2.34752130508423,1.95844495296478,-1.44187496577138,2.34541786398928,2.035446380024,1294.176,1335.567,3224.539,3233.248,-0.09163245,0.03406654,0.08365418,-1.08791387081146,-0.444305956363678,0.677659749984741,-1.1002439936861,-0.473404253224357,0.681103443981416,0
2.44000244140625,-1.74963688850403,2.33862543106079,1.97203242778778,-1.46387808506052,2.33595053645515,2.04906735901791,1307.355,1337.592,3212.057,3223.027,-0.09097784,0.03424015,0.08261678,-1.08813679218292,-0.444797068834305,0.679373919963837,-1.10123038958312,-0.473828671822132,0.681714070030222,0
2.45999145507813,-1.77139949798584,2.32972049713135,1.98565721511841,-1.48589810917879,2.32647593524532,2.06269880290633,1297.702,1337.484,3216.096,3221.747,-0.09035839,0.03438605,0.08162086,-1.08813977241516,-0.44525220990181,0.681241750717163,-1.10193535162022,-0.474131997292339,0.68215047511319,0
2.48001098632813,-1.79315721988678,2.32080721855164,1.99931359291077,-1.5079630509786,2.31698200721197,2.07635805297935,1282.129,1336.189,3215.981,3229.483,-0.08969473,0.03451577,0.08066671,-1.08788740634918,-0.445664197206497,0.682818651199341,-1.10235904000526,-0.474314298567936,0.682412758406602,0
2.5,-1.8149049282074,2.31188702583313,2.01299357414246,-1.52999999932945,2.30750012397766,2.08999997377396,1294.614,1337.201,3205.448,3217.836,-0.08893147,0.03467397,0.07964133,-1.08738195896149,-0.4460069835186,0.683995485305786,-1.10250000050292,-0.474374949932098,0.682500019669533,0
2.51998901367188,-1.8366379737854,2.30296111106873,2.02669835090637,-1.5520369476803,2.29801824074336,2.10364189456856,1290.572,1337.159,3207.153,3212.614,-0.08815169,0.03482104,0.07864326,-1.08665442466736,-0.446292549371719,0.685237228870392,-1.10235904000526,-0.474314298567936,0.682412758406603,0
2.54000854492188,-1.85835134983063,2.2940309047699,2.04042196273804,-1.57410188948011,2.28852431271001,2.11730114464159,1279.516,1335.87,3204.321,3218.637,-0.08733304,0.03495704,0.07768899,-1.08567416667938,-0.446505427360535,0.686178624629974,-1.10193535162022,-0.474131997292339,0.682150475113189,0
2.55999755859375,-1.88004040718079,2.28509831428528,2.05415749549866,-1.59612191359838,2.27904971150017,2.13093258853001,1291.305,1336.273,3193.671,3208.555,-0.08644994,0.0351178,0.07667561,-1.08445119857788,-0.446625262498856,0.686781823635101,-1.10123038958312,-0.473828671822132,0.681714070030222,0
2.57998657226563,-1.90170073509216,2.27616477012634,2.0679075717926,-1.61812503288753,2.26958238396605,2.14455356752391,1283.67,1335.525,3196.853,3205.85,-0.08556949,0.03526601,0.07569397,-1.08301711082458,-0.446672230958939,0.68749988079071,-1.1002439936861,-0.473404253224357,0.681103443981416,0
2.60000610351563,-1.92332744598389,2.26723194122314,2.08166599273682,-1.64013916343638,2.26011031859448,2.15818136301212,1271.002,1333.671,3195.115,3212.323,-0.0846326,0.03541018,0.07474405,-1.08133912086487,-0.446633666753769,0.687915861606598,-1.09897439291323,-0.472857979480329,0.680317500623536,0
2.6199951171875,-1.94491600990295,2.25830268859863,2.09542536735535,-1.66209156852628,2.2506648119635,2.17177094750084,1284.719,1333.783,3184.16,3200.386,-0.08360195,0.03559026,0.07371638,-1.07942152023315,-0.446485757827759,0.687964677810669,-1.09742594550583,-0.472191725819537,0.679358937915576,0
2.6400146484375,-1.96646177768707,2.24937748908997,2.10918760299683,-1.68404365734903,2.24121944141343,2.18536033620513,1280.065,1333.113,3185.874,3195.894,-0.08256705,0.03576607,0.07270852,-1.07729077339172,-0.446243047714233,0.688110888004303,-1.09559452046326,-0.471403714787811,0.678225198571351,0
2.66000366210938,-1.98795986175537,2.24045968055725,2.12294578552246,-1.70592290617745,2.23180541187802,2.19890463348308,1275.26,1332.052,3179.415,3198.728,-0.08152042,0.03594536,0.07171318,-1.07491147518158,-0.445888817310333,0.687905430793762,-1.09348640563071,-0.470496651869278,0.67692017506657,0
2.67999267578125,-2.00940656661987,2.23155093193054,2.13669967651367,-1.72775723139253,2.2224107117184,2.21242112090437,1272.71,1329.797,3181.559,3192.178,-0.08040083,0.03613572,0.07070784,-1.07232129573822,-0.445436388254166,0.687688946723938,-1.09109983431736,-0.469469776906228,0.675442773735451,0
2.70001220703125,-2.03079605102539,2.22265362739563,2.15044283866882,-1.74957429229274,2.21302343991116,2.22592692089233,1267.293,1328.196,3176.835,3193.884,-0.07920454,0.03633724,0.06970763,-1.06948912143707,-0.444864273071289,0.687156915664673,-1.08843144721369,-0.468321644481621,0.673790915005369,0
2.72000122070313,-2.05212473869324,2.21377038955688,2.16416907310486,-1.77130202882336,2.20367460188472,2.23937742484041,1281.938,1327.89,3165.157,3182.167,-0.07795019,0.03657342,0.06863436,-1.06641912460327,-0.444151639938354,0.686309993267059,-1.08549040888332,-0.467056197851165,0.671970272177789,0
2.739990234375,-2.07338714599609,2.20490407943726,2.17788147926331,-1.79296822271738,2.1943522439355,2.25278983096475,1274.924,1326.515,3167.947,3179.317,-0.07672407,0.03680306,0.06758599,-1.06313788890839,-0.443320959806442,0.685615062713623,-1.08227399942825,-0.465672266718727,0.669979161506271,0
2.760009765625,-2.09457969665527,2.19605708122253,2.19157457351685,-1.81460030360772,2.18504456385877,2.26618111951479,1261.606,1323.708,3166.836,3186.027,-0.07546227,0.03703422,0.0665623,-1.0596170425415,-0.44236758351326,0.684652328491211,-1.07877792518082,-0.464168003639063,0.667814925005998,0
2.77999877929688,-2.11569690704346,2.18723130226135,2.20524144172668,-1.83612684690458,2.17578229366013,2.27950707526701,1274.988,1322.48,3157.102,3173.602,-0.07410832,0.03730672,0.06545212,-1.05585992336273,-0.441274672746658,0.683339893817902,-1.07501419914593,-0.462548577472581,0.665484999299265,0
2.79998779296875,-2.13673424720764,2.17843055725098,2.21888375282288,-1.85757544288233,2.1665535620153,2.29278477791556,1271.944,1321.135,3158.619,3167.42,-0.07274691,0.03758284,0.06435169,-1.05188512802124,-0.440054804086685,0.682115316390991,-1.07097916161324,-0.460812413548163,0.662987118851036,0
2.82000732421875,-2.15768766403198,2.16965675354004,2.23249578475952,-1.87897323600723,2.1573466894188,2.30603103117811,1262.261,1318.376,3155.365,3172.505,-0.07135408,0.03786252,0.06327523,-1.04766547679901,-0.438697934150696,0.680601000785828,-1.06666760390385,-0.458957270716794,0.660318059240952,0
2.83999633789063,-2.17855215072632,2.16091251373291,2.24607133865356,-1.90024960698239,2.14819206138118,2.31920211834584,1275.831,1316.752,3145.469,3160.483,-0.06990052,0.03817824,0.06212148,-1.04321038722992,-0.43719145655632,0.678781807422638,-1.06209435025759,-0.456989527434725,0.657486997379635,0
2.86001586914063,-2.19932270050049,2.15220165252686,2.25961303710938,-1.9214641634913,2.13906403038149,2.33233493941432,1269.913,1314.994,3147.743,3156.539,-0.06846401,0.0384916,0.06098535,-1.038538813591,-0.435553342103958,0.677082180976868,-1.05724722779031,-0.454903946049977,0.654486397671922,0
2.8800048828125,-2.21999502182007,2.14352607727051,2.273113489151,-1.94254691640495,2.12999271078668,2.34538616777867,1264.968,1312.584,3141.26,3159.501,-0.06702004,0.03881421,0.05984827,-1.03362119197845,-0.433773159980774,0.6750208735466,-1.0521429102862,-0.45270770082608,0.651326581984514,0
2.89999389648438,-2.24056482315063,2.13488912582397,2.28657245635986,-1.96352501326936,2.1209664217661,2.35837260906308,1265.13,1309.598,3142.612,3150.564,-0.06550577,0.03915532,0.05867882,-1.02848970890045,-0.43186417222023,0.672951698303223,-1.04677621342161,-0.450398561093403,0.648004340974112,0
2.92001342773438,-2.26102733612061,2.12629270553589,2.29998397827148,-1.98442500350686,2.11197373984504,2.37131069862469,1260.748,1307.369,3137.197,3151.485,-0.06393611,0.03950959,0.05750344,-1.02311551570892,-0.429810553789139,0.670581638813019,-1.04114045847258,-0.4479736531836,0.644515540192422,0
2.94000244140625,-2.28137731552124,2.11774063110352,2.31334257125854,-2.00517798053537,2.10304431360073,2.38415778000673,1275.496,1305.81,3126.425,3138.875,-0.06232596,0.03989733,0.05624846,-1.01750338077545,-0.427600294351578,0.667931020259857,-1.03525504859546,-0.445441325732794,0.640872191117535,0
2.95999145507813,-2.30161046981812,2.10923552513123,2.32665085792542,-2.02581075424974,2.0941666074844,2.39693044981124,1269.106,1304.028,3128.329,3135.46,-0.06076428,0.04027933,0.05501086,-1.01166999340057,-0.425253838300705,0.665420472621918,-1.02911391720548,-0.442798968459032,0.637070538244476,0
2.98001098632813,-2.32172250747681,2.10078001022339,2.33990406990051,-2.04634944795115,2.08532938136936,2.40964487960608,1256.688,1300.654,3126.831,3141.108,-0.05918929,0.04066214,0.05378968,-1.0055969953537,-0.422774106264114,0.662656664848328,-1.02270954399162,-0.440043345582586,0.633105926142498,0
3,-2.34170842170715,2.09237694740295,2.35309529304504,-2.06672639957428,2.07656174835205,2.42225918334961,1269.676,1298.372,3117.879,3128.168,-0.05754026,0.04108118,0.05248102,-0.999289214611053,-0.420152455568314,0.659567296504974,-1.01606400046349,-0.437183953857422,0.628992018127441,0
3.01998901367188,-2.36156320571899,2.08402872085571,2.36622619628906,-2.0869680292999,2.06785234056679,2.43478971639231,1267.179,1296.744,3118.334,3121.552,-0.05590188,0.04150152,0.05117682,-0.992757022380829,-0.417399525642395,0.656547486782074,-1.00917036754089,-0.434217816196637,0.624724530959079,0
3.04000854492188,-2.38128328323364,2.07573843002319,2.37929129600525,-2.10709998486405,2.05919012250926,2.44725235590455,1258.49,1293.618,3114.759,3125.252,-0.05425392,0.04192228,0.04989061,-0.985983490943909,-0.414512872695923,0.653257250785828,-1.00202031904361,-0.431141350077486,0.620298310335216,0
3.05999755859375,-2.40086269378662,2.06750893592834,2.39228487014771,-2.12705600675913,2.05060360379452,2.45960608409476,1271.045,1291.177,3105.427,3113.346,-0.05256494,0.04237061,0.04853061,-0.978977799415588,-0.411486774682999,0.649679243564606,-0.994638524886308,-0.427965170275055,0.615728628108227,0
3.07998657226563,-2.42029762268066,2.05934190750122,2.40520882606506,-2.14686207530873,2.04208160581513,2.47186698402085,1265.925,1289.405,3106.466,3108.685,-0.05091165,0.04281314,0.04718302,-0.971752285957336,-0.40833654999733,0.646202564239502,-0.987017247723776,-0.424685947625853,0.611010694492843,0
3.10000610351563,-2.43958330154419,2.05124092102051,2.41805815696716,-2.16654331551667,2.03361331798384,2.48405060925705,1255.215,1286.166,3103.808,3113.149,-0.04924877,0.04325395,0.04585065,-0.964293420314789,-0.40506437420845,0.642465353012085,-0.979147395688901,-0.421299770153459,0.606138881190213,0
3.1199951171875,-2.45871567726135,2.04320764541626,2.43082642555237,-2.18603502400946,2.02522658035469,2.49611690533293,1268.053,1283.706,3094.483,3100.5,-0.0475289,0.04372383,0.04443586,-0.956607758998871,-0.401664227247238,0.638417661190033,-0.971056158224178,-0.417818336715394,0.601130019760458,0
3.1400146484375,-2.47768950462341,2.03524470329285,2.44351553916931,-2.20539207344272,2.01689778275692,2.50809984103626,1264.956,1282.265,3094.682,3094.1,-0.04583726,0.04418951,0.04302724,-0.948703765869141,-0.398147374391556,0.634456276893616,-0.962722140342815,-0.41423244164655,0.595970865687568,0
3.16000366210938,-2.49650096893311,2.02735424041748,2.45611882209778,-2.22455088103183,2.00865428308644,2.51996005559448,1260.754,1279.687,3087.866,3095.724,-0.04416906,0.04465447,0.04162194,-0.94056636095047,-0.394512712955475,0.63016802072525,-0.954174163352092,-0.410554485950274,0.590679260733698,0
3.17999267578125,-2.51514530181885,2.01953911781311,2.46863627433777,-2.24353658854737,2.00048526354177,2.53171311296128,1260.422,1276.733,3088.376,3086.942,-0.0424705,0.04512522,0.04019396,-0.932220637798309,-0.390774071216583,0.62587708234787,-0.945403214201559,-0.406780591562751,0.585249625391267,0
3.20001220703125,-2.53361821174622,2.01180052757263,2.48106241226196,-2.26237335188561,1.99238033051557,2.54337396678712,1255.156,1274.399,3083.031,3087.629,-0.04075116,0.04559734,0.03876746,-0.923650979995728,-0.386925786733627,0.621312141418457,-0.93639902618694,-0.402906341007952,0.579675604081262,0
3.22000122070313,-2.55191540718079,2.00414109230042,2.4933922290802,-2.28099938900442,1.98436606709459,2.55490437104486,1267.969,1272.206,3073.573,3074.983,-0.03900679,0.04608857,0.03727413,-0.91486394405365,-0.38296365737915,0.616490721702576,-0.927192788821982,-0.398945154262308,0.573976504598449,0
3.239990234375,-2.57003259658813,1.99656319618225,2.50562763214111,-2.2994392795179,1.97643189735754,2.5663195416865,1262.253,1270.87,3073.878,3070.788,-0.03732207,0.04656636,0.03580307,-0.905867218971252,-0.378901153802872,0.611771106719971,-0.917774783907129,-0.394892849856044,0.568146310914365,0
3.260009765625,-2.58796572685242,1.98906850814819,2.51776361465454,-2.31771654397337,1.96856770107001,2.57763403905129,1251.069,1267.85,3070.969,3075.365,-0.03564854,0.04703547,0.03435297,-0.89665699005127,-0.374745219945908,0.606805026531219,-0.908134108040216,-0.390744736359816,0.562178273303667,0
3.27999877929688,-2.60571050643921,1.98165845870972,2.52979493141174,-2.33577134012187,1.96079922667992,2.58881081793642,1262.531,1265.298,3062.855,3062.539,-0.03392761,0.0475245,0.0328313,-0.8872429728508,-0.370495051145554,0.601563096046448,-0.898304216251578,-0.386515208538549,0.556093102023818,0
3.29998779296875,-2.62326312065125,1.97433519363403,2.54172253608704,-2.35362764460945,1.95311615770631,2.59986472102797,1259.133,1264.273,3062.327,3056.244,-0.03223916,0.04800344,0.03132529,-0.877627849578857,-0.366157740354538,0.596380949020386,-0.888274735793772,-0.382199803288803,0.549884375850026,0
3.32000732421875,-2.64061951637268,1.96710062026978,2.55354142189026,-2.37130830610839,1.94550866300381,2.61080989274252,1250.389,1261.546,3058.126,3059.456,-0.03056137,0.04847287,0.02984403,-0.867808103561401,-0.361736327409744,0.590940654277802,-0.878034183119985,-0.377793579561194,0.543544985919778,0
3.33999633789063,-2.65777516365051,1.95995593070984,2.56524634361267,-2.38875555478454,1.93800159931817,2.62161057080077,1261.775,1258.997,3049.76,3047.141,-0.02885535,0.04895623,0.02830393,-0.857795298099518,-0.357230395078659,0.585250020027161,-0.867618167158097,-0.373311858882592,0.53709697585572,0
3.36001586914063,-2.67472720146179,1.95290291309357,2.57683920860291,-2.40601888046917,1.93057367255756,2.63229739176581,1256.911,1258.051,3049.351,3042.157,-0.0271994,0.04942413,0.02678911,-0.847593367099762,-0.35264840722084,0.579639554023743,-0.856999388527103,-0.368742895092007,0.53052344604056,0
3.3800048828125,-2.69147157669067,1.94594287872314,2.58831381797791,-2.42304196557559,1.92324911460621,2.64283549236868,1251.462,1255.563,3043.04,3044.045,-0.0255738,0.04988293,0.02528867,-0.837201535701752,-0.347994744777679,0.573729455471039,-0.846214826007803,-0.364102599125748,0.523847288101157,0
3.39999389648438,-2.70800399780273,1.93907737731934,2.59966993331909,-2.43984769972619,1.91601807669906,2.65323904237604,1251.517,1253.181,3042.583,3034.971,-0.02392211,0.05034092,0.02377194,-0.826638579368591,-0.343278825283051,0.567806422710419,-0.835253140422974,-0.35938609205264,0.51706148254665,0
3.42001342773438,-2.7243218421936,1.93230772018433,2.61090278625488,-2.45645774020782,1.90887124031063,2.66352144868012,1246.891,1251.464,3036.823,3034.769,-0.0222619,0.05079303,0.02226572,-0.815896809101105,-0.338497072458267,0.561637401580811,-0.824102019042908,-0.354588076049064,0.510158407210813,0
3.44000244140625,-2.74042129516602,1.92563462257385,2.62200784683228,-2.47281804716281,1.90183185728196,2.67364925803476,1257.858,1249.382,3028.162,3023.006,-0.0205889,0.05125341,0.02071299,-0.80498331785202,-0.333647847175598,0.555247604846954,-0.812800388649434,-0.349725300221754,0.503162159625937,0
3.45999145507813,-2.75629925727844,1.91905999183655,2.63298678398132,-2.48895081463434,1.8948903781363,2.68363620960993,1252.534,1248.701,3027.547,3018.634,-0.01898248,0.05169484,0.01919353,-0.793901562690735,-0.328739076852798,0.548951089382172,-0.80133641229185,-0.344792671461508,0.496065412155666,0
3.48001098632813,-2.77195262908936,1.91258406639099,2.64383554458618,-2.50487694859767,1.88803780761656,2.69349524520019,1241.703,1246.269,3024.18,3022.937,-0.01740109,0.05212113,0.01770762,-0.782657861709595,-0.323779195547104,0.542435765266418,-0.789697369743255,-0.339784716610052,0.488860290373601,0
3.5,-2.78737783432007,1.9062088727951,2.65454959869385,-2.5205447997813,1.88129636896134,2.70319439144611,1251.277,1243.824,3017.322,3010.843,-0.01578296,0.05255665,0.016172,-0.771264493465424,-0.318770229816437,0.535697221755981,-0.777924000354857,-0.334718964672089,0.481572013878822,0
3.51998901367188,-2.80257225036621,1.89993453025818,2.66512942314148,-2.53597583877076,1.87465682397749,2.71274693966292,1247.778,1243.389,3015.574,3005.428,-0.01420211,0.05297773,0.01466404,-0.759719550609589,-0.313714027404785,0.528995454311371,-0.766004036374581,-0.329590137176618,0.474192988348404,0
3.54000854492188,-2.81753253936768,1.8937623500824,2.67557096481323,-2.55119019794619,1.86811051026429,2.72216535275294,1240.483,1241.208,3011.225,3007.291,-0.0126399,0.05338512,0.01318783,-0.748029232025146,-0.30861496925354,0.522081196308136,-0.753924423002452,-0.324392617007921,0.466715132239272,0
3.55999755859375,-2.83225679397583,1.88769268989563,2.68587040901184,-2.56613872308604,1.86167857751006,2.73141920191151,1249.524,1238.926,3004.044,2996.334,-0.01106224,0.05379682,0.01167769,-0.73620480298996,-0.303474307060242,0.514970183372498,-0.741727567798258,-0.319144650954242,0.459164697851087,0
3.57998657226563,-2.84674143791199,1.88172686100006,2.6960289478302,-2.58084213759183,1.85535210901407,2.74052131591136,1244.603,1238.489,3002.832,2992.103,-0.009537312,0.05418964,0.01020502,-0.724246799945831,-0.298295617103577,0.5079265832901,-0.72940084364523,-0.31384080592,0.451533868397061,0
3.60000610351563,-2.86098504066467,1.87586510181427,2.70604252815247,-2.59531978247425,1.84912278287974,2.74948366775945,1235.921,1236.336,2998.818,2995.142,-0.008033159,0.05456793,0.00876699,-0.712164878845215,-0.293085098266602,0.500677168369293,-0.716930938559024,-0.308475354130224,0.443814403124743,0
3.6199951171875,-2.87498426437378,1.87010836601257,2.71590733528137,-2.60952509409627,1.84301063413925,2.75827743234631,1244.81,1234.102,2992.214,2983.888,-0.006502374,0.05495121,0.007292368,-0.699970304965973,-0.287844181060791,0.493244349956512,-0.704361775018033,-0.303067194200314,0.436033492140578,0
3.6400146484375,-2.88873767852783,1.86445689201355,2.72562456130981,-2.62349913748426,1.83699799365897,2.76692803087948,1241.028,1233.922,2990.302,2979.214,-0.005017396,0.05531793,0.00585235,-0.687660336494446,-0.282573640346527,0.485861957073212,-0.691660998977508,-0.297602405088683,0.428171106749629,0
3.66000366210938,-2.90224266052246,1.85891127586365,2.73518967628479,-2.63719712493647,1.83110413233575,2.77540773763803,1237.261,1231.968,2984.417,2979.588,-0.00356544,0.05567244,0.004438525,-0.675244808197021,-0.277278751134872,0.478255301713943,-0.678873453515702,-0.29210028151913,0.420255006953505,0
3.67999267578125,-2.91549706459045,1.85347199440002,2.74460291862488,-2.65063849381582,1.82532068681534,2.78372858527554,1237.233,1230.351,2983.195,2971.758,-0.002111887,0.05601959,0.003031303,-0.662735104560852,-0.271964341402054,0.470659762620926,-0.665986083416798,-0.286555206197011,0.41227711095171,0
3.70001220703125,-2.9284999370575,1.84813904762268,2.75386071205139,-2.66384123964357,1.81963991412768,2.79190171387692,1232.367,1229.118,2978.179,2971.863,-0.0006711166,0.05635495,0.001654269,-0.650133848190308,-0.266630291938782,0.462892919778824,-0.65298533214413,-0.280961346123326,0.404229026602262,0
3.72000122070313,-2.94124889373779,1.8429137468338,2.76296019554138,-2.6767633032417,1.81407991116207,2.79990108680742,1240.074,1227.177,2971.737,2962.144,0.0007742741,0.0566904,0.0002605945,-0.637449860572815,-0.261277228593826,0.454979538917542,-0.639917282339434,-0.275338529371411,0.396139281255611,0
3.739990234375,-2.95374250411987,1.83779549598694,2.77190279960632,-2.68942333385363,1.80863265367006,2.80773824883709,1235.92,1226.913,2969.824,2958.597,0.002160596,0.05700787,-0.001090831,-0.624682664871216,-0.255906730890274,0.447128176689148,-0.62676873176137,-0.26968107538565,0.387999702095468,0
3.760009765625,-2.96597909927368,1.83278512954712,2.78068542480469,-2.70183851231475,1.80329074921818,2.81542383572149,1228.42,1225.13,2966.439,2960.622,0.003515912,0.05731016,-0.002402171,-0.611845970153809,-0.250526010990143,0.439136832952499,-0.613526094901139,-0.263983138701136,0.379801879044709,0
3.77999877929688,-2.97795820236206,1.82788240909576,2.7893054485321,-2.7139695770734,1.79807109095524,2.82293354268985,1234.864,1223.111,2960.974,2951.48,0.004883771,0.05761304,-0.003730023,-0.598950862884521,-0.245137631893158,0.431005567312241,-0.60023651686137,-0.258265004538452,0.371574997167698,0
3.79998779296875,-2.98967814445496,1.82308769226074,2.79776382446289,-2.72583438304408,1.79296599641037,2.83027842278479,1231.837,1222.974,2959.024,2947.018,0.006209519,0.05790068,-0.005018993,-0.585994899272919,-0.239741086959839,0.422924757003784,-0.586886736182787,-0.252520966862155,0.36331084698941,0
3.82000732421875,-3.00113821029663,1.81840062141418,2.80605792999268,-2.73744929742843,1.78796842323393,2.8374686080838,1226.109,1221.322,2955.014,2948.288,0.007508173,0.05817507,-0.006267483,-0.572990357875824,-0.234341114759445,0.414700001478195,-0.573463232144022,-0.246745208083563,0.355001058539243,0
3.83999633789063,-3.01233720779419,1.81382203102112,2.81418538093567,-2.74877791451009,1.78309403578861,2.84448156171422,1232.91,1219.389,2949.802,2939.088,0.008810569,0.05844797,-0.007524495,-0.559947311878204,-0.228939667344093,0.406369388103485,-0.560014026276881,-0.240958390526246,0.346675359432959,0
3.86001586914063,-3.02327442169189,1.80935120582581,2.82214736938477,-2.7598539723994,1.77832831750807,2.85133816917351,1229.262,1219.254,2947.667,2935.964,0.01005804,0.05870423,-0.008735701,-0.546864211559296,-0.223536401987076,0.398094087839127,-0.546505271550556,-0.235145950758426,0.338312796746137,0
3.8800048828125,-3.03394961357117,1.80498862266541,2.82994103431702,-2.77064299647982,1.77368610185671,2.85801708903178,1226.146,1217.525,2943.086,2935.898,0.01126761,0.05894789,-0.009911753,-0.533755958080292,-0.218137681484222,0.389678746461868,-0.532985466132484,-0.229328756186666,0.329943393154704,0
3.89999389648438,-3.04436230659485,1.80073380470276,2.83756685256958,-2.78116151864576,1.76916027562219,2.86452855531919,1225.973,1216.275,2941.595,2929.808,0.01246632,0.05918319,-0.01106916,-0.520630240440369,-0.212746396660805,0.381290674209595,-0.519441457145543,-0.223501147495394,0.321559006401168,0
3.92001342773438,-3.05451226234436,1.79658627510071,2.84502291679382,-2.79142456801014,1.76474437219711,2.87088187177258,1222.524,1215.306,2937.406,2929.304,0.01364226,0.05940728,-0.01219089,-0.507493555545807,-0.2073635160923,0.372802197933197,-0.505860052376089,-0.217657448443621,0.313151469876846,0
