t,x_s1,x_s2,x_s3,x_s_d1,x_s_d2,x_s_d3,propellers_rpms1,propellers_rpms2,propellers_rpms3,propellers_rpms4,rollRad,pitchRad,yawRad,v_s1,v_s2,v_s3,v_s_d1,v_s_d2,v_s_d3,insideCount
0,0,0,1,0,0,1.6,0,0,0,0,0,45.0048027038574,0,0,0,0,0.4,1.25663706143592,0,0
0.01999999,-6.93889390390723E-17,-1.75416334236012E-10,1,0.00799999684095383,0.0251161979068727,1.5988160379917,0,0,0,0,-4.71187853179345E-08,45.0048027038574,4.57171331902373E-08,-3.68531795724258E-15,-8.77082051431444E-09,8.78962147510265E-09,0.4,1.25415737720432,-0.118357294245508,0
0.03999998,-1.38777878078145E-16,-3.50832668472023E-10,0.996075987815857,0.0159999936819077,0.0501332737333634,1.59526882452027,0,0,0,0,-9.42375706358689E-08,45.0048027038574,9.14342663804746E-08,-3.68531838075906E-15,-8.77082051431444E-09,-0.1961999386549,0.4,1.24672811068261,-0.236247486691711,0
0.05999998,-2.22044604925031E-16,-5.26249044341398E-10,0.988227963447571,0.0239999920129776,0.0749525011867666,1.58937235748986,6340.529,0,5347.148,0,-1.41356366611944E-07,45.0048027038574,1.37151431545135E-07,-3.68531880427553E-15,-8.77082051431444E-09,-0.392399907112122,0.4,1.2343785790127,-0.353205340644789,0
0.07999997,-3.47179285320465E-10,-1.28956045841733E-09,0.98184198141098,0.0319999873638153,0.0994759164153741,1.58114991148582,4743.725,0,7399.144,0,359.562774658203,44.2263221740723,0.00297060515731573,-1.73589569385513E-08,-3.81655738124209E-08,-0.319298624992371,0.4,1.21715752837213,-0.468769212329477,0
0.09999996,-2.9992565032444E-05,-3.04011628031731E-05,0.977127611637115,0.0399999856948853,0.123606755008696,1.57063393060832,0,0,11777.9,0,0.294432878494263,42.6391258239746,0.0010332465171814,-0.00149961130227894,-0.00151999422814697,-0.235717207193375,0.4,1.19513290952543,-0.58248311020409,0
0.12,-4.11595246987417E-05,-4.02124314859975E-05,0.973916828632355,0.0479999840259552,0.147249774414021,1.55786591924386,1662.264,0,8588.851,0,6.20855045318604,40.2582626342773,359.875244140625,-0.00055834831437096,-0.000490563339553773,-0.160540595650673,0.4,1.16839164905641,-0.693898214312764,0
0.14,0.000285679998341948,0.000333210540702567,0.971478343009949,0.0559999823570251,0.170311666474142,1.54289626687914,4947.597,0,3917.035,1079.592,15.1573610305786,37.1001930236816,359.459136962891,0.016341982409358,0.0186711549758911,-0.121925711631775,0.4,1.13703928245921,-0.802574820323699,0
0.1599999,0.00136976409703493,0.00163616705685854,0.969538807868958,0.0639999747276306,0.192701400065884,1.52578406539991,9409.981,0,567.4837,0,22.2311878204346,33.6819648742676,358.359649658203,0.0542042255401611,0.0651478543877602,-0.0969771146774292,0.4,1.10119957148996,-0.908083954175174,0
0.1799999,0.00352772092446685,0.0043131010606885,0.967929661273956,0.0719999730587006,0.21433064652887,1.50659682332863,8871.956,0,832.3728,0,25.3137874603271,29.4205341339111,356.893981933594,0.107897862792015,0.133846744894981,-0.0804581493139267,0.4,1.06101390566744,-1.01000937686137,0
0.1999999,0.00683462852612138,0.00853409990668297,0.966433167457581,0.0799999713897705,0.235114028201171,1.48541027587165,6505.392,0,2569.413,0,24.7017421722412,24.5830898284912,355.241882324219,0.165345430374146,0.211049944162369,-0.0748233273625374,0.4,1.01664090443692,-1.10794875562905,0
0.2199999,0.0111815053969622,0.0141945090144873,0.964798867702484,0.0879999697208405,0.254969522604562,1.46230803661769,4044.442,0,4236.82,0,22.1573486328125,19.35813331604,353.540893554688,0.217343851923943,0.28302064538002,-0.0817143395543098,0.4,0.968255687689105,-1.20151556865568,0
0.2399999,0.0164074748754501,0.0210619289427996,0.9627525806427,0.0959999680519104,0.273818769206429,1.43738127951265,2704.189,0,4774.115,0,19.4617576599121,13.7194967269897,351.794921875,0.261298626661301,0.343371152877808,-0.102314814925194,0.4,0.916049209689762,-1.29034055063087,0
0.2599999,0.0223807767033577,0.0289167277514935,0.959998369216919,0.103999960422516,0.291587365854473,1.41072839951312,2917.227,0,3867.957,0,17.4087409973145,7.58622646331787,349.984375,0.298665225505829,0.392740070819855,-0.13771191239357,0.4,0.86022754835408,-1.37407308967202,0
0.2799999,0.0290147475898266,0.0376129150390625,0.956258237361908,0.11199996471405,0.308205226449254,1.382454521971,4176.113,0,2070.546,0,15.4897985458374,1.04617202281952,348.184173583984,0.331698536872864,0.434809386730194,-0.187005937099457,0.4,0.801010877704203,-1.45238291281643,0
0.2999999,0.0362518057227135,0.0470507070422173,0.951309442520142,0.119999957084656,0.323606718503266,1.35267131498604,5314.816,0,505.1503,0,12.3854875564575,354.436462402344,346.591552734375,0.361853092908859,0.471889942884445,-0.24744063615799,0.4,0.738633074861332,-1.52496073425324,0
0.3199999,0.0440536178648472,0.0571057423949242,0.944984793663025,0.127999949455261,0.337731085116318,1.32149627809486,4780.303,973.6236,0,0,6.97640085220337,348.146667480469,345.403411865234,0.390090852975845,0.502751767635345,-0.316231250762939,0.4,0.673340230279517,-1.5915202438355,0
0.3399999,0.0524453967809677,0.0676030591130257,0.937283158302307,0.135999953746796,0.350522602014509,1.28905239546352,1826.883,3751.602,0,0,359.532257080078,342.454040527344,345.054931640625,0.419588983058929,0.524865686893463,-0.38508129119873,0.4,0.605389921393822,-1.65179884710894,0
0.3599999,0.0614754110574722,0.07828089594841,0.928141236305237,0.143999946117401,0.361930748911659,1.25546780468887,0,4258.969,865.9097,0,352.456329345703,337.835693359375,346.473449707031,0.451500982046127,0.533892333507538,-0.457096874713898,0.4,0.535050518959519,-1.70555847283368,0
0.3799999,0.0711307153105736,0.0888879597187042,0.917351603507996,0.151999950408936,0.371910537003336,1.22087494889248,0,2503.833,2571.998,0,346.316986083984,333.303466796875,349.754028320313,0.482765853404999,0.530353546142578,-0.539481282234192,0.4,0.462599411201747,-1.75258711626347,0
0.3999999,0.0814023613929749,0.0991955026984215,0.904874444007874,0.159999942779541,0.380422550968086,1.18541045307264,0,1753.206,4347.656,0,341.466003417969,328.087585449219,354.388305664063,0.513582348823547,0.515377461910248,-0.623858034610748,0.4,0.388322744847844,-1.79269903707184,2
0.4199998,0.0923775285482407,0.108893424272537,0.891126155853271,0.167999935150146,0.387433213785358,1.14921422829571,0,0,5091.17,0,338.788360595703,322.039459228516,0.11362724006176,0.548758268356323,0.484895765781403,-0.687414646148682,0.4,0.312513548949923,-1.82573600727715,3
0.4399998,0.103871166706085,0.117919191718102,0.875641047954559,0.175999939441681,0.392914864642216,1.11242906907101,0,0,4623.29,611.5154,338.718414306641,315.425048828125,6.01930952072144,0.574682652950287,0.451288670301437,-0.774254322052002,0.4,0.235470891628956,-1.85156767836932,4
0.4599998,0.115795753896236,0.12614718079567,0.858467400074005,0.183999931812286,0.396845853677097,1.07520025893184,347.8625,0,1863.763,3222.247,341.072845458984,308.893951416016,11.4839344024658,0.596228837966919,0.411398738622665,-0.858681499958038,0.4,0.157499054005551,-1.87009202777931,5
0.4799998,0.1280267983675,0.133487328886986,0.839691042900085,0.191999936103821,0.399210678766955,1.03767461222707,1099.243,0,602.2081,4141.735,344.318420410156,302.863311767578,15.2220687866211,0.611553370952606,0.367008566856384,-0.938817620277405,0.4,0.0789055233329482,-1.88123600347329,5
0.4999998,0.140464127063751,0.139852553606033,0.819492220878601,0.199999928474426,0.399999999999937,1.00000033705633,1737.52,721.6555,0,3849.42,347.443603515625,297.151153564453,16.9215812683105,0.62186586856842,0.318261563777924,-1.00994110107422,0.4,7.05929117469789E-07,-1.88495559215358,5
0.5199998,0.153053313493729,0.145188927650452,0.798084199428558,0.207999920845032,0.399210706985517,0.962326060555371,1738.073,1844.936,312.2254,2893.976,349.851776123047,291.503570556641,17.1061191558838,0.629460334777832,0.266818553209305,-1.07040131092072,0.4,-0.078904114260688,-1.88123613645013,5
0.5399998,0.165795385837555,0.149475932121277,0.77569568157196,0.215999913215637,0.396845914696692,0.924800465598325,1437.627,2698.57,1221.352,1905.353,351.655395507813,285.895538330078,16.6783771514893,0.637103497982025,0.214351236820221,-1.11942732334137,0.4,-0.157497536553117,-1.87009231532737,5
0.5599998,0.178721889853477,0.152711689472198,0.752555370330811,0.223999929428101,0.392914941835382,0.887571537920232,1140.684,2990.165,2086.935,1499.042,353.380981445313,280.4248046875,16.4086074829102,0.646324455738068,0.161787092685699,-1.15701675415039,0.4,-0.235469620349465,-1.85156804213354,4
0.5799998,0.191853314638138,0.154888287186623,0.728879630565643,0.231999921798706,0.387433325548668,0.850786424638457,1104.943,2817.439,2376.934,1853.342,355.538116455078,275.191497802734,16.5761241912842,0.656571865081787,0.108830653131008,-1.18378841876984,0.4,-0.312512181447793,-1.82573653394934,4
0.5999998,0.205166757106781,0.155972123146057,0.70486980676651,0.239999914169312,0.380422689842881,0.814590188046611,1396.284,2507.4,1992.308,2686.388,358.254150390625,270.229370117188,16.9569644927979,0.665671765804291,0.0541916973888874,-1.20049154758453,0.4,-0.38832140209082,-1.7926996915039,3
0.6199998,0.218590840697289,0.155902028083801,0.680717289447784,0.247999906539917,0.371910702441543,0.779125677881659,1853.231,2382.222,1264.227,3511.099,1.20129716396332,265.476440429688,17.0893955230713,0.67120361328125,-0.00350556522607803,-1.20762598514557,0.4,-0.46259809848907,-1.75258789587265,3
0.6399997,0.232028186321259,0.154608905315399,0.656608998775482,0.255999898910522,0.361930956206116,0.74453285609616,2229.48,2559.511,712.3537,3928.036,3.82524442672729,260.809783935547,16.6005592346191,0.671867966651917,-0.0646559745073318,-1.20541501045227,0.4,-0.53504913501458,-1.70555944968579,3
0.6599998,0.245389550924301,0.152045905590057,0.632731676101685,0.263999915122986,0.350522800476605,0.71094814603849,2376.918,2922.355,716.5352,3811.997,5.68945360183716,256.140899658203,15.4138126373291,0.66806960105896,-0.128150254487991,-1.19386768341064,0.4,-0.605388787274659,-1.65179978233953,2
0.6799998,0.258619040250778,0.148210510611534,0.609274864196777,0.271999907493591,0.337731325921336,0.678504291077335,2311.71,3256.368,1296.324,3337.521,6.71259260177612,251.477798461914,13.7595348358154,0.661474823951721,-0.191769078373909,-1.17284095287323,0.4,-0.673339038208058,-1.59152137860241,2
0.6999997,0.271697670221329,0.143145322799683,0.586429178714752,0.279999899864197,0.323606982658834,0.647329230382639,2168.677,3410.931,2130.448,2840.587,7.17742347717285,246.887969970703,12.0096139907837,0.653930068016052,-0.253261268138885,-1.14228463172913,0.4,-0.73863193264384,-1.52496197905703,1
0.7199997,0.284626871347427,0.136916369199753,0.564377844333649,0.287999892234802,0.308205512912872,0.617545997441842,2119.349,3367.33,2790.359,2596.766,7.52909708023071,242.419982910156,10.4571676254272,0.646461248397827,-0.311446726322174,-1.10256636142731,0.4,-0.80100978984848,-1.45238426274443,1
0.7399997,0.297404885292053,0.129582360386848,0.543287754058838,0.295999884605408,0.291587699132381,0.589272132844581,2279.956,3211.03,3011.532,2672.496,8.09893703460693,238.069122314453,9.18800449371338,0.638899922370911,-0.366700977087021,-1.05450356006622,0.4,-0.860226433386712,-1.37407466020716,0
0.7599998,0.310009956359863,0.121171645820141,0.523306667804718,0.303999900817871,0.273819069510616,0.562619143494178,2638.172,3061.838,2821.022,2938.858,8.92541313171387,233.793167114258,8.09887218475342,0.630253374576569,-0.420534253120422,-0.999053597450256,0.4,-0.916048323746334,-1.29034196578102,0
0.7799997,0.322399944067001,0.111681468784809,0.504566669464111,0.311999893188477,0.254969854451498,0.537692375174052,3053.12,3007.43,2470.505,3198.34,9.76857662200928,229.542205810547,7.01375865936279,0.619501113891602,-0.474508881568909,-0.936999917030334,0.4,-0.968254825234496,-1.20151713244753,0
0.7999997,0.334525674581528,0.101098455488682,0.487189710140228,0.319999885559082,0.235114391780143,0.514590120362007,3344.393,3065.183,2256.946,3312.279,10.2866735458374,225.285232543945,5.81017971038818,0.606285750865936,-0.529151141643524,-0.868848979473114,0.4,-1.01664007456708,-1.10795046895459,0
0.8199997,0.346347659826279,0.0894283503293991,0.47129225730896,0.327999877929688,0.214331041787204,0.493403552929527,3405.652,3188.484,2348.741,3260.724,10.2525253295898,221.025131225586,4.48501920700073,0.591099679470062,-0.583506464958191,-0.79487133026123,0.4,-1.06101311763419,-1.01001123947239,0
0.8399997,0.35784637928009,0.0767167061567307,0.456987917423248,0.335999870300293,0.192701826703702,0.474216286419618,3259.687,3311.158,2706.515,3125.676,9.67967700958252,216.788421630859,3.13556218147278,0.574937999248505,-0.635581254959106,-0.715219378471375,0.4,-1.10119883464086,-0.908085964658524,0
0.8599997,0.369020879268646,0.0630493685603142,0.444385409355164,0.343999886512756,0.170312039224576,0.457103996225682,3035.129,3389.949,3134.342,3018.734,8.79629039764404,212.597442626953,1.88552284240723,0.55872368812561,-0.683367311954498,-0.630125641822815,0.4,-1.13703873141377,-0.802576576868735,0
0.8799997,0.379878759384155,0.0485329404473305,0.433583974838257,0.351999878883362,0.147250174852959,0.442134318573915,2890.291,3418.419,3417.316,3004.24,7.89932727813721,208.453430175781,0.815220296382904,0.542893826961517,-0.725822746753693,-0.540070235729218,0.4,-1.16839115097203,-0.6939001013368,0
0.8999997,0.39042592048645,0.0332678928971291,0.424668788909912,0.359999871253967,0.123607182421454,0.429366277704238,2925.037,3415.661,3450.526,3070.365,7.1864185333252,204.343048095703,359.937438964844,0.527358412742615,-0.763250350952148,-0.445758938789368,0.4,-1.19513247323664,-0.582485124339258,0
0.9199997,0.400661587715149,0.0173300430178642,0.417710065841675,0.367999863624573,0.0994763698418192,0.418850263144721,3126.175,3407.733,3281.84,3158.749,6.66382503509521,200.254318237305,359.219146728516,0.511782169342041,-0.796893835067749,-0.347937166690826,0.4,-1.21715716262679,-0.468771349051261,0
0.9399996,0.410580575466156,0.000769488513469696,0.412765383720398,0.375999855995178,0.0749529702254048,0.410627776721386,3378.853,3413.893,3058.125,3218.278,6.17375802993774,196.185287475586,358.622375488281,0.495951443910599,-0.82802677154541,-0.247232884168625,0.4,-1.23437829792132,-0.353207550937299,0
0.9599997,0.420180052518845,-0.0163725167512894,0.409882783889771,0.383999872207642,0.0501336917315078,0.404731254688201,3541.279,3437.698,2928.807,3235.739,5.51107120513916,192.14241027832,358.133239746094,0.479974061250687,-0.857101142406464,-0.144133478403091,0.4,-1.24672794478877,-0.236249456461561,0
0.9799997,0.429464340209961,-0.0340414047241211,0.409101843833923,0.391999864578247,0.0251166324121866,0.401184003013772,3530.648,3468.849,2964.744,3231.784,4.5527982711792,188.133255004883,357.764862060547,0.464215040206909,-0.883445024490356,-0.0390471667051315,0.4,-1.25415729132265,-0.118359341803561,0
0.9999996,0.438445627689362,-0.0521542504429817,0.410454154014587,0.399999856948853,4.49408434071194E-07,0.400000000000379,3365.367,3494.646,3131.15,3235.672,3.32615041732788,184.159057617188,357.538696289063,0.449064046144485,-0.905641734600067,0.0676186680793762,0.4,-1.25663706143512,-2.11778735240903E-06,0
1.02,0.447140216827393,-0.0706004425883293,0.413962006568909,0.407999849319458,-0.0251157353689251,0.401183918358086,3145.205,3509.588,3322.802,3259.387,1.98462498188019,180.213394165039,357.464416503906,0.434729248285294,-0.922312140464783,0.17539045214653,0.4,-1.25415746862511,0.11835511458678,0
1.04,0.455564141273499,-0.0892567336559296,0.419636130332947,0.415999841690063,-0.0501328000020659,0.404731085710925,2987.329,3517.415,3432.088,3290.668,0.717023253440857,176.287704467773,357.533630371094,0.421196907758713,-0.932814061641693,0.283708691596985,0.4,-1.24672829869395,0.236245254285565,0
1.06,0.463731229305267,-0.108006097376347,0.427475810050964,0.423999834060669,-0.0749520137543432,0.410627503036594,2959.911,3524.765,3408.991,3305.957,359.647979736328,172.378173828125,357.729766845703,0.408355474472046,-0.937465786933899,0.391983538866043,0.4,-1.23437887112541,0.353203043673608,0
1.08,0.47165459394455,-0.126750320196152,0.437469363212585,0.431999826431274,-0.0994754267146602,0.418849899914096,3048.302,3534.567,3279.126,3292.533,358.785797119141,168.487274169922,358.043853759766,0.396166563034058,-0.937213182449341,0.499677836894989,0.4,-1.21715792337523,0.46876690466923,0
1.1,0.479349553585052,-0.14541007578373,0.449596047401428,0.439999866485596,-0.123606398831279,0.429365895798441,3172.346,3542.06,3118.679,3259.439,358.040222167969,164.620162963867,358.482940673828,0.384747445583344,-0.932988226413727,0.606332898139954,0.4,-1.19513327309827,0.582481431757556,0
1.12,0.48683574795723,-0.163913294672966,0.463826477527618,0.447999858856201,-0.147249408795711,0.442133863618739,3240.643,3535.496,3008.22,3228.791,357.291625976563,160.779602050781,359.064056396484,0.374311685562134,-0.9251629114151,0.711521744728088,0.4,-1.16839210382793,0.693896491377071,0
1.14,0.494136273860931,-0.182181298732758,0.480122208595276,0.455999851226807,-0.170311293723528,0.457103470016624,3204.406,3503.262,2990.877,3217.621,356.466613769531,156.963684082031,359.798034667969,0.365023285150528,-0.913398563861847,0.814788997173309,0.4,-1.13703983350344,0.802573063777812,0
1.16,0.50127387046814,-0.200119882822037,0.498434782028198,0.463999843597412,-0.192701039064431,0.474215636907249,3080.985,3441.724,3056.511,3222.85,355.578369140625,153.167465209961,0.675085783004761,0.35688054561615,-0.896930336952209,0.915628969669342,0.4,-1.10120019497638,0.908082252995903,0
1.18,0.508268177509308,-0.217621266841888,0.518705010414124,0.471999835968018,-0.214330282890943,0.493402830514472,2933.446,3361.594,3152.204,3224.455,354.714141845703,149.387054443359,1.66289496421814,0.349717408418655,-0.875070095062256,1.01350915431976,0.4,-1.06101463065674,1.01000766325801,0
1.2,0.515134513378143,-0.234573557972908,0.540863394737244,0.479999828338623,-0.235113664621903,0.514589327895303,2829.513,3282.302,3215.374,3198.708,353.983917236328,145.622787475586,2.71952652931213,0.34331750869751,-0.847616016864777,1.10791969299316,0.4,-1.01664173430547,1.10794704230212,0
1.22,0.521885752677917,-0.250872492790222,0.564831852912903,0.487999820709229,-0.254969161901035,0.537691515783197,2802.66,3221.073,3206.968,3134.85,353.463317871094,141.878173828125,3.81328535079956,0.337559074163437,-0.814946293830872,1.19842195510864,0.4,-0.968256625138495,1.20151386888036,0
1.24,0.528535485267639,-0.266428291797638,0.590525090694427,0.495999813079834,-0.273818414301105,0.562618220570788,2838.286,3181.858,3128.551,3042.839,353.162170410156,138.155502319336,4.9369683265686,0.332486987113953,-0.777788460254669,1.28466355800629,0.4,-0.916050256712562,1.29033887817894,0
1.26,0.535100758075714,-0.281165063381195,0.617851912975311,0.503999805450439,-0.291587032576134,0.589271068129782,2889.198,3151.541,3016.948,2946.761,353.032165527344,134.452575683594,6.10704326629639,0.328267604112625,-0.736838221549988,1.36634159088135,0.4,-0.860228663320174,1.37407151913485,0
1.279999,0.5416020154953,-0.295014441013336,0.646714687347412,0.511999797821045,-0.308204892241207,0.617544872047951,2907.557,3106.113,2921.877,2869.08,353.004241943359,130.76286315918,7.3477988243103,0.325058966875076,-0.692466974258423,1.44314074516296,0.4,-0.801012146867935,1.45238133789812,0
1.3,0.548059701919556,-0.307907730340958,0.67700856924057,0.519999837875366,-0.323606498373314,0.647328230540399,2872.018,3024.672,2879.358,2816.451,353.030853271484,127.079345703125,8.67002296447754,0.322886139154434,-0.644666731357574,1.51469480991364,0.4,-0.73863402670853,1.52495969691528,0
1.32,0.554491758346558,-0.319772243499756,0.708620548248291,0.527999830245972,-0.337730884445143,0.678503247595286,2794.888,2902.682,2894.573,2776.619,353.110809326172,123.398368835449,10.0573635101318,0.321601778268814,-0.593226313591003,1.58059978485107,0.4,-0.67334122367175,1.59151929819487,0
1.34,0.560910820960999,-0.330532312393188,0.74142986536026,0.535999822616577,-0.350522403552042,0.710947063034772,2708.2,2756.829,2940.74,2728.47,353.285278320313,119.721633911133,11.4684772491455,0.320953667163849,-0.538004517555237,1.640465259552,0.4,-0.605391055512343,1.6517979118766,0
1.36,0.567325115203857,-0.340114951133728,0.775309205055237,0.543999814987183,-0.361930573508238,0.744531636185624,2642.627,2615.542,2977.016,2654.586,353.612182617188,116.054473876953,12.8533706665039,0.3207126557827,-0.479130506515503,1.69396770000458,0.4,-0.535051689989233,1.70555764626453,0
1.38,0.573740601539612,-0.348455518484116,0.810126781463623,0.551999807357788,-0.371910371564659,0.779124424333669,2608.901,2504.583,2969.002,2553.727,354.135009765625,112.401504516602,14.1743211746216,0.320778369903564,-0.417030572891235,1.74087798595428,0.4,-0.462600723913841,1.75258633665208,0
1.399999,0.580164670944214,-0.355501443147659,0.845747709274292,0.559999799728394,-0.38042241209281,0.81458890580834,2595.921,2431.775,2906.464,2440.272,354.864013671875,108.762344360352,15.4189233779907,0.321200519800186,-0.352294266223907,1.7810469865799,0.4,-0.388324087604377,1.79269838263752,0
1.419999,0.586606860160828,-0.361211061477661,0.88203489780426,0.567999792098999,-0.387433102021559,0.850785118770303,2580.915,2383.281,2805.237,2335.781,355.776550292969,105.131034851074,16.5979557037354,0.322109997272491,-0.285481214523315,1.81436026096344,0.4,-0.312514916451659,1.82573548060265,0
1.439999,0.593078970909119,-0.365550756454468,0.918848693370819,0.575999784469605,-0.392914773413393,0.887570213575851,2544.347,2332.055,2696.272,2256.585,356.833770751953,101.499092102051,17.7298545837402,0.323607712984085,-0.216986089944839,1.84069156646729,0.4,-0.235472394049851,1.85156724846362,0
1.459999,0.599592626094818,-0.368491291999817,0.956046402454376,0.58399977684021,-0.396845792656915,0.924799016538102,2479.872,2254.611,2606.906,2205.891,358.001861572266,97.8599090576172,18.8212909698486,0.325681149959564,-0.147025227546692,1.85988569259644,0.4,-0.157500571457752,1.87009174022847,0
1.479999,0.606156468391418,-0.37000584602356,0.993481993675232,0.591999769210815,-0.399210645844662,0.962324602860132,2394.293,2145.35,2546.387,2174.045,359.265960693359,94.2115478515625,19.8551750183105,0.328194618225098,-0.0757286474108696,1.87177979946136,0.4,-0.0789071672504591,1.88123584833064,0
1.5,0.612775564193726,-0.370071232318878,1.03100693225861,0.599999809265137,-0.399999999999551,0.999999101183132,2299.844,2020.264,2502.215,2146.17,0.630997598171234,90.5565795898438,20.7923946380615,0.330952614545822,-0.00326716899871826,1.87624537944794,0.4,-1.88247764623911E-06,1.88495559215176,0
1.52,0.619451403617859,-0.368669927120209,1.06847131252289,0.607999801635742,-0.399210730500601,1.03767337879255,2205.45,1908.244,2448.183,2111.513,2.11101722717285,86.8994293212891,21.58544921875,0.33379265666008,0.0700649246573448,1.8732225894928,0.4,0.0789029400337284,1.88123624726235,0
1.539999,0.626184403896332,-0.365792959928513,1.10572588443756,0.615999794006348,-0.396845961634441,1.0751989770707,2111.73,1834.976,2358.939,2069.988,3.71415448188782,83.2429962158203,22.195951461792,0.336651265621185,0.14384913444519,1.86272883415222,0.4,0.157496369281855,1.87009253651631,0
1.559999,0.63297575712204,-0.361440747976303,1.14262270927429,0.623999786376953,-0.392915026045632,1.11242779990736,2014.272,1808.397,2223.728,2029.698,5.43152666091919,79.5870895385742,22.6060619354248,0.339567959308624,0.217610329389572,1.84483957290649,0.4,0.235468233498827,1.851568438965,0
1.579999,0.639828324317932,-0.355622738599777,1.17901587486267,0.631999778747559,-0.387433437311489,1.14921292242718,1907.118,1816.399,2048.824,2003.285,7.23454332351685,75.928581237793,22.8186569213867,0.342632561922073,0.290901035070419,1.81965637207031,0.4,0.312510813945267,1.82573706061922,0
1.599999,0.646746635437012,-0.348355680704117,1.21476149559021,0.639999771118164,-0.380422828717196,1.1854091708339,1788.411,1834.222,1853.241,1999.17,9.08017635345459,72.264045715332,22.8469848632813,0.345911651849747,0.363354057073593,1.78728187084198,0.4,0.388320059333307,1.79270034593369,0
1.619999,0.653734564781189,-0.33966201543808,1.24971783161163,0.64799976348877,-0.37191086787928,1.22087369534393,1661.443,1838.855,1657.727,2017.153,10.9201927185059,68.5919876098633,22.7007637023926,0.349398225545883,0.434680581092834,1.74781608581543,0.4,0.462596785775808,1.75258867547962,0
1.639999,0.660794794559479,-0.329569458961487,1.28374528884888,0.655999755859375,-0.361931147554369,1.25546653394809,1532.952,1820.136,1476.161,2047.641,12.7093057632446,64.9141006469727,22.3767032623291,0.353009790182114,0.504627346992493,1.70137357711792,0.4,0.53504785752624,1.70556035139319,0
1.659999,0.667927384376526,-0.318110913038254,1.31670737266541,0.663999748229981,-0.350523053064189,1.28905116477669,1410.378,1783.943,1311.189,2075.593,14.4091205596924,61.2347640991211,21.8583641052246,0.356629371643066,0.572926878929138,1.64810585975647,0.4,0.60538734384934,1.65180097263048,0
1.679999,0.675130605697632,-0.305325567722321,1.34847164154053,0.671999740600586,-0.337731606859985,1.32149504488792,1300.555,1744.284,1158.183,2085.754,15.9869766235352,57.5599708557129,21.1249713897705,0.360160827636719,0.639270067214966,1.58821535110474,0.4,0.673337647456948,1.59152270249461,0
1.699999,0.682401895523071,-0.291259288787842,1.37891066074371,0.679999780654907,-0.323607202788162,1.35267031514312,1209.67,1712.623,1011.292,2067.343,17.4118499755859,53.8960380554199,20.1637001037598,0.36356508731842,0.703313291072845,1.52195250988007,0.4,0.738630980795218,1.52496301639205,0
1.719999,0.689739048480988,-0.275965094566345,1.40790271759033,0.687999773025513,-0.308205751632257,1.38245356971375,1143.866,1688.96,869.5022,2016.302,18.6499099731445,50.2486801147461,18.9788970947266,0.366860628128052,0.764708399772644,1.4496009349823,0.4,0.801008883301272,1.45238538768303,0
1.739999,0.697140991687775,-0.259502410888672,1.43533194065094,0.695999765396118,-0.291587955499708,1.41072745764908,1108.212,1661.952,737.4556,1935.406,19.6619739532471,46.6225967407227,17.5935211181641,0.370092839002609,0.82313460111618,1.37146079540253,0.4,0.860225575718639,1.37407586830972,0
1.759999,0.704606950283051,-0.241936147212982,1.46108877658844,0.703999757766724,-0.273819397114853,1.4373803950433,1107.005,1613.587,625.6744,1829.089,20.4034214019775,43.0213356018066,16.0428676605225,0.373294532299042,0.87831437587738,1.28783941268921,0.4,0.916047357261486,1.29034350957961,0
1.779999,0.712136089801788,-0.223336011171341,1.48506987094879,0.711999750137329,-0.254970200726247,1.46230719512964,1140.77,1529.976,544.2168,1702.028,20.8267650604248,39.4471702575684,14.364673614502,0.376460701227188,0.930008888244629,1.19905304908752,0.4,0.968253925280663,1.20151876422884,0
1.799999,0.719727039337158,-0.203775942325592,1.50717854499817,0.719999742507935,-0.235114755358818,1.48540948340372,1207.28,1407.467,500.2234,1554.516,20.8850688934326,35.9010314941406,12.5908985137939,0.379548907279968,0.978000581264496,1.1054345369339,0.4,1.01663924469597,1.10795218227873,0
1.819999,0.7273770570755,-0.183334469795227,1.52732539176941,0.72799973487854,-0.214331421234929,1.50659608586199,1302.411,1253.868,496.446,1381.888,20.5351982116699,32.382495880127,10.7458467483521,0.382501155138016,1.02207577228546,1.00733995437622,0.4,1.06101236112091,1.01001302757767,0
1.839999,0.735082507133484,-0.162094116210938,1.5454283952713,0.735999727249146,-0.192702220522972,1.5257833888232,1420.953,1084.179,532.5245,1176.716,19.7399978637695,28.8893642425537,8.85120677947998,0.385271847248077,1.06201756000519,0.905149221420288,0.4,1.10119815447101,0.908087820488115,0
1.859999,0.742839455604553,-0.140141934156418,1.56141352653503,0.743999719619751,-0.170312513633957,1.54289566891281,1555.907,915.5867,605.201,934.3179,18.4698657989502,25.417013168335,6.93529033660889,0.387846231460571,1.09761011600494,0.799259781837463,0.4,1.13703803008147,0.802578812470277,0
1.879999,0.750644266605377,-0.117568865418434,1.57521510124207,0.751999711990357,-0.147250662343609,1.55786539190792,1694.853,764.2573,709.6531,658.2524,16.7041473388672,21.9572734832764,5.04196834564209,0.390241593122482,1.12865138053894,0.690077543258667,0.4,1.16839054460661,0.693902398582368,0
1.899999,0.758494138717651,-0.0944696217775345,1.58677530288696,0.759999752044678,-0.123607538598632,1.57063354870142,1815.064,646.3676,837.1709,366.4569,14.4345293045044,18.4972534179688,3.23574209213257,0.392494440078735,1.15496516227722,0.578009784221649,0.4,1.1951321096615,0.582486802784668,0
1.919999,0.766386985778809,-0.0709414333105087,1.59604454040527,0.767999744415283,-0.0994767325828772,1.58114959715028,1880.425,581.3689,973.1618,92.99076,11.6715831756592,15.0188045501709,1.60104870796204,0.39464196562767,1.1764087677002,0.463462024927139,0.4,1.21715687002932,0.468773058428225,0
1.939999,0.77432107925415,-0.0470839440822601,1.60298132896423,0.775999736785889,-0.0749533380987718,1.5893721180143,1755.287,660.3327,1005.157,0,8.45514869689941,11.4994325637817,0.236462593078613,0.396708130836487,1.19287419319153,0.346839249134064,0.4,1.23437807745626,0.3532092844997,0
1.959999,0.782295048236847,-0.0229980498552322,1.60755336284637,0.783999729156494,-0.0501341375961338,1.59526866082203,1505.491,821.4644,1016.381,0,4.86560297012329,7.93994045257568,359.227752685547,0.398699760437012,1.2042955160141,0.228601679205894,0.4,1.24672776783382,0.236251557549111,0
1.979999,0.790307700634003,0.00121438503265381,1.60973644256592,0.7919997215271,-0.0251170809337698,1.59881595465725,1216.036,991.06,1088.771,0,1.03399956226349,4.34072923660278,358.65185546875,0.400630593299866,1.21062290668488,0.109152503311634,0.4,1.25415720266905,0.118361455411727,0
1.999999,0.798358023166656,0.0254514217376709,1.60951364040375,0.799999713897705,-8.9881686814182E-07,1.59999999999849,921.2058,1139.223,1219.18,0,357.140289306641,0.681354165077209,358.584533691406,0.402515858411789,1.21185374259949,-0.0111392363905907,0.4,1.25663706143274,4.23557470481539E-06,0
2.019999,0.806444764137268,0.0496126860380173,1.60687589645386,0.807999706268311,0.0251152868472466,1.59881612396862,516.7972,1346.311,1226.724,209.1552,353.395751953125,356.925415039063,359.091644287109,0.404337584972382,1.20806288719177,-0.131889343261719,0.4,1.25415755727396,-0.118353000978166,0
2.039999,0.814564943313599,0.0736006498336792,1.60182404518127,0.815999698638916,0.0501323541372498,1.59526899877659,62.08813,1576.593,1077.675,637.8413,350.00732421875,353.075714111328,0.169548958539963,0.406009763479233,1.19939887523651,-0.252589672803879,0.4,1.24672847564418,-0.236243153197119,0
2.059999,0.822712957859039,0.0973218083381653,1.59437048435211,0.823999691009522,0.0749515723060109,1.58937262327829,0,1505.192,1043.952,898.8672,347.130310058594,349.190551757813,1.71478867530823,0.407399505376816,1.18605840206146,-0.372676730155945,0.4,1.23437913567867,-0.353200963397352,0
2.079999,0.830880582332611,0.120686575770378,1.58454132080078,0.831999683380127,0.0994749914250035,1.58115026772965,0,1422.489,967.3843,1179.734,344.789642333984,345.291717529297,3.56778931617737,0.40838149189949,1.16823875904083,-0.491459906101227,0.4,1.21715827448747,-0.468764853415048,0
2.099999,0.839058637619019,0.143608778715134,1.57237243652344,0.839999675750732,0.123605828947187,1.57063438194971,0,1393.478,892.8881,1430.613,342.955322265625,341.419342041016,5.54812622070313,0.408899188041687,1.14610767364502,-0.608445882797241,0.4,1.19513385481264,-0.582478746242039,0
2.119999,0.847238719463348,0.166004404425621,1.55790948867798,0.847999668121338,0.147248851662776,1.55786646725627,0,1416.941,878.4816,1592.746,341.589782714844,337.626098632813,7.50478839874268,0.409012138843536,1.11978530883789,-0.723146557807922,0.4,1.16839279681092,-0.693893865949965,0
2.139999,0.855416238307953,0.187792256474495,1.54120802879333,0.855999660491943,0.170310751540494,1.54289691267943,145.839,1376.709,1002.192,1559.049,340.675811767578,333.964996337891,9.34529399871826,0.408869683742523,1.08939146995544,-0.835070729255676,0.4,1.13704063502018,-0.802570508800458,0
2.159999,0.863588690757751,0.208893790841103,1.52233493328094,0.863999652862549,0.192700513971043,1.52578479609952,518.9897,1205.526,1258.535,1320.182,340.195434570313,330.450408935547,11.0473356246948,0.408626019954681,1.05507814884186,-0.94365394115448,0.4,1.10120110186364,-0.908079778551608,0
2.179999,0.87175589799881,0.229234278202057,1.5013689994812,0.871999645233154,0.214329776959501,1.50659765109414,933.3917,1033.324,1496.017,1078.743,340.100646972656,327.034820556641,12.6446495056152,0.408358544111252,1.01702487468719,-1.04829430580139,0.4,1.06101563933547,-1.01000527911226,0
2.199999,0.879916906356812,0.2487423568964,1.4783992767334,0.879999732971191,0.235113422235559,1.48541093625972,1278.143,915.4789,1659.24,942.8848,340.324584960938,323.654449462891,14.1799650192261,0.408050090074539,0.97540283203125,-1.14848637580872,0.4,1.01664228755045,-1.10794590008338,0
2.219999,0.888069331645966,0.26734846830368,1.4535231590271,0.887999725341797,0.254968931050595,1.4623087706799,1513.905,854.622,1763.108,932.0497,340.799682617188,320.257141113281,15.6709575653076,0.407624661922455,0.930306375026703,-1.24380719661713,0.4,0.968257225105407,-1.20151278102329,0
2.239999,0.896209716796875,0.284983456134796,1.42684483528137,0.895999717712402,0.273818195897628,1.43738208706985,1651.143,838.4181,1843.021,1010.64,341.476928710938,316.813720703125,17.0979843139648,0.407012224197388,0.88174968957901,-1.3339182138443,0.4,0.91605090103361,-1.2903378489768,0
2.259999,0.904333710670471,0.301577895879745,1.39847409725189,0.903999710083008,0.291586827481556,1.41072925947428,1726.791,860.3842,1920.388,1124.976,342.334686279297,313.317199707031,18.4138870239258,0.406204223632813,0.829720079898834,-1.41853976249695,0.4,0.860229349452521,-1.37407055264942,0
2.279999,0.912438988685608,0.317063093185425,1.36852598190308,0.911999702453613,0.308204701264943,1.38245547422664,1777.566,924.7833,1991.32,1236.367,343.372100830078,309.775634765625,19.5671615600586,0.405266642570496,0.774258255958557,-1.4974091053009,0.4,0.801012872103736,-1.45238043794367,0
2.299999,0.920525074005127,0.331373423337936,1.33712100982666,0.919999694824219,0.323606234216997,1.35267231482746,1827.721,1036.195,2038.751,1331.6,344.592742919922,306.202575683594,20.5241966247559,0.404303967952728,0.71551775932312,-1.57024681568146,0.4,0.738635168924313,-1.52495845210796,0
2.319999,0.928593039512634,0.344448745250702,1.30438601970673,0.927999687194824,0.337730643639343,1.32149732157617,1884.854,1189.523,2048.537,1420.984,345.988128662109,302.609436035156,21.2801456451416,0.403398394584656,0.653767883777618,-1.6367529630661,0.4,0.673342415741651,-1.59151816342427,0
2.339999,0.936644315719604,0.356235414743423,1.27045333385468,0.93599967956543,0.350522187047108,1.28905352769401,1944.317,1367.343,2021.987,1524.001,347.529388427734,299.001617431641,21.8539276123047,0.402563601732254,0.589338660240173,-1.69663310050964,0.4,0.605392292731816,-1.65179689162113,0
2.359999,0.944679260253906,0.366686254739761,1.23546063899994,0.943999671936035,0.361930382158614,1.25546897376916,1997.116,1546.083,1976.549,1654.54,349.169769287109,295.379150390625,22.2721328735352,0.401744097471237,0.522542059421539,-1.74963808059692,0.4,0.535052967475547,-1.70555674455067,0
2.379999,0.95269650220871,0.375758737325668,1.19954884052277,0.951999664306641,0.371910206125514,1.22087620243991,2036.904,1707.263,1936.317,1812.171,350.855834960938,291.740447998047,22.5518894195557,0.400860667228699,0.453616797924042,-1.79558944702148,0.4,0.46260203662535,-1.75258555703847,0
2.399999,0.960693955421448,0.383413255214691,1.16286134719849,0.959999656677246,0.380422273217054,1.18541173531045,2063.575,1845.023,1920.503,1982.585,352.540313720703,288.085906982422,22.6921348571777,0.399871587753296,0.382729411125183,-1.83437526226044,0.4,0.38832543036042,-1.79269772820094,0
2.419999,0.968670129776001,0.389613807201385,1.1255429983139,0.967999649047852,0.387432990257271,1.14921553416349,2082.981,1966.769,1935.513,2145.138,354.190765380859,284.419799804688,22.6769275665283,0.398809373378754,0.310029774904251,-1.86592102050781,0.4,0.312516283953001,-1.82573495392585,0
2.439999,0.976625442504883,0.394328355789185,1.08773994445801,0.975999641418457,0.392914689201654,1.11243044859613,2104.144,2086.509,1974.441,2282.776,355.790740966797,280.749694824219,22.4877700805664,0.397768199443817,0.235723569989204,-1.89015460014343,0.4,0.235473780899599,-1.85156685162515,0
2.459999,0.984562516212463,0.397530645132065,1.04960012435913,0.983999633789063,0.39684573633007,1.07520165225877,2135.742,2214.581,2023.735,2389.135,357.333953857422,277.084197998047,22.1173763275146,0.396850794553757,0.16011643409729,-1.90698933601379,0.4,0.157501972182653,-1.87009147479447,0
2.479999,0.992484629154205,0.399202674627304,1.01127350330353,0.991999626159668,0.399210617625008,1.03767606992221,2183.055,2351.422,2071.375,2469.621,358.815856933594,273.430114746094,21.5770893096924,0.39610955119133,0.0836009904742241,-1.91633307933807,0.4,0.0789085763225039,-1.88123571534866,0
2.499999,1.00039505958557,0.399334639310837,0.972911179065704,0.999999618530274,0.399999999998205,1.00000179763374,2246.526,2487.74,2112.647,2536.917,0.226778239011765,269.790405273438,20.8946323394775,0.395519882440567,0.00659673660993576,-1.91811609268188,0.4,3.76495529239705E-06,-1.88495559214542,0
2.519999,1.0082950592041,0.397924214601517,0.934664785861969,1.00799961090088,0.399210768124007,0.962327518250835,2322.294,2609.576,2151.978,2603.539,1.54953873157501,266.164489746094,20.1043605804443,0.395002424716949,-0.0705197304487228,-1.9123193025589,0.4,-0.0789010612704492,-1.88123642455848,0
2.539999,1.01618468761444,0.394975185394287,0.896685123443604,1.01599960327148,0.396846036734117,0.924801914658994,2404.147,2706.701,2198.501,2675.956,2.76266884803772,262.549560546875,19.235466003418,0.394479244947433,-0.147451907396317,-1.89898490905762,0.4,-0.157494501647549,-1.87009289041519,0
2.559999,1.02406311035156,0.390495806932449,0.859121024608612,1.02399959564209,0.392915138325195,0.887573082989394,2486.356,2777.363,2261.26,2751.8,3.84636211395264,258.942810058594,18.3045520782471,0.393926054239273,-0.223968550562859,-1.8782057762146,0.4,-0.235466384364179,-1.85156896806997,0
2.579999,1.03193092346191,0.384498745203018,0.822118997573853,1.0319995880127,0.387433586327822,0.850787948152256,2565.846,2828.809,2343.554,2822.83,4.78854656219482,255.342926025391,17.3156890869141,0.393388509750366,-0.299849033355713,-1.85010159015656,0.4,-0.312508990607955,-1.82573776284215,0
2.599999,1.03979015350342,0.377002269029617,0.785823047161102,1.03999967575073,0.380422921299806,0.814591256579219,2643.045,2872.628,2441.976,2879.681,5.58755970001221,251.750091552734,16.2669162750244,0.392952978610992,-0.374826639890671,-1.81479895114899,0.4,-0.388319164161359,-1.79270078221896,0
2.619999,1.0476438999176,0.368031054735184,0.750374555587769,1.04799966812134,0.371910978170844,0.779126722505836,2721.017,2918.81,2547.787,2917.283,6.25063753128052,248.165481567383,15.1590309143066,0.392691642045975,-0.448563903570175,-1.77242636680603,0.4,-0.46259591063331,-1.75258919521638,0
2.639999,1.0554963350296,0.35761758685112,0.715912044048309,1.05599966049194,0.361931275119617,0.744533872689259,2801.978,2972.119,2649.942,2938.958,6.78894853591919,244.589447021484,14.0017910003662,0.392616957426071,-0.520675361156464,-1.72312486171722,0.4,-0.535047005866972,-1.70556095253026,0
2.659999,1.06334972381592,0.345801949501038,0.68257075548172,1.06399965286255,0.350523197399681,0.710949229043435,2887.942,3028.89,2742.628,2951.45,7.21176290512085,241.021057128906,12.8144989013672,0.392674148082733,-0.590781211853027,-1.66706502437592,0.4,-0.605386519034406,-1.65180165279546,0
2.679999,1.07120537757874,0.332630842924118,0.650481581687927,1.07199964523315,0.337731767396095,0.678505334560747,2976.19,3083.186,2823.218,2965.338,7.52291393280029,237.457550048828,11.6215181350708,0.392773985862732,-0.658555924892426,-1.60445964336395,0.4,-0.673336852741509,-1.5915234590032,0
2.699999,1.07906210422516,0.318155854940414,0.619770288467407,1.07999963760376,0.323607466942981,0.647330230226374,3061.955,3128.897,2894.917,2987.627,7.72039270401001,233.895401000977,10.445408821106,0.392844468355179,-0.723746955394745,-1.53556394577026,0.4,-0.738629838576017,-1.52496426119231,0
2.719999,1.08691966533661,0.302432805299759,0.590556979179382,1.08799962997437,0.308206038095162,0.617546949699982,3140.057,3164.153,2962.776,3019.691,7.79952192306519,230.331588745117,9.30148029327393,0.392870277166367,-0.786152422428131,-1.46066510677338,0.4,-0.801007795443696,-1.45238673760767,0
2.739999,1.09477746486664,0.285521328449249,0.562955617904663,1.09599962234497,0.291588263140163,0.589273033759005,3206.952,3191.46,3031.565,3057.198,7.75722455978394,226.764266967773,8.19646739959717,0.392895102500916,-0.845576643943787,-1.38006889820099,0.4,-0.860224546515955,-1.37407731803122,0
2.759999,1.10263729095459,0.267485499382019,0.537073791027069,1.10399961471558,0.273819724718744,0.562620066419777,3262.286,3216.714,3102.173,3093.148,7.59568166732788,223.192932128906,7.13132619857788,0.392989575862885,-0.901792287826538,-1.29409110546112,0.4,-0.91604639077548,-1.29034505337658,0
2.779999,1.11050140857697,0.248394817113876,0.513012647628784,1.11199960708618,0.254970547000674,0.537693234567242,3308.447,3245.163,3172.242,3121.722,7.32302856445313,219.617965698242,6.10656929016113,0.393204152584076,-0.954531848430634,-1.20305788516998,0.4,-0.968253025325608,-1.20152039600863,0
2.799999,1.11837232112885,0.228324621915817,0.490866422653198,1.11999959945679,0.235115118937195,0.514590912831163,3349.072,3279.43,3236.887,3141.032,6.9514799118042,216.039703369141,5.12680339813232,0.393537700176239,-1.00351357460022,-1.10731148719788,0.4,-1.01663841482356,-1.10795389560148,0
2.819999,1.12625110149384,0.207354992628098,0.470722079277039,1.12799959182739,0.214331800682383,0.49340427534714,3386.887,3318.163,3291.482,3153.856,6.49374151229858,212.458053588867,4.2026252746582,0.393937945365906,-1.04848110675812,-1.00721752643585,0.4,-1.06101160460628,-1.01001481568167,0
2.839999,1.13413763046265,0.185570269823074,0.452658772468567,1.135999584198,0.192702614342,0.474216935934642,3422.349,3357.449,3333.549,3165.695,5.95984268188477,208.872344970703,3.34892988204956,0.39433279633522,-1.08923554420471,-0.903166770935059,0.4,-1.10119747429977,-0.908089676316561,0
2.859999,1.14203107357025,0.163057446479797,0.436747312545776,1.1439995765686,0.170312920270337,0.457104618112083,3453.386,3392.958,3363.854,3181.805,5.35579109191895,205.281799316406,2.58101677894592,0.394670873880386,-1.12563860416412,-0.795571625232697,0.4,-1.13703742893794,-0.802580728699072,0
2.879999,1.14993000030518,0.139905691146851,0.423050165176392,1.15199956893921,0.147251080192536,0.442134856251266,3476.656,3422.198,3385.503,3204.577,4.6847186088562,201.685882568359,1.91057658195496,0.394947499036789,-1.15759003162384,-0.684858977794647,0.4,-1.16839002486322,-0.693904367649049,0
2.899999,1.15783405303955,0.116205811500549,0.411620855331421,1.15999956130981,0.123608108481892,0.429366729050575,3489.367,3445.512,3402.234,3232.438,3.94961762428284,198.084686279297,1.34356868267059,0.395201474428177,-1.18499362468719,-0.571464598178864,0.4,-1.19513152793908,-0.582489488296264,0
2.919999,1.16574382781982,0.0920511484146118,0.402504205703735,1.16799955368042,0.0994773129683886,0.418850626378789,3490.685,3465.197,3416.639,3261.094,3.15613651275635,194.478866577148,0.880902171134949,0.395487129688263,-1.20773589611053,-0.455830454826355,0.4,-1.21715640187114,-0.468775793430513,0
2.939999,1.17366075515747,0.0675373673439026,0.39573609828949,1.17599954605103,0.0749539266960223,0.41062805040967,3482.135,3484.052,3429.105,3285.638,2.3140823841095,190.869384765625,0.521095633506775,0.395839542150497,-1.22568774223328,-0.33840548992157,0.4,-1.23437772470992,-0.353212058198897,0
2.959999,1.18158578872681,0.0427627861499786,0.391343235969543,1.18399953842163,0.0501347320822035,0.404731451832156,3466.888,3503.592,3437.947,3302.924,1.43695449829102,187.257171630859,0.263462096452713,0.396254926919937,-1.23872768878937,-0.219646781682968,0.4,-1.24672753189144,-0.236254358998714,0
2.979999,1.18951976299286,0.0178273916244507,0.389342784881592,1.19199953079224,0.0251176789624981,0.401184101782561,3448.183,3523.263,3440.686,3312.645,0.539842903614044,183.643020629883,0.110075451433659,0.396695286035538,-1.2467702627182,-0.100019812583923,0.4,-1.25415708446179,-0.118364273555716,0
2.999999,1.1974618434906,-0.00716826319694519,0.389742910861969,1.19999961853027,1.19842249063446E-06,0.400000000002693,3427.994,3540.545,3435.51,3317.122,359.636932373047,180.027450561523,0.0657169744372368,0.397112250328064,-1.24978244304657,0.0200046375393867,0.4,-1.25663706143028,-5.64743293871099E-06,0
3.019999,1.20541143417358,-0.0321238338947296,0.392542004585266,1.20799961090088,-0.025114987832777,0.40118384781399,3406.674,3552.224,3422.578,3319.073,358.739715576172,176.410934448242,0.135882750153542,0.397475838661194,-1.24777913093567,0.139953970909119,0.4,-1.25415761637232,0.118351591905674,0
3.039999,1.21336722373962,-0.0569398552179337,0.397729158401489,1.21599960327148,-0.0501320568940042,0.404730944898824,3382.089,3556.491,3402.879,3321.509,357.856872558594,172.794006347656,0.324294000864029,0.397788375616074,-1.24080276489258,0.259357571601868,0.4,-1.24672859361013,0.236241752471324,0
3.059999,1.22132873535156,-0.0815178006887436,0.40528404712677,1.22399959564209,-0.0749512780070705,0.410627292512208,3353.63,3551.474,3380.493,3322.961,356.995483398438,169.177444458008,0.630843937397003,0.398079454898834,-1.22889959812164,0.377747178077698,0.4,-1.23437931204665,0.353199576546268,0
3.079999,1.22929656505585,-0.105760008096695,0.415177226066589,1.2319995880127,-0.0994747012318294,0.418849620508266,3320.08,3538.098,3357.774,3321.545,356.162811279297,165.562103271484,1.05139470100403,0.398384571075439,-1.21210944652557,0.494658410549164,0.4,-1.21715850856143,0.468763485911932,0
3.099999,1.23727107048035,-0.129569426178932,0.427369832992554,1.2399995803833,-0.123605544005037,0.429365479176695,3282.24,3517.724,3336.19,3313.852,355.368041992188,161.948806762695,1.57893455028534,0.398723632097244,-1.19047069549561,0.609630584716797,0.4,-1.19513414566882,0.582477403483791,0
3.119999,1.24525284767151,-0.152850180864334,0.441814005374908,1.24799957275391,-0.147248573096184,0.442133367306701,3242.084,3491.694,3315.635,3296.946,354.622314453125,158.338333129883,2.20559668540955,0.399090617895126,-1.16403913497925,0.72220915555954,0.4,-1.16839314330143,0.693892553235828,0
3.139999,1.25324201583862,-0.17550827562809,0.458452939987183,1.25599956512451,-0.170310480448834,0.457102895973006,3202.038,3460.4,3294.618,3269.823,353.93798828125,154.731323242188,2.92450976371765,0.399459272623062,-1.1329048871994,0.831948578357697,0.4,-1.13704103577759,0.802569231311105,0
3.159999,1.26123785972595,-0.197452276945114,0.477221250534058,1.26399955749512,-0.192700251424187,0.474214987397535,3163.767,3423.281,3271.401,3233.493,353.326843261719,151.128234863281,3.73045182228088,0.399800062179565,-1.09720015525818,0.938416421413422,0.4,-1.10120155530635,0.908078541328696,0
3.179999,1.26923990249634,-0.218594074249268,0.498045206069946,1.27199954986572,-0.2143295239936,0.493402108101975,3127.598,3379.165,3245.003,3190.202,352.798706054688,147.529235839844,4.61927366256714,0.400097101926804,-1.05709135532379,1.04119551181793,0.4,-1.06101614367394,1.01000408703854,0
3.199999,1.27724695205688,-0.238849386572838,0.520842850208282,1.27999954223633,-0.235112937462476,0.51458853543105,3092.618,3326.782,3215.691,3142.337,352.360809326172,143.934326171875,5.58650827407837,0.400354474782944,-1.01276338100433,1.13988435268402,0.4,-1.01664339403872,1.10794361564405,0
3.219999,1.28525876998901,-0.258137494325638,0.545524775981903,1.28799953460693,-0.254968469349285,0.537690656394676,3057.271,3265.662,3184.967,3090.939,352.018310546875,140.343246459961,6.62586688995361,0.400590717792511,-0.96440464258194,1.23409628868103,0.4,-0.968258425037605,1.20151060530712,0
3.239999,1.29327523708344,-0.276381462812424,0.571993947029114,1.29599952697754,-0.273817759090212,0.562617297649607,3020.332,3196.044,3154.587,3035.787,351.775543212891,136.755615234375,7.72859907150269,0.400825440883636,-0.912201702594757,1.32345962524414,0.4,-0.916052189674165,1.29033579057035,0
3.259999,1.30129659175873,-0.293508380651474,0.600146293640137,1.30399951934814,-0.291586417291911,0.589270085318281,2981.417,3119.11,3125.738,2975.492,351.637420654297,133.170989990234,8.88365459442139,0.401066988706589,-0.856345176696777,1.40761923789978,0.4,-0.860230721715767,1.37406861967625,0
3.279999,1.30932259559631,-0.309449195861816,0.629871070384979,1.31199951171875,-0.308204319311895,0.617543833224832,2941.052,3036.472,3098.27,2908.692,351.610076904297,129.588912963867,10.0787582397461,0.401308715343475,-0.79704076051712,1.48623955249786,0.4,-0.801014322573988,1.45237863803234,0
3.299999,1.31735324859619,-0.324139565229416,0.661051213741302,1.31999950408936,-0.323605882007939,0.647326958016077,2900.068,2949.583,3070.944,2835.004,351.700622558594,126.008934020996,11.3016595840454,0.401534229516983,-0.734519422054291,1.55900883674622,0.4,-0.738636691877239,1.52495679236188,0
3.319999,1.32538795471191,-0.33752030134201,0.693563997745514,1.32799949645996,-0.33773032256428,0.678501919529197,2859.083,2859.489,3041.61,2755.609,351.916198730469,122.430648803711,12.5409526824951,0.401727944612503,-0.669038653373718,1.6256411075592,0.4,-0.673344005166863,1.59151665039368,0
3.339999,1.33342552185059,-0.349537760019302,0.727281510829926,1.33599948883057,-0.350521898373174,0.710945684668176,2817.888,2766.675,3008.472,2672.744,352.262969970703,118.853424072266,13.7860612869263,0.401883959770203,-0.600876450538635,1.68587744235992,0.4,-0.605393942356591,1.65179553127727,0
3.359999,1.34146571159363,-0.360144197940826,0.762071192264557,1.34399948120117,-0.361930127025072,0.744530212958294,2775.464,2671.287,2970.561,2589.006,352.745086669922,115.276329040527,15.0265798568726,0.402008056640625,-0.530320048332214,1.73948454856873,0.4,-0.535054670789582,1.70555554226218,0
3.379999,1.34950804710388,-0.369297385215759,0.797796249389648,1.35199947357178,-0.371909985539256,0.779122961862424,2730.367,2573.518,2927.537,2506.75,353.364898681641,111.698249816895,16.2512454986572,0.402113109827042,-0.457657605409622,1.7862536907196,0.4,-0.462603786906455,1.75258451755022,0
3.399999,1.35755217075348,-0.376960873603821,0.834316253662109,1.35999956130981,-0.38042218063295,0.814587837277162,2681.105,2473.973,2879.892,2427.161,354.123107910156,108.117919921875,17.4470405578613,0.402211248874664,-0.383175015449524,1.82599985599518,0.4,-0.388326325530843,1.79269729190863,0
3.419999,1.36559844017029,-0.383104175329208,0.871487498283386,1.36799955368042,-0.387432915747474,0.850784030547417,2626.771,2373.828,2827.947,2350.458,355.019500732422,104.534103393555,18.5989589691162,0.402307629585266,-0.307159602642059,1.8585638999939,0.4,-0.312517195620342,1.82573460280671,0
3.439999,1.37364637851715,-0.387702226638794,0.909163773059845,1.37599954605103,-0.39291463306022,0.887569109955966,2565.774,2276.105,2769.698,2278.019,356.053344726563,100.945671081543,19.6904354095459,0.402399361133575,-0.22990594804287,1.88381481170654,0.4,-0.235474705465932,1.85156658706487,0
3.459999,1.38169598579407,-0.390736639499664,0.947196781635284,1.38399953842163,-0.396845698778563,0.924797901876695,2498.662,2182.179,2704.573,2209.328,357.222930908203,97.3518371582031,20.7041339874268,0.402479767799377,-0.15172053873539,1.90165257453918,0.4,-0.157502905999143,1.87009129783716,0
3.479999,1.38974690437317,-0.392194986343384,0.985436975955963,1.39199953079224,-0.399210598811626,0.962323481556253,2424.279,2095.337,2628.915,2146.749,358.524963378906,93.7518463134766,21.622875213623,0.402544170618057,-0.072920985519886,1.91200923919678,0.4,-0.078909515703811,1.88123562669268,0
3.499999,1.39779877662659,-0.392071634531021,1.02373397350311,1.39999952316284,-0.399999999997195,0.99999775295783,2341.744,2017.609,2539.924,2092.773,359.953369140625,90.1449813842773,22.4302291870117,0.402594327926636,0.00616849958896637,1.91484844684601,0.4,-4.706194114992E-06,1.88495559214066,0
3.519999,1.40585148334503,-0.390367150306702,1.06193721294403,1.40799951553345,-0.399210786935374,1.03767203322744,2250.047,1950.548,2435.324,2049.988,1.49807727336884,86.5304946899414,23.1104698181152,0.402638465166092,0.0852236226201057,1.91016352176666,0.4,0.0789001218887437,1.88123651320495,0
3.539999,1.41390526294708,-0.387088745832443,1.09989666938782,1.41599950790405,-0.396846074283621,1.0751976394761,2148.399,1894.901,2314.038,2020.365,3.14446592330933,82.9076232910156,23.6483554840088,0.402688086032867,0.163925275206566,1.89797568321228,0.4,0.157493567830264,1.87009306736306,0
3.559999,1.42196035385132,-0.382249474525452,1.13746333122253,1.42399950027466,-0.392915194464645,1.11242647556213,2036.673,1850.973,2176.244,2004.407,4.87308025360107,79.2758560180664,24.0288181304932,0.402753084897995,0.241960823535919,1.87833392620087,0.4,0.235465459796655,1.8515692326209,0
3.579999,1.4300172328949,-0.375869035720825,1.17448961734772,1.43199949264526,-0.387433660835663,1.1492116165579,1915.803,1818.37,2023.449,2000.93,6.65980577468872,75.6351013183594,24.237133026123,0.402838706970215,0.319022566080093,1.85131525993347,0.4,0.312508078939034,1.82573811395208,0
3.599999,1.43807601928711,-0.367972850799561,1.21083009243011,1.43999948501587,-0.380423106464386,1.18540788859423,1787.947,1796.419,1857.851,2007.123,8.47638988494873,71.9859848022461,24.25950050354,0.402945578098297,0.394805371761322,1.81702613830566,0.4,0.388317373816809,1.79270165478649,0
3.619999,1.44613742828369,-0.358592689037323,1.24634218215942,1.44799947738647,-0.371911198753346,1.22087244179426,1656.602,1783.365,1682.466,2019.115,10.2908935546875,68.3301086425781,24.0842170715332,0.403071999549866,0.469004899263382,1.77560341358185,0.4,0.462594160347533,1.75259023468693,0
3.639999,1.45420181751251,-0.347766399383545,1.28088641166687,1.45599946975708,-0.361931530249505,1.25546531403562,1526.366,1776.833,1500.64,2032.238,12.0681753158569,64.6699829101563,23.7028465270996,0.403217017650604,0.541319251060486,1.72721374034882,0.4,0.535045302547533,1.70556215480154,0
3.659999,1.46226930618286,-0.335537314414978,1.31432747840881,1.46399946212769,-0.350523486070075,1.28904998331583,1402.806,1772.621,1317.12,2041.312,13.7701292037964,61.0090599060059,23.1112728118896,0.403382062911987,0.611451804637909,1.67205214500427,0.4,0.605384869403517,1.65180301312265,0
3.679999,1.47034072875977,-0.321955025196075,1.34653425216675,1.47199945449829,-0.337732088467748,1.32149390654137,1291.904,1765.397,1137.466,2041.087,15.3562517166138,57.3515968322754,22.3102245330811,0.403570234775543,0.679114878177643,1.61033964157104,0.4,0.673335263309497,1.59152497201772,0
3.699999,1.47841656208038,-0.30707448720932,1.37738060951233,1.4799994468689,-0.323607819148771,1.3526690426136,1199.611,1749.627,967.7037,2026.139,16.7842960357666,53.702449798584,21.3051605224609,0.403783917427063,0.744032502174377,1.54232132434845,0.4,0.738628315615631,1.52496592092299,0
3.719999,1.486496925354,-0.290955662727356,1.40674591064453,1.4879994392395,-0.308206420045097,1.38245235774762,1131.502,1719.277,814.6554,1991.181,18.0109748840332,50.0667572021484,20.1059970855713,0.404022574424744,0.805940985679626,1.4682651758194,0.4,0.801006344965353,1.45238853750433,0
3.739999,1.49458253383636,-0.273663878440857,1.43451511859894,1.49599943161011,-0.291588673326864,1.41072631102941,1092.2,1669.431,684.4626,1931.529,18.9929828643799,46.4497146606445,18.7265510559082,0.404281497001648,0.864588439464569,1.38846135139465,0.4,0.860223174244023,1.37407925099051,0
3.759999,1.50267362594604,-0.255269140005112,1.46057951450348,1.50399942398071,-0.273820161523394,1.43737931829526,1085.167,1597.295,581.8541,1843.066,19.6877861022949,42.8560447692871,17.1840305328369,0.404552757740021,0.919734060764313,1.30322158336639,0.4,0.916045102125676,1.29034711177,0
3.779999,1.51077032089233,-0.235846221446991,1.4848370552063,1.51199951171875,-0.254970777850112,1.46230647896784,1112.586,1501.424,510.6459,1722.659,20.0540294647217,39.2894973754883,15.4991674423218,0.404827564954758,0.97114771604538,1.21287775039673,0.4,0.968252425354893,1.20152148386098,0
3.799999,1.51887226104736,-0.215474009513855,1.50719261169434,1.51999950408936,-0.235115361322616,1.48540882301191,1175.114,1382.349,473.6581,1567.887,20.0518016815186,35.7522506713867,13.6965579986572,0.405098438262939,1.01861119270325,1.11777985095978,0.4,1.01663786157459,1.10795503781586,0
3.819999,1.52697944641113,-0.194235652685165,1.52755844593048,1.52799949645996,-0.214332053647202,1.50659548384642,1270.305,1243.697,470.6311,1379.627,19.642972946167,32.2441596984863,11.8054428100586,0.405360907316208,1.06191909313202,1.01829361915588,0.4,1.06101110026245,1.0100160077503,0
3.839999,1.53509163856506,-0.172218024730682,1.54585433006287,1.53599948883057,-0.192702876887883,1.52578284755976,1394.078,1089.814,504.1498,1157.046,18.7913246154785,28.7624626159668,9.86072444915771,0.405614167451859,1.10088133811951,0.914797425270081,0.4,1.10119702085151,0.908090913534886,0
3.859999,1.54320883750916,-0.149511516094208,1.56200790405273,1.54399948120117,-0.170313191361137,1.54289519053761,1535.637,930.0527,573.0325,905.0344,17.4648876190186,25.3009986877441,7.90486812591553,0.405860990285873,1.13532292842865,0.807679831981659,0.4,1.13703702817479,0.802582006184372,0
3.879999,1.55133104324341,-0.126209825277328,1.57595467567444,1.55199947357178,-0.147251358758384,1.55786497830888,1677.144,778.4362,674.7775,632.4103,15.6395673751831,21.8499126434326,5.98974895477295,0.406107157468796,1.16508555412292,0.697337210178375,0.4,1.16838967836681,0.693905680359682,0
3.899999,1.55945813655853,-0.102409392595291,1.58763813972473,1.55999946594238,-0.123608393423418,1.57063313207295,1791.168,655.0219,802.5168,356.11,13.3057069778442,18.3953609466553,4.17881155014038,0.406361281871796,1.1900280714035,0.584171235561371,0.4,1.19513123707687,0.582490831051571,0
3.919999,1.56759095191956,-0.0782087743282318,1.59700989723206,1.56799945831299,-0.0994776031610604,1.58114926185619,1840.714,585.5645,942.6165,103.7921,10.4774684906006,14.9195184707642,2.54840326309204,0.406634449958801,1.21002900600433,0.468587011098862,0.4,1.21715616779102,0.468777160931262,0
3.939999,1.57572972774506,-0.0537089407444,1.60402965545654,1.57599945068359,-0.0749542209945843,1.58937186537785,1716.376,648.9346,1005.538,0,7.20403099060059,11.4012575149536,1.18703234195709,0.406939178705215,1.22499132156372,0.350990951061249,0.4,1.23437754833571,0.353213445048198,0
3.959999,1.58387529850006,-0.0290118157863617,1.60866630077362,1.5839994430542,-0.050135029325196,1.59526849184025,1453.514,811.32,1035.09,0,3.57926392555237,7.83704710006714,0.177679628133774,0.407286882400513,1.23485505580902,0.231830656528473,0.4,1.2467274139192,0.236255759723317,0
3.979999,1.59202945232391,-0.00422000885009766,1.61089658737183,1.5919994354248,-0.0251179779768417,1.59881586999703,1153.688,988.0657,1117.791,0,359.747863769531,4.22714376449585,359.597442626953,0.407700568437576,1.23958969116211,0.111517086625099,0.4,1.2541570253571,0.118365682627614,0
3.999999,1.6001935005188,0.0205644071102142,1.61070501804352,1.59999942779541,-1.7976337362791E-06,1.59999999999394,860.3748,1140.856,1249.493,0,355.898895263672,0.553064405918121,359.524932861328,0.408202439546585,1.23922121524811,-0.00958075374364853,0.4,1.25663706142323,8.4711494096094E-06,0
4.019999,1.60836887359619,0.045241504907608,1.60808348655701,1.60799942016602,0.0251143898037947,1.59881620861978,438.9523,1370.157,1215.996,253.3952,352.24365234375,356.782012939453,0.0275276526808739,0.408771723508835,1.23385894298553,-0.131073653697968,0.4,1.25415773456692,-0.118348773760488,0
