t,x_s1,x_s2,x_s3,x_s_d1,x_s_d2,x_s_d3,propellers_rpms1,propellers_rpms2,propellers_rpms3,propellers_rpms4,rollRad,pitchRad,yawRad,v_s1,v_s2,v_s3,v_s_d1,v_s_d2,v_s_d3,insideCount
0,-3,0,3,0,0,6,0,0,0,0,0,45.0048027038574,0,0,0,0,2.51327412287183,2.51327412287183,-0.628318530717959,0
0.01999999,-3,-1.75416348113799E-10,3,0.0502651318759909,0.0502641396861051,5.987433717031,0,0,0,0,4.71187426853703E-08,45.0048027038574,-4.57171900336562E-08,3.68531795724258E-15,-8.77082051431444E-09,8.78962147510265E-09,2.51322451303154,2.51307568546915,-0.628306128257884,0
0.03999998,-3,-3.50832696227599E-10,2.99607610702515,0.10052827937221,0.100520342088142,5.97486793015695,0,0,0,0,9.42374782653133E-08,45.0048027038574,-9.14343729618849E-08,3.68531795724258E-15,-8.77082051431444E-09,-0.1961999386549,2.51307568546915,2.51248040459664,-0.628268921367288,0
0.05999998,-3,-5.26248988830247E-10,2.98822808265686,0.150787467548239,0.150760680531453,5.96230313311294,10889.66,11168.74,13401.6,12326.5,1.41356224503397E-07,45.0048027038574,-1.37151587864537E-07,3.68531795724258E-15,-8.77082051431444E-09,-0.392399907112122,2.51282764600469,2.51148837403426,-0.628206911501173,0
0.07999997,-3,-1.20100285272429E-09,2.99847745895386,0.201040684176284,0.200977193423868,5.94973982895593,9879.073,11817.3,13682.99,13296.7,1.10541713237762,44.9470024108887,359.504913330078,6.35247587865706E-08,-3.37377024095531E-08,0.51247102022171,2.51248040459664,2.51009975110014,-0.628120101149161,0
0.09999996,-2.99955701828003,0.000169334569363855,3.02722930908203,0.251285982787691,0.251161988412928,5.93717850430308,0,13459.34,14488.76,17261.7,3.88612079620361,44.9458236694336,358.378875732422,0.0221445634961128,0.00846679322421551,1.43758821487427,2.51203397469478,2.50831475403926,-0.628008493673695,0
0.12,-2.99769997596741,0.000921269704122096,3.07283473014832,0.301521361062907,0.301307122029002,5.92461965973427,5258.351,12507.57,11809.86,13532.33,13.0884504318237,45.6097793579102,355.719696044922,0.0928574725985527,0.037596769630909,2.28027725219727,2.51148837403426,2.50613366516667,-0.627872093508566,0
0.14,-2.99159979820251,0.00375189748592675,3.13381171226501,0.351744835796042,0.351404675777497,5.91206379105099,12786.22,13464.89,9179.324,11558.4,23.6645889282227,46.1323776245117,353.027862548828,0.305003434419632,0.141531437635422,3.04884934425354,2.51084362415446,2.50355682890144,-0.627710906038616,0
0.1599999,-2.97745847702026,0.0106661226600409,3.21055102348328,0.401954386847736,0.401446701415612,5.89951140328807,15840.02,14085.43,8988.708,11931.76,29.8126010894775,46.7016677856445,351.828552246094,0.707064628601074,0.345711439847946,3.83696532249451,2.51009975110014,2.50058465451733,-0.627524937775036,0
0.1799999,-2.95264101028442,0.0230643674731255,3.30349016189575,0.4521481068496,0.451425371298209,5.8869629732876,11328.59,13375.83,11425.75,13677.16,32.9705581665039,47.8148307800293,351.782775878906,1.24087131023407,0.619912266731262,4.64696025848389,2.50925678312967,2.49721760692611,-0.627314195782417,0
0.1999999,-2.91646003723145,0.0413337647914886,3.41156387329102,0.502323976825855,0.501332755911331,5.87441900579354,6963.317,12253.31,12910.46,13715.74,36.2019195556641,49.3067893981934,351.82763671875,1.80904841423035,0.913470029830933,5.40368318557739,2.50831475403926,2.49345621989061,-0.627078688509816,0
0.2199999,-2.86895656585693,0.0653790533542633,3.53258752822876,0.552480015919895,0.551160974303691,5.86187999602003,5610.62,11489.3,12494.58,12166.75,42.0717697143555,50.899959564209,351.348052978516,2.37517666816711,1.2022647857666,6.05118751525879,2.50727370101861,2.48930108737722,-0.626818425254651,0
0.2399999,-2.80973386764526,0.0952177941799164,3.66381025314331,0.602614244058005,0.600902158025261,5.8493464389855,7194.099,11285.5,10508.46,10343.13,50.9704475402832,52.4428215026855,350.557861328125,2.96113777160645,1.49193799495697,6.56113624572754,2.50613366516667,2.48475286552924,-0.626533416291668,0
0.2599999,-2.7376880645752,0.131165519356728,3.80236792564392,0.652724644701686,0.650548415417708,5.83681883882458,9762.384,11138.55,8219.307,9179.811,60.1978607177734,53.9989624023438,350.330780029297,3.60228705406189,1.79738628864288,6.9278883934021,2.50489469245006,2.47981227639034,-0.626223673112514,0
0.2799999,-2.6516854763031,0.173589512705803,3.94564914703369,0.702809351554995,0.700092017615155,5.82429766211125,9780.602,10562.65,7242.77,9199.475,67.3830795288086,56.4957237243652,351.872619628906,4.30013036727905,2.12120199203491,7.16406059265137,2.50355682890144,2.47448008865607,-0.625889207225361,0
0.2999999,-2.55144286155701,0.222566202282906,4.09145975112915,0.752866238099748,0.749524993473992,5.81178344047506,6910.815,9745.117,7643.25,9611.26,73.3911972045898,61.8235664367676,356.603515625,5.01213026046753,2.44883584976196,7.29054355621338,2.50212013132442,2.46875716023003,-0.625530032831105,0
0.3199999,-2.43758583068848,0.277785420417786,4.23780536651611,0.802893402831224,0.798839610873337,5.79927664929219,4272.955,9089.991,7855.026,9208.345,79.4065628051758,74.4807968139648,8.5285530090332,5.69284820556641,2.76095914840698,7.31728792190552,2.50058465451733,2.4626443871732,-0.625146163629334,0
0.3399999,-2.31115221977234,0.3386549949646,4.38277626037598,0.852888945240915,0.848028155677042,5.78677776368977,2883.811,8843.345,7199.442,8156.796,84.6050796508789,125.046966552734,58.0713539123535,6.32168102264404,3.04348087310791,7.24854612350464,2.4989504565894,2.45614272478402,-0.624737614147351,0
0.3599999,-2.17325592041016,0.4044229388237,4.52444362640381,0.902850742596418,0.897082713867206,5.7742873143509,2851.418,8759.672,5808.896,6837.467,79.7386932373047,196.16145324707,128.129867553711,6.89481353759766,3.28839707374573,7.08337545394897,2.49721760692611,2.44925321912458,-0.624304401731527,0
0.3799999,-2.02502346038818,0.474266737699509,4.66095733642578,0.952776971386818,0.945995685344312,5.7618057571533,3324.743,8426.555,4459.984,5622.134,71.116325378418,211.402130126953,142.896087646484,7.41162061691284,3.4921875,6.82569932937622,2.49538616877318,2.44197693759678,-0.623846542193295,0
0.3999999,-1.86765420436859,0.547428369522095,4.79095029830933,1.00266551182266,0.994759200427862,5.74933362204433,1898.77,7927.501,4426.006,5095.219,62.6823806762695,216.220336914063,148.184127807617,7.86845684051514,3.65808343887329,6.49964427947998,2.49345621989061,2.43431505089236,-0.623364054972654,0
0.4199998,-1.70251572132111,0.623242974281311,4.9135422706604,1.05251446881644,1.04336563180166,5.73687138279589,132.8715,7078.829,5522.129,4121.104,53.5627288818359,218.69319152832,151.986724853516,8.25693225860596,3.79073715209961,6.12959861755371,2.49142783381372,2.42626875835511,-0.62285695845343,0
0.4399998,-1.53108096122742,0.70108300447464,5.02813720703125,1.10232194860738,1.09180737601859,5.72441951284815,213.7491,5619.297,6774.779,2054,43.3412246704102,220.694061279297,155.873443603516,8.57173728942871,3.89199709892273,5.72975873947144,2.48930108737722,2.41783931773983,-0.622325271844305,0
0.4599998,-1.35479283332825,0.780331015586853,5.13432359695435,1.15208583644794,1.14007663921462,5.71197854088801,1461.143,4065.573,7412.73,0,32.759593963623,222.633193969727,160.03727722168,8.81441211700439,3.96240472793579,5.30932521820068,2.48707607087943,2.40902808527173,-0.621769017719857,0
0.4799998,-1.17495274543762,0.860431611537933,5.23187303543091,1.20180431605052,1.1881659429572,5.69954892098737,1518.185,3294.874,6864.965,0,22.5648937225342,224.491790771484,164.481658935547,8.99200248718262,4.00502252578735,4.87746667861938,2.48475286552924,2.39983642608885,-0.62118821638231,0
0.4999998,-0.992691516876221,0.940942287445068,5.32070970535278,1.25147527644637,1.23606755008696,5.68713118088841,2731.229,0,8011.604,0,12.7362871170044,226.074020385742,168.819290161133,9.11308002471924,4.02554130554199,4.44184541702271,2.48233156996631,2.39026581905087,-0.620582892491577,0
0.5199998,-0.808992624282837,1.02150452136993,5.40088558197021,1.30109683083542,1.28377396819391,5.67472579229115,2748.648,0,7443.954,0,3.07630777359009,227.834564208984,171.871444702148,9.18493556976318,4.02811098098755,4.00878763198853,2.47981227639034,2.38031776205113,-0.619953069097585,0
0.5399998,-0.624663114547729,1.10174179077148,5.47249412536621,1.35066702024738,1.33127766389595,5.66233324493815,3285.321,0,6664.454,0,353.465454101563,229.776779174805,174.031280517578,9.21647453308105,4.01187324523926,3.58042979240417,2.47719508425855,2.36999382600017,-0.619298771064637,0
0.5599998,-0.440422058105469,1.18128025531769,5.53564786911011,1.40018403523031,1.37857127644815,5.64995399119242,3592.305,1069.662,5383.923,0,344.348083496094,231.911041259766,175.473907470703,9.21205711364746,3.97691440582275,3.15769672393799,2.47448008865607,2.35929560872494,-0.618620022164018,0
0.5799998,-0.256935596466064,1.25976276397705,5.59043407440186,1.44964562579813,1.42564705576746,5.63758859355047,3573.316,1473.876,4531.562,781.9734,335.911895751953,234.190368652344,176.848373413086,9.1743278503418,3.92413425445557,2.73930311203003,2.47166741294864,2.34822486336013,-0.61791685323716,0
0.5999998,-0.0748732089996338,1.33689403533936,5.63694381713867,1.49904998694798,1.47249770931943,5.625237503263,3352.448,1322.06,4166.973,1986.811,327.955780029297,236.622833251953,178.077102661133,9.10311126708984,3.85656881332397,2.32549500465393,2.46875716023003,2.33678330677515,-0.617189290057507,0
0.6199998,0.105071306228638,1.41243004798889,5.67530250549316,1.54839516828402,1.51911583885686,5.612901207929,3261.37,1184.077,3902.513,3051.221,320.180572509766,239.311614990234,178.599822998047,8.99723529815674,3.77679109573364,1.91792845726013,2.46574944539181,2.324972745721,-0.616437361347953,0
0.6399997,0.28218936920166,1.48613905906677,5.70570373535156,1.59767922174667,1.56549408285072,5.60058019456333,3210.25,1608.986,3398.85,3830.921,312.479034423828,242.504135131836,177.790863037109,8.85591316223145,3.6854555606842,1.52005314826965,2.4626443871732,2.31279504521862,-0.6156610967933,0
0.6599998,0.455776214599609,1.5577689409256,5.72843360900879,1.6469003482838,1.61162525475834,5.58827491292905,3184.018,2525.106,2786.645,4243.637,304.93115234375,246.617584228516,175.184814453125,8.67936134338379,3.58150005340576,1.13650548458099,2.45944209846805,2.30025209034131,-0.614860524617012,0
0.6799998,0.62515664100647,1.62704312801361,5.74389028549194,1.69605631135408,1.65750179498776,5.57598592216148,3255.67,3504.381,2345.354,4316.063,297.743438720703,252.345672607422,170.344451904297,8.46903133392334,3.46371412277222,0.77282327413559,2.45614272478402,2.28734593652397,-0.614035681196004,0
0.6999997,0.78971004486084,1.693692445755,5.75258445739746,1.74514531715302,1.7031165969686,5.56371367071174,3463.611,4163.918,2227.616,4190.726,291.276214599609,260.823547363281,162.508758544922,8.22764778137207,3.33245825767517,0.434702694416046,2.45274638697575,2.27407858495641,-0.613186596743936,0
0.7199997,0.948894023895264,1.75750398635864,5.75511455535889,1.79416542773441,1.74846245760858,5.5514586430664,3735.326,4319.183,2509.843,4001.657,285.939270019531,274.074768066406,149.96809387207,7.95920658111572,3.19055986404419,0.126496136188507,2.44925321912458,2.26045213070327,-0.612313304781145,0
0.7399997,1.10226535797119,1.81836104393005,5.75212478637695,1.84311470787192,1.7935322162843,5.53922132303202,3986.956,4050.449,3038.199,3885.236,282.298889160156,295.029998779297,129.92561340332,7.66858434677124,3.04286456108093,-0.149498343467712,2.44566335913454,2.24646872553552,-0.611415839783635,0
0.7599998,1.24948310852051,1.87625682353973,5.7442684173584,1.89199137068862,1.83831888901733,5.52700215732784,4160.794,3609.471,3556.172,3908.74,281.155029296875,323.290618896484,102.714347839355,7.36087608337402,2.89478945732117,-0.392824709415436,2.44197693759678,2.23213053433329,-0.610494234399196,0
0.7799997,1.39030456542969,1.93127417564392,5.7321891784668,1.94079319529519,1.88281513654102,5.5148017011762,4227.343,3273.313,3853.874,4051.518,282.712158203125,349.241760253906,77.7575073242188,7.04104471206665,2.7508659362793,-0.603971898555756,2.43819412201731,2.21743990671987,-0.609548530504329,0
0.7999997,1.524582862854,1.98355340957642,5.71651697158813,1.98951840085572,1.92701406629545,5.50262039978607,4183.926,3217.048,3852.968,4236.383,286.038024902344,6.46831798553467,61.271297454834,6.71394300460815,2.61397337913513,-0.783607721328735,2.43431505089236,2.20239912030766,-0.608578762723089,0
0.8199997,1.65227031707764,2.0332612991333,5.69786882400513,2.0381650637862,1.97090869877055,5.49045873405345,4055.345,3447.605,3616.523,4380.239,290.183868408203,16.9246482849121,51.1979484558105,6.38437604904175,2.48540115356445,-0.932410299777985,2.43033987736071,2.18701055020667,-0.607584969340177,0
0.8399997,1.77340984344482,2.08057117462158,5.67684078216553,2.08673126360332,2.01449210250823,5.47831718409917,3887.694,3825.29,3294.767,4433.054,294.608612060547,23.4467716217041,44.731388092041,6.05696058273315,2.36547231674194,-1.05139398574829,2.42626875835511,2.17127662644588,-0.606567189588777,0
0.8599997,1.88812589645386,2.12565660476685,5.65399408340454,2.13521522736886,2.05775752365685,5.46619619315779,3730.231,4153.77,3041.111,4392.553,299.010833740234,27.7365608215332,40.2982864379883,5.73580980300903,2.25428247451782,-1.1423442363739,2.42210184203514,2.15519978516846,-0.605525460508785,0
0.8799997,1.99661016464233,2.16870021820068,5.62983417510986,2.18361475203719,2.10069787223981,5.4540963119907,3615.267,4286.522,2939.132,4294.808,303.228454589844,30.7291069030762,37.1122779846191,5.42420721054077,2.15216159820557,-1.20799660682678,2.41783931773983,2.13878266091318,-0.604459829434958,0
0.8999997,2.09909915924072,2.20989418029785,5.60479831695557,2.23192807149848,2.14330649690938,5.44201798212538,3548.123,4189.828,2976.976,4189.305,307.203887939453,32.9494209289551,34.7414512634277,5.12445116043091,2.05971169471741,-1.25179719924927,2.41348134147033,2.12202779872636,-0.603370335367582,0
0.9199997,2.19585800170898,2.24944519996643,5.57925081253052,2.28015327842924,2.18557666928263,5.42996168039269,3511.455,3939.633,3074.911,4109.1,310.953033447266,34.6940155029297,32.8901329040527,4.83797645568848,1.97754228115082,-1.27736687660217,2.40902808527173,2.10493784438992,-0.602257021317934,0
0.9399996,2.28717231750488,2.28756332397461,5.55349159240723,2.3282884689845,2.22750171442207,5.41792788275387,3476.765,3667.112,3137.027,4059.216,314.524597167969,36.1244697570801,31.3206214904785,4.56569004058838,1.90593647956848,-1.28797030448914,2.40447972495065,2.08751549660063,-0.601119931237662,0
0.9599997,2.37333869934082,2.32445645332336,5.52776670455933,2.3763318859144,2.26907513525719,5.4059170285214,3420.654,3486.185,3103.581,4018.531,317.959838867188,37.3236236572266,29.8488311767578,4.30831289291382,1.84464550018311,-1.28624081611633,2.39983642608885,2.06976345315037,-0.599959106522214,0
0.9799997,2.45466899871826,2.36031436920166,5.50228214263916,2.42428134619115,2.3102901190823,5.39392966345221,3334.951,3440.2,2974.332,3959.224,321.269226074219,38.3336181640625,28.363842010498,4.06653928756714,1.7928911447525,-1.27421963214874,2.39509839967156,2.05168462309606,-0.598774599917891,0
0.9999996,2.5314884185791,2.39530515670776,5.47721004486084,2.47213510017392,2.35114028201171,5.38196622495652,3228.819,3494.232,2798.627,3862.81,324.431549072266,39.1819229125977,26.8345317840576,3.84097003936768,1.74955320358276,-1.2535936832428,2.39026581905087,2.03328180887383,-0.597566454762717,0
1.02,2.60412740707397,2.42957353591919,5.45269107818604,2.51989125868207,2.39161917334345,5.37002718532948,3120.027,3566.514,2641.261,3732.294,327.411224365234,39.8954315185547,25.2913780212402,3.63192796707153,1.71343016624451,-1.225949883461,2.38533887500841,2.01455791649583,-0.596334718752102,0
1.04,2.67291355133057,2.46324324607849,5.4288330078125,2.56754793638781,2.43172040100351,5.35811301590305,3024.5,3578.594,2547.359,3588.366,330.180877685547,40.5038948059082,23.7883377075195,3.43930244445801,1.68345713615417,-1.19290733337402,2.38031776205113,1.99551590267608,-0.595079440512783,0
1.06,2.73816394805908,2.49641919136047,5.40571117401123,2.6151032518907,2.47143763255526,5.34622418702732,2949.544,3495.116,2523.022,3456.341,332.736846923828,41.0361328125,22.3634338378906,3.26253461837769,1.65880250930786,-1.15608394145966,2.3752026784036,1.97615877436357,-0.5938006696009,0
1.08,2.80017852783203,2.5291953086853,5.38337230682373,2.6625553277919,2.51076459619938,5.33436116805203,2893.698,3334.744,2539.879,3350.798,335.099914550781,41.5144996643066,21.0157852172852,3.10075926780701,1.63883817195892,-1.11695575714111,2.36999382600017,1.95648958826742,-0.592498456500043,0
1.1,2.85923957824707,2.5616569519043,5.36183786392212,2.70990257266144,2.54969531261442,5.32252435683464,2850.447,3151.713,2555.475,3269.433,337.303283691406,41.951789855957,19.7080249786377,2.95302939414978,1.62303400039673,-1.07671880722046,2.36469137859371,1.93651133038061,-0.591172844648429,0
1.12,2.91560983657837,2.59387350082397,5.34111309051514,2.75714255289629,2.58822317011881,5.31071436177593,2813.008,3002.539,2538.762,3195.687,339.375457763672,42.351978302002,18.3886737823486,2.81850790977478,1.61084866523743,-1.03623580932617,2.35929560872494,1.91622739365069,-0.589823902181236,0
1.14,2.96954011917114,2.6259069442749,5.32119131088257,2.80427368607174,2.62634231796054,5.29893157848206,2776.694,2917.513,2485.254,3109.626,341.327972412109,42.7138519287109,17.0206394195557,2.69653701782227,1.60166680812836,-0.996081471443176,2.35380669808295,1.89564086297885,-0.588451674520739,0
1.16,3.02127170562744,2.65780258178711,5.30205821990967,2.85129411153491,2.66404673669576,5.28717647211627,2739.049,2890.954,2411.203,3003.58,343.154602050781,43.035587310791,15.6001901626587,2.58657741546631,1.59480810165405,-0.956648766994476,2.34822486336013,1.87475498921072,-0.587056215840031,0
1.18,3.07103395462036,2.6895956993103,5.28369331359863,2.89820197300345,2.70133047237102,5.27544950674914,2699.841,2889.861,2344.5,2882.831,344.839477539063,43.3181610107422,14.1565198898315,2.48807859420776,1.58959448337555,-0.918253302574158,2.34255032491731,1.8535730704616,-0.585637581229328,0
1.2,3.11904096603394,2.72130393981934,5.26606941223145,2.94499541863885,2.7381876374635,5.26375114534029,2659.444,2875.515,2305.096,2765.44,346.369934082031,43.5660591125488,12.735466003418,2.40036869049072,1.58543038368225,-0.881192982196808,2.33678330677515,1.83209845159563,-0.584195826693788,0
1.22,3.16549301147461,2.75294041633606,5.24915456771851,2.99167260111951,2.77461241181065,5.25208184972012,2619.078,2824.328,2298.546,2667.846,347.745819091797,43.7858009338379,11.3760442733765,2.32262420654297,1.58185863494873,-0.845751285552979,2.33092403660521,1.8103345236976,-0.582731009151303,0
1.24,3.21057271957397,2.78451204299927,5.23291110992432,3.03823167771371,2.81059904352932,5.24044208057157,2581.416,2738.05,2310.893,2599.227,348.981781005859,43.9832000732422,10.0941228866577,2.25393342971802,1.57856512069702,-0.812164127826691,2.324972745721,1.78828472353747,-0.581243186430251,0
1.26,3.25444030761719,2.8160195350647,5.21729946136475,3.08467081035234,2.84614184992405,5.22883229741192,2549.993,2637.341,2323.45,2553.668,350.099975585938,44.1617469787598,8.87949180603027,2.19340896606445,1.57534098625183,-0.780585467815399,2.31892966906885,1.76595253302764,-0.579732417267213,0
1.279999,3.29724597930908,2.84745931625366,5.20227813720703,3.13098816570144,2.88123521838438,5.21725295857464,2526.506,2548.389,2322.691,2516.187,351.120025634766,44.3223190307617,7.70697641372681,2.14028596878052,1.57201969623566,-0.751076698303223,2.31279504521862,1.74334147867317,-0.578198761304655,0
1.3,3.33912515640259,2.87882804870605,5.18780565261841,3.1771821901991,2.9158738123654,5.20570445245022,2510.623,2490.525,2304.186,2471.412,352.05224609375,44.464225769043,6.55354595184326,2.09395575523376,1.56842458248138,-0.723625421524048,2.3065690789732,1.72045499378815,-0.576642269743301,0
1.32,3.38020372390747,2.91011500358582,5.17384195327759,3.22325050951668,2.95005174912531,5.19418737262083,2498.616,2464.642,2275.219,2413.95,352.895416259766,44.5868873596191,5.41272687911987,2.05393075942993,1.56434905529022,-0.698176503181458,2.30025209034131,1.69729696523018,-0.575063022585326,0
1.34,3.42059898376465,2.94130659103394,5.16034889221191,3.26919158066594,2.98376383940446,5.18270210483351,2485.002,2458.264,2248.429,2348.111,353.641815185547,44.6908721923828,4.29712200164795,2.01976561546326,1.55957329273224,-0.674662113189697,2.29384429186875,1.67387091431691,-0.573461072967187,0
1.36,3.46041870117188,2.97238445281982,5.14728832244873,3.31500358997552,3.01700475968317,5.17124910250612,2465.314,2452.716,2232.971,2286.872,354.285369873047,44.7781105041504,3.23124289512634,1.99098515510559,1.55389952659607,-0.653017103672028,2.28734593652397,1.65018054028629,-0.571836484130991,0
1.38,3.49976015090942,3.00332736968994,5.13462495803833,3.36068472886917,3.04976926084477,5.15982881778271,2438.544,2434.006,2230.846,2242.327,354.827575683594,44.8512420654297,2.23811531066895,1.96705663204193,1.54718708992004,-0.633179366588593,2.2807572808504,1.62622958411588,-0.570189320212601,0
1.399999,3.53870820999146,3.03411483764648,5.12232351303101,3.40623319393719,3.0820521690046,5.1484417015157,2407.932,2398.91,2236.495,2219.204,355.278991699219,44.9126930236816,1.32820928096771,1.94741344451904,1.53936553001404,-0.615080595016479,2.27407858495641,1.60202182793209,-0.568519646239104,0
1.419999,3.57733917236328,3.06472373008728,5.11035060882568,3.45164718700761,3.11384838632693,5.1370882032481,2379.175,2354.267,2241.235,2212.927,355.655395507813,44.9641189575195,0.496053755283356,1.93151164054871,1.53042197227478,-0.598639249801636,2.26731011250497,1.57756109441295,-0.566827528126243,0
1.439999,3.61571598052979,3.09513068199158,5.09867525100708,3.49692491521716,3.14515289183005,5.12576877119571,2357.248,2312.959,2238.745,2211.275,355.971313476563,45.0064544677734,359.725036621094,1.91888248920441,1.52037060260773,-0.583759546279907,2.26045213070327,1.55285124618447,-0.565113032675817,0
1.459999,3.65389823913574,3.12531447410583,5.08726835250854,3.54206459108206,3.17596074217906,5.11448385222949,2342.973,2284.596,2228.365,2203.798,356.235198974609,45.0403594970703,358.998107910156,1.90915489196777,1.50921905040741,-0.57033771276474,2.25350491029217,1.5278961852107,-0.563376227573043,0
1.479999,3.69194030761719,3.15525436401367,5.07610273361206,3.5870644325686,3.20626707246653,5.10323389185785,2334.588,2272.532,2213.037,2185.308,356.448608398438,45.0665740966797,358.306213378906,1.90203654766083,1.49695241451263,-0.558270454406738,2.24646872553552,1.50269985217754,-0.561617181383879,0
1.5,3.72988510131836,3.18492436408997,5.0651535987854,3.63192293011408,3.23606727308458,5.09201926747148,2327.051,2271.952,2198.661,2159.156,356.608367919922,45.0861511230469,357.652008056641,1.89727306365967,1.48353636264801,-0.54746025800705,2.23934381147797,1.47726607357486,-0.559835952869493,0
1.52,3.76777696609497,3.21430325508118,5.05439710617065,3.67663777803466,3.26535628300541,5.08084055549134,2313.883,2273.979,2191.014,2134.356,356.711395263672,45.1002349853516,357.046264648438,1.89460361003876,1.46893548965454,-0.537816345691681,2.23213053433329,1.45159916887225,-0.558032633583323,0
1.539999,3.80565214157104,3.24336647987366,5.04381227493286,3.72120747886802,3.29412965629944,5.069698130283,2295.597,2270.747,2188.965,2118.914,356.760070800781,45.1098976135254,356.500457763672,1.8937394618988,1.4531341791153,-0.529252946376801,2.22482913666522,1.4257030402706,-0.556207284166304,0
1.559999,3.84354019165039,3.27208948135376,5.03337860107422,3.76563027308204,3.32238284932613,5.05859243172949,2273.233,2259.102,2190.625,2116.415,356.761474609375,45.1158676147461,356.019683837891,1.89437615871429,1.43615090847015,-0.521685242652893,2.21743990671987,1.39958177706102,-0.554359976679967,0
1.579999,3.88146352767944,3.30044960975647,5.02307796478271,3.80990440694422,3.35011140058729,5.04752389826394,2251.351,2241.327,2191.761,2123.892,356.726226806641,45.1186141967773,355.600036621094,1.89621996879578,1.41803395748138,-0.515028834342957,2.20996313621084,1.37323950408592,-0.552490784052709,0
1.599999,3.91944408416748,3.32842683792114,5.01289415359497,3.8540281325909,3.37731093143158,5.03649296685228,2234.207,2222.829,2189.319,2134.426,356.664428710938,45.1185264587402,355.230712890625,1.89901888370514,1.39884674549103,-0.50920033454895,2.20239912030766,1.34668038108763,-0.550599780076915,0
1.619999,3.95749568939209,3.35599946975708,5.00281190872192,3.89799970809626,3.40397714674598,5.02550007297594,2224.586,2209.547,2182.301,2139.982,356.582580566406,45.1161193847656,354.899291992188,1.90257680416107,1.37864935398102,-0.504120290279388,2.19474815762416,1.31990860205156,-0.54868703940604,0
1.639999,3.99563074111938,3.38314890861511,4.99281740188599,3.9418173975411,3.430105835634,5.01454565061473,2219.438,2204.147,2173.726,2137.656,356.481872558594,45.112060546875,354.597686767578,1.90674722194672,1.35748624801636,-0.499715894460678,2.18701055020667,1.29292839454389,-0.546752637551668,0
1.659999,4.03385877609253,3.40985655784607,4.98289918899536,3.98547947108137,3.45569287208062,5.00363013222966,2215.742,2204.974,2166.314,2129.149,356.360809326172,45.1070556640625,354.324523925781,1.91140854358673,1.33538377285004,-0.495921015739441,2.1791866035221,1.26574401904405,-0.544796650880525,0
1.679999,4.07218742370605,3.43610453605652,4.97304582595825,4.02898420501646,3.4807342156039,4.99275394874589,2209.621,2207.974,2162.431,2119.787,356.217834472656,45.1016120910645,354.083770751953,1.91643977165222,1.31236064434052,-0.492674857378006,2.17127662644588,1.23835976827185,-0.54281915661147,0
1.699999,4.1106219291687,3.46187353134155,4.96324729919434,4.07233013974042,3.50522605622914,4.9819174650649,2199.735,2208.759,2162.216,2114.955,356.053894042969,45.0959777832031,353.880676269531,1.92170739173889,1.28844094276428,-0.489920288324356,2.16328088333682,1.21077980154696,-0.540820220834205,0
1.719999,4.14916229248047,3.48714637756348,4.95349550247192,4.1155150473137,3.529164234458,4.97112123817158,2187.014,2205.277,2164.188,2117.076,355.873321533203,45.0901107788086,353.717651367188,1.92706799507141,1.26366353034973,-0.48760187625885,2.15519978516846,1.18300880283039,-0.538799946292116,0
1.739999,4.18780994415283,3.51190781593323,4.94378232955933,4.1585374817097,3.5525451178058,4.96036562957257,2174.559,2197.519,2165.87,2125.368,355.682556152344,45.083911895752,353.59228515625,1.93238341808319,1.2380827665329,-0.485665559768677,2.14703360356517,1.15505099366628,-0.536758400891292,0
1.759999,4.22656106948853,3.5361430644989,4.93410110473633,4.20139574447961,3.57536501416708,4.9496510638801,2166.069,2188.557,2165.161,2135.024,355.487915039063,45.0773468017578,353.497741699219,1.93753790855408,1.21176290512085,-0.48405995965004,2.13878266091318,1.12691078890839,-0.534695665228295,0
1.779999,4.26540946960449,3.55983853340149,4.92444658279419,4.24408814365583,3.59762032002254,4.93897796408604,2161.995,2181.481,2162.224,2142.201,355.292816162109,45.0706062316895,353.426025390625,1.94244790077209,1.18476593494415,-0.482737243175507,2.13044728294497,1.09859263221278,-0.532611820736243,0
1.799999,4.30435132980347,3.5829815864563,4.91481351852417,4.28661299381876,3.61930752100809,4.92834675154531,2161.188,2178.22,2158.459,2144.581,355.097808837891,45.0640411376953,353.371063232422,1.94705808162689,1.15714275836945,-0.481654673814774,2.12202779872636,1.07010099533613,-0.53050694968159,0
1.819999,4.3433780670166,3.60556030273438,4.905198097229,4.32896861616332,3.64042319246981,4.91775784595917,2161.855,2178.966,2155.403,2142.107,354.901641845703,45.057975769043,353.330352783203,1.95132899284363,1.12893056869507,-0.480774730443954,2.11352454064353,1.04144037742962,-0.528381135160884,0
1.839999,4.38248252868652,3.62756276130676,4.89559698104858,4.37115333856526,3.66096400000478,4.90721166535868,2160.741,2181.309,2154.719,2138.652,354.702697753906,45.0526161193848,353.305297851563,1.95522379875183,1.10015761852264,-0.480064034461975,2.10493784438992,1.01261530432842,-0.526234461097481,0
1.859999,4.42165660858154,3.64898037910461,4.88600730895996,4.41316549564715,3.68092669998755,4.89670862608821,2157.301,2183.016,2156.336,2136.954,354.501159667969,45.0479202270508,353.29833984375,1.9586980342865,1.07085144519806,-0.479491919279099,2.09626804895295,0.983630327837047,-0.524067012238236,0
1.879999,4.4608907699585,3.66980147361755,4.87642669677734,4.45500342884413,3.70030814008238,4.88624914278897,2152.695,2181.901,2158.938,2139.253,354.299255371094,45.0436782836914,353.311004638672,1.96170139312744,1.04104602336884,-0.479029297828674,2.08751549660063,0.954490025010562,-0.521878874150157,0
1.899999,4.5001745223999,3.690016746521,4.86685371398926,4.49666573426741,3.71910537003336,4.87583356643315,2147.871,2178.696,2161.487,2144.813,354.100128173828,45.039680480957,353.341766357422,1.96418523788452,1.01078462600708,-0.478648215532303,2.07868047996264,0.925198822403495,-0.519670119990659,0
1.919999,4.53949689865112,3.70961952209473,4.85728740692139,4.53815027051438,3.73731519746925,4.86546243237141,2145,2174.323,2162.773,2151.657,353.907043457031,45.0357780456543,353.386993408203,1.96611201763153,0.980114698410034,-0.478322327136993,2.06976345315037,0.89576169459947,-0.517440863287592,0
1.939999,4.5788459777832,3.72860026359558,4.84772682189941,4.57945564870094,3.75493486063677,4.85513608782476,2145.268,2170.519,2162.37,2157.204,353.721862792969,45.0320243835449,353.441802978516,1.96746098995209,0.949082732200623,-0.478027790784836,2.06076471577682,0.866183115909663,-0.515191178944205,0
1.959999,4.61820983886719,3.74695515632629,4.83817195892334,4.6205802381646,3.77196157719215,4.84485494045885,2147.015,2169.262,2161.533,2159.796,353.544311523438,45.0285491943359,353.502258300781,1.9682275056839,0.917728364467621,-0.477743804454803,2.05168462309606,0.836467757125624,-0.512921155774016,0
1.979999,4.65757846832275,3.76467680931091,4.82862281799316,4.66152241538009,3.7883926584246,4.83461939615498,2149.899,2169.691,2160.847,2159.974,353.373229980469,45.0255279541016,353.566650390625,1.96841597557068,0.886081159114838,-0.4774529337883,2.04252353357392,0.806620310638028,-0.51063088339348,0
1.999999,4.69693851470947,3.78175973892212,4.81907987594604,4.70228056402342,3.80422550968086,4.82442985899414,2151.833,2171.949,2161.421,2158.495,353.207061767578,45.023021697998,353.635131835938,1.96803188323975,0.854164242744446,-0.477140545845032,2.03328180887383,0.776645489695688,-0.508320452218458,0
2.019999,4.73627996444702,3.79820036888123,4.8095440864563,4.74285307503576,3.81945763077494,4.81428673124106,2151.852,2173.799,2163.569,2158.176,353.045196533203,45.0209884643555,353.709228515625,1.967076420784,0.821997344493866,-0.476794123649597,2.02395981384257,0.74654802766128,-0.505989953460642,0
2.039999,4.7755913734436,3.8139922618866,4.80001592636108,4.78323834668689,3.83408661638295,4.80419041332828,2151.286,2174.25,2166.232,2159.669,352.888549804688,45.0192680358887,353.789978027344,1.96554529666901,0.789602816104889,-0.476402342319489,2.01455791649583,0.716332677263898,-0.503639479123958,0
2.059999,4.81485986709595,3.8291323184967,4.79049682617188,4.82343478463848,3.84811015642287,4.79414130384038,2150.209,2173.597,2168.954,2163.003,352.738555908203,45.017692565918,353.876892089844,1.96343410015106,0.757007956504822,-0.475954651832581,2.00507648800372,0.686004209848535,-0.50126912200093,0
2.079999,4.85407447814941,3.84361743927002,4.78098821640015,4.86344080200701,3.86152603641939,4.78413979949825,2150.178,2171.719,2170.825,2167.597,352.596862792969,45.016170501709,353.968292236328,1.96074295043945,0.724242448806763,-0.475441336631775,1.99551590267608,0.65556741462264,-0.49887897566902,0
2.099999,4.89322328567505,3.8574435710907,4.77149105072021,4.90325481942644,3.87433213785358,4.77418629514339,2151.876,2170.155,2171.531,2171.487,352.464294433594,45.0146827697754,354.061401367188,1.95748031139374,0.691336333751678,-0.474853754043579,1.98587653794773,0.625027097899846,-0.496469134486933,0
2.119999,4.932297706604,3.87060952186584,4.76200723648071,4.94287526511052,3.88652643849742,4.76428118372237,2154.474,2169.954,2171.744,2173.739,352.340454101563,45.0133018493652,354.153930664063,1.95366322994232,0.658315479755402,-0.474184840917587,1.97615877436357,0.594388082341001,-0.494039693590892,0
2.139999,4.97128391265869,3.88311409950256,4.75253868103027,4.98230057491488,3.89810701273315,4.75442485627128,2158.078,2171.097,2171.667,2174.017,352.224304199219,45.0121078491211,354.244812011719,1.94931364059448,0.62519896030426,-0.473429441452026,1.96636299556352,0.563655206192613,-0.49159074889088,0
2.159999,5.01017189025879,3.89495396614075,4.74308681488037,5.02152919239877,3.90907203185735,4.74461770190031,2160.428,2172.668,2172.566,2174.19,352.114135742188,45.0111541748047,354.334411621094,1.94445371627808,0.592000961303711,-0.472584009170532,1.95648958826742,0.532833322522834,-0.489122397066855,0
2.179999,5.04895496368408,3.90612816810608,4.7336540222168,5.06055956888649,3.91941976436968,4.73486010777838,2161.474,2174.666,2174.508,2174.206,352.009399414063,45.0104217529297,354.423278808594,1.9391006231308,0.558732867240906,-0.471646428108215,1.94653894225975,0.501927298455112,-0.486634735564937,0
2.199999,5.08761978149414,3.91663718223572,4.72424173355103,5.09939062522885,3.92914868852763,4.72515234369279,2162.389,2176.168,2176.573,2174.694,351.910400390625,45.0098304748535,354.512329101563,1.93326842784882,0.525406181812286,-0.470615446567535,1.93651133038061,0.47094164457289,-0.484127832595152,0
2.219999,5.12615966796875,3.9264771938324,4.71485185623169,5.13801990265382,3.93825703607419,4.71549502433655,2162.589,2176.025,2178.791,2177.339,351.817718505859,45.00927734375,354.602020263672,1.92697012424469,0.492035388946533,-0.469489991664886,1.92640738757568,0.439881992598514,-0.481601846893921,0
2.239999,5.16456413269043,3.93565034866333,4.70548629760742,5.17644634023761,3.94674348836719,4.7058884149406,2163.497,2176.226,2180.359,2179.502,351.732177734375,45.0087089538574,354.691131591797,1.92021894454956,0.458637595176697,-0.46826907992363,1.91622739365069,0.408752878290719,-0.479056848412672,0
2.259999,5.20282363891602,3.94415473937988,4.69614744186401,5.21466842097317,3.95460670529998,4.69633289475671,2165.405,2175.621,2181.078,2182.223,351.654083251953,45.0081176757813,354.778839111328,1.9130334854126,0.42522919178009,-0.466952055692673,1.90597175049359,0.37755921728814,-0.476492937623398,0
2.279999,5.24093341827393,3.95199179649353,4.68683671951294,5.25268463592107,3.96184544518184,4.68682884101973,2167.549,2175.867,2181.537,2183.989,351.582916259766,45.0075302124023,354.863708496094,1.90543484687805,0.391825437545776,-0.465538829565048,1.89564086297885,0.346305935422063,-0.473910215744712,0
2.299999,5.27888298034668,3.9591600894928,4.67755603790283,5.2904934842691,3.96845856493399,4.67737662893273,2170.659,2176.992,2181.484,2184.291,351.517913818359,45.0070190429688,354.945129394531,1.89744687080383,0.358436912298203,-0.464030504226685,1.88523513895143,0.31499796793858,-0.471308784737857,0
2.319999,5.31666374206543,3.96566104888916,4.66830730438232,5.32809347339151,3.97444502027016,4.66797663165212,2172.361,2178.678,2182.33,2184.388,351.457733154297,45.0066032409668,355.023376464844,1.88909292221069,0.325070768594742,-0.462428629398346,1.87475498921072,0.283640258719261,-0.46868874730268,0
2.339999,5.35427093505859,3.97149610519409,4.65909242630005,5.36548311890795,3.97980386586146,4.65862922027301,2173.409,2180.056,2183.711,2184.751,351.401947021484,45.0062866210938,355.099182128906,1.88039219379425,0.291731804609299,-0.460735857486725,1.8642008274943,0.252237759500457,-0.466050206873575,0
2.359999,5.39169883728027,3.97666478157043,4.64991331100464,5.40266094474205,3.98453425548566,4.64933476381449,2174.47,2181.204,2185.036,2185.22,351.350708007813,45.0060119628906,355.172973632813,1.87136149406433,0.25842547416687,-0.458954811096191,1.8535730704616,0.220795429091366,-0.463393267615401,0
2.379999,5.42893981933594,3.98116731643677,4.64077138900757,5.4396254831797,3.98863544216083,4.64009362920508,2175.282,2182.143,2186.304,2186.026,351.304138183594,45.0057601928711,355.245056152344,1.86201679706573,0.22515869140625,-0.457088053226471,1.84287213767748,0.189318232590981,-0.46071803441937,0
2.399999,5.46598625183105,3.98500633239746,4.63166856765747,5.47637527492699,3.99210677826328,4.63090618126825,2175.984,2182.529,2187.436,2187.447,351.262420654297,45.0054779052734,355.315490722656,1.8523736000061,0.191939488053322,-0.455138146877289,1.83209845159563,0.157811140604043,-0.458024612898908,0
2.419999,5.50283718109131,3.98818230628967,4.62260627746582,5.51290886916786,3.99494771562985,4.62177278270804,2177.176,2182.276,2188.098,2189.301,351.225769042969,45.0051727294922,355.3837890625,1.84244811534882,0.158776491880417,-0.453107625246048,1.82125243754192,0.126279128456131,-0.455313109385481,0
2.439999,5.53948020935059,3.99069476127625,4.61358642578125,5.54922482362129,3.99715780564445,4.61269379409468,2179.367,2182.97,2188.002,2189.784,351.193939208984,45.0048675537109,355.449127197266,1.83225786685944,0.125677675008774,-0.450998991727829,1.8103345236976,0.0947271754079949,-0.4525836309244,0
2.459999,5.57591724395752,3.99254822731018,4.60460996627808,5.58532170459833,3.99873669930891,4.60366957385042,2180.016,2183.511,2188.803,2190.869,351.165893554688,45.0045700073242,355.511535644531,1.82182228565216,0.0926483571529388,-0.448815017938614,1.79934514108239,0.0631602638692801,-0.449836285270597,0
2.479999,5.61214065551758,3.99374198913574,4.59567880630493,5.62119808705865,3.9996841472981,4.59470047823534,2182.327,2184.665,2188.641,2190.465,351.141754150391,45.0043144226074,355.57080078125,1.81115794181824,0.0596915371716022,-0.446559190750122,1.78828472353747,0.0315833786117471,-0.447071180884367,0
2.499999,5.6481466293335,3.9942786693573,4.58679389953613,5.65685255466679,3.99999999999928,4.5857868613333,2183.066,2185.952,2189.359,2190.434,351.120361328125,45.0041084289551,355.627563476563,1.80028235912323,0.0268097594380379,-0.444234520196915,1.77715370770835,1.50598211707259E-06,-0.444288426927088,0
2.519999,5.68392944335938,3.99415874481201,4.57795715332031,5.6922836998481,3.99968420753574,4.57692907503797,2183.758,2186.862,2190.135,2190.594,351.101776123047,45.0039291381836,355.682434082031,1.78920865058899,-0.00599553808569908,-0.441844671964645,1.76595253302764,-0.0315803668853245,-0.441488133256911,0
2.539999,5.71949005126953,3.99338459968567,4.56916952133179,5.72749012384432,3.99873681977468,4.56812746903892,2183.774,2187.408,2191.237,2191.282,351.085968017578,45.0037498474121,355.735717773438,1.77794849872589,-0.0387214086949825,-0.439392894506454,1.7546816416977,-0.0631572528562547,-0.438670410424426,0
2.559999,5.75481986999512,3.99195694923401,4.56043195724487,5.76247043676875,3.99715798631933,4.55938239080781,2184.873,2188.021,2191.511,2191.48,351.073486328125,45.0035591125488,355.787322998047,1.76651298999786,-0.0713641196489334,-0.436882436275482,1.74334147867317,-0.0947241655838397,-0.435835369668292,0
2.579999,5.7899169921875,3.9898784160614,4.55174541473389,5.79722325766118,3.9949479564853,4.5506941855847,2185.092,2188.039,2192.158,2192.613,351.063903808594,45.0033721923828,355.837463378906,1.75491440296173,-0.103918924927711,-0.434315979480743,1.73193249164341,-0.126276120296131,-0.432983122910851,0
2.599999,5.824782371521,3.98715138435364,4.5431113243103,5.8317476247308,3.99210704163684,4.5420630938173,2186.094,2188.149,2192.258,2193.261,351.057434082031,45.0031661987305,355.885650634766,1.74316370487213,-0.136381685733795,-0.431696236133575,1.72045499378815,-0.157808510335837,-0.430113748447038,0
2.619999,5.85940742492676,3.98377633094788,4.53453063964844,5.86604135190401,3.98863575811752,4.533489662024,2187.802,2188.809,2191.795,2193.064,351.053680419922,45.0029640197754,355.931671142578,1.73127377033234,-0.168748885393143,-0.429025650024414,1.70890971185948,-0.189315604609907,-0.427227427964869,0
2.639999,5.89379119873047,3.97975540161133,4.52600431442261,5.90010349825062,3.9845346239756,4.52497412543735,2188.057,2189.391,2192.247,2193.332,351.051696777344,45.0027732849121,355.975860595703,1.71925675868988,-0.201018527150154,-0.426306933164597,1.69729696523018,-0.220792803812411,-0.424324241307544,0
2.659999,5.92793560028076,3.97509169578552,4.51753330230713,5.93393271905798,3.97980428682645,4.51651682023551,2188.455,2190.112,2192.682,2193.192,351.051544189453,45.0026397705078,356.018341064453,1.70712184906006,-0.2331902384758,-0.423543125391006,1.68561721235073,-0.252235137338183,-0.421404303087683,0
2.679999,5.96183204650879,3.96978616714478,4.50911855697632,5.96752767880893,3.97444549364373,4.50811808029777,2189.44,2191.032,2192.654,2192.593,351.053253173828,45.0025024414063,356.059539794922,1.6948778629303,-0.265263020992279,-0.420736938714981,1.67387091431691,-0.283637640087738,-0.418467728579227,0
2.699999,5.9954833984375,3.96384286880493,4.50076055526733,6.00088705123451,3.96845909064138,4.49977823719137,2188.962,2191.121,2193.489,2193.292,351.056396484375,45.0023803710938,356.100067138672,1.682532787323,-0.297234952449799,-0.417890876531601,1.66205853485155,-0.314995353251318,-0.415514633712888,0
2.719999,6.02888488769531,3.95725917816162,4.49246025085449,6.03400951936633,3.96184602314004,4.49149762015842,2189.79,2191.288,2193.432,2193.383,351.061492919922,45.0022621154785,356.1396484375,1.67009210586548,-0.329103708267212,-0.415007412433624,1.65018054028629,-0.346303325091951,-0.412545135071573,0
2.739999,6.06203460693359,3.95004200935364,4.48421859741211,6.06689377558856,3.95460733541774,4.48327655610286,2189.379,2191.81,2194.064,2193.544,351.068237304688,45.0021286010742,356.178375244141,1.6575630903244,-0.360866159200668,-0.412088453769684,1.63823739954312,-0.37755661172738,-0.40955934988578,0
2.759999,6.09493446350098,3.94219255447388,4.47603607177734,6.09953852168954,3.94674417054498,4.47511536957761,2190.139,2191.448,2193.888,2194.115,351.076995849609,45.0019874572754,356.21630859375,1.64495205879211,-0.392520099878311,-0.409136265516281,1.62622958411588,-0.408750277910757,-0.40655739602897,0
2.779999,6.1275806427002,3.93371152877808,4.46791315078735,6.13194246891306,3.93825777020431,4.46701438277174,2191.238,2191.924,2193.373,2193.748,351.087432861328,45.0018463134766,356.253143310547,1.63226616382599,-0.424061894416809,-0.406152546405792,1.61415756805166,-0.439879397809979,-0.403539392012916,0
2.799999,6.1599702835083,3.92460155487061,4.4598503112793,6.16410433800919,3.92914947449414,4.4589739154977,2191.46,2192.428,2193.433,2193.554,351.098815917969,45.0017280578613,356.289184570313,1.61951231956482,-0.455489844083786,-0.403138905763626,1.60202182793209,-0.47093905578553,-0.400505456983021,0
2.819999,6.19210433959961,3.91486430168152,4.45184850692749,6.19602285928485,3.91942072171722,4.45099428517879,2191.306,2192.667,2193.813,2193.592,351.111053466797,45.0016288757324,356.324768066406,1.6066951751709,-0.486803114414215,-0.400097459554672,1.58982284285447,-0.501924347166715,-0.397455710713618,0
2.839999,6.2239818572998,3.90450549125671,4.44390773773193,6.22769677265387,3.90907304815345,4.44307580683653,2191.334,2193.177,2194.054,2193.221,351.124420166016,45.0015449523926,356.359924316406,1.59381794929504,-0.518000483512878,-0.397030025720596,1.57756109441295,-0.532830379026164,-0.394390273603236,0
2.859999,6.2555980682373,3.8935239315033,4.43602895736694,6.25912482768676,3.89810808781734,4.43521879307831,2191.855,2193.001,2193.872,2193.398,351.138977050781,45.0014686584473,356.395080566406,1.58088457584381,-0.549079775810242,-0.393938153982162,1.56523706667942,-0.563652270952482,-0.391309266669854,0
2.879999,6.28695678710938,3.88192296028137,4.42821264266968,6.2903057836601,3.88652757219993,4.42742355408498,2191.22,2192.996,2194.41,2193.757,351.154418945313,45.0013809204102,356.430084228516,1.56789827346802,-0.580037891864777,-0.390822947025299,1.55285124618447,-0.594385155820918,-0.388212811546118,0
2.899999,6.31805419921875,3.86970543861389,4.42045879364014,6.32123840960547,3.87433332999538,4.41969039759863,2191.795,2193.382,2194.112,2193.278,351.171234130859,45.0012893676758,356.464721679688,1.55486154556274,-0.610872685909271,-0.387685894966125,1.54040412189816,-0.62502418056194,-0.38510103047454,0
2.919999,6.3488883972168,3.85687303543091,4.41276836395264,6.35192148435811,3.86152728681223,4.41201962891047,2191.896,2193.356,2194.05,2193.385,351.189086914063,45.0012016296387,356.499450683594,1.54177892208099,-0.641581177711487,-0.384528130292892,1.5278961852107,-0.655564506927591,-0.381974046302676,0
2.939999,6.37946128845215,3.84343028068542,4.40514135360718,6.38235379660507,3.8481114648693,4.40441155084873,2191.836,2193.385,2194.108,2193.408,351.207885742188,45.0011215209961,356.534149169922,1.52865290641785,-0.672160625457764,-0.381350517272949,1.51532792991308,-0.686001312255502,-0.37883198247827,0
2.959999,6.40977096557617,3.82937717437744,4.39757823944092,6.41253414493307,3.83408798267635,4.39686646376673,2192.479,2193.457,2193.669,2193.129,351.227661132813,45.0010375976563,356.56884765625,1.51548588275909,-0.702608406543732,-0.378154307603836,1.50269985217754,-0.716329790230444,-0.375674963044385,0
2.979999,6.43981742858887,3.81471967697144,4.39007949829102,6.44246133787589,3.81945905469956,4.38938466553103,2192.278,2193.828,2193.781,2192.787,351.247985839844,45.0009689331055,356.603668212891,1.50228035449982,-0.732921898365021,-0.374940276145935,1.49001245053802,-0.7465451516433,-0.372503112634506,0
2.999999,6.4695987701416,3.79945874214172,4.38264513015747,6.47213454616916,3.80422680584576,4.38196636345771,2192.615,2193.64,2193.54,2192.773,351.268951416016,45.0009117126465,356.638946533203,1.48903751373291,-0.763099312782288,-0.371709376573563,1.47726607357486,-0.776642983215941,-0.369316518393715,0
3.019999,6.49911308288574,3.78359484672546,4.3752760887146,6.50155189091332,3.78839400461539,4.37461202727167,2192.21,2193.567,2193.784,2192.854,351.290313720703,45.0008659362793,356.674591064453,1.47575783729553,-0.793137669563293,-0.36846250295639,1.46446152838521,-0.806617814590012,-0.366115382096302,0
3.039999,6.52836227416992,3.76713395118713,4.36797189712524,6.53071256601083,3.77196297319625,4.36732185849729,2191.381,2193.829,2194.337,2192.661,351.312377929688,45.0008201599121,356.710540771484,1.46244144439697,-0.823034822940826,-0.3652004301548,1.45159916887225,-0.836465271903491,-0.362899792218062,0
3.059999,6.55734443664551,3.75007891654968,4.36073350906372,6.55961542025036,3.75493630623374,4.36009614493741,2191.751,2193.734,2193.997,2192.484,351.335723876953,45.0007667541504,356.747009277344,1.44908928871155,-0.852788269519806,-0.361924111843109,1.43867950281894,-0.866180641905858,-0.359669875704734,0
3.079999,6.5860595703125,3.73243069648743,4.35356092453003,6.58825931259888,3.73731669243081,4.35293517185028,2192.012,2193.531,2193.628,2192.514,351.360046386719,45.0007057189941,356.783996582031,1.43570351600647,-0.882393479347229,-0.358633577823639,1.4257030402706,-0.895759232204667,-0.35642576006765,0
3.099999,6.61450386047363,3.71419382095337,4.34645414352417,6.61664311224674,3.71910691412343,4.34583922193831,2192.098,2193.744,2193.388,2192.134,351.385101318359,45.0006484985352,356.821441650391,1.42228519916534,-0.911846518516541,-0.355329304933548,1.41267029351478,-0.925196372006533,-0.353167573378695,0
3.119999,6.64268112182617,3.69537115097046,4.33941411972046,6.64476569865226,3.70030984684121,4.33880857533694,2191.844,2193.29,2193.43,2192.449,351.410705566406,45.0005950927734,356.859558105469,1.40883505344391,-0.941144287586212,-0.352011829614639,1.39958177706102,-0.9544874128547,-0.349895444265256,0
3.139999,6.67058753967285,3.67596483230591,4.33244037628174,6.67262596158599,3.68092845885331,4.3318435096035,2192.192,2193.51,2193.05,2191.874,351.436981201172,45.000560760498,356.898040771484,1.39535284042358,-0.97028374671936,-0.348681569099426,1.38643800762056,-0.98362772936309,-0.346609501905141,0
3.159999,6.69822406768799,3.65597939491272,4.32553339004517,6.70022280117457,3.66096581069974,4.32494429970636,2191.625,2193.487,2193.305,2191.792,351.463653564453,45.0005378723145,356.937194824219,1.38183927536011,-0.99926221370697,-0.345338940620422,1.37323950408592,-1.0126127199467,-0.34330987602148,0
3.179999,6.72558975219727,3.63541865348816,4.3186936378479,6.7275551279441,3.64042505470803,4.31811121801397,2191.58,2193.412,2193.194,2191.582,351.491058349609,45.0005149841309,356.977111816406,1.36829376220703,-1.02807688713074,-0.341984480619431,1.35998678751042,-1.04143780754823,-0.339996696877606,0
3.199999,6.75268459320068,3.61428475379944,4.31192111968994,6.75462186286317,3.61930943449549,4.31134453428421,2191.53,2193.186,2193.031,2191.551,351.519134521484,45.0004844665527,357.017791748047,1.35471630096436,-1.0567239522934,-0.33861842751503,1.34668038108763,-1.07009844036089,-0.336670095271908,0
3.219999,6.77950668334961,3.59257984161377,4.30521631240845,6.78142193738547,3.59762228445698,4.30464451565363,2191.397,2193.22,2192.908,2191.28,351.547912597656,45.0004577636719,357.059173583984,1.3411066532135,-1.08519983291626,-0.335240960121155,1.33332081013068,-1.09859009254714,-0.333330202532671,0
3.239999,6.80605602264404,3.57031083106995,4.29857921600342,6.80795429349197,3.57536702923834,4.29801142662701,2190.921,2193.222,2193.037,2191.104,351.577331542969,45.0004234313965,357.101409912109,1.32746469974518,-1.11350095272064,-0.331852376461029,1.31990860205156,-1.12690826495341,-0.329977150512889,0
3.259999,6.83233165740967,3.54747700691223,4.29201030731201,6.83421788373267,3.55254718319569,4.29144552906683,2191.183,2192.705,2192.622,2191.234,351.607666015625,45.0003929138184,357.14453125,1.31379020214081,-1.14162361621857,-0.328452944755554,1.30644428634026,-1.15504848582051,-0.326611071585064,0
3.279999,6.85833358764648,3.52408719062805,4.28550958633423,6.86021167126799,3.52916634984035,4.284947082183,2190.704,2192.917,2192.722,2190.833,351.638641357422,45.0003700256348,357.188293457031,1.3000830411911,-1.16956317424774,-0.32504266500473,1.29292839454389,-1.18300631148985,-0.323232098635974,0
3.299999,6.88406085968018,3.50014042854309,4.27907705307007,6.88593462990966,3.50522822126993,4.27851634252259,2191.199,2192.324,2192.112,2190.958,351.670471191406,45.0003433227539,357.232940673828,1.28634333610535,-1.19731652736664,-0.321621835231781,1.27936146024572,-1.21077732710506,-0.31984036506143,0
3.319999,6.90951156616211,3.47564339637756,4.27271318435669,6.91138574416124,3.48073657758521,4.27215356395969,2190.695,2192.613,2192.219,2190.464,351.702697753906,45.0003280639648,357.278198242188,1.27257096767426,-1.22487914562225,-0.318190455436707,1.26574401904405,-1.23835714730922,-0.316436004761012,0
3.339999,6.9346866607666,3.45059752464294,4.26641798019409,6.93656400925825,3.45569528629326,4.26585899768544,2190.494,2192.186,2192.141,2190.552,351.735595703125,45.0003089904785,357.324371337891,1.25876557826996,-1.2522486448288,-0.314748734235764,1.25207660853111,-1.2657414169373,-0.313019152132778,0
3.359999,6.95958518981934,3.42500996589661,4.26019191741943,6.96146843120779,3.43010830169674,4.25963289219805,2190.138,2192.423,2192.158,2190.018,351.769226074219,45.0002937316895,357.371215820313,1.24492645263672,-1.27942097187042,-0.311296850442886,1.23835976827185,-1.29292581170394,-0.309589942067962,0
3.379999,6.984206199646,3.39888143539429,4.25403499603271,6.9860980268278,3.40397966426941,4.25347549329305,2190.314,2191.977,2191.747,2190.048,351.803741455078,45.0002861022949,357.419097900391,1.23105382919312,-1.30639255046844,-0.307834953069687,1.22459403978259,-1.31990603888625,-0.306148509945648,0
3.399999,7.00854873657227,3.3722186088562,4.24794769287109,7.01045211245829,3.37731317894509,4.24738697188543,2189.9,2192.048,2191.758,2189.712,351.8388671875,45.0002670288086,357.467803955078,1.21714723110199,-1.33315873146057,-0.304362922906876,1.21077980154696,-1.34667815588757,-0.30269495038674,0
3.419999,7.03261280059814,3.34502458572388,4.24193000793457,7.03452914600511,3.35011369242612,4.24136771349872,2189.939,2191.477,2191.442,2189.877,351.874816894531,45.0002555847168,357.517517089844,1.20320630073547,-1.35971570014954,-0.300880908966064,1.19691792827879,-1.37323729680673,-0.299229482069697,0
3.439999,7.05639743804932,3.317302942276,4.2359824180603,7.05832846891599,3.32238518512839,4.235417882771,2189.775,2191.457,2191.266,2189.541,351.911407470703,45.0002365112305,357.567932128906,1.18923044204712,-1.38605916500092,-0.297388970851898,1.18300880283039,-1.39957958805125,-0.295752200707596,0
3.459999,7.07990074157715,3.28905892372131,4.23010444641113,7.08184914163619,3.29413203569628,4.22953771459095,2189.467,2191.382,2191.206,2189.269,351.948638916016,45.0002403259277,357.619140625,1.17521965503693,-1.41218566894531,-0.293887197971344,1.16905297430916,-1.42570086987591,-0.292263243577291,0
3.479999,7.10312461853027,3.26029706001282,4.22429704666138,7.1050902356116,3.2653587056211,4.2237274410971,2189.132,2191.022,2191.173,2189.273,351.986633300781,45.0002326965332,357.671264648438,1.16117358207703,-1.43809139728546,-0.290375828742981,1.15505099366628,-1.45159701743537,-0.28876274841657,0
3.499999,7.12606620788574,3.23102211952209,4.21855974197388,7.12805083332538,3.23606973853655,4.21798729166866,2189.285,2190.983,2190.736,2188.859,352.025543212891,45.0002250671387,357.724151611328,1.14709186553955,-1.46377241611481,-0.286854773759842,1.14100341367491,-1.47726394143554,-0.285250853418727,0
3.519999,7.14872646331787,3.20123744010925,4.21289348602295,7.15073002833416,3.20626975950124,4.21231749291646,2189.039,2190.617,2190.593,2188.87,352.065063476563,45.0002174377441,357.777923583984,1.13297486305237,-1.48922443389893,-0.283324122428894,1.12691078890839,-1.50269758877931,-0.281727697227097,0
3.539999,7.17110347747803,3.17094922065735,4.20729780197144,7.17312692530388,3.17596347426833,4.20671826867403,2188.874,2190.65,2190.4,2188.433,352.105285644531,45.0002136230469,357.832458496094,1.11882185935974,-1.51444375514984,-0.27978378534317,1.11277367571836,-1.52789394320658,-0.27819341892959,0
3.559999,7.19319534301758,3.14015984535217,4.20177316665649,7.19524064004508,3.14515566854247,4.20118983998873,2188.664,2190.232,2190.241,2188.452,352.146148681641,45.0002098083496,357.887939453125,1.10463285446167,-1.53942680358887,-0.276234000921249,1.09859263221278,-1.55284902592849,-0.274648158053194,0
3.579999,7.21500396728516,3.10887718200684,4.19631958007813,7.21707029954782,3.11385120722403,4.19573242511305,2187.967,2190.068,2190.476,2188.297,352.187713623047,45.0002098083496,357.944183349609,1.09040701389313,-1.56416952610016,-0.272674828767776,1.08436821823389,-1.57755889625571,-0.271092054558472,0
3.599999,7.23652744293213,3.07710313796997,4.19093751907349,7.23861504201617,3.08205503364091,4.19034623949596,2188.283,2189.752,2189.89,2188.098,352.230377197266,45.0002021789551,358.001159667969,1.07614421844482,-1.58866834640503,-0.269106388092041,1.07010099533613,-1.60201965222071,-0.267525248834032,0
3.619999,7.25776290893555,3.04484581947327,4.18562698364258,7.25987401690222,3.04977216876795,4.18503149577445,2187.927,2189.792,2189.803,2187.703,352.273742675781,45.0002021789551,358.058868408203,1.06184554100037,-1.61291873455048,-0.265528470277786,1.05579152676396,-1.62622743119393,-0.26394788169099,0
3.639999,7.27871417999268,3.01210713386536,4.1803879737854,7.28084638493963,3.01700771043401,4.17978840376509,2187.811,2189.057,2189.549,2188.004,352.317901611328,45.0002059936523,358.117492675781,1.04751074314117,-1.63691711425781,-0.261941254138947,1.04144037742962,-1.65017841049374,-0.260360094357404,0
3.659999,7.29937553405762,2.97889399528503,4.17522096633911,7.30153131817681,2.98376683251702,4.1746171704558,2187.816,2189.489,2189.188,2187.117,352.362854003906,45.0001945495605,358.176544189453,1.03313970565796,-1.66065907478333,-0.258344769477844,1.02704811389082,-1.67386880799008,-0.256762028472706,0
3.679999,7.31975173950195,2.94521069526672,4.17012596130371,7.32192800000956,2.95005478412693,4.16951799999761,2187.292,2188.842,2189.266,2187.392,352.408386230469,45.0002021789551,358.236602783203,1.01873326301575,-1.68414187431335,-0.254738986492157,1.01261530432842,-1.69729488270168,-0.253153826082105,0
3.699999,7.3398380279541,2.91106367111206,4.16510343551636,7.34203562521336,2.91587688877682,4.16449109369666,2187.454,2189.104,2188.785,2186.626,352.454772949219,45.0002021789551,358.297302246094,1.00429046154022,-1.70736134052277,-0.251124113798141,0.998142518523923,-1.72045293538684,-0.249535629630981,0
3.719999,7.35963344573975,2.87645721435547,4.16015338897705,7.3618533999751,2.88123854354229,4.15953665000623,2187.072,2188.465,2188.733,2186.869,352.501739501953,45.0002098083496,358.359069824219,0.989811778068542,-1.73031389713287,-0.247500136494637,0.983630327837047,-1.74333930912756,-0.245907581959262,0
3.739999,7.3791389465332,2.84139728546143,4.15527582168579,7.38138054192445,2.84614521820916,4.15465486451889,2186.546,2188.041,2188.818,2186.896,352.549438476563,45.0002098083496,358.421508789063,0.975296080112457,-1.75299537181854,-0.243867188692093,0.969079305183139,-1.76595038990701,-0.242269826295785,0
3.759999,7.39835357666016,2.80589008331299,4.15047121047974,7.40061628016476,2.81060245440973,4.14984592995881,2186.472,2187.833,2188.516,2186.64,352.59814453125,45.0002098083496,358.484436035156,0.960743546485901,-1.77540218830109,-0.240225493907928,0.954490025010562,-1.78828260718023,-0.238622506252641,0
3.779999,7.41727733612061,2.76993894577026,4.14573955535889,7.41956007938427,2.77461543313082,4.14510998015393,2186.513,2187.609,2188.089,2186.407,352.647735595703,45.0002021789551,358.547882080078,0.946155428886414,-1.79753088951111,-0.236574873328209,0.939862888688571,-1.81033269559556,-0.234965722172143,0
3.799999,7.4359073638916,2.7335524559021,4.1410813331604,7.43821074006671,2.73819069510616,4.14044731498332,2186.339,2187.777,2187.843,2185.81,352.697998046875,45.0002059936523,358.611846923828,0.931532680988312,-1.81937777996063,-0.232915446162224,0.925198822403495,-1.83209664749267,-0.231299705600874,0
3.819999,7.45424461364746,2.69673347473145,4.13649654388428,7.45656775348548,2.70133356585334,4.13585806162863,2186.142,2187.302,2187.633,2185.838,352.748931884766,45.0001983642578,358.676666259766,0.916875779628754,-1.84093999862671,-0.229247272014618,0.91049823092277,-1.8535712906426,-0.227624557730693,0
3.839999,7.47228908538818,2.65948867797852,4.13198518753052,7.4746303949385,2.66404986552924,4.13134240126537,2185.753,2187.357,2187.595,2185.352,352.800506591797,45.0001945495605,358.742095947266,0.902184307575226,-1.86221396923065,-0.22557058930397,0.89576169459947,-1.87475323395674,-0.223940423649868,0
3.859999,7.49003791809082,2.62182521820068,4.12754726409912,7.49239795134498,2.6263454816511,4.12690051216376,2185.607,2187.175,2187.344,2185.071,352.852874755859,45.0001945495605,358.808380126953,0.887458324432373,-1.88319623470306,-0.22188563644886,0.880989795205707,-1.89563913256706,-0.220247448801427,0
3.879999,7.507493019104,2.58374667167664,4.12318325042725,7.50986972127354,2.58822636816687,4.12253256968162,2185.36,2186.423,2187.18,2185.38,352.906005859375,45.0001945495605,358.875579833984,0.872697710990906,-1.90388298034668,-0.218192294239998,0.866183115909663,-1.91622568835434,-0.216545778977416,0
3.899999,7.52465152740479,2.54526233673096,4.11889362335205,7.52704501496994,2.54969854451498,4.11823874625751,2185.189,2186.446,2186.942,2184.908,352.9599609375,45.0001983642578,358.943206787109,0.857902228832245,-1.92427003383636,-0.214490592479706,0.851342241252568,-1.93650965046899,-0.212835560313142,0
