t,x_s1,x_s2,x_s3,x_s_d1,x_s_d2,x_s_d3,propellers_rpms1,propellers_rpms2,propellers_rpms3,propellers_rpms4,rollRad,pitchRad,yawRad,v_s1,v_s2,v_s3,v_s_d1,v_s_d2,v_s_d3,insideCount
0,0,0,6,0,0,6,0,0,0,0,0,45.0048027038574,0,0,0,0,2.51327412287183,2.51327412287183,0.628318530717959,0
0.01999999,-6.93889390390723E-17,-1.75416334236012E-10,6,0.0502651318759909,0.0502641396861051,6.012566282969,0,0,0,0,-4.71187853179345E-08,45.0048027038574,4.57171331902373E-08,-3.68531795724258E-15,-8.77082051431444E-09,8.78962147510265E-09,2.51322451303154,2.51307568546915,0.628306128257884,0
0.03999998,-1.38777878078145E-16,-3.50832668472023E-10,5.99607610702515,0.10052827937221,0.100520342088142,6.02513206984305,0,0,0,0,-9.42375706358689E-08,45.0048027038574,9.14342663804746E-08,-3.68531838075906E-15,-8.77082051431444E-09,-0.1961999386549,2.51307568546915,2.51248040459664,0.628268921367288,0
0.05999998,-2.22044604925031E-16,-5.26249044341398E-10,5.98822832107544,0.150787467548239,0.150760680531453,6.03769686688706,4202.353,3251.32,2198.065,3272.298,-1.41356366611944E-07,45.0048027038574,1.37151431545135E-07,-3.68531880427553E-15,-8.77082051431444E-09,-0.392399907112122,2.51282764600469,2.51148837403426,0.628206911501173,0
0.07999997,-6.93369917037501E-10,-1.67538938278256E-09,5.98241233825684,0.201040684176284,0.200977193423868,6.05026017104407,1980.066,3555.301,5043.536,3580.933,359.117797851563,45.0130729675293,359.990966796875,-3.46684991825441E-08,-5.74570435674104E-08,-0.290811151266098,2.51248040459664,2.51009975110014,0.628120101149161,0
0.09999996,-7.03304613125511E-05,-7.1755719545763E-05,5.97919654846191,0.251285982787691,0.251161988412928,6.06282149569692,0,261.3971,13133.12,279.5583,359.584014892578,45.0286254882813,359.970977783203,-0.00351648940704763,-0.00358770345337689,-0.160786360502243,2.51203397469478,2.50831475403926,0.628008493673695,0
0.12,-0.000170766201335937,-0.000178098620381206,5.97835826873779,0.301521361062907,0.301307122029002,6.07538034026573,0,3011.756,7332.922,3008.559,5.83012628555298,44.198314666748,359.903991699219,-0.00502178817987442,-0.00531714782118797,-0.0419240072369576,2.51148837403426,2.50613366516667,0.627872093508566,0
0.14,0.00017195861437358,0.000156509719090536,5.97971773147583,0.351744835796042,0.351404675777497,6.08793620894901,3626.081,4944.925,1613.716,5207.456,15.3024978637695,43.2450866699219,359.761535644531,0.0171362441033125,0.0167304221540689,0.0679622441530228,2.51084362415446,2.50355682890144,0.627710906038616,0
0.1599999,0.0018187154782936,0.00183449045289308,5.98399448394775,0.401954386847736,0.401446701415612,6.10048859671193,7500.413,5293.843,0,5809.074,22.3985214233398,42.739559173584,359.612670898438,0.0823378711938858,0.0838990733027458,0.213843613862991,2.51009975110014,2.50058465451733,0.627524937775036,0
0.1799999,0.00572498422116041,0.00587229244410992,5.99227333068848,0.4521481068496,0.451425371298209,6.1130370267124,6327.18,5719.092,2300.757,6161.516,26.1935482025146,42.4820098876953,359.337188720703,0.195313453674316,0.201890110969543,0.413943767547607,2.50925678312967,2.49721760692611,0.627314195782417,0
0.1999999,0.0125290742143989,0.0129126254469156,6.00510787963867,0.502323976825855,0.501332755911331,6.12558099420646,3980.227,5688.542,5295.251,5901.999,28.2186851501465,42.4670829772949,358.980712890625,0.340204685926437,0.352016866207123,0.641735672950745,2.50831475403926,2.49345621989061,0.627078688509816,0
0.2199999,0.0225286092609167,0.0231908541172743,6.02249002456665,0.552480015919895,0.551160974303691,6.13812000397997,2787.182,5466.01,6772.312,5357.89,30.825569152832,42.5998344421387,358.604888916016,0.499976933002472,0.513911545276642,0.869110822677612,2.50727370101861,2.48930108737722,0.626818425254651,0
0.2399999,0.0359535552561283,0.0368563383817673,6.04401206970215,0.602614244058005,0.600902158025261,6.1506535610145,3394.259,5226.394,6445.155,4864.858,35.1879692077637,42.7622566223145,358.293151855469,0.671247601509094,0.683274328708649,1.07610595226288,2.50613366516667,2.48475286552924,0.626533416291668,0
0.2599999,0.053171306848526,0.0542201697826385,6.06911325454712,0.652724644701686,0.650548415417708,6.16318116117542,5105.835,5067.835,5058.133,4647.347,40.8925247192383,42.8781623840332,358.106018066406,0.860888004302979,0.868191659450531,1.25505387783051,2.50489469245006,2.47981227639034,0.626223673112514,0
0.2799999,0.0746893808245659,0.0757702589035034,6.09721183776855,0.702809351554995,0.700092017615155,6.17570233788875,6569.424,4961.286,3773.254,4692.693,46.5744590759277,42.9472618103027,358.057220458984,1.07590413093567,1.07750535011292,1.40491878986359,2.50355682890144,2.47448008865607,0.625889207225361,0
0.2999999,0.10099334269762,0.102003552019596,6.12771701812744,0.752866238099748,0.749524993473992,6.18821655952494,6902.408,4818.209,3297.604,4807.663,51.0245170593262,43.01611328125,358.111572265625,1.31519818305969,1.31166481971741,1.52526319026947,2.50212013132442,2.46875716023003,0.625530032831105,0
0.3199999,0.132360309362411,0.133221879601479,6.16004180908203,0.802893402831224,0.798839610873337,6.20072335070781,6150.61,4608.689,3560.282,4815.879,53.887393951416,43.1203727722168,358.191345214844,1.56834900379181,1.5609165430069,1.61623990535736,2.50058465451733,2.4626443871732,0.625146163629334,0
0.3399999,0.168797418475151,0.169447213411331,6.19363737106323,0.852888945240915,0.848028155677042,6.21322223631023,4936.745,4363.77,4054.895,4647.726,55.6100425720215,43.2637557983398,358.211883544922,1.8218549489975,1.81126713752747,1.67977094650269,2.4989504565894,2.45614272478402,0.624737614147351,0
0.3599999,0.210112854838371,0.2104781717062,6.22799253463745,0.902850742596418,0.897082713867206,6.2257126856491,3928.6,4108.544,4288.604,4314.61,56.9446296691895,43.4358558654785,358.134490966797,2.06577348709106,2.05154943466187,1.71775591373444,2.49721760692611,2.44925321912458,0.624304401731527,0
0.3799999,0.256026178598404,0.256002098321915,6.26260423660278,0.952776971386818,0.945995685344312,6.2381942428467,3517.184,3834.407,4008.622,3875.623,58.4378967285156,43.6251220703125,357.983795166016,2.29566812515259,2.27619767189026,1.73058032989502,2.49538616877318,2.44197693759678,0.623846542193295,0
0.3999999,0.306243360042572,0.305683493614197,6.29696464538574,1.00266551182266,0.994759200427862,6.25066637795567,3701.207,3516.55,3258.768,3411.57,60.1475257873535,43.8235473632813,357.823486328125,2.5108585357666,2.48407006263733,1.71801722049713,2.49345621989061,2.43431505089236,0.623364054972654,0
0.4199998,0.360476732254028,0.35919851064682,6.33058452606201,1.05251446881644,1.04336563180166,6.26312861720411,4171.632,3140.211,2300.722,2991.401,61.6620750427246,44.0346870422363,357.71875,2.71166849136353,2.67574954032898,1.68098926544189,2.49142783381372,2.42626875835511,0.62285695845343,0
0.4399998,0.418426930904388,0.416225075721741,6.36303520202637,1.10232194860738,1.09180737601859,6.27558048715185,4552.232,2716.324,1431.927,2646.626,62.3524703979492,44.2715110778809,357.699371337891,2.89751243591309,2.85133290290833,1.62253105640411,2.48930108737722,2.41783931773983,0.622325271844305,0
0.4599998,0.479758232831955,0.47641921043396,6.39398622512817,1.15208583644794,1.14007663921462,6.28802145911199,4636.049,2278.465,816.048,2366.92,61.6684532165527,44.5369873046875,357.733978271484,3.06656837463379,3.00970816612244,1.54755628108978,2.48707607087943,2.40902808527173,0.621769017719857,0
0.4799998,0.54409122467041,0.539401531219482,6.42321968078613,1.20180431605052,1.1881659429572,6.30045107901263,4471.564,1860.844,434.7196,2108.762,59.301944732666,44.8152961730957,357.739379882813,3.21664786338806,3.14911699295044,1.46168458461761,2.48475286552924,2.39983642608885,0.62118821638231,0
0.4999998,0.611015558242798,0.604763150215149,6.45061588287354,1.25147527644637,1.23606755008696,6.31286881911159,4289.77,1470.86,164.002,1805.78,55.1575508117676,45.0903701782227,357.629150390625,3.34622073173523,3.2680823802948,1.3698103427887,2.48233156996631,2.39026581905087,0.620582892491577,0
0.5199998,0.680112898349762,0.672082781791687,6.47612142562866,1.30109683083542,1.28377396819391,6.32527420770885,4388.413,1011.825,0,1315.649,49.1960563659668,45.3583374023438,357.355163574219,3.45486736297607,3.3659827709198,1.27528727054596,2.47981227639034,2.38031776205113,0.619953069097585,0
0.5399998,0.750975668430328,0.740945100784302,6.49972343444824,1.35066702024738,1.33127766389595,6.33766675506185,4785.176,479.3605,0,613.3289,41.3002700805664,45.5898399353027,356.897094726563,3.54313826560974,3.44312047958374,1.18010056018829,2.47719508425855,2.36999382600017,0.619298771064637,0
0.5599998,0.823216199874878,0.810952067375183,6.52143335342407,1.40018403523031,1.37857127644815,6.35004600880758,4761.099,344.4317,0,137.2003,31.2909622192383,45.7364234924316,356.282135009766,3.6120285987854,3.50034427642822,1.08549821376801,2.47448008865607,2.35929560872494,0.618620022164018,0
0.5799998,0.896462857723236,0.881720781326294,6.54127931594849,1.44964562579813,1.42564705576746,6.36241140644953,3478.039,632.6135,737.9202,0,21.1845626831055,45.7763786315918,355.772338867188,3.66233277320862,3.53843379020691,0.992309629917145,2.47166741294864,2.34822486336013,0.61791685323716,0
0.5999998,0.970401346683502,0.952932894229889,6.55927896499634,1.49904998694798,1.47249770931943,6.374762496737,2279.052,1022.376,1391.085,0,11.9577512741089,45.709644317627,355.528839111328,3.69692969322205,3.56061315536499,0.899994552135468,2.46875716023003,2.33678330677515,0.617189290057507,0
0.6199998,1.04477751255035,1.02433633804321,6.57546377182007,1.54839516828402,1.51911583885686,6.387098792071,801.4781,1602.716,1795.223,553.143,3.53757309913635,45.5146408081055,355.664123535156,3.71880221366882,3.57017517089844,0.809248805046082,2.46574944539181,2.324972745721,0.616437361347953,0
0.6399997,1.11936569213867,1.09571623802185,6.58990430831909,1.59767922174667,1.56549408285072,6.39941980543667,0,1386.576,2863.13,748.5973,355.95361328125,45.223949432373,356.187194824219,3.72941017150879,3.56898975372314,0.722033321857452,2.4626443871732,2.31279504521862,0.6156610967933,0
0.6599998,1.19394648075104,1.16687297821045,6.6027135848999,1.6469003482838,1.61162525475834,6.41172508707095,0,593.0792,4157.717,601.097,349.623596191406,44.7181625366211,356.973114013672,3.72904801368713,3.55784201622009,0.640460252761841,2.45944209846805,2.30025209034131,0.614860524617012,0
0.6799998,1.26830792427063,1.23762309551239,6.61402130126953,1.69605631135408,1.65750179498776,6.42401407783852,0,398.8907,4437.2,905.329,345.113311767578,43.8229713439941,357.823944091797,3.71806883811951,3.53749990463257,0.565389811992645,2.45614272478402,2.28734593652397,0.614035681196004,0
0.6999997,1.34227132797241,1.30781316757202,6.62396049499512,1.74514531715302,1.7031165969686,6.43628632928826,0,1059.92,3421.405,1660.325,342.553039550781,42.566463470459,358.556884765625,3.69817662239075,3.50951886177063,0.496948182582855,2.45274638697575,2.27407858495641,0.613186596743936,0
0.7199997,1.41571354866028,1.37733066082001,6.63267469406128,1.79416542773441,1.74846245760858,6.4485413569336,0,2254.585,1685.879,2604.91,341.505187988281,41.1863708496094,359.071868896484,3.67210984230042,3.47586941719055,0.435707747936249,2.44925321912458,2.26045213070327,0.612313304781145,0
0.7399997,1.48856258392334,1.44609570503235,6.64032506942749,1.84311470787192,1.7935322162843,6.46077867696798,0,3477.332,0,3464.995,341.210266113281,40.0054893493652,359.373168945313,3.64244842529297,3.43826127052307,0.382514834403992,2.44566335913454,2.24646872553552,0.611415839783635,0
0.7599998,1.56077575683594,1.51404941082001,6.6470799446106,1.89199137068862,1.83831888901733,6.47299784267216,499.8838,3547.381,0,3289.709,340.925201416016,39.3101654052734,359.524261474609,3.61066865921021,3.39767289161682,0.337742388248444,2.44197693759678,2.23213053433329,0.610494234399196,0
0.7799997,1.63231110572815,1.58113014698029,6.65310621261597,1.94079319529519,1.88281513654102,6.4851982988238,891.1772,3451.891,159.5517,3186.331,340.42529296875,39.0614624023438,359.639984130859,3.57675576210022,3.35403871536255,0.301309257745743,2.43819412201731,2.21743990671987,0.609548530504329,0
0.7999997,1.70311522483826,1.64727509021759,6.65854692459106,1.98951840085572,1.92701406629545,6.49737960021393,1289.668,2885.615,1029.658,2808.35,339.605682373047,39.2086219787598,359.735168457031,3.54021716117859,3.30724954605103,0.272031545639038,2.43431505089236,2.20239912030766,0.608578762723089,0
0.8199997,1.77311944961548,1.71241223812103,6.66352462768555,2.0381650637862,1.97090869877055,6.50954126594655,1512.267,2320.637,1980.85,2488.467,338.672668457031,39.5965766906738,359.776794433594,3.50020503997803,3.25685477256775,0.248894035816193,2.43033987736071,2.18701055020667,0.607584969340177,0
0.8399997,1.84224820137024,1.7764675617218,6.66814231872559,2.08673126360332,2.01449210250823,6.52168281590083,1639.012,1979.298,2644.945,2293.865,337.947082519531,40.0802154541016,359.7099609375,3.45643520355225,3.2027702331543,0.230887770652771,2.42626875835511,2.17127662644588,0.606567189588777,0
0.8599997,1.91043877601624,1.8393771648407,6.6724910736084,2.13521522736886,2.05775752365685,6.53380380684221,1824.393,1894.168,2882.903,2179.238,337.665893554688,40.5633430480957,359.508758544922,3.40953493118286,3.14548516273499,0.217428788542747,2.42210184203514,2.15519978516846,0.605525460508785,0
0.8799997,1.97765600681305,1.90109634399414,6.67665815353394,2.18361475203719,2.10069787223981,6.5459036880093,2122.513,1988.813,2762.633,2102.301,337.851989746094,40.996711730957,359.205718994141,3.36085844039917,3.0859522819519,0.208364948630333,2.41783931773983,2.13878266091318,0.604459829434958,0
0.8999997,2.04389333724976,1.96160078048706,6.68073225021362,2.23192807149848,2.14330649690938,6.55798201787462,2457.151,2149.729,2479.751,2059.113,338.320495605469,41.3658981323242,358.879577636719,3.31187534332275,3.02522659301758,0.203711733222008,2.41348134147033,2.12202779872636,0.603370335367582,0
0.9199997,2.1091639995575,2.02088260650635,6.68479824066162,2.28015327842924,2.18557666928263,6.57003831960731,2691.571,2282.049,2247.755,2067.743,338.798858642578,41.6789321899414,358.613677978516,3.26353120803833,2.96408987045288,0.203299596905708,2.40902808527173,2.10493784438992,0.602257021317934,0
0.9399996,2.17348313331604,2.07893967628479,6.68893003463745,2.3282884689845,2.22750171442207,6.58207211724613,2730.653,2341.286,2197.041,2137.58,339.08154296875,41.9525451660156,358.453765869141,3.2159435749054,2.90285158157349,0.206589534878731,2.40447972495065,2.08751549660063,0.601119931237662,0
0.9599997,2.23685479164124,2.13576769828796,6.69318532943726,2.3763318859144,2.26907513525719,6.5940829714786,2582.524,2335.635,2330.126,2251.749,339.128875732422,42.2001914978027,358.390014648438,3.16857886314392,2.84141159057617,0.212771281599998,2.39983642608885,2.06976345315037,0.599959106522214,0
0.9799997,2.29927015304565,2.19135856628418,6.6976056098938,2.42428134619115,2.3102901190823,6.60607033654779,2352.024,2304.626,2545.359,2370.292,339.064819335938,42.4280052185059,358.369049072266,3.12077116966248,2.77953195571899,0.221022322773933,2.39509839967156,2.05168462309606,0.598774599917891,0
0.9999996,2.36071515083313,2.2457013130188,6.70222043991089,2.47213510017392,2.35114028201171,6.61803377504348,2176.964,2289.545,2709.111,2450.144,339.085632324219,42.6373977661133,358.326690673828,3.07225704193115,2.71714949607849,0.230738580226898,2.39026581905087,2.03328180887383,0.597566454762717,0
1.02,2.42118310928345,2.29879212379456,6.70705318450928,2.51989125868207,2.39161917334345,6.62997281467052,2149.434,2311.165,2734.185,2467.944,339.340606689453,42.8285942077637,358.22265625,3.02341556549072,2.65454316139221,0.24162931740284,2.38533887500841,2.01455791649583,0.596334718752102,0
1.04,2.48068523406982,2.35063743591309,6.7121262550354,2.56754793638781,2.43172040100351,6.64188698409695,2271.707,2361.922,2620.682,2431.367,339.852935791016,43.0023460388184,358.058380126953,2.97510600090027,2.59226775169373,0.253655314445496,2.38031776205113,1.99551590267608,0.595079440512783,0
1.06,2.53924989700317,2.40125608444214,6.71746349334717,2.6151032518907,2.47143763255526,6.65377581297268,2463.909,2415.876,2445.499,2371.259,340.518859863281,43.1609382629395,357.870208740234,2.92824029922485,2.53092789649963,0.266851782798767,2.3752026784036,1.97615877436357,0.5938006696009,0
1.08,2.59691739082336,2.45067501068115,6.7230863571167,2.6625553277919,2.51076459619938,6.66563883194797,2616.454,2445.46,2310.043,2324.408,341.176513671875,43.3084106445313,357.705169677734,2.88336300849915,2.47093486785889,0.281138271093369,2.36999382600017,1.95648958826742,0.592498456500043,0
1.1,2.65372633934021,2.49892234802246,6.72901105880737,2.70990257266144,2.54969531261442,6.67747564316536,2652.531,2438.555,2281.079,2313.903,341.699127197266,43.4485244750977,357.594360351563,2.84046626091003,2.41238498687744,0.296238154172897,2.36469137859371,1.93651133038061,0.591172844648429,0
1.12,2.70970892906189,2.54602479934692,6.73524618148804,2.75714255289629,2.58822317011881,6.68928563822407,2565.542,2403.115,2358.122,2340.253,342.057922363281,43.5820846557617,357.538970947266,2.79911518096924,2.35510969161987,0.31174436211586,2.35929560872494,1.91622739365069,0.589823902181236,0
1.14,2.76488447189331,2.59200167655945,6.74179124832153,2.80427368607174,2.62634231796054,6.70106842151794,2416.12,2360.589,2480.688,2383.394,342.325073242188,43.7066955566406,357.513275146484,2.75878310203552,2.29885625839233,0.32725927233696,2.35380669808295,1.89564086297885,0.588451674520739,0
1.16,2.81926774978638,2.63687133789063,6.74864149093628,2.85129411153491,2.66404673669576,6.71282352788373,2289.307,2332.518,2570.386,2416.41,342.620239257813,43.8189888000488,357.481719970703,2.71919226646423,2.24348759651184,0.342511832714081,2.34822486336013,1.87475498921072,0.587056215840031,0
1.18,2.87287783622742,2.68065333366394,6.75578927993774,2.89820197300345,2.70133047237102,6.72455049325086,2248.646,2328.822,2574.033,2420.174,343.038757324219,43.9173583984375,357.418731689453,2.6804666519165,2.18908190727234,0.357396930456161,2.34255032491731,1.8535730704616,0.585637581229328,0
1.2,2.92573857307434,2.72337102890015,6.76322793960571,2.94499541863885,2.7381876374635,6.73624885465971,2302.352,2344.81,2491.486,2392.496,343.600219726563,44.002857208252,357.320678710938,2.6430401802063,2.13589382171631,0.371935158967972,2.33678330677515,1.83209845159563,0.584195826693788,0
1.22,2.97788619995117,2.76505517959595,6.77095174789429,2.99167260111951,2.77461241181065,6.74791815027988,2405.193,2364.74,2370.025,2348.031,344.244689941406,44.0789527893066,357.205047607422,2.60739731788635,2.08421063423157,0.386181592941284,2.33092403660521,1.8103345236976,0.582731009151303,0
1.24,3.02936244010925,2.80573892593384,6.77895450592041,3.03823167771371,2.81059904352932,6.75955791942843,2490.876,2372.632,2272.062,2307.236,344.87353515625,44.1499824523926,357.097930908203,2.57381010055542,2.03420162200928,0.40013512969017,2.324972745721,1.78828472353747,0.581243186430251,0
1.26,3.08020639419556,2.84545564651489,6.78722858428955,3.08467081035234,2.84614184992405,6.77116770258808,2508.841,2360.794,2240.452,2285.993,345.405914306641,44.2191429138184,357.019226074219,2.54221773147583,1.98584282398224,0.413703411817551,2.31892966906885,1.76595253302764,0.579732417267213,0
1.279999,3.13045287132263,2.88423490524292,6.79576349258423,3.13098816570144,2.88123521838438,6.78274704142536,2451.068,2332.537,2276.715,2288.074,345.819976806641,44.2868995666504,356.972778320313,2.51229333877563,1.93894851207733,0.426734179258347,2.31279504521862,1.74334147867317,0.578198761304655,0
1.3,3.18012499809265,2.92210006713867,6.8045449256897,3.1771821901991,2.9158738123654,6.79429554754978,2351.885,2299.804,2344.923,2303.735,346.157012939453,44.3511276245117,356.946228027344,2.48364353179932,1.89328527450562,0.439080446958542,2.3065690789732,1.72045499378815,0.576642269743301,0
1.32,3.22924566268921,2.95907497406006,6.81355810165405,3.22325050951668,2.95005174912531,6.80581262737917,2263.436,2274.663,2396.561,2317.743,346.490661621094,44.408878326416,356.919555664063,2.45601558685303,1.84869349002838,0.450654536485672,2.30025209034131,1.69729696523018,0.575063022585326,0
1.34,3.27783370018005,2.99517726898193,6.82278680801392,3.26919158066594,2.98376383940446,6.81729789516649,2228.206,2263.593,2396.455,2316.702,346.882629394531,44.4584579467773,356.87646484375,2.4293999671936,1.80515146255493,0.461445480585098,2.29384429186875,1.67387091431691,0.573461072967187,0
1.36,3.32591342926025,3.03043270111084,6.83221673965454,3.31500358997552,3.01700475968317,6.82875089749388,2252.173,2265.101,2343.859,2297.261,347.348388671875,44.5003623962402,356.812438964844,2.40398597717285,1.76275181770325,0.471500188112259,2.28734593652397,1.65018054028629,0.571836484130991,0
1.38,3.37351369857788,3.06486463546753,6.8418345451355,3.36068472886917,3.04976926084477,6.84017118221729,2310.981,2270.257,2265.279,2266.516,347.854309082031,44.5369720458984,356.735809326172,2.38000988960266,1.72161293029785,0.480880916118622,2.2807572808504,1.62622958411588,0.570189320212601,0
1.399999,3.4206657409668,3.09850025177002,6.85162687301636,3.40623319393719,3.0820521690046,6.8515582984843,2361.97,2270.88,2200.049,2236.135,348.339996337891,44.5713310241699,356.661163330078,2.35759663581848,1.68178761005402,0.48962539434433,2.27407858495641,1.60202182793209,0.568519646239104,0
1.419999,3.46739864349365,3.13136434555054,6.86158132553101,3.45164718700761,3.11384838632693,6.8629117967519,2372.696,2261.471,2175.23,2217.119,348.754302978516,44.605583190918,356.601318359375,2.33667826652527,1.64321219921112,0.497729778289795,2.26731011250497,1.57756109441295,0.566827528126243,0
1.439999,3.51373958587646,3.16347932815552,6.87168455123901,3.49692491521716,3.14515289183005,6.87423122880429,2335.769,2243.386,2193.416,2213.032,349.08154296875,44.6400032043457,356.560333251953,2.31702423095703,1.60572719573975,0.505161941051483,2.26045213070327,1.55285124618447,0.565113032675817,0
1.459999,3.55970692634583,3.19486260414124,6.88192224502563,3.54206459108206,3.17596074217906,6.88551614777051,2271.54,2222.577,2233.236,2219.069,349.345977783203,44.6731071472168,356.532531738281,2.29835748672485,1.56914556026459,0.511889338493347,2.25350491029217,1.5278961852107,0.563376227573043,0
1.479999,3.60531568527222,3.22552824020386,6.89228010177612,3.5870644325686,3.20626707246653,6.89676610814215,2212.256,2205.53,2264.977,2226.287,349.593292236328,44.7028160095215,356.5068359375,2.28047871589661,1.53332805633545,0.517903745174408,2.24646872553552,1.50269985217754,0.561617181383879,0
1.5,3.65058279037476,3.2554931640625,6.90274477005005,3.63192293011408,3.23606727308458,6.90798073252852,2184.689,2196.223,2266.743,2225.874,349.863616943359,44.7278747558594,356.473114013672,2.26333379745483,1.4982236623764,0.523229539394379,2.23934381147797,1.47726607357486,0.559835952869493,0
1.52,3.69552254676819,3.28476977348328,6.91330289840698,3.67663777803466,3.26535628300541,6.91915944450866,2196.361,2193.806,2235.25,2214.491,350.169860839844,44.7484588623047,356.427520751953,2.246994972229,1.46385622024536,0.527916252613068,2.23213053433329,1.45159916887225,0.558032633583323,0
1.539999,3.74015426635742,3.31337547302246,6.92394351959229,3.72120747886802,3.29412965629944,6.930301869717,2230.661,2194.765,2187.496,2195.292,350.493072509766,44.7660865783691,356.37353515625,2.23157525062561,1.43027210235596,0.532020270824432,2.22482913666522,1.4257030402706,0.556207284166304,0
1.559999,3.78449678421021,3.34132480621338,6.93465518951416,3.76563027308204,3.32238284932613,6.94140756827051,2262.594,2193.832,2146.461,2175.533,350.797210693359,44.7827262878418,356.319458007813,2.21713066101074,1.39747989177704,0.535586297512054,2.21743990671987,1.39958177706102,0.554359976679967,0
1.579999,3.82856917381287,3.36863374710083,6.94542789459229,3.80990440694422,3.35011140058729,6.95247610173606,2269.797,2188.487,2130.141,2162.06,351.050140380859,44.799747467041,356.273071289063,2.20360660552979,1.3654203414917,0.538638770580292,2.20996313621084,1.37323950408592,0.552490784052709,0
1.599999,3.87238621711731,3.39531326293945,6.95625162124634,3.8540281325909,3.37731093143158,6.96350703314772,2247.421,2178.555,2140.404,2157.988,351.241516113281,44.8173141479492,356.237884521484,2.19085097312927,1.33397567272186,0.541186809539795,2.20239912030766,1.34668038108763,0.550599780076915,0
1.619999,3.91595959663391,3.42137384414673,6.967116355896,3.89799970809626,3.40397714674598,6.97449992702406,2206.379,2167.127,2165.412,2161.116,351.385650634766,44.8344535827637,356.211517333984,2.17867851257324,1.30301237106323,0.5432368516922,2.19474815762416,1.31990860205156,0.54868703940604,0
1.639999,3.95929861068726,3.44682168960571,6.9780125617981,3.9418173975411,3.430105835634,6.98545434938527,2167.793,2157.239,2186.303,2166.094,351.511596679688,44.8498191833496,356.18798828125,2.16694760322571,1.27242755889893,0.54480391740799,2.18701055020667,1.29292839454389,0.546752637551668,0
1.659999,4.00241088867188,3.47166562080383,6.98893070220947,3.98547947108137,3.45569287208062,6.99636986777034,2148.686,2151.565,2189.312,2166.93,351.645538330078,44.8624954223633,356.161071777344,2.15560340881348,1.24217557907104,0.54591691493988,2.1791866035221,1.26574401904405,0.544796650880525,0
1.679999,4.04530429840088,3.49591064453125,6.9998631477356,4.02898420501646,3.4807342156039,7.00724605125411,2154.365,2149.361,2171.906,2161.549,351.797210693359,44.8725700378418,356.1279296875,2.14467167854309,1.21226000785828,0.546615839004517,2.17127662644588,1.23835976827185,0.54281915661147,0
1.699999,4.08798837661743,3.51956510543823,7.01080179214478,4.07233013974042,3.50522605622914,7.0180825349351,2175.234,2149.509,2143.884,2150.799,351.95654296875,44.8809967041016,356.08984375,2.13420796394348,1.18270146846771,0.546943545341492,2.16328088333682,1.21077980154696,0.540820220834205,0
1.719999,4.1304726600647,3.54263496398926,7.02174043655396,4.1155150473137,3.529164234458,7.02887876182842,2195.54,2149.066,2119.377,2139.181,352.101989746094,44.8889999389648,356.051239013672,2.12424063682556,1.15349972248077,0.546936213970184,2.15519978516846,1.18300880283039,0.538799946292116,0
1.739999,4.17276763916016,3.5651273727417,7.03267288208008,4.1585374817097,3.5525451178058,7.03963437042743,2201.125,2146.812,2109.574,2130.799,352.2138671875,44.8974494934082,356.016784667969,2.11473417282104,1.12461352348328,0.546619296073914,2.14703360356517,1.15505099366628,0.536758400891292,0
1.759999,4.21487903594971,3.58704614639282,7.04359292984009,4.20139574447961,3.57536501416708,7.0503489361199,2188.237,2142.339,2116.162,2128.056,352.285369873047,44.9064636230469,355.989105224609,2.10559439659119,1.09596610069275,0.54600864648819,2.13878266091318,1.12691078890839,0.534695665228295,0
1.779999,4.25681304931641,3.60839605331421,7.05449533462524,4.24408814365583,3.59762032002254,7.06102203591396,2162.874,2136.822,2132.484,2130.371,352.325103759766,44.9154014587402,355.967529296875,2.09670472145081,1.06747138500214,0.545116722583771,2.13044728294497,1.09859263221278,0.532611820736243,0
1.799999,4.29857301712036,3.62917733192444,7.06537437438965,4.28661299381876,3.61930752100809,7.07165324845469,2138.843,2131.773,2146.563,2134.329,352.351318359375,44.9233894348145,355.948822021484,2.08797168731689,1.0390625,0.543959081172943,2.12202779872636,1.07010099533613,0.53050694968159,0
1.819999,4.34015941619873,3.64939069747925,7.07622528076172,4.32896861616332,3.64042319246981,7.08224215404083,2126.331,2128.945,2150.143,2136.177,352.380859375,44.9298286437988,355.929229736328,2.07935476303101,1.01070976257324,0.542557418346405,2.11352454064353,1.04144037742962,0.528381135160884,0
1.839999,4.38157749176025,3.66903972625732,7.08704423904419,4.37115333856526,3.66096400000478,7.09278833464132,2128.89,2127.968,2141.469,2134.424,352.420776367188,44.9347496032715,355.906768798828,2.0708634853363,0.982414901256561,0.540938675403595,2.10493784438992,1.01261530432842,0.526234461097481,0
1.859999,4.42282772064209,3.68812322616577,7.09782695770264,4.41316549564715,3.68092669998755,7.10329137391179,2142.64,2128.172,2125.088,2129.001,352.466156005859,44.9387092590332,355.881652832031,2.06252908706665,0.954192161560059,0.539131045341492,2.09626804895295,0.983630327837047,0.524067012238236,0
1.879999,4.46391487121582,3.70664358139038,7.10857009887695,4.45500342884413,3.70030814008238,7.11375085721103,2155.528,2128.628,2111.083,2122.746,352.503814697266,44.9425163269043,355.856231689453,2.05437040328979,0.926044821739197,0.537158906459808,2.08751549660063,0.954490025010562,0.521878874150157,0
1.899999,4.50484275817871,3.72460269927979,7.11927080154419,4.49666573426741,3.71910537003336,7.12416643356685,2160.244,2128.177,2105.482,2118.034,352.521850585938,44.9467124938965,355.833251953125,2.04636859893799,0.897950291633606,0.535039782524109,2.07868047996264,0.925198822403495,0.519670119990659,0
1.919999,4.54561233520508,3.74200057983398,7.12992668151855,4.53815027051438,3.73731519746925,7.13453756762859,2153.444,2126.558,2109.955,2116.737,352.515747070313,44.9513626098633,355.814544677734,2.03846979141235,0.869864642620087,0.532785177230835,2.06976345315037,0.89576169459947,0.517440863287592,0
1.939999,4.58622455596924,3.75883483886719,7.1405348777771,4.57945564870094,3.75493486063677,7.14486391217524,2138.67,2124.282,2120.588,2118.647,352.490478515625,44.9560813903809,355.800048828125,2.03060436248779,0.841737687587738,0.530403852462769,2.06076471577682,0.866183115909663,0.515191178944205,0
1.959999,4.62667894363403,3.77510547637939,7.15109300613403,4.6205802381646,3.77196157719215,7.15514505954115,2123.592,2122.475,2130.622,2121.677,352.457153320313,44.9603004455566,355.787994384766,2.02271580696106,0.813531219959259,0.52790504693985,2.05168462309606,0.836467757125624,0.512921155774016,0
1.979999,4.66697454452515,3.79081058502197,7.16159915924072,4.66152241538009,3.7883926584246,7.16538060384502,2115.947,2121.193,2134.044,2123.99,352.426879882813,44.963623046875,355.776428222656,2.01477861404419,0.785229682922363,0.525301218032837,2.04252353357392,0.806620310638028,0.51063088339348,0
1.999999,4.70710945129395,3.80594682693481,7.17205142974854,4.70228056402342,3.80422550968086,7.17557014100586,2117.883,2120.999,2129.682,2123.994,352.404541015625,44.9660377502441,355.763763427734,2.00679874420166,0.756839215755463,0.52260822057724,2.03328180887383,0.776645489695688,0.508320452218458,0
2.019999,4.74708557128906,3.82051420211792,7.182448387146,4.74285307503576,3.81945763077494,7.18571326875894,2126.067,2121.694,2120.94,2121.763,352.387329101563,44.967903137207,355.749908447266,1.9987975358963,0.728374242782593,0.519842445850372,2.02395981384257,0.74654802766128,0.505989953460642,0
2.039999,4.78690195083618,3.83451104164124,7.19278860092163,4.78323834668689,3.83408661638295,7.19580958667172,2135.514,2122.514,2112.44,2118.381,352.367889404297,44.9696998596191,355.736022949219,1.9907900094986,0.69984245300293,0.517017781734467,2.01455791649583,0.716332677263898,0.503639479123958,0
2.059999,4.82655715942383,3.84793615341187,7.20307159423828,4.82343478463848,3.84811015642287,7.20585869615962,2139.464,2122.92,2109.27,2116.009,352.338256835938,44.9717903137207,355.723876953125,1.98277056217194,0.671236872673035,0.514144062995911,2.00507648800372,0.686004209848535,0.50126912200093,0
2.079999,4.86605167388916,3.86078667640686,7.21329593658447,4.86344080200701,3.86152603641939,7.21586020050175,2135.969,2122.538,2112.53,2115.821,352.295318603516,44.9742317199707,355.714630126953,1.97470998764038,0.642535924911499,0.511226832866669,1.99551590267608,0.65556741462264,0.49887897566902,0
2.099999,4.90538311004639,3.87306118011475,7.22346115112305,4.90325481942644,3.87433213785358,7.22581370485661,2127.366,2122.121,2119.725,2117.183,352.242034912109,44.9767684936523,355.708221435547,1.96656918525696,0.613713562488556,0.508269369602203,1.98587653794773,0.625027097899846,0.496469134486933,0
2.119999,4.94454956054688,3.88475584983826,7.23356676101685,4.94287526511052,3.88652643849742,7.23571881627763,2118.54,2121.424,2126.547,2119.723,352.185363769531,44.9790573120117,355.703948974609,1.95831608772278,0.584750771522522,0.505275368690491,1.97615877436357,0.594388082341001,0.494039693590892,0
2.139999,4.98354768753052,3.89586877822876,7.24361181259155,4.98230057491488,3.89810701273315,7.24557514372872,2113.85,2121.332,2129.526,2121.622,352.132171630859,44.9808158874512,355.700500488281,1.94993734359741,0.555643558502197,0.502250492572784,1.96636299556352,0.563655206192613,0.49159074889088,0
2.159999,5.022376537323,3.90639662742615,7.25359582901001,5.02152919239877,3.90907203185735,7.25538229809969,2115.223,2121.462,2127.552,2122.421,352.085876464844,44.9820251464844,355.696990966797,1.94143927097321,0.526401162147522,0.499202281236649,1.95648958826742,0.532833322522834,0.489122397066855,0
2.179999,5.06103372573853,3.91633772850037,7.26351881027222,5.06055956888649,3.91941976436968,7.26513989222162,2121.048,2122.294,2122.394,2121.445,352.044982910156,44.9828948974609,355.693115234375,1.93283843994141,0.497039049863815,0.496138989925385,1.94653894225975,0.501927298455112,0.486634735564937,0
2.199999,5.09951686859131,3.92568922042847,7.27338027954102,5.09939062522885,3.92914868852763,7.27484765630721,2127.404,2123.019,2117.45,2119.995,352.004669189453,44.983757019043,355.689605712891,1.92414855957031,0.467568576335907,0.49306732416153,1.93651133038061,0.47094164457289,0.484127832595152,0
2.219999,5.13782405853271,3.93444919586182,7.28318023681641,5.13801990265382,3.93825703607419,7.28450497566345,2130.275,2123.594,2115.836,2118.989,351.959991455078,44.9848136901855,355.687347412109,1.91536998748779,0.437991410493851,0.489991426467896,1.92640738757568,0.439881992598514,0.481601846893921,0
2.239999,5.17595338821411,3.94261455535889,7.29291868209839,5.17644634023761,3.94674348836719,7.2941115850594,2128.765,2123.906,2118.03,2118.928,351.908966064453,44.9861335754395,355.687042236328,1.90648901462555,0.408299565315247,0.486912578344345,1.91622739365069,0.408752878290719,0.479056848412672,0
2.259999,5.21390342712402,3.95018434524536,7.3025951385498,5.21466842097317,3.95460670529998,7.30366710524329,2123.768,2124.083,2122.824,2119.971,351.853179931641,44.9875450134277,355.688842773438,1.89748561382294,0.37848225235939,0.483830541372299,1.90597175049359,0.37755921728814,0.476492937623398,0
2.279999,5.25166988372803,3.95715475082397,7.31221008300781,5.25268463592107,3.96184544518184,7.31317115898027,2118.932,2124.009,2127.167,2121.626,351.796966552734,44.9888114929199,355.6923828125,1.88834309577942,0.348532885313034,0.480745255947113,1.89564086297885,0.346305935422063,0.473910215744712,0
2.299999,5.28925132751465,3.96352386474609,7.32176303863525,5.2904934842691,3.96845856493399,7.32262337106727,2116.079,2124.083,2129.439,2123.26,351.744384765625,44.9897727966309,355.697021484375,1.87905609607697,0.318454325199127,0.47765839099884,1.88523513895143,0.31499796793858,0.471308784737857,0
2.319999,5.32664394378662,3.96928882598877,7.33125448226929,5.32809347339151,3.97444502027016,7.33202336834788,2117.289,2124.423,2128.414,2123.891,351.697631835938,44.9904022216797,355.702026367188,1.86963081359863,0.288257569074631,0.474572718143463,1.87475498921072,0.283640258719261,0.46868874730268,0
2.339999,5.363844871521,3.97444868087769,7.34068441390991,5.36548311890795,3.97980386586146,7.34137077972699,2120.884,2124.918,2125.577,2123.8,351.655792236328,44.9908256530762,355.707305908203,1.86008036136627,0.257957279682159,0.471491694450378,1.8642008274943,0.252237759500457,0.466050206873575,0
2.359999,5.40085315704346,3.97899961471558,7.35005283355713,5.40266094474205,3.98453425548566,7.35066523618551,2125.01,2125.295,2122.696,2123.332,351.616027832031,44.9912490844727,355.713043212891,1.85041570663452,0.227565839886665,0.4684177339077,1.8535730704616,0.220795429091366,0.463393267615401,0
2.379999,5.43766593933105,3.98294162750244,7.35935974121094,5.4396254831797,3.98863544216083,7.35990637079492,2127.151,2126.157,2121.699,2122.458,351.575225830078,44.9918022155762,355.719635009766,1.84064078330994,0.197089195251465,0.465351760387421,1.84287213767748,0.189318232590981,0.46071803441937,0
2.399999,5.474280834198,3.98627138137817,7.3686056137085,5.47637527492699,3.99210677826328,7.36909381873175,2126.68,2126.43,2122.952,2122.503,351.532012939453,44.9925155639648,355.727752685547,1.83075106143951,0.166526943445206,0.462292850017548,1.83209845159563,0.157811140604043,0.458024612898908,0
2.419999,5.51069593429565,3.98898983001709,7.3777904510498,5.51290886916786,3.99494771562985,7.37822721729196,2123.806,2126.79,2125.951,2123.073,351.487182617188,44.9933052062988,355.737548828125,1.8207368850708,0.135877266526222,0.459239393472672,1.82125243754192,0.126279128456131,0.455313109385481,0
2.439999,5.54690742492676,3.99109244346619,7.38691425323486,5.54922482362129,3.99715780564445,7.38730620590532,2121.191,2126.559,2128.567,2124.308,351.443298339844,44.994010925293,355.748931884766,1.81059038639069,0.105140343308449,0.456189811229706,1.8103345236976,0.0947271754079949,0.4525836309244,0
2.459999,5.58291339874268,3.99257898330688,7.39597702026367,5.58532170459833,3.99873669930891,7.39633042614958,2119.219,2126.763,2130.248,2125.334,351.402618408203,44.9945526123047,355.761291503906,1.80030989646912,0.0743224397301674,0.453143715858459,1.79934514108239,0.0631602638692801,0.449836285270597,0
2.479999,5.61871147155762,3.99344730377197,7.40497922897339,5.62119808705865,3.9996841472981,7.40529952176466,2119.93,2126.867,2129.76,2125.884,351.366821289063,44.9948921203613,355.774291992188,1.78990077972412,0.0434337109327316,0.450101405382156,1.78828472353747,0.0315833786117471,0.447071180884367,0
2.499999,5.65429925918579,3.99369764328003,7.41392040252686,5.65685255466679,3.99999999999928,7.4142131386667,2122.213,2127.271,2128.01,2125.743,351.335327148438,44.9951095581055,355.787750244141,1.77937340736389,0.0124875009059906,0.447063952684402,1.77715370770835,1.50598211707259E-06,0.444288426927088,0
2.519999,5.68967342376709,3.99332690238953,7.42280101776123,5.6922836998481,3.99968420753574,7.42307092496203,2125.05,2127.483,2126.02,2125.409,351.306396484375,44.9953269958496,355.801849365234,1.76873707771301,-0.0185044817626476,0.444031745195389,1.76595253302764,-0.0315803668853245,0.441488133256911,0
2.539999,5.72483444213867,3.9923369884491,7.43162107467651,5.72749012384432,3.99873681977468,7.43187253096108,2126.194,2127.914,2125.463,2125.029,351.277893066406,44.9956169128418,355.816833496094,1.75799632072449,-0.0495344363152981,0.441004574298859,1.7546816416977,-0.0631572528562547,0.438670410424426,0
2.559999,5.75977659225464,3.99072456359863,7.44038057327271,5.76247043676875,3.99715798631933,7.44061760919219,2126.533,2128.038,2125.779,2124.806,351.249084472656,44.9960098266602,355.833038330078,1.747150182724,-0.0805989280343056,0.437980860471725,1.74334147867317,-0.0947241655838397,0.435835369668292,0
2.579999,5.79450082778931,3.98849058151245,7.4490795135498,5.79722325766118,3.9949479564853,7.4493058144153,2124.302,2128.12,2127.855,2125.345,351.219909667969,44.9964561462402,355.8505859375,1.73619484901428,-0.111695468425751,0.434958904981613,1.73193249164341,-0.126276120296131,0.432983122910851,0
2.599999,5.82900285720825,3.98563432693481,7.45771837234497,5.8317476247308,3.99210704163684,7.4579369061827,2122.769,2128.158,2129.383,2125.691,351.192321777344,44.9968681335449,355.869354248047,1.72512638568878,-0.142821207642555,0.431936651468277,1.72045499378815,-0.157808510335837,0.430113748447038,0
2.619999,5.86328172683716,3.98215460777283,7.46629667282104,5.86604135190401,3.98863575811752,7.466510337976,2121.589,2127.913,2130.305,2126.48,351.167633056641,44.9971694946289,355.889190673828,1.71394562721252,-0.173969358205795,0.428913235664368,1.70890971185948,-0.189315604609907,0.427227427964869,0
2.639999,5.89733505249023,3.97805213928223,7.47481441497803,5.90010349825062,3.9845346239756,7.47502587456265,2121.974,2128.167,2129.902,2126.436,351.146789550781,44.9973640441895,355.909637451172,1.70265710353851,-0.205130070447922,0.425888210535049,1.69729696523018,-0.220792803812411,0.424324241307544,0
2.659999,5.93116044998169,3.97332620620728,7.48327159881592,5.93393271905798,3.97980428682645,7.48348317976449,2123.455,2128.147,2128.613,2126.369,351.129425048828,44.9974822998047,355.930847167969,1.69126868247986,-0.236292317509651,0.422861576080322,1.68561721235073,-0.252235137338183,0.421404303087683,0
2.679999,5.96475648880005,3.96797728538513,7.49166822433472,5.96752767880893,3.97444549364373,7.49188191970223,2124.926,2128.225,2127.382,2126.067,351.114318847656,44.9975814819336,355.952819824219,1.67978692054749,-0.267445743083954,0.419833272695541,1.67387091431691,-0.283637640087738,0.418467728579227,0
2.699999,5.99812030792236,3.9620053768158,7.50000429153442,6.00088705123451,3.96845909064138,7.50022176280863,2125.839,2128.245,2126.716,2125.727,351.100311279297,44.9977416992188,355.975677490234,1.66821539402008,-0.298582762479782,0.416802614927292,1.66205853485155,-0.314995353251318,0.415514633712888,0
2.719999,6.03125143051147,3.955411195755,7.50827980041504,6.03400951936633,3.96184602314004,7.50850237984158,2125.431,2128.136,2127.103,2125.695,351.086669921875,44.9979667663574,355.999633789063,1.65655469894409,-0.329698294401169,0.413768351078033,1.65018054028629,-0.346303325091951,0.412545135071573,0
2.739999,6.06414794921875,3.94819593429565,7.5164942741394,6.06689377558856,3.95460733541774,7.51672344389714,2124.528,2128.099,2127.883,2125.606,351.073760986328,44.998218536377,356.024627685547,1.64480316638947,-0.360788583755493,0.41072890162468,1.63823739954312,-0.37755661172738,0.40955934988578,0
2.759999,6.0968074798584,3.94035959243774,7.52464771270752,6.09953852168954,3.94674417054498,7.52488463042239,2123.472,2127.911,2128.646,2125.76,351.062347412109,44.9984436035156,356.050689697266,1.63296008110046,-0.39184895157814,0.407682836055756,1.62622958411588,-0.408750277910757,0.40655739602897,0
2.779999,6.12922763824463,3.93190169334412,7.53274011611938,6.13194246891306,3.93825777020431,7.53298561722826,2122.652,2127.764,2129.054,2125.913,351.053192138672,44.9986228942871,356.077697753906,1.62102651596069,-0.422873139381409,0.404629409313202,1.61415756805166,-0.439879397809979,0.403539392012916,0
2.799999,6.16140794754028,3.92282462120056,7.540771484375,6.16410433800919,3.92914947449414,7.5410260845023,2122.352,2127.74,2128.942,2125.859,351.046844482422,44.9987258911133,356.10546875,1.60900580883026,-0.453853189945221,0.401568114757538,1.60202182793209,-0.47093905578553,0.400505456983021,0
2.819999,6.19334602355957,3.91312861442566,7.54874134063721,6.19602285928485,3.91942072171722,7.54900571482121,2123.261,2127.564,2127.915,2125.586,351.043426513672,44.9987831115723,356.134094238281,1.59690296649933,-0.484780192375183,0.398498743772507,1.58982284285447,-0.501924347166715,0.397455710713618,0
2.839999,6.22504043579102,3.90281558036804,7.55664968490601,6.22769677265387,3.90907304815345,7.55692419316347,2124.027,2127.441,2126.958,2125.26,351.042022705078,44.9988288879395,356.163543701172,1.58472287654877,-0.515644967556,0.395421177148819,1.57756109441295,-0.532830379026164,0.394390273603236,0
2.859999,6.2564902305603,3.89188718795776,7.5644965171814,6.25912482768676,3.89810808781734,7.56478120692169,2124.588,2127.149,2126.25,2124.989,351.041931152344,44.9989051818848,356.193908691406,1.57246851921082,-0.546440482139587,0.392335057258606,1.56523706667942,-0.563652270952482,0.391309266669854,0
2.879999,6.28769207000732,3.88034391403198,7.57228136062622,6.2903057836601,3.88652757219993,7.57257644591502,2124.554,2126.89,2126.043,2124.708,351.042541503906,44.9990272521973,356.225219726563,1.56014084815979,-0.577161073684692,0.389239579439163,1.55285124618447,-0.594385155820918,0.388212811546118,0
2.899999,6.31864738464355,3.86818790435791,7.58000421524048,6.32123840960547,3.87433332999538,7.58030960240137,2123.422,2126.604,2126.63,2124.692,351.043823242188,44.9991683959961,356.257446289063,1.54773950576782,-0.60780256986618,0.386133700609207,1.54040412189816,-0.62502418056194,0.38510103047454,0
2.919999,6.34935283660889,3.85542011260986,7.58766460418701,6.35192148435811,3.86152728681223,7.58798037108953,2122.768,2126.583,2126.858,2124.229,351.046539306641,44.9993057250977,356.290496826172,1.53526377677917,-0.638361036777496,0.383016407489777,1.5278961852107,-0.655564506927591,0.381974046302676,0
2.939999,6.37980651855469,3.84204387664795,7.59526252746582,6.38235379660507,3.8481114648693,7.59558844915127,2121.859,2126.399,2127.105,2124.106,351.051025390625,44.9994010925293,356.324554443359,1.52271521091461,-0.668830871582031,0.379887104034424,1.51532792991308,-0.686001312255502,0.37883198247827,0
2.959999,6.41000938415527,3.82805967330933,7.60279750823975,6.41253414493307,3.83408798267635,7.60313353623327,2121.75,2125.83,2126.695,2124.169,351.057830810547,44.9994506835938,356.359588623047,1.51009583473206,-0.699205219745636,0.376745641231537,1.50269985217754,-0.716329790230444,0.375674963044385,0
2.979999,6.43995666503906,3.81347060203552,7.61026954650879,6.44246133787589,3.81945905469956,7.61061533446897,2122.187,2125.814,2125.815,2123.551,351.066802978516,44.9994850158691,356.395355224609,1.49740874767303,-0.729475975036621,0.373591989278793,1.49001245053802,-0.7465451516433,0.372503112634506,0
2.999999,6.46965026855469,3.7982771396637,7.61767816543579,6.47213454616916,3.80422680584576,7.61803363654229,2122.319,2125.136,2125.145,2123.636,351.077392578125,44.9995002746582,356.432098388672,1.48465764522552,-0.759636104106903,0.37042623758316,1.47726607357486,-0.776642983215941,0.369316518393715,0
3.019999,6.49908781051636,3.78248429298401,7.62502288818359,6.50155189091332,3.78839400461539,7.62538797272833,2122.52,2125.153,2124.505,2122.881,351.089202880859,44.9995460510254,356.469451904297,1.471843957901,-0.789679288864136,0.367248147726059,1.46446152838521,-0.806617814590012,0.366115382096302,0
3.039999,6.52826690673828,3.76609182357788,7.63230419158936,6.53071256601083,3.77196297319625,7.63267814150271,2122.496,2124.688,2124.066,2122.593,351.101898193359,44.9996109008789,356.507781982422,1.45896911621094,-0.819600999355316,0.364057421684265,1.45159916887225,-0.836465271903491,0.362899792218062,0
3.059999,6.5571870803833,3.74910378456116,7.63952112197876,6.55961542025036,3.75493630623374,7.63990385506259,2121.442,2124.474,2124.365,2122.294,351.115264892578,44.999683380127,356.547027587891,1.44603312015533,-0.849396526813507,0.360853642225266,1.43867950281894,-0.866180641905858,0.359669875704734,0
3.079999,6.58584785461426,3.73152232170105,7.64667367935181,6.58825931259888,3.73731669243081,7.64706482814972,2120.768,2124.027,2124.401,2122.074,351.129943847656,44.9997596740723,356.587188720703,1.43303537368774,-0.879062116146088,0.35763618350029,1.4257030402706,-0.895759232204667,0.35642576006765,0
3.099999,6.61424779891968,3.71335101127625,7.6537618637085,6.61664311224674,3.71910691412343,7.65416077806169,2120.282,2123.765,2124.198,2121.682,351.146209716797,44.9998092651367,356.628173828125,1.41997683048248,-0.908592343330383,0.354404866695404,1.41267029351478,-0.925196372006533,0.353167573378695,0
3.119999,6.64238548278809,3.6945915222168,7.66078519821167,6.64476569865226,3.70030984684121,7.66119142466306,2120.209,2123.296,2123.616,2121.426,351.164184570313,44.9998359680176,356.670074462891,1.40685939788818,-0.937981128692627,0.35115972161293,1.39958177706102,-0.9544874128547,0.349895444265256,0
3.139999,6.67025804519653,3.67524647712708,7.66774320602417,6.67262596158599,3.68092845885331,7.6681564903965,2120.071,2122.998,2123.044,2121.02,351.183654785156,44.9998435974121,356.712768554688,1.39368498325348,-0.967222392559052,0.347900956869125,1.38643800762056,-0.98362772936309,0.346609501905141,0
3.159999,6.69786739349365,3.65532064437866,7.674635887146,6.70022280117457,3.66096581069974,7.67505570029364,2119.66,2122.523,2122.692,2120.808,351.204437255859,44.9998588562012,356.756317138672,1.38045537471771,-0.996310353279114,0.344628423452377,1.37323950408592,-1.0126127199467,0.34330987602148,0
3.179999,6.72521018981934,3.63481545448303,7.68146276473999,6.7275551279441,3.64042505470803,7.68188878198603,2120.013,2122.156,2121.825,2120.215,351.2265625,44.9998817443848,356.800598144531,1.36717164516449,-1.02523994445801,0.341342210769653,1.35998678751042,-1.04143780754823,0.339996696877606,0
3.199999,6.75228691101074,3.61373567581177,7.68822383880615,6.75462186286317,3.61930943449549,7.68865546571579,2119.385,2121.83,2121.645,2119.845,351.249450683594,44.9999008178711,356.845703125,1.35383534431458,-1.05400609970093,0.338042378425598,1.34668038108763,-1.07009844036089,0.336670095271908,0
3.219999,6.7790961265564,3.59208369255066,7.69491863250732,6.78142193738547,3.59762228445698,7.69535548434637,2119.16,2121.411,2121.216,2119.389,351.273345947266,44.999942779541,356.891662597656,1.34044623374939,-1.08260488510132,0.33472865819931,1.33332081013068,-1.09859009254714,0.333330202532671,0
3.239999,6.80563640594482,3.56986331939697,7.70154666900635,6.80795429349197,3.57536702923834,7.70198857337299,2118.499,2121.093,2121.069,2118.962,351.298156738281,44.9999771118164,356.9384765625,1.32700490951538,-1.11103188991547,0.331400990486145,1.31990860205156,-1.12690826495341,0.329977150512889,0
3.259999,6.83190631866455,3.5470769405365,7.70810794830322,6.83421788373267,3.55254718319569,7.70855447093317,2117.894,2120.618,2120.87,2118.669,351.324066162109,45.0000038146973,356.986206054688,1.31351137161255,-1.13928294181824,0.328059285879135,1.30644428634026,-1.15504848582051,0.326611071585064,0
3.279999,6.85790634155273,3.52372980117798,7.71460199356079,6.86021167126799,3.52916634984035,7.715052917817,2117.208,2120.255,2120.693,2118.3,351.351318359375,45.0000228881836,357.034759521484,1.29996621608734,-1.16735315322876,0.324703723192215,1.29292839454389,-1.18300631148985,0.323232098635974,0
3.299999,6.88363361358643,3.49982500076294,7.72102880477905,6.88593462990966,3.50522822126993,7.72148365747741,2117.279,2119.775,2119.93,2117.863,351.380065917969,45.0000305175781,357.084167480469,1.28637063503265,-1.195237159729,0.321334332227707,1.27936146024572,-1.21077732710506,0.31984036506143,0
3.319999,6.90908813476563,3.47536611557007,7.72738790512085,6.91138574416124,3.48073657758521,7.72784643604031,2116.998,2119.182,2119.39,2117.648,351.410003662109,45.0000228881836,357.134399414063,1.27272617816925,-1.22292947769165,0.317951619625092,1.26574401904405,-1.23835714730922,0.316436004761012,0
3.339999,6.93426895141602,3.45035839080811,7.73367881774902,6.93656400925825,3.45569528629326,7.73414100231456,2116.815,2118.819,2118.811,2117.13,351.440979003906,45.0000381469727,357.185272216797,1.25903379917145,-1.25042533874512,0.314555644989014,1.25207660853111,-1.2657414169373,0.313019152132778,0
3.359999,6.95917510986328,3.42480444908142,7.73990154266357,6.96146843120779,3.43010830169674,7.74036710780195,2116.657,2118.297,2118.231,2116.737,351.472808837891,45.000057220459,357.236846923828,1.24529445171356,-1.27772068977356,0.311146408319473,1.23835976827185,-1.29292581170394,0.309589942067962,0
3.379999,6.98380422592163,3.39870738983154,7.7460560798645,6.9860980268278,3.40397966426941,7.74652450670695,2116.054,2118.073,2117.991,2116.139,351.505340576172,45.0000648498535,357.289123535156,1.23150849342346,-1.30481171607971,0.307724148035049,1.22459403978259,-1.31990603888625,0.306148509945648,0
3.399999,7.0081582069397,3.37207365036011,7.75214195251465,7.01045211245829,3.37731317894509,7.75261302811457,2115.042,2117.75,2118.075,2115.706,351.538726806641,45.0000877380371,357.342224121094,1.21767604351044,-1.33169519901276,0.304288744926453,1.21077980154696,-1.34667815588757,0.30269495038674,0
3.419999,7.03223419189453,3.34490656852722,7.75815868377686,7.03452914600511,3.35011369242612,7.75863228650128,2115.025,2117.249,2117.386,2115.223,351.573425292969,45.0001029968262,357.396179199219,1.20379710197449,-1.35836708545685,0.300840139389038,1.19691792827879,-1.37323729680673,0.299229482069697,0
3.439999,7.05603170394897,3.31721019744873,7.76410627365112,7.05832846891599,3.32238518512839,7.764582117229,2114.494,2116.798,2117.022,2114.87,351.609191894531,45.000114440918,357.451019287109,1.18987286090851,-1.38482224941254,0.297378748655319,1.18300880283039,-1.39957958805125,0.295752200707596,0
3.459999,7.07955026626587,3.28898930549622,7.76998424530029,7.08184914163619,3.29413203569628,7.77046228540905,2114.173,2116.291,2116.51,2114.502,351.646026611328,45.0001182556152,357.506652832031,1.17590379714966,-1.41105604171753,0.293904721736908,1.16905297430916,-1.42570086987591,0.292263243577291,0
3.479999,7.10278701782227,3.26024723052979,7.77579259872437,7.1050902356116,3.2653587056211,7.7762725589029,2113.966,2115.782,2115.914,2114.103,351.683929443359,45.0001258850098,357.563079833984,1.16189050674438,-1.43706405162811,0.290418297052383,1.15505099366628,-1.45159701743537,0.28876274841657,0
3.499999,7.12574481964111,3.23099088668823,7.78153085708618,7.12805083332538,3.23606973853655,7.78201270833134,2113.227,2115.247,2115.738,2113.83,351.72265625,45.000129699707,357.620239257813,1.14783370494843,-1.46284186840057,0.286919683218002,1.14100341367491,-1.47726394143554,0.285250853418727,0
3.519999,7.14841938018799,3.20122313499451,7.78719902038574,7.15073002833416,3.20626975950124,7.78768250708354,2113.467,2114.878,2114.815,2113.161,351.762481689453,45.000129699707,357.677978515625,1.13373374938965,-1.48838591575623,0.283408939838409,1.12691078890839,-1.50269758877931,0.281727697227097,0
3.539999,7.17081069946289,3.17094898223877,7.79279661178589,7.17312692530388,3.17596347426833,7.79328173132597,2112.639,2114.409,2114.698,2112.847,351.802886962891,45.0001449584961,357.736450195313,1.11959171295166,-1.51369214057922,0.279886394739151,1.11277367571836,-1.52789394320658,0.27819341892959,0
3.559999,7.19291925430298,3.14017343521118,7.79832363128662,7.19524064004508,3.14515566854247,7.79881016001127,2112.054,2114.015,2114.432,2112.362,351.844207763672,45.0001525878906,357.795593261719,1.10540735721588,-1.53875744342804,0.276351988315582,1.09859263221278,-1.55284902592849,0.274648158053194,0
3.579999,7.21474266052246,3.10890245437622,7.80377960205078,7.21707029954782,3.11385120722403,7.80426757488695,2111.734,2113.736,2113.934,2111.726,351.886566162109,45.0001678466797,357.855438232422,1.09118127822876,-1.5635781288147,0.272805869579315,1.08436821823389,-1.57755889625571,0.271092054558472,0
3.599999,7.23628044128418,3.07713937759399,7.80916452407837,7.23861504201617,3.08205503364091,7.80965376050404,2111.366,2113.034,2113.453,2111.546,351.929901123047,45.0001831054688,357.916168212891,1.07691442966461,-1.58815002441406,0.269248247146606,1.07010099533613,-1.60201965222071,0.267525248834032,0
3.619999,7.25753211975098,3.04488945007324,7.81447792053223,7.25987401690222,3.04977216876795,7.81496850422555,2110.861,2112.669,2113.087,2111.051,351.974151611328,45.0001831054688,357.977508544922,1.06260693073273,-1.612468957901,0.265679448843002,1.05579152676396,-1.62622743119393,0.26394788169099,0
3.639999,7.27849721908569,3.01215934753418,7.81971979141235,7.28084638493963,3.01700771043401,7.82021159623491,2110.472,2112.276,2112.632,2110.555,352.019348144531,45.0001831054688,358.03955078125,1.04825949668884,-1.63653111457825,0.262099534273148,1.04144037742962,-1.65017841049374,0.260360094357404,0
3.659999,7.29917526245117,2.97895240783691,7.82489013671875,7.30153131817681,2.98376683251702,7.8253828295442,2110.375,2111.673,2111.938,2110.221,352.065521240234,45.0001754760742,358.102325439453,1.0338728427887,-1.66033267974854,0.258508801460266,1.02704811389082,-1.67386880799008,0.256762028472706,0
3.679999,7.31956481933594,2.9452760219574,7.82998847961426,7.32192800000956,2.95005478412693,7.83048200000239,2109.913,2111.438,2111.538,2109.588,352.112365722656,45.000186920166,358.165710449219,1.01944744586945,-1.68386971950531,0.254907429218292,1.01261530432842,-1.69729488270168,0.253153826082105,0
3.699999,7.33966398239136,2.9111328125,7.83501434326172,7.34203562521336,2.91587688877682,7.83550890630334,2109.576,2110.731,2111.056,2109.391,352.159912109375,45.0001945495605,358.229919433594,1.00498354434967,-1.70713913440704,0.251295447349548,0.998142518523923,-1.72045293538684,0.249535629630981,0
3.719999,7.35947418212891,2.87652993202209,7.83996772766113,7.3618533999751,2.88123854354229,7.84046334999377,2108.574,2110.378,2111.135,2108.948,352.208099365234,45.0001945495605,358.294677734375,0.990481019020081,-1.73013758659363,0.247673004865646,0.983630327837047,-1.74333930912756,0.245907581959262,0
3.739999,7.37899255752563,2.84147310256958,7.8448486328125,7.38138054192445,2.84614521820916,7.84534513548111,2108.352,2110.029,2110.572,2108.371,352.257415771484,45.0002021789551,358.360046386719,0.975939989089966,-1.75286197662354,0.24404014647007,0.969079305183139,-1.76595038990701,0.242269826295785,0
3.759999,7.39821910858154,2.8059663772583,7.84965658187866,7.40061628016476,2.81060245440973,7.85015407004119,2107.909,2109.359,2110.159,2108.188,352.307708740234,45.0002098083496,358.426116943359,0.961361706256866,-1.7753084897995,0.24039725959301,0.954490025010562,-1.78828260718023,0.238622506252641,0
3.779999,7.41715478897095,2.77001690864563,7.85439157485962,7.41956007938427,2.77461543313082,7.85489001984607,2107.488,2109.096,2109.736,2107.594,352.359008789063,45.0002059936523,358.492706298828,0.946746826171875,-1.79747307300568,0.236744567751884,0.939862888688571,-1.81033269559556,0.234965722172143,0
3.799999,7.4357967376709,2.73362994194031,7.85905313491821,7.43821074006671,2.73819069510616,7.85955268501668,2107.64,2108.668,2108.828,2107.086,352.411254882813,45.0002021789551,358.559936523438,0.932096481323242,-1.81935226917267,0.233082249760628,0.925198822403495,-1.83209664749267,0.231299705600874,0
3.819999,7.4541449546814,2.69681096076965,7.86364126205444,7.45656775348548,2.70133356585334,7.86414193837137,2107.086,2108.225,2108.525,2106.704,352.464050292969,45.0002098083496,358.627838134766,0.91741156578064,-1.84094226360321,0.229410588741302,0.91049823092277,-1.8535712906426,0.227624557730693,0
3.839999,7.47219848632813,2.65956616401672,7.86815595626831,7.4746303949385,2.66404986552924,7.86865759873463,2106.584,2107.778,2108.216,2106.288,352.517456054688,45.0002059936523,358.696411132813,0.902691721916199,-1.86224043369293,0.225729644298553,0.89576169459947,-1.87475323395674,0.223940423649868,0
3.859999,7.48995685577393,2.621901512146,7.87259674072266,7.49239795134498,2.6263454816511,7.87309948783624,2106.021,2107.237,2107.963,2105.98,352.571563720703,45.0002174377441,358.765594482422,0.88793683052063,-1.88324368000031,0.22203953564167,0.880989795205707,-1.89563913256706,0.220247448801427,0
3.879999,7.5074200630188,2.58382248878479,7.87696361541748,7.50986972127354,2.58822636816687,7.87746743031838,2105.544,2106.752,2107.63,2105.621,352.626525878906,45.0002136230469,358.835327148438,0.873147189617157,-1.9039489030838,0.218340337276459,0.866183115909663,-1.91622568835434,0.216545778977416,0
3.899999,7.52458667755127,2.54533576965332,7.88125610351563,7.52704501496994,2.54969854451498,7.88176125374249,2105.195,2106.48,2107.177,2105.054,352.682403564453,45.0002136230469,358.905548095703,0.858323574066162,-1.92435300350189,0.214632257819176,0.851342241252568,-1.93650965046899,0.212835560313142,0
3.919999,7.54145622253418,2.50644683837891,7.88547420501709,7.5439231543843,2.51076809467381,7.88598078859607,2104.884,2105.995,2106.691,2104.71,352.739135742188,45.0002174377441,358.976409912109,0.843466937541962,-1.94445252418518,0.210915476083755,0.836467757125624,-1.95648781584435,0.209116939281406,0
