t,x_s1,x_s2,x_s3,x_s_d1,x_s_d2,x_s_d3,propellers_rpms1,propellers_rpms2,propellers_rpms3,propellers_rpms4,rollRad,pitchRad,yawRad,v_s1,v_s2,v_s3,v_s_d1,v_s_d2,v_s_d3,insideCount
55.21998,-2.99636554718018,-0.00723023992031813,3.01141715049744,0.0502663021873524,0.0502653099281618,5.98743342445316
55.23998,-2.99652433395386,-0.00749008078128099,3.01141405105591,0.100521033233341,0.100513097665567,5.97486974169166
55.25998,-2.99668645858765,-0.00775188207626343,3.01108908653259,0.150781382890102,0.15075459911615,5.96230465427747
55.27998,-2.99685025215149,-0.00801297090947628,3.00969433784485,0.201035779683555,0.200972293578185,5.94974105507911
55.29998,-2.99700880050659,-0.00824760459363461,3.0069477558136,0.251282239565345,0.25115825073257,5.93717944010866
55.31998,-2.99715375900269,-0.00846288539469242,3.00363993644714,0.301518778800467,0.301304545272121,5.92462030529988
55.33998,-2.9973132610321,-0.00871070474386215,3.00051498413086,0.351743414045584,0.351403258153128,5.9120641464886
55.35998,-2.997563123703,-0.0090019553899765,3.00070405006409,0.40195416242733,0.401446477845921,5.89951145939317
55.37998,-2.99784755706787,-0.00934483669698238,3.00603652000427,0.452149041620592,0.451426301584249,5.88696273959485
55.39998,-2.99797248840332,-0.00968250818550587,3.01540780067444,0.50231650146514,0.501325324831839,5.87442087463372
55.41998,-2.99774193763733,-0.00984220020473003,3.02745962142944,0.552473701861784,0.551154705505428,5.86188157453455
55.43998,-2.99694204330444,-0.00970982760190964,3.04252505302429,0.602609090544242,0.600897048477749,5.84934772736394
55.45998,-2.99527335166931,-0.00918123871088028,3.06127095222473,0.652720688162609,0.650544498496647,5.83681982795935
55.47998,-2.99249625205994,-0.00825037620961666,3.08332347869873,0.702806516306256,0.700089215295351,5.82429837092344
55.49998,-2.98817753791809,-0.00690421462059021,3.1085319519043,0.752864597581934,0.749523374830599,5.81178385060452
55.51998,-2.98185873031616,-0.00510035268962383,3.13718724250793,0.802892955691843,0.798839170518201,5.79927676107704
55.53998,-2.97290229797363,-0.00274984911084175,3.16976571083069,0.852889615511656,0.848028814465846,5.78677759612209
55.55998,-2.96078515052795,0.000258509069681168,3.20639085769653,0.902843077038926,0.897075195541831,5.77428923074027
55.57998,-2.9452588558197,0.0040249265730381,3.24645614624023,0.952770426975823,0.94598928100364,5.76180739325604
55.59998,-2.92631697654724,0.00863950420171022,3.28908181190491,1.00266016144583,0.994753976953538,5.74933495963854
55.61998,-2.90381383895874,0.0142191238701344,3.3337185382843,1.0525103107975,1.04336158252824,5.73687242230062
55.63998,-2.87745928764343,0.0209306720644236,3.38011837005615,1.10231890694221,1.09180442167197,5.72442027326445
55.65998,-2.84697532653809,0.0289453640580177,3.42798948287964,1.15208398343184,1.1400748443487,5.71197900414204
55.67998,-2.81217098236084,0.0384209863841534,3.47695755958557,1.20180357553646,1.18816522775019,5.69954910611589
55.69998,-2.77291870117188,0.0494802072644234,3.52666282653809,1.25147572032185,1.23606797749979,5.68713106991954
55.71998,-2.72908210754395,0.0622356459498405,3.57684350013733,1.30109845672702,1.28377552885174,5.67472538581825
55.73998,-2.68048715591431,0.0768001228570938,3.62734198570251,1.35066037589192,1.33127130707525,5.66233490602702
55.75998,-2.62700295448303,0.0932739078998566,3.67801308631897,1.4001784305907,1.37856593269764,5.64995539235232
55.77998,-2.56862950325012,0.111718766391277,3.7286479473114,1.44964120611215,1.42564285681329,5.63758969847196
55.79998,-2.50551891326904,0.132155150175095,3.77898383140564,1.4990467496612,1.47249464508987,5.6252383125847
55.81998,-2.43791961669922,0.154581069946289,3.82879304885864,1.54839311070229,1.5191138987482,5.61290172232443
55.83998,-2.36613273620605,0.178985729813576,3.87795782089233,1.5976783410364,1.56549325573072,5.6005804147409
55.85998,-2.29053568840027,0.2053302526474,3.92646479606628,1.64690049487797,1.61162539186405,5.58827487628051
55.87998,-2.21160101890564,0.233521819114685,3.97436499595642,1.69605762893169,1.65750302201564,5.57598559276708
55.89998,-2.12984490394592,0.26341587305069,4.02176141738892,1.74513844598372,1.70311022632059,5.56371538850407
55.91998,-2.04574418067932,0.294847369194031,4.06882047653198,1.79415973424608,1.74845720300231,5.55146006643848
55.93998,-1.95969104766846,0.327656626701355,4.11577701568604,1.84311018891184,1.79352806538401,5.53922245277204
55.95998,-1.87199854850769,0.361696004867554,4.16289663314819,1.8919878774124,1.83831569592824,5.5270030306469
55.97998,-1.78291761875153,0.396831512451172,4.21042537689209,1.940790870052,1.8828130218252,5.514802282487
55.99998,-1.69264531135559,0.432944685220718,4.25855922698975,1.98951724008383,1.92701301610963,5.50262068997904
56.01998,-1.60131168365479,0.469947248697281,4.30744695663452,2.0381650637862,1.97090869877055,5.49045873405345
56.03998,-1.50899028778076,0.507777690887451,4.35719537734985,2.08673242053839,2.01449313785352,5.4783168948654
56.05998,-1.41570925712585,0.546396732330322,4.40786552429199,2.13520815331048,2.05775122911742,5.46619796167238
56.07998,-1.32146763801575,0.585778653621674,4.45946979522705,2.18360884334394,2.10069264550072,5.45409778916401
56.09998,-1.22624909877777,0.625902950763702,4.51197099685669,2.23192332429301,2.14330232297821,5.44201916892675
56.11998,-1.13002848625183,0.66675341129303,4.56529331207275,2.2801496886974,2.18557353267986,5.42996257782565
56.13998,-1.03277742862701,0.708314955234528,4.61933946609497,2.32828603257567,2.22749959918608,5.41792849185608
56.15998,-0.934467375278473,0.750573813915253,4.67400169372559,2.37633045550038,2.26907390158188,5.40591738612491
56.17998,-0.835073709487915,0.793516278266907,4.72916793823242,2.42428106067317,2.31028987450243,5.39392973483171
56.19998,-0.734579741954803,0.837127804756165,4.78472328186035,2.47213595499958,2.35114100916989,5.38196601125011
56.21998,-0.632980346679688,0.881389379501343,4.84054613113403,2.51988414981715,2.3916131694888,5.37002896254571
56.23998,-0.53028529882431,0.926278352737427,4.89650774002075,2.56754197751124,2.4317154054358,5.35811450562219
56.25998,-0.426519811153412,0.971766293048859,4.95246648788452,2.61509843840437,2.47143362775304,5.34622539039891
56.27998,-0.321724891662598,1.01781952381134,5.00826740264893,2.66255165496294,2.51076156418565,5.33436208625927
56.29998,-0.215957164764404,1.06439924240112,5.06374073028564,2.70989975372946,2.54969300411231,5.32252506156764
56.31998,-0.109287798404694,1.11146152019501,5.11870288848877,2.7571408653965,2.58822179952591,5.31071478365087
56.33998,-0.00179916620254517,1.15895819664001,5.17295360565186,2.80427312488049,2.62634186600451,5.29893171877988
56.35998,0.106417506933212,1.20683991909027,5.22628355026245,2.85129467139534,2.66404718367215,5.28717633215116
56.37998,0.215265423059464,1.25505518913269,5.27847576141357,2.89819471240432,2.70132472732455,5.27545132189892
56.39998,0.324647963047028,1.30355501174927,5.32931089401245,2.94498929017974,2.73818283259037,5.26375267745507
56.41998,0.43446347117424,1.35228967666626,5.3785719871521,2.99166759949846,2.77460852725166,5.25208310012539
56.43998,0.544603228569031,1.40120470523834,5.42604446411133,3.03822779749641,2.81059605900566,5.2404430506259
56.45998,0.654967308044434,1.45025396347046,5.47152471542358,3.08466804597254,2.84613974474378,5.22883298850687
56.47998,0.765480279922485,1.4994078874588,5.51482772827148,3.13098651146144,2.88123397144909,5.21725337213464
56.49998,0.876106858253479,1.54866564273834,5.55579948425293,3.1771813653057,2.91587319708268,5.20570465867358
56.51998,0.98678719997406,1.5980122089386,5.59429502487183,3.2232507837281,2.95005195145886,5.19418730406798
56.53998,1.09746336936951,1.64743542671204,5.63018703460693,3.26919294790363,2.98376483710907,5.18270176302409
56.55998,1.20808029174805,1.69692611694336,5.66336727142334,3.31499731849796,3.01700023519114,5.17125067037551
56.57998,1.31858575344086,1.74647760391235,5.69374847412109,3.36067956300667,3.04976557746989,5.15983010924833
56.59998,1.42893052101135,1.79608607292175,5.72126150131226,3.40622912756727,3.08204930436439,5.14844271810818
56.61998,1.53906512260437,1.84574842453003,5.74585437774658,3.45164421387862,3.11384631766657,5.13708894653035
56.63998,1.64894068241119,1.8954610824585,5.76749324798584,3.49692302894879,3.14515159602956,5.1257692427628
56.65998,1.75850582122803,1.94521927833557,5.78615665435791,3.54206378516588,3.17596019576072,5.11448405370853
56.67998,1.86770784854889,1.99501574039459,5.80183744430542,3.58706470036854,3.20626725160231,5.10323382490786
56.69998,1.97649168968201,2.04484128952026,5.81453943252563,3.63192399791637,3.23606797749979,5.09201900052091
56.71998,2.08479928970337,2.09468269348145,5.82427644729614,3.67663139185649,3.2653521299416,5.08084215203588
56.73998,2.19257259368896,2.14452409744263,5.8310694694519,3.72120217446096,3.29412625715481,5.06969945638476
56.75998,2.29975342750549,2.19434881210327,5.83495044708252,3.76562604365039,3.32238017983335,5.0585934890874
56.77998,2.40628433227539,2.24413752555847,5.83595657348633,3.80990124556621,3.35010943615107,5.04752468860845
56.79998,2.51211071014404,2.29387044906616,5.83413410186768,3.85402603221925,3.37730964713649,5.03649349194519
56.81998,2.617182970047,2.34352898597717,5.82953643798828,3.89799866155874,3.40397651736436,5.02550033461032
56.83998,2.72145438194275,2.39309501647949,5.82222652435303,3.9418173975411,3.430105835634,5.01454565061473
56.85998,2.82488441467285,2.44255256652832,5.81227540969849,3.98548051019847,3.45569347563425,5.00362987245038
56.87998,2.92743539810181,2.49188685417175,5.79976511001587,4.02897799294257,3.48073067262256,4.99275550176436
56.89998,3.02907514572144,2.54108548164368,5.78478717803955,4.07232472419243,3.50522302516461,4.98191881895189
56.91998,3.12977170944214,2.5901358127594,5.76744270324707,4.11551067967567,3.52916183701927,4.97112233008108
56.93998,3.22949552536011,2.63902592658997,5.74784564971924,4.15853415440665,3.55254332779761,4.96036646139834
56.95998,3.32821559906006,2.68774271011353,5.72611999511719,4.20139344981452,3.57536380512216,4.94965163754637
56.97998,3.42589950561523,2.73627090454102,5.70240163803101,4.24408687381022,3.59761966521005,4.93897828154744
56.99998,3.52251052856445,2.78459167480469,5.67683935165405,4.28661274085333,3.6193073934421,4.92834681478667
57.01998,3.61800765991211,2.83268165588379,5.64959526062012,4.32896937201857,3.64042356491783,4.91775765699536
57.03998,3.71234250068665,2.8805103302002,5.62084627151489,4.37114706535972,3.66096098216959,4.90721323366007
57.05998,3.80546450614929,2.92804455757141,5.59079074859619,4.41316024785867,3.68092423756767,4.89670993803533
57.07998,3.8973240852356,2.97525334358215,5.5596661567688,4.45499919837216,3.70030620575006,4.88625020040696
57.09998,3.98785662651062,3.02208995819092,5.52772045135498,4.49666226509447,3.71910382593919,4.87583443372638
57.11998,4.0769829750061,3.06849408149719,5.4952073097229,4.53814780316375,3.73731412963705,4.86546304920906
57.13998,4.16460752487183,3.11438775062561,5.46237945556641,4.57945417472704,3.75493424109395,4.85513645631824
57.15998,4.25062084197998,3.15967607498169,5.42947149276733,4.62057974900486,3.77196137776265,4.84485506274878
57.17998,4.33490419387817,3.20424795150757,5.39668846130371,4.66152290235563,3.78839285073782,4.83461927441109
57.19998,4.41701745986938,3.24761581420898,5.36344337463379,4.70227426198312,3.80422310250636,4.82443143450422
57.21998,4.49698352813721,3.28977632522583,5.33008098602295,4.7428477669883,3.81945567286964,4.81428805825293
57.23998,4.57484245300293,3.33074283599854,5.29698610305786,4.78323402391348,3.8340850792963,4.80419149402163
57.25998,4.65052080154419,3.37039303779602,5.26421308517456,4.82343143830541,3.84810901152772,4.79414214042365
57.27998,4.72397089004517,3.40861368179321,5.23177862167358,4.86343842316634,3.86152525492105,4.78414039420841
57.29998,4.79517126083374,3.44530558586121,5.19967079162598,4.90325339901673,3.87433169079897,4.77418665024582
57.31998,4.86412763595581,3.48039054870605,5.16784334182739,4.94287479395754,3.88652629678421,4.76428130151062
57.33998,4.93087673187256,3.51381731033325,5.13620853424072,4.98230104373234,3.89810714711898,4.75442473906692
57.35998,4.9954833984375,3.54556107521057,5.10464382171631,5.02153059178904,3.90907241296905,4.74461735205274
57.37998,5.05803537368774,3.57562446594238,5.07301092147827,5.06055446388324,3.91941844800764,4.73486138402919
57.39998,5.11863565444946,3.60402917861938,5.04118490219116,5.09938600822462,3.92914756571085,4.72515349794385
57.41998,5.17739725112915,3.63081216812134,5.00907373428345,5.1380162283224,3.93825619706305,4.7154959429194
57.43998,5.23444128036499,3.65602326393127,4.9766321182251,5.17644359905182,3.94674290363991,4.70588910023705
57.45998,5.28989505767822,3.67972493171692,4.94386148452759,5.21466660329663,3.95460634523075,4.69633334917584
57.47998,5.34389638900757,3.70199608802795,4.91080093383789,5.25268373200901,3.96184528005012,4.68682906699775
57.49998,5.39659118652344,3.72293186187744,4.877525806427,5.2904934842691,3.96845856493399,4.67737662893273
57.51998,5.44813346862793,3.74264526367188,4.84413623809814,5.3280943673443,3.9744451555202,4.66797640816393
57.53998,5.49867963790894,3.76126408576965,4.81076574325562,5.36547778538444,3.97980314419701,4.65863055365389
57.55998,5.54838466644287,3.77892398834229,4.7775707244873,5.40265652547796,3.98453372906386,4.64933586863051
57.57998,5.59739685058594,3.79576826095581,4.74472618103027,5.43962196817907,3.98863508106209,4.64009450795523
57.59998,5.64585208892822,3.81193971633911,4.71241760253906,5.47637265408858,3.99210655251102,4.63090683647785
57.61998,5.69386863708496,3.82757782936096,4.68082571029663,5.51290713228594,3.99494759519997,4.62177321692852
57.63998,5.74154090881348,3.84281182289124,4.65011978149414,5.54922396038646,3.99715776047483,4.61269400990339
57.65998,5.7889404296875,3.85775804519653,4.62045240402222,5.58532170459833,3.99873669930891,4.60366957385042
57.67998,5.83611297607422,3.87251567840576,4.59195709228516,5.62119893977919,3.99968416235805,4.5947002650552
57.69998,5.88308191299438,3.88716721534729,4.56474924087524,5.65684747018696,3.99999999998851,4.58578813245326
57.71998,5.92985153198242,3.90177822113037,4.53892230987549,5.69227948948757,3.99968428282472,4.57693012762811
57.73998,5.97641181945801,3.91639733314514,4.51454782485962,5.72748677705366,3.99873694023471,4.56812830573658
57.75998,6.02273893356323,3.93105983734131,4.49167346954346,5.76246794289818,3.99715812182172,4.55938301427545
57.77998,6.06880235671997,3.94578719139099,4.47032308578491,5.79722160596138,3.99494807691088,4.55069459850965
57.79998,6.11456537246704,3.96058988571167,4.45050144195557,5.83174639416535,3.99210715450988,4.54206340145866
57.81998,6.15998840332031,3.97546911239624,4.43219661712646,5.86604094446816,3.98863580325383,4.53348976388296
57.83998,6.20502948760986,3.99041748046875,4.41538238525391,5.90010390291773,3.98453457133444,4.52497402427057
57.85998,6.24964570999146,4.00541877746582,4.40002012252808,5.93392749458318,3.97980506860696,4.51651812635421
57.87998,6.29378986358643,4.02045059204102,4.38606023788452,5.96752328890573,3.97444623750765,4.50811917777357
57.89998,6.33741426467896,4.03548336029053,4.37344360351563,6.00088348484244,3.96845976654448,4.49977912878939
57.91998,6.38046503067017,4.05047845840454,4.36210203170776,6.0340067653296,3.96184660109389,4.4914983086676
57.93998,6.42288398742676,4.06539011001587,4.35195827484131,6.06689182265697,3.95460778549918,4.48327704433576
57.95998,6.46460723876953,4.08016061782837,4.34292888641357,6.09953735851935,3.94674446290557,4.47511566037016
57.97998,6.50556373596191,4.09472322463989,4.33492374420166,6.13194208406789,3.93825787507968,4.46701447898303
57.99998,6.54567527770996,4.10899972915649,4.32784557342529,6.16410471996094,3.92914936221347,4.45897382000976
58.01998,6.58485889434814,4.12289762496948,4.3215913772583,6.19601793171897,3.91942227739495,4.45099551707026
58.03998,6.62302303314209,4.13631296157837,4.31605529785156,6.22769263533313,3.90907444555143,4.44307684116672
58.05998,6.66007375717163,4.14913034439087,4.31112813949585,6.25912146905096,3.89810929728036,4.43521963273726
58.07998,6.69591426849365,4.16122198104858,4.30670022964478,6.29030319205912,3.88652856418504,4.42742420198522
58.09998,6.73044633865356,4.17245388031006,4.30266618728638,6.32123657330022,3.87433407508118,4.41969085667495
58.11998,6.76357412338257,4.18268203735352,4.29892539978027,6.35192039152144,3.86152775570812,4.41201990211964
58.13998,6.79520797729492,4.19176244735718,4.29538488388062,6.38235343532272,3.84811162842472,4.40441164116932
58.15998,6.82526350021362,4.19954824447632,4.29196119308472,6.41253450320461,3.83408781188998,4.39686637419885
58.17998,6.85366678237915,4.20589733123779,4.28858232498169,6.44246240361568,3.81945852072847,4.38938439909608
58.19998,6.88035488128662,4.21067380905151,4.28518724441528,6.4721303196744,3.80422902783302,4.3819674200814
58.21998,6.90527963638306,4.21374988555908,4.28172397613525,6.50154839936313,3.78839592773787,4.37461290015922
58.23998,6.92840671539307,4.21501016616821,4.27815437316895,6.53070979730397,3.77196456862444,4.36732255067401
58.25998,6.94971609115601,4.21435213088989,4.27444744110107,6.55961336220216,3.75493754531357,4.36009665944946
58.27998,6.96920442581177,4.21168994903564,4.27058029174805,6.58825795294221,3.73731754669271,4.35293551176445
58.29998,6.98688316345215,4.20695304870605,4.26653575897217,6.61664243863298,3.71910735529127,4.34583939034176
58.31998,7.00277805328369,4.20008754730225,4.26230335235596,6.64476569865226,3.70030984684121,4.33880857533694
58.33998,7.01692962646484,4.19105577468872,4.25787448883057,6.67262662269108,3.6809279898229,4.33184334432723
58.35998,7.02939081192017,4.17983770370483,4.25324440002441,6.70021887230213,3.66096870780205,4.32494528192447
58.37998,7.04022550582886,4.16642808914185,4.24841117858887,6.72755188548104,3.64042753768517,4.31811202862974
58.39998,7.04950952529907,4.15083742141724,4.24337482452393,6.75461929427297,3.61931147554369,4.31134517643176
58.41998,7.05732727050781,4.13309240341187,4.23813533782959,6.78142003005406,3.59762385600126,4.30464499248648
58.43998,7.06377220153809,4.11323070526123,4.23269701004028,6.80795303472873,3.57536810394117,4.29801174131782
58.45998,7.06894540786743,4.09130620956421,4.22706508636475,6.83421726077141,3.55254773396556,4.29144568480715
58.47998,7.07295417785645,4.06738471984863,4.22124767303467,6.86021167126799,3.52916634984035,4.284947082183
58.49998,7.07591342926025,4.04154491424561,4.21525573730469,6.88593523995666,3.50522764392615,4.27851619001084
58.51998,7.07794094085693,4.01387500762939,4.20910406112671,6.91138212283576,3.4807401205478,4.27215446929106
58.53998,7.0791597366333,3.98447632789612,4.20281171798706,6.93656102407305,3.45569830405209,4.26585974398174
58.55998,7.0796971321106,3.95345783233643,4.19640016555786,6.96146606922273,3.43011076775455,4.25963348269432
58.57998,7.07968044281006,3.92093777656555,4.18989896774292,6.98609627503127,3.40398155240877,4.25347593124218
58.59998,7.07923889160156,3.8870415687561,4.18334102630615,7.01045066909579,3.3773147843096,4.24738733272605
58.61998,7.07850027084351,3.85189914703369,4.17676305770874,7.03452828990252,3.35011467464164,4.24136792752437
58.63998,7.07759046554565,3.81564497947693,4.17020750045776,7.05832818686469,3.32238551881413,4.23541795328383
58.65998,7.07663202285767,3.77841448783875,4.16372013092041,7.08184942036012,3.29413169578267,4.22953764490997
58.67998,7.0757417678833,3.74034333229065,4.1573486328125,7.10508665559522,3.26536320475498,4.2237283361012
58.69998,7.07503080368042,3.70156574249268,4.15114164352417,7.12804784092242,3.23607361281102,4.21798803976939
58.71998,7.07460165023804,3.66221237182617,4.14514827728271,7.15072761024432,3.20627298393754,4.21231809743892
58.73998,7.07454824447632,3.62240815162659,4.1394157409668,7.17312506816147,3.17596602421471,4.20671873295963
58.75998,7.07495546340942,3.58227229118347,4.13398790359497,7.1952393304201,3.14515751968188,4.20119016739497
58.77998,7.07589721679688,3.54191565513611,4.12890291213989,7.21706952394705,3.11385233558177,4.19573261901324
58.79998,7.07743740081787,3.50144052505493,4.12419414520264,7.23861478688419,3.08205541559213,4.19034630327895
58.81998,7.07962799072266,3.46093988418579,4.1198878288269,7.25987426862251,3.04977178104508,4.18503143284437
58.83998,7.08251094818115,3.42049694061279,4.11600303649902,7.28084315705262,3.01701282505978,4.17978921073684
58.85998,7.0861177444458,3.38018441200256,4.11254978179932,7.30152862463346,2.98377122240862,4.17461784384164
58.87998,7.09046840667725,3.34006500244141,4.10953140258789,7.32192582717118,2.95005842612395,4.1695185432072
58.89998,7.09557437896729,3.30019092559814,4.10694360733032,7.3420339593823,2.91587976009083,4.16449151015442
58.91998,7.10143709182739,3.2606041431427,4.10477495193481,7.36185222739585,2.88124062176389,4.15953694315104
58.93998,7.10804748535156,3.22133636474609,4.10300779342651,7.38137984878473,2.84614648131502,4.15465503780382
58.95998,7.11539030075073,3.18240904808044,4.10161924362183,7.40061605259659,2.8106028807695,4.14984598685085
58.97998,7.12344026565552,3.14383268356323,4.10058069229126,7.41956007938427,2.77461543313082,4.14510998015393
58.99998,7.132164478302,3.10560822486877,4.09986019134521,7.43821118123581,2.73818982149428,4.14044720469105
59.01998,7.1415228843689,3.06772565841675,4.09942293167114,7.45656514852614,2.70133886895898,4.13585871286847
59.03998,7.15146923065186,3.03016543388367,4.0992317199707,7.4746282592741,2.66405433528627,4.13134293518147
59.05998,7.16195106506348,2.99289679527283,4.09924793243408,7.49239627098895,2.62634909729392,4.12690093225276
59.07998,7.17290830612183,2.95587968826294,4.09943389892578,7.50986848218789,2.58822910934866,4.12253287945303
59.09998,7.18427896499634,2.91906380653381,4.09975051879883,7.52704420306638,2.54970039131404,4.11823894923341
59.11998,7.19599580764771,2.88239002227783,4.1001615524292,7.54392275552531,2.51076902759978,4.11401931111867
59.13998,7.20799016952515,2.84579062461853,4.10063314437866,7.56050347319783,2.47144116620095,4.10987413170054
59.15998,7.22019100189209,2.80919075012207,4.10113382339478,7.57678570147564,2.43172301772705,4.10580357463109
59.17998,7.23252725601196,2.77250909805298,4.10163497924805,7.59276577763263,2.39162853933994,4.10180855559184
59.19998,7.24492979049683,2.7356595993042,4.10211229324341,7.60844916769244,2.35114876551643,4.09788770807689
59.21998,7.25733137130737,2.69855380058289,4.10254621505737,7.62383217545696,2.31029770105193,4.09404195613576
59.23998,7.26966762542725,2.66110157966614,4.1029200553894,7.6389141936036,2.26908179709838,4.0902714515991
59.25998,7.28187990188599,2.62321376800537,4.10322141647339,7.65369462669284,2.22750756242274,4.08657634332679
59.27998,7.29391479492188,2.58480286598206,4.10344076156616,7.66817289119178,2.18558156237913,4.08295677720205
59.29998,7.30572414398193,2.5457866191864,4.10357332229614,7.68234841549717,2.14331041787204,4.07941289612571
59.31998,7.31726837158203,2.50608825683594,4.10361528396606,7.69622063995796,2.10070080431078,4.07594484001051
59.33998,7.32851362228394,2.46563768386841,4.10356521606445,7.70978645799933,2.05776767198134,4.07255338550017
59.35998,7.33943271636963,2.42437362670898,4.10342359542847,7.72305050984211,2.01450142060929,4.06923737253947
59.37998,7.35000705718994,2.38224363327026,4.10318994522095,7.73600965491774,1.97091704154805,4.06599758627057
59.39998,7.3602237701416,2.3392059803009,4.10286617279053,7.74866338159794,1.92702141759138,4.06283415460051
59.41998,7.37007617950439,2.29522752761841,4.10245180130005,7.76101119031239,1.88282148068444,4.0597472024219
59.43998,7.37956523895264,2.25028681755066,4.10194826126099,7.77305259356843,1.83832421082917,4.05673685160789
59.45998,7.38869619369507,2.20437240600586,4.10135412216187,7.78478711597031,1.79353663498196,4.05380322100742
59.47998,7.39748001098633,2.1574821472168,4.10066843032837,7.79621429423797,1.74846582594397,4.05094642644051
59.49998,7.40593242645264,2.10962557792664,4.09988880157471,7.80733158579535,1.70312757615811,4.04816710355116
59.51998,7.41407251358032,2.06082010269165,4.09901332855225,7.81814279333887,1.65751174754183,4.04546430166528
59.53998,7.42192602157593,2.0110936164856,4.0980372428894,7.82864533986287,1.61163416662464,4.04283866503428
59.55998,7.42952013015747,1.96048271656036,4.09695816040039,7.83883881072582,1.56550207834,4.04029029731855
59.57998,7.43688583374023,1.9090313911438,4.09577178955078,7.84872280348851,1.51912276781292,4.03781929912787
59.59998,7.44405698776245,1.85679316520691,4.09447622299194,7.85829692792997,1.47250355920944,4.03542576801751
59.61998,7.45107126235962,1.80382812023163,4.09306859970093,7.86756080606286,1.42565181458,4.03310979848429
59.63998,7.45796680450439,1.75020265579224,4.09154748916626,7.87651407214839,1.37857493269689,4.0308714819629
59.65998,7.4647855758667,1.69599068164825,4.08991384506226,7.88515475403201,1.33128938868865,4.028711311492
59.67998,7.47156953811646,1.64127063751221,4.08816957473755,7.89348580727983,1.28378460903844,4.02662854818004
59.69998,7.47836256027222,1.58612513542175,4.08631753921509,7.90150522495878,1.23607709563639,4.02462369376031
59.71998,7.4852089881897,1.53064131736755,4.0843653678894,7.90921269046149,1.18817438239676,4.02269682738463
59.73998,7.49215173721313,1.47490859031677,4.08232164382935,7.9166078994965,1.14008403405956,4.02084802512588
59.75998,7.49923467636108,1.41901707649231,4.08019638061523,7.92369056010024,1.09181364499588,4.01907735997494
59.77998,7.50649881362915,1.36305832862854,4.07800436019897,7.93046039264862,1.04337083800866,4.01738490183785
59.79998,7.51398468017578,1.30712175369263,4.07575988769531,7.93691712986798,0.994763263128864,4.01577071753301
59.81998,7.52172756195068,1.251296043396,4.07348012924194,7.94306051684574,0.945998596407405,4.01423487078856
59.83998,7.52976131439209,1.19566535949707,4.0711841583252,7.94888922903582,0.897093881858934,4.01277769274104
59.85998,7.53811502456665,1.14031040668488,4.06889057159424,7.95440526016331,0.848038183904004,4.01139868495917
59.87998,7.54681348800659,1.08530688285828,4.06661939620972,7.95960725061614,0.798848564758931,4.01009818734596
59.89998,7.55587577819824,1.03072452545166,4.06438970565796,7.96449499501926,0.749532792390375,4.00887625124519
59.91998,7.56531715393066,0.976625561714172,4.06222009658813,7.96906830040403,0.700098654686962,4.00773292489899
59.93998,7.57514572143555,0.923065543174744,4.06012868881226,7.97332698621594,0.650553958229437,4.00666825344602
59.95998,7.58536529541016,0.870092570781708,4.05813074111938,7.97727088432165,0.600906527057846,4.00568227891959
59.97998,7.59597301483154,0.817746102809906,4.05624055862427,7.98089983901571,0.551164201435988,4.00477504024607
59.99998,7.60696125030518,0.766058087348938,4.05446910858154,7.98421310502204,0.501344348391828,4.00394672374449
60.01998,7.61831617355347,0.715051889419556,4.05282688140869,7.98721181565127,0.451435827711876,4.00319704608718
60.03998,7.6300196647644,0.664742112159729,4.05131912231445,7.98989519039994,0.401456016818268,4.00252620240002
60.05998,7.64204740524292,0.615136384963989,4.04995155334473,7.99226312332814,0.351412808463809,4.00193421916796
60.07998,7.65437078475952,0.566232740879059,4.04872560501099,7.99431552094967,0.301314105412961,4.00142111976258
60.09998,7.66695737838745,0.51802259683609,4.04764127731323,7.99605230223566,0.251167819193847,4.00098692444109
60.11998,7.67976951599121,0.470489144325256,4.04669570922852,7.99747339861783,0.200981868848856,4.00063165034554
60.13998,7.6927661895752,0.423608601093292,4.04588460922241,7.99857875399115,0.150764179684101,4.00035531150221
60.15998,7.70590400695801,0.377349853515625,4.04520273208618,7.9993682042322,0.100532266369544,4.00015794894195
60.17998,7.71913480758667,0.331675261259079,4.04464340209961,7.99984201937434,0.0502748965509276,4.00003949515642
60.19998,7.73240947723389,0.286541223526001,4.04419755935669,7.99999999999426,9.58737992510556E-06,4.00000000000144
60.21998,7.74567604064941,0.24189880490303,4.04385757446289,7.99984213985487,-0.0502557233051069,4.00003946503628
60.23998,7.75888109207153,0.197693705558777,4.04361391067505,7.99936844518851,-0.100513097665566,4.00015788870287
60.25998,7.77197027206421,0.153868079185486,4.04345798492432,7.9985789346967,-0.15075459911615,4.00035526632583
60.27998,7.78488969802856,0.110359609127045,4.04337978363037,7.99747363954937,-0.200972293578184,4.00063159011266
60.29998,7.79758358001709,0.0671050399541855,4.04337120056152,7.99605260338369,-0.251158250732569,4.00098684915408
60.31998,7.80999946594238,0.0240381807088852,4.04342365264893,7.99431624364344,-0.301294985129549,4.00142093908914
60.33998,7.82208395004272,-0.0189073607325554,4.04352903366089,7.99226396640258,-0.351393707840428,4.00193400839936
60.35998,7.83378601074219,-0.0617973022162914,4.0436806678772,7.98989615382176,-0.40143693887127,4.00252596154456
60.37998,7.84505891799927,-0.104696482419968,4.043869972229,7.98721289938244,-0.451416775454029,4.00319677515439
60.39998,7.8558554649353,-0.147666960954666,4.04409265518188,7.98421430901976,-0.501325324831839,4.00394642274506
60.41998,7.86613368988037,-0.190767735242844,4.04434156417847,7.98090050111835,-0.551154705505428,4.00477487472041
60.43998,7.87585544586182,-0.234053656458855,4.04461288452148,7.97727160650767,-0.600897048477748,4.00568209837308
60.45998,7.88498497009277,-0.277574837207794,4.0449013710022,7.97332776845681,-0.650544498496647,4.0066680578858
60.47998,7.89349269866943,-0.321375459432602,4.04520273208618,7.96906914266889,-0.70008921529535,4.00773271433278
60.49998,7.90135145187378,-0.365493804216385,4.0455117225647,7.96449679951899,-0.749513957266516,4.00887580012025
60.51998,7.90853977203369,-0.409961551427841,4.04582548141479,7.9596091750261,-0.798829776272881,4.01009770624348
60.53998,7.91504049301147,-0.454803496599197,4.04614067077637,7.9544073044075,-0.848019445022815,4.01139817389812
60.55998,7.92084074020386,-0.50003719329834,4.04645347595215,7.94889139303355,-0.89707519554183,4.01277715174161
60.57998,7.92593240737915,-0.545673012733459,4.04676055908203,7.94306165867295,-0.94598928100364,4.01423458533176
60.59998,7.93031167984009,-0.591714024543762,4.04706048965454,7.93691833148417,-0.994753976953537,4.01577041712896
60.61998,7.93397808074951,-0.638155817985535,4.04734992980957,7.93046165400634,-1.04336158252824,4.01738458649842
60.63998,7.93693685531616,-0.684986770153046,4.04762887954712,7.9236918811497,-1.09180442167197,4.01907702971257
60.65998,7.93919610977173,-0.732188642024994,4.04789686203003,7.91661066086321,-1.1400656546313,4.0208473347842
60.67998,7.94076776504517,-0.779736280441284,4.0481538772583,7.90921557099836,-1.18815607309679,4.02269610725041
60.69998,7.9416675567627,-0.827598333358765,4.04840278625488,7.90150822455208,-1.23605885935609,4.02462294386198
60.71998,7.94191312789917,-0.875737249851227,4.04864645004272,7.89348892581113,-1.28376644865766,4.02662776854722
60.73998,7.94152593612671,-0.924110651016235,4.04889059066772,7.8851579913782,-1.33127130707525,4.02871050215545
60.75998,7.94052886962891,-0.972670018672943,4.04914093017578,7.87651575015937,-1.37856593269764,4.03087106246016
60.77998,7.93894672393799,-1.02136373519897,4.04940700531006,7.86756254335113,-1.42564285681329,4.03310936416222
60.79998,7.93680667877197,-1.07013654708862,4.04969787597656,7.85829872442695,-1.47249464508987,4.03542531889326
60.81998,7.93413543701172,-1.1189296245575,4.05002593994141,7.84872651474676,-1.51910502967475,4.03781837131331
60.83998,7.93096256256104,-1.16768276691437,4.0504035949707,7.83884264011313,-1.56548443311244,4.04028933997172
60.85998,7.92731428146362,-1.21633386611938,4.05084657669067,7.82864928722806,-1.61161661709421,4.04283767819298
60.87998,7.92321968078613,-1.26482081413269,4.05136966705322,7.81814685852609,-1.65749429647993,4.04546328536848
60.89998,7.91870450973511,-1.31308221817017,4.05198907852173,7.8073357686441,-1.70311022632058,4.04816605783898
60.91998,7.91379594802856,-1.36105728149414,4.05272197723389,7.79621644440494,-1.74845720300231,4.05094588889876
60.93998,7.9085168838501,-1.40868782997131,4.05358505249023,7.7847893248006,-1.79352806538401,4.05380266879985
60.95998,7.90288972854614,-1.45591795444489,4.05459499359131,7.77305486097483,-1.83831569592824,4.05673628475629
60.97998,7.89693450927734,-1.50269591808319,4.05576753616333,7.76101584208725,-1.88280456295513,4.05974603947819
60.99998,7.89066791534424,-1.54897308349609,4.05711650848389,7.74866815016235,-1.9270046146168,4.06283296245941
61.01998,7.88410520553589,-1.59470665454865,4.05865526199341,7.73601454008344,-1.97090035598172,4.06599636497914
61.03998,7.87725925445557,-1.63985800743103,4.06039476394653,7.72305551141624,-2.01448485508616,4.06923612214594
61.05998,7.87013816833496,-1.68439364433289,4.06234359741211,7.70979157578442,-2.05775122911742,4.07255210605389
61.07998,7.86274862289429,-1.72828686237335,4.06450891494751,7.69622325684943,-2.10069264550072,4.07594418578764
61.09998,7.85509490966797,-1.77151560783386,4.06689500808716,7.6823510902898,-2.14330232297821,4.07941222742755
61.11998,7.84717655181885,-1.81406426429749,4.06950283050537,7.66817562377996,-2.18557353267986,4.08295609405501
61.13998,7.83899307250977,-1.85592365264893,4.07233238220215,7.65370020723353,-2.22749163593663,4.08657494819162
61.15998,7.83053874969482,-1.8970890045166,4.07538032531738,7.63891988929932,-2.26906600605234,4.09027002767517
61.17998,7.82180643081665,-1.93756318092346,4.07864093780518,7.62383798608285,-2.31028204793966,4.09404050347929
61.19998,7.81278705596924,-1.97735345363617,4.08210706710815,7.60845509301909,-2.35113325280985,4.09788622674523
61.21998,7.80346775054932,-2.01647281646729,4.08576917648315,7.59277181742612,-2.3916131694888,4.10180704564347
61.23998,7.79383611679077,-2.05493950843811,4.0896167755127,7.57678877848114,-2.4317154054358,4.10580280537972
61.25998,7.78387498855591,-2.09277677536011,4.09363698959351,7.56050660719604,-2.47143362775303,4.10987334820099
61.27998,7.77356719970703,-2.13001203536987,4.09781646728516,7.54392594639251,-2.51076156418565,4.11401851340187
61.29998,7.76289319992065,-2.16667652130127,4.10214138031006,7.52704745067659,-2.54969300411231,4.11823813733085
61.31998,7.75183296203613,-2.20280623435974,4.10659694671631,7.50987509062714,-2.58821448968829,4.12253122734321
61.33998,7.74036502838135,-2.23843836784363,4.111168384552,7.49240299239692,-2.6263346347,4.12689925190077
61.35998,7.72846651077271,-2.27361392974854,4.11584138870239,7.47463509338543,-2.66404003204272,4.13134122665364
61.37998,7.71611547470093,-2.30837535858154,4.12060165405273,7.45657209507101,-2.70132472732455,4.13585697623225
61.39998,7.70328903198242,-2.34276628494263,4.12543535232544,7.43821471058255,-2.73818283259037,4.14044632235436
61.41998,7.68996429443359,-2.37683129310608,4.13033008575439,7.41956366467133,-2.77460852725166,4.14510908383217
61.43998,7.67611932754517,-2.41061353683472,4.1352744102478,7.40061969368243,-2.81059605900566,4.14984507657939
61.45998,7.66173362731934,-2.44415688514709,4.14025688171387,7.38138354552559,-2.84613974474378,4.1546541136186
61.47998,7.64678621292114,-2.47750306129456,4.14526844024658,7.36185973188516,-2.88122732111774,4.15953506702871
61.49998,7.63125896453857,-2.51069068908691,4.15030097961426,7.34204157459351,-2.91586663405777,4.16448960635162
61.51998,7.61513471603394,-2.54375720024109,4.15534782409668,7.32193355280365,-2.95004547677683,4.16951661179909
61.53998,7.59839963912964,-2.576735496521,4.16040229797363,7.30153646038217,-2.98375845179237,4.17461588490446
61.55998,7.58104038238525,-2.60965490341187,4.16546154022217,7.28085110260822,-3.01700023519114,4.17978722434794
61.57998,7.56304788589478,-2.64254069328308,4.1705207824707,7.2598782961417,-3.04976557746989,4.18503042596457
61.59998,7.54441452026367,-2.67541313171387,4.17557811737061,7.23861886899098,-3.08204930436439,4.19034528275225
61.61998,7.52513599395752,-2.70828866958618,4.18063163757324,7.21707366048028,-3.11384631766657,4.19573158487993
61.63998,7.50521039962769,-2.74117708206177,4.18568134307861,7.19524771200251,-3.14514567235917,4.20118807199937
61.65998,7.48463821411133,-2.77408385276794,4.19072818756104,7.17313355793927,-3.17595436728849,4.20671661051518
61.67998,7.46342468261719,-2.80700874328613,4.19577217102051,7.15073620788234,-3.20626151924865,4.21231594802941
61.69998,7.44157648086548,-2.83994674682617,4.20081520080566,7.12805654608123,-3.23606234216997,4.21798586347969
61.71998,7.41910219192505,-2.872887134552,4.20586013793945,7.10509546793113,-3.2653521299416,4.22372613301722
61.73998,7.39601516723633,-2.90581440925598,4.21090936660767,7.08185387993759,-3.29412625715481,4.2295365300156
61.75998,7.37232875823975,-2.93870806694031,4.21596717834473,7.05833269968071,-3.32238017983335,4.23541682507982
61.77998,7.34806060791016,-2.97154331207275,4.22103643417358,7.03453285577891,-3.35010943615106,4.24136678605527
61.79998,7.3232307434082,-3.00429081916809,4.22612285614014,7.01045990659875,-3.37730450994397,4.24738502335031
61.81998,7.29785966873169,-3.03691673278809,4.23123121261597,6.9861056179298,-3.40397148230041,4.25347359551755
61.83998,7.27196979522705,-3.06938552856445,4.23636531829834,6.96147551714798,-3.43010090349373,4.25963112071301
61.85998,7.24558591842651,-3.10165667533875,4.24153232574463,6.93657057665201,-3.45568864719655,4.265857355837
61.87998,7.21873331069946,-3.13368797302246,4.24673843383789,6.9113917796913,-3.48073067262255,4.27215205507718
61.89998,7.19143867492676,-3.16543483734131,4.25198984146118,6.88594012032714,-3.50522302516461,4.27851496991821
61.91998,7.16372871398926,-3.1968514919281,4.25729322433472,6.86021660339348,-3.52916183701927,4.28494584915163
61.93998,7.13563060760498,-3.22789120674133,4.26265430450439,6.83422224445718,-3.55254332779761,4.2914444388857
61.95998,7.10717344284058,-3.25850677490234,4.26808071136475,6.80796310481753,-3.57535950628261,4.29800922379562
61.97998,7.0783839225769,-3.28865051269531,4.27357864379883,6.78143020247239,-3.59761547439818,4.3046424493819
61.99998,7.04928874969482,-3.31827664375305,4.27915477752686,6.7546295686192,-3.61930331131971,4.3113426078452
62.01998,7.01991510391235,-3.34734010696411,4.28481435775757,6.72756226134955,-3.64041959212957,4.31810943466261
62.03998,6.99028730392456,-3.37579798698425,4.29056262969971,6.70022934928328,-3.66096098216959,4.32494266267918
62.05998,6.96043014526367,-3.40360903739929,4.29640531539917,6.67263191152637,-3.68092423756767,4.33184202211841
62.07998,6.93036699295044,-3.43073558807373,4.30234575271606,6.64477103762826,-3.70030620575006,4.33880724059293
62.09998,6.90011835098267,-3.45714259147644,4.3083872795105,6.61664782753892,-3.71910382593919,4.34583804311527
62.11998,6.86970520019531,-3.48279881477356,4.31453275680542,6.58826339156534,-3.73731412963705,4.35293415210867
62.13998,6.83914422988892,-3.50767755508423,4.32078313827515,6.55962433844391,-3.75493093685275,4.36009391538902
62.15998,6.80845165252686,-3.53175449371338,4.32713985443115,6.53072087211735,-3.7719581868792,4.36731978197066
62.17998,6.77764177322388,-3.55501127243042,4.33360147476196,6.5015595723109,-3.78838977371601,4.37461010692227
62.19998,6.74672603607178,-3.57743334770203,4.34016752243042,6.47214159031546,-3.80422310250636,4.38196460242114
62.21998,6.71571397781372,-3.59901022911072,4.34683656692505,6.44246808755574,-3.81945567286964,4.38938297811107
62.23998,6.68461322784424,-3.61973667144775,4.35360479354858,6.41254023554445,-3.8340850792963,4.39686494111389
62.25998,6.65342903137207,-3.63961172103882,4.36046934127808,6.38235921583603,-3.84810901152772,4.40441019604099
62.27998,6.62216377258301,-3.6586377620697,4.36742639541626,6.35192621997999,-3.86152525492105,4.412018445005
62.29998,6.59081888198853,-3.67682313919067,4.37447214126587,6.32124832563852,-3.87432930649451,4.41968791859037
62.31998,6.55939245223999,-3.69417834281921,4.38160133361816,6.29031503936376,-3.88652402936106,4.42742124015906
62.33998,6.52788257598877,-3.71071863174438,4.38881063461304,6.25913341085421,-3.89810499693521,4.43521664728645
62.35998,6.49628353118896,-3.72646307945251,4.39609432220459,6.22770467116353,-3.90907038036421,4.44307383220912
62.37998,6.46458864212036,-3.74143242835999,4.40344953536987,6.19603006110134,-3.91941844800764,4.45099248472467
62.39998,6.43278980255127,-3.75565099716187,4.41087198257446,6.16411083118425,-3.92914756571085,4.45897229220394
62.41998,6.40087699890137,-3.76914596557617,4.41835832595825,6.13194824158649,-3.93825619706305,4.46701293960338
62.43998,6.36883878707886,-3.78194499015808,4.42590570449829,6.09954356209016,-3.94674290363991,4.47511410947746
62.45998,6.33666372299194,-3.79407811164856,4.43351221084595,6.06690432140444,-3.95460490493959,4.48327391964889
62.47998,6.30433893203735,-3.80557584762573,4.44117641448975,6.03401935519824,-3.96184395898359,4.49149516120044
62.49998,6.27185153961182,-3.8164689540863,4.44889736175537,6.00089616533519,-3.9684573633007,4.4997759586662
62.51998,6.23918676376343,-3.82678866386414,4.45667457580566,5.96753605952197,-3.97444407350992,4.50811598511951
62.53998,6.20633172988892,-3.8365650177002,4.4645094871521,5.93394035481872,-3.97980314419701,4.51651491129532
62.55998,6.17327213287354,-3.84582734107971,4.47240304946899,5.90011037758706,-3.98453372906386,4.52497240560324
62.57998,6.13999462127686,-3.85460329055786,4.48035669326782,5.86604746343769,-3.98863508106209,4.53348813414058
62.59998,6.10648727416992,-3.86291837692261,4.48837280273438,5.83175295717769,-3.99210655251102,4.54206176070558
62.61998,6.07273817062378,-3.87079644203186,4.4964542388916,5.79723481954518,-3.99494711346611,4.55069129511371
62.63998,6.03873586654663,-3.878258228302,4.50460243225098,5.76248124352778,-3.99715739910498,4.55937968911805
62.65998,6.00447130203247,-3.88532161712646,4.51282167434692,5.72750016420396,-3.99873645836014,4.56812495894901
62.67998,5.96993684768677,-3.89200067520142,4.52111387252808,5.69229296263004,-3.99968404186841,4.57692675934249
62.69998,5.93512487411499,-3.89830732345581,4.52948141098022,5.65686102878968,-3.99999999998851,4.58578474280258
62.71998,5.90003061294556,-3.90424966812134,4.53792762756348,5.62120576153899,-3.99968428282472,4.59469855961525
62.73998,5.86465167999268,-3.90983104705811,4.54645395278931,5.58532856855131,-3.99873694023471,4.60366785786217
62.75998,5.8289852142334,-3.91505312919617,4.55506229400635,5.54923086626163,-3.99715812182172,4.61269228343459
62.77998,5.79303216934204,-3.91991257667542,4.56375360488892,5.51292102732745,-3.99494855859884,4.62176974316814
62.79998,5.75679397583008,-3.92440295219421,4.57252931594849,5.47638663188066,-3.9921077564858,4.63090334202984
62.81998,5.72027444839478,-3.92851424217224,4.58138990402222,5.43963602816986,-3.98863652542266,4.64009099295753
62.83998,5.68347883224487,-3.9322338104248,4.59033346176147,5.40267066711238,-3.98453541358213,4.6493323332219
62.85998,5.64641427993774,-3.93554496765137,4.59936141967773,5.36549200810418,-3.97980506860696,4.65862699797395
62.87998,5.60908937454224,-3.93842935562134,4.60847187042236,5.32810151896224,-3.97444623750765,4.66797462025944
62.89998,5.57151317596436,-3.94086503982544,4.61766338348389,5.29050067586663,-3.96845976654448,4.67737483103334
62.91998,5.53369808197021,-3.94282865524292,4.62693405151367,5.2526909633022,-3.96184660109389,4.68682725917445
62.93998,5.49565553665161,-3.94429397583008,4.63628244400024,5.21467387399998,-3.95460778549918,4.6963315315
62.95998,5.45739936828613,-3.94523477554321,4.6457052230835,5.17645821869732,-3.94674602214855,4.70588544532567
62.97998,5.41894388198853,-3.94562172889709,4.65520000457764,5.13803092563701,-3.93825955307369,4.71549226859075
62.99998,5.38030385971069,-3.94542574882507,4.66476440429688,5.09940078262808,-3.92915115869353,4.72514980434298
63.01998,5.34149408340454,-3.94461750984192,4.67439460754395,5.06056931479226,-3.91942227739495,4.73485767130194
63.03998,5.30253028869629,-3.9431676864624,4.68408727645874,5.02153805519957,-3.90907444555143,4.74461548620011
63.05998,5.26342868804932,-3.94104695320129,4.69384098052979,4.98230854480786,-3.89810929728036,4.75442286379804
63.07998,5.22420358657837,-3.9382266998291,4.70365142822266,4.94288233240191,-3.88652856418504,4.76427941689952
63.09998,5.18487167358398,-3.93467998504639,4.71351623535156,4.90326097453233,-3.87433407508118,4.77418475636692
63.11998,5.14544677734375,-3.93038201332092,4.7234320640564,4.86345364773485,-3.861530256473,4.78413658806629
63.13998,5.10594367980957,-3.92530846595764,4.73339557647705,4.82344673581721,-3.84811424529961,4.7941383160457
63.15998,5.06637525558472,-3.91943860054016,4.74340438842773,4.78324939376462,-3.83409054446163,4.80418765155884
63.17998,5.0267539024353,-3.912752866745,4.75345659255981,4.74286320857198,-3.81946136856537,4.81428419785701
63.19998,4.98709106445313,-3.90523624420166,4.76354885101318,4.7022897746897,-3.80422902783302,4.82442755632758
63.21998,4.94739627838135,-3.89687490463257,4.77367830276489,4.66153069396081,-3.78839592773787,4.8346173265098
63.23998,4.90767860412598,-3.88765931129456,4.78384351730347,4.62058757555768,-3.77196456862444,4.84485310611058
63.25998,4.86794567108154,-3.87758278846741,4.79404258728027,4.57946203591851,-3.75493754531357,4.85513449102037
63.27998,4.82820272445679,-3.86664175987244,4.80427360534668,4.53816359419676,-3.7373209637269,4.86545910145081
63.29998,4.78845357894897,-3.85483646392822,4.81453466415405,4.49667812416069,-3.71911088462199,4.87583046895983
63.31998,4.74870204925537,-3.84217000007629,4.82482481002808,4.45501512484548,-3.70031348791111,4.88624621878863
63.33998,4.70894813537598,-3.82864928245544,4.83514308929443,4.4131762411103,-3.68093174205698,4.89670593972243
63.35998,4.66919231414795,-3.81428337097168,4.84548807144165,4.37116312475826,-3.66096870780205,4.90720921881044
63.37998,4.6294322013855,-3.79908561706543,4.85586071014404,4.32897743447117,-3.64042753768517,4.91775564138221
63.39998,4.58966398239136,-3.78307032585144,4.86626005172729,4.28662083574409,-3.61931147554369,4.92834479106398
63.41998,4.54988288879395,-3.76625633239746,4.87668657302856,4.24409500081955,-3.59762385600126,4.93897624979511
63.43998,4.51008272171021,-3.74866366386414,4.88714122772217,4.20140976742258,-3.57537240273964,4.94964755814435
63.45998,4.47025585174561,-3.73031497001648,4.89762496948242,4.15855053496599,-3.55255214011311,4.9603623662585
63.47998,4.43039321899414,-3.71123385429382,4.9081392288208,4.11552712253958,-3.52917086264116,4.9711182193651
63.49998,4.39048480987549,-3.69144582748413,4.9186863899231,4.07234122871176,-3.50523226266756,4.98191469282206
63.51998,4.35052061080933,-3.67097759246826,4.92926788330078,4.0289945584657,-3.4807401205478,4.99275136038357
63.53998,4.3104887008667,-3.64985632896423,4.93988609313965,3.98548882313207,-3.45569830405209,5.00362779421698
63.55998,4.27037668228149,-3.62810969352722,4.95054340362549,3.94182574032144,-3.43011076775456,5.01454356491964
63.57998,4.2301721572876,-3.6057653427124,4.96124267578125,3.89800703385644,-3.40398155240877,5.02549824153589
63.59998,4.18986225128174,-3.58285069465637,4.97198677062988,3.85404283518275,-3.37731992146332,5.03648929120431
63.61998,4.14943408966064,-3.55939221382141,4.98277854919434,3.80991810624004,-3.35011991311297,5.04752047343999
63.63998,4.10887432098389,-3.53541612625122,4.9936203956604,3.76564296136888,-3.32239085777582,5.05858925965778
63.65998,4.06817054748535,-3.51094675064087,5.00451469421387,3.7212191485562,-3.2941371343916,5.06969521286095
63.67998,4.02731084823608,-3.48600745201111,5.01546382904053,3.67664842165834,-3.26536320475499,5.08083789458542
63.69998,3.98628330230713,-3.4606192111969,5.02646923065186,3.63193254033183,-3.23607361281102,5.09201686491704
63.71998,3.94507718086243,-3.43480157852173,5.03753280639648,3.58707326996391,-3.20627298393754,5.10323168250902
63.73998,3.9036819934845,-3.40857195854187,5.04865598678589,3.54207238160283,-3.17596602421471,5.11448190459929
63.75998,3.86208868026733,-3.38194537162781,5.05983972549438,3.49693165188794,-3.14515751968188,5.12576708702801
63.77998,3.82028913497925,-3.35493421554565,5.07108354568481,3.45166151207548,-3.11385835347907,5.13708462198113
63.79998,3.77827620506287,-3.32754898071289,5.08238697052002,3.40624647740479,-3.08206152680215,5.1484383806488
63.81998,3.73604440689087,-3.29979705810547,5.09374952316284,3.36069696379988,-3.04977798460275,5.15982575905003
63.83998,3.69358921051025,-3.27168393135071,5.10516977310181,3.31501476955986,-3.01701282505978,5.17124630761004
63.85998,3.65090727806091,-3.24321222305298,5.11664485931396,3.2692016982221,-2.98377122240862,5.18269957544448
63.87998,3.60799646377563,-3.21438264846802,5.12817335128784,3.223259558491,-2.95005842612396,5.19418511037725
63.89998,3.56485676765442,-3.18519306182861,5.13975191116333,3.1771901641666,-2.91587976009083,5.20570245895835
63.91998,3.521488904953,-3.1556396484375,5.15137672424316,3.13099533407297,-2.88124062176389,5.21725116648176
63.93998,3.47789478302002,-3.1257164478302,5.16304445266724,3.08468573799578,-2.8461532178699,5.22882856550105
63.95998,3.434077501297,-3.0954155921936,5.17475080490112,3.03824553562585,-2.81060970251718,5.24043861609354
63.97998,3.39004135131836,-3.06472754478455,5.18649196624756,2.9916853830338,-2.77462233899403,5.25207865424155
63.99998,3.34579229354858,-3.03364205360413,5.19826316833496,2.94500711841888,-2.73819681038245,5.26374822039528
64.01997,3.30133628845215,-3.00214719772339,5.21006011962891,2.8982215207567,-2.70134593975291,5.27544461981083
64.03998,3.25668096542358,-2.9702296257019,5.22187805175781,2.85130362916,-2.66405433528627,5.28717409271
64.05997,3.21183443069458,-2.93787693977356,5.23371267318726,2.80429108299289,-2.62635632856825,5.29892722925178
64.07998,3.16680502891541,-2.90507483482361,5.24555969238281,2.75714986539377,-2.58822910934866,5.31071253365156
64.09998,3.12160229682922,-2.87180995941162,5.25741577148438,2.70991779488758,-2.54970777850112,5.3225205512781
64.11998,3.07623600959778,-2.83806872367859,5.2692756652832,2.66256069577155,-2.51076902759978,5.33435982605711
64.13998,3.03071594238281,-2.80383896827698,5.28113651275635,2.61511655975917,-2.47144870463467,5.34622086006021
64.15998,2.98505187034607,-2.76910805702209,5.29299449920654,2.56755105770348,-2.43172301772705,5.35811223557413
64.17998,2.93925404548645,-2.7338650226593,5.304847240448,2.51990234850694,-2.39162853933994,5.37002441287327
64.19997,2.89333248138428,-2.69810056686401,5.31669235229492,2.47215419127278,-2.35115652184946,5.3819614521818
64.21998,2.84729647636414,-2.66180634498596,5.32852697372437,2.42429019724685,-2.31029770105193,5.39392745068829
64.23997,2.80115556716919,-2.62497568130493,5.3403491973877,2.37634876479353,-2.26908969260185,5.40591280880162
64.25998,2.75491857528687,-2.58760476112366,5.3521580696106,2.32829520493712,-2.22750756242274,5.41792619876572
64.27998,2.70859360694885,-2.54969024658203,5.36395215988159,2.28016806811911,-2.18558959206584,5.42995798297022
64.29998,2.66218829154968,-2.51123189926147,5.37573194503784,2.23193253099374,-2.14331041787204,5.44201686725157
64.31998,2.61570954322815,-2.47223162651062,5.38749551773071,2.18362728999176,-2.10070896310878,5.45409317750206
64.33997,2.56916308403015,-2.43269300460815,5.39924335479736,2.13523587205955,-2.05777589339556,5.46619103198511
64.35998,2.52255439758301,-2.39262318611145,5.41097640991211,2.08674167601732,-2.01450142060929,5.47831458099567
64.37997,2.47588777542114,-2.35202932357788,5.42269563674927,2.03818360580211,-1.97092538431424,5.49045409854947
64.39998,2.42916655540466,-2.31092262268066,5.434401512146,1.98952652625773,-1.92702141759138,5.50261836843557
64.41998,2.38239336013794,-2.26931595802307,5.44609546661377,1.94080947199272,-1.88282993953287,5.51479763200182
64.43998,2.33556914329529,-2.22722387313843,5.45777988433838,1.89199719281481,-1.83832421082917,5.5270007017963
64.45998,2.28869462013245,-2.18466234207153,5.46945571899414,1.84312884783976,-1.79354520456959,5.53921778804006
64.47998,2.24176931381226,-2.14164996147156,5.48112535476685,1.79416907740592,-1.74846582594397,5.55145773064852
64.49998,2.19479203224182,-2.09820675849915,5.49279117584229,1.74515715895226,-1.70312757615811,5.56371071026193
64.51997,2.14776086807251,-2.05435299873352,5.50445508956909,1.69607636780801,-1.6575204730585,5.575980908048
64.53998,2.10067272186279,-2.0101113319397,5.51611995697021,1.6469098769038,-1.61163416662463,5.58827253077405
64.55997,2.05352377891541,-1.96550405025482,5.5277886390686,1.59769712951786,-1.56551090094029,5.60057571762053
64.57998,2.00630974769592,-1.92055475711823,5.53946399688721,1.54840251678933,-1.51912276781293,5.61289937080267
64.59998,1.95902633666992,-1.87528800964355,5.5511474609375,1.49906558478075,-1.47251247332055,5.62523360380481
64.61998,1.91166758537292,-1.82972741127014,5.56284236907959,1.44965063477501,-1.42565181458,5.63758734130625
64.63998,1.86422836780548,-1.78389716148376,5.57455158233643,1.40019730937392,-1.37858393268822,5.64995067265652
64.65998,1.81670212745667,-1.73782062530518,5.58627653121948,1.35066982564163,-1.33128034788578,5.66233254358959
64.67998,1.76908349990845,-1.691521525383,5.59802007675171,1.30110791645887,-1.28378460903844,5.67472302088528
64.69997,1.7213659286499,-1.64502191543579,5.60978317260742,1.25149465900499,-1.23608621376589,5.68712633524875
64.71998,1.67354333400726,-1.59834349155426,5.62156867980957,1.20181305411569,-1.18817438239676,5.69954673647108
64.73997,1.6256103515625,-1.55150628089905,5.63337707519531,1.15210295831375,-1.14009322376386,5.71197426042156
64.75998,1.57756090164185,-1.50452947616577,5.64521026611328,1.10232840287198,-1.09181364499588,5.72441789928201
64.77998,1.52938997745514,-1.45743095874786,5.65706777572632,1.05252931888169,-1.04338009348309,5.73686767027958
64.79998,1.48109269142151,-1.41022658348083,5.6689510345459,1.00266967322655,-0.994763263128865,5.74933258169336
64.81998,1.43266475200653,-1.36293077468872,5.68086004257202,0.952789465260558,-0.946007911805737,5.76180263368486
64.83997,1.38410294055939,-1.31555616855621,5.69279384613037,0.902871655423752,-0.897103225009754,5.77428208614406
64.85998,1.33540403842926,-1.26811385154724,5.70475292205811,0.852899148250434,-0.848038183904007,5.78677521293739
64.87997,1.28656601905823,-1.22061288356781,5.71673440933228,0.802912033636535,-0.798857958995075,5.79927199159087
64.89998,1.23758769035339,-1.17306053638458,5.72873783111572,0.752874142412404,-0.749532792390376,5.8117814643969
64.91998,1.1884685754776,-1.12546277046204,5.74076175689697,0.702825616927617,-0.700108094074552,5.8242935957681
64.93998,1.13920879364014,-1.07782340049744,5.75280427932739,0.652730243577463,-0.650553958229435,5.83681743910563
64.95998,1.0898095369339,-1.03014469146729,5.76486253738403,0.602628210825923,-0.600916005634489,5.84934294729352
64.97998,1.04027307033539,-0.982427477836609,5.77693462371826,0.552483266352045,-0.551164201435988,5.86187918341199
64.99998,0.990602731704712,-0.934671103954315,5.78901863098145,0.502335638387693,-0.501344348391829,5.87441609040308
65.01997,0.940801799297333,-0.886873722076416,5.80111122131348,0.452168185729146,-0.45144535383691,5.88695795356771
65.03998,0.890874981880188,-0.839032530784607,5.81320953369141,0.401963737697712,-0.401456016818266,5.89950906557557
65.05997,0.840827822685242,-0.791143238544464,5.82531118392944,0.351762570261339,-0.351422358772469,5.91205935743467
65.07998,0.790665984153748,-0.74320113658905,5.8374137878418,0.301528359368203,-0.301314105412964,5.92461791015795
65.09998,0.740396738052368,-0.69520115852356,5.84951448440552,0.251301404863176,-0.25117738765368,5.93717464878421
65.11998,0.690027117729187,-0.647137403488159,5.86161184310913,0.201045364035688,-0.200981868848856,5.94973865899108
65.13998,0.639565110206604,-0.599003791809082,5.87370204925537,0.150800554243444,-0.150773760251184,5.96229986143914
65.15997,0.589018940925598,-0.550794541835785,5.88578414916992,0.100549793101855,-0.100541850720665,5.97486255172454
65.17998,0.538397073745728,-0.50250369310379,5.89785671234131,0.0502758893779873,-0.0502748965509299,5.9874310276555
65.19997,0.487708806991577,-0.454125761985779,5.90991687774658,1.91747598502111E-05,-1.9174759850156E-05,5.99999520631004
65.21998,0.436963140964508,-0.405656099319458,5.92196369171143,-0.0502567149966468,0.0502557233051064,6.01256417874916
65.23997,0.386169165372849,-0.357090294361115,5.93399620056152,-0.100511446610214,0.100503513312712,6.02512786165255
65.25998,0.335336208343506,-0.308425098657608,5.94601345062256,-0.150781382890099,0.150754599116148,6.03769534572252
65.27998,0.284473717212677,-0.259658306837082,5.95801496505737,-0.201026195331131,0.200962718306358,6.05025654883278
65.29998,0.233590304851532,-0.210788488388062,5.97000026702881,-0.251282239565344,0.251158250732569,6.06282055989134
65.31998,0.182694911956787,-0.16181606054306,5.98196983337402,-0.3015091982323,0.301294985129548,6.07537729955807
65.33997,0.131796479225159,-0.112742051482201,5.99392318725586,-0.351724257827809,0.351384157525712,6.08793106445695
65.35998,0.0809027627110481,-0.0635695308446884,6.00586080551147,-0.401944587156368,0.401436938871268,6.10048614678909
65.37997,0.0300216153264046,-0.014302521944046,6.01778316497803,-0.452129897509439,0.451407249321213,6.11303247437736
65.39998,-0.0208397135138512,0.0350531041622162,6.02969169616699,-0.502316501465139,0.501325324831838,6.12557912536628
65.41998,-0.0716743692755699,0.0844902396202087,6.04158735275269,-0.552464137370731,0.551145209571702,6.13811603434268
65.43998,-0.122476279735565,0.134000435471535,6.05347061157227,-0.602609090544242,0.600897048477749,6.15065227263606
65.45998,-0.173240035772324,0.183573335409164,6.06534337997437,-0.652711132746819,0.650535038760121,6.1631777831867
65.47998,-0.22396045923233,0.233197897672653,6.0772066116333,-0.702806516306255,0.700089215295349,6.17570162907656
65.49998,-0.274633467197418,0.282861113548279,6.08906173706055,-0.752855052750383,0.749513957266516,6.1882137631876
65.51997,-0.325255364179611,0.332549393177032,6.10091066360474,-0.802873877742539,0.798820382022971,6.20071846943563
65.53998,-0.375823199748993,0.382247745990753,6.11275482177734,-0.852880082771656,0.848019445022817,6.21322002069291
65.55997,-0.426334708929062,0.43194043636322,6.12459516525269,-0.902833550908058,0.89706585237555,6.22570838772701
65.57998,-0.47678804397583,0.481610327959061,6.13643360137939,-0.952770426975821,0.945989281003638,6.23819260674396
65.59998,-0.527182221412659,0.531240463256836,6.1482720375061,-1.00265064966368,0.994744690772496,6.25066266241592
65.61998,-0.577517032623291,0.580813229084015,6.16011142730713,-1.0525103107975,1.04336158252824,6.26312757769938
65.63998,-0.627792477607727,0.630309879779816,6.17195320129395,-1.10230941101086,1.09179519834179,6.27557735275271
65.65997,-0.678008735179901,0.679712116718292,6.18379926681519,-1.15206500854331,1.14005646490735,6.28801625213583
65.67998,-0.728167057037354,0.72900128364563,6.19565010070801,-1.2017940969555,1.18815607309679,6.30044852423887
65.69997,-0.778268814086914,0.778159141540527,6.20750617980957,-1.25145678163151,1.23604974120528,6.31286419540788
65.71998,-0.828315913677216,0.827167689800262,6.21936988830566,-1.30108899699329,1.28376644865766,6.32527224924832
65.73997,-0.878309905529022,0.876009166240692,6.23124027252197,-1.35065092614027,1.33126226625708,6.33766273153507
65.75998,-0.928253412246704,0.924666404724121,6.24311876296997,-1.4001784305907,1.37856593269763,6.35004460764767
65.77998,-0.978148281574249,0.973122954368591,6.25500535964966,-1.44963177744721,1.42563389903839,6.3624079443618
65.79998,-1.02799725532532,1.02136325836182,6.26690006256104,-1.4990467496612,1.47249464508987,6.3747616874153
65.81998,-1.07780206203461,1.06937217712402,6.2788028717041,-1.54838370461302,1.51910502967475,6.38709592615325
65.83997,-1.12756597995758,1.11713647842407,6.2907133102417,-1.59765955254576,1.56547561048518,6.39941488813644
