t,x_s1,x_s2,x_s3,x_s_d1,x_s_d2,x_s_d3,propellers_rpms1,propellers_rpms2,propellers_rpms3,propellers_rpms4,rollRad,pitchRad,yawRad,v_s1,v_s2,v_s3,v_s_d1,v_s_d2,v_s_d3,insideCount
11.56,-0.0599999688565731,2.94000005722046,1.95999944210052,-0.0599999986588955,2.94000005722046,1.95999991893768,2128.77,2128.77,2128.77,2128.77,2.36092629995957E-08,0.785398556787626,1.49885686623898E-07,2.29763994497034E-08,-2.52941077860669E-07,1.56803218942514E-06,0,0,0,15
11.58,-0.0599999688565731,2.94000005722046,1.95999944210052,-0.0599999986588955,2.94000005722046,1.95999991893768,2128.768,2128.768,2128.772,2128.772,-2.29311335675595E-09,0.785398556787626,1.79077283297334E-07,1.71291922868022E-08,-2.82177154531382E-07,1.55924260525353E-06,0,0,0,15
11.6,-0.0599999688565731,2.94000005722046,1.95999944210052,-0.0599999986588955,2.94000005722046,1.95999991893768,2128.769,2128.769,2128.771,2128.771,-2.70389212090443E-09,0.785398556787626,1.71265021437847E-07,5.43490852322748E-09,-3.11413259623805E-07,1.57682188728359E-06,0,0,0,15
11.62,-0.0599999688565731,2.94000005722046,1.95999944210052,-0.0599999986588955,2.94000005722046,1.95999991893768,2128.768,2128.771,2128.772,2128.769,1.66207209608385E-08,0.785398556787626,1.43717366244312E-07,-4.12214706813074E-10,-3.40649336294518E-07,1.56803230311198E-06,0,0,0,15
11.64,-0.0599999688565731,2.94000005722046,1.95999944210052,-0.0599999986588955,2.94000005722046,1.95999991893768,2128.772,2128.771,2128.768,2128.769,6.63707601262004E-08,0.785398556787626,1.31793552201641E-07,-6.25939433618328E-09,-3.69885299278394E-07,1.55484792685456E-06,0,0,0,15
11.66,-0.0599999688565731,2.94000005722046,1.95999944210052,-0.0599999986588955,2.94000005722046,1.95999991893768,2128.77,2128.772,2128.77,2128.768,9.06292108763288E-08,0.785398556787626,1.35493642804542E-07,-4.12275102945614E-10,-3.84503351824605E-07,1.54605834268295E-06,0,0,0,15
11.68,-0.0599999688565731,2.94000005722046,1.95999944210052,-0.0599999986588955,2.94000005722046,1.95999991893768,2128.771,2128.77,2128.769,2128.77,1.10776129285369E-07,0.785398556787626,1.63040647177322E-07,-6.25955198785277E-09,-4.137393716519E-07,1.54605834268295E-06,0,0,0,15
11.7,-0.0599999688565731,2.94000005722046,1.95999944210052,-0.0599999986588955,2.94000005722046,1.95999991893768,2128.77,2128.77,2128.771,2128.771,1.09543022375513E-07,0.785398556787626,1.93876883772443E-07,-1.21068222114218E-08,-4.42975476744323E-07,1.5284790606529E-06,0,0,0,15
11.72,-0.0599999688565731,2.94000005722046,1.95999944210052,-0.0599999986588955,2.94000005722046,1.95999991893768,2128.769,2128.769,2128.771,2128.771,1.13243763799168E-07,0.785398556787626,2.19779279970891E-07,-2.38012258790832E-08,-4.48822703447149E-07,1.51968947648129E-06,0,0,0,15
11.74,-0.0599999688565731,2.94000005722046,1.95999944210052,-0.0599999986588955,2.94000005722046,1.95999991893768,2128.77,2128.768,2128.77,2128.772,1.27634505977015E-07,0.785398556787626,2.26768571048779E-07,-2.38011583775233E-08,-4.34204679322647E-07,1.5328738527387E-06,0,0,0,15
11.76,-0.0599999688565731,2.94000005722046,1.95999944210052,-0.0599999986588955,2.94000005722046,1.95999991893768,2128.772,2128.769,2128.768,2128.771,1.40380671727883E-07,0.785398556787626,2.008655081559E-07,-4.12233802649098E-10,-4.13739513760447E-07,1.51968947648129E-06,0,0,0,15
11.78,-0.0599999688565731,2.94000005722046,1.95999944210052,-0.0599999986588955,2.94000005722046,1.95999991893768,2128.77,2128.771,2128.77,2128.769,1.28457572000675E-07,0.785398556787626,1.5851630002499E-07,2.29766001780263E-08,-3.93274348198247E-07,1.48453102610802E-06,0,0,0,15
11.8,-0.0599999688565731,2.94000005722046,1.95999944210052,-0.0599999986588955,2.94000005722046,1.95999991893768,2128.771,2128.772,2128.769,2128.768,1.17356760486956E-07,0.785398556787626,1.3672475756794E-07,2.8823768261077E-08,-4.0789234390104E-07,1.48453102610802E-06,0,0,0,15
11.82,-0.0599999688565731,2.94000005722046,1.95999944210052,-0.0599999986588955,2.94000005722046,1.95999991893768,2128.768,2128.771,2128.772,2128.769,8.48759236543404E-08,0.785398556787626,1.39602496462644E-07,2.29764509640518E-08,-4.37128392150044E-07,1.48453102610802E-06,0,0,0,15
11.84,-0.0599999688565731,2.94000005722046,1.95999944210052,-0.0599999986588955,2.94000005722046,1.95999991893768,2128.769,2128.77,2128.771,2128.77,7.4597440038303E-08,0.785398556787626,1.58104108255566E-07,1.71292526829347E-08,-4.66364383555629E-07,1.48453102610802E-06,0,0,0,15
11.86,-0.0599999688565731,2.94000005722046,1.95999944210052,-0.0599999986588955,2.94000005722046,1.95999991893768,2128.77,2128.77,2128.771,2128.771,8.48766300329648E-08,0.785398556787626,1.77428024135654E-07,1.1282084599884E-08,-4.95600374961214E-07,1.48892581819382E-06,0,0,0,15
11.88,-0.0599999688565731,2.94000005722046,1.95999944210052,-0.0599999986588955,2.94000005722046,1.95999991893768,2128.77,2128.769,2128.77,2128.771,1.04201220544323E-07,0.785398556787626,1.86061923387875E-07,-4.12296863316897E-10,-4.6636432671221E-07,1.46255695199216E-06,0,0,0,15
11.9,-0.0599999688565731,2.94000005722046,1.95999944210052,-0.0599999986588955,2.94000005722046,1.95999991893768,2128.771,2128.768,2128.769,2128.772,1.21881202881349E-07,0.785398556787626,1.84828110099394E-07,-1.7953919240199E-08,-4.37128278463206E-07,1.45816215990635E-06,0,0,0,15
11.92,-0.0599999688565731,2.94000005722046,1.95999944210052,-0.0599999986588955,2.94000005722046,1.95999991893768,2128.771,2128.769,2128.769,2128.771,1.1982583156852E-07,0.785398556787626,1.52346582761832E-07,5.43496270211108E-09,-4.16663141322715E-07,1.43618808579049E-06,0,0,0,15
11.94,-0.0599999688565731,2.94000005722046,1.95999944210052,-0.0599999986588955,2.94000005722046,1.95999991893768,2128.77,2128.773,2128.771,2128.767,1.07080411880468E-07,0.785398556787626,1.05885814510899E-07,-4.12243572611715E-10,-4.45899274836847E-07,1.42300370953308E-06,0,0,0,15
11.96,-0.0599999688565731,2.94000005722046,1.95999944210052,-0.0599999986588955,2.94000005722046,1.95999991893768,2128.768,2128.773,2128.772,2128.767,9.68018965170769E-08,0.785398556787626,1.03007377174409E-07,1.12820908171329E-08,-3.90350635370851E-07,1.39224005124561E-06,0,0,0,15
11.98,-0.0599999688565731,2.94000005722046,1.95999944210052,-0.0599999986588955,2.94000005722046,1.95999991893768,2128.773,2128.768,2128.767,2128.772,1.21060351235625E-07,0.785398556787626,1.47822870556578E-07,2.29764882675454E-08,-3.34801939061435E-07,1.37905567498819E-06,0,0,0,15
12,-0.0599999688565731,2.94000005722046,1.95999944210052,-0.0599999986588955,2.94000005722046,1.95999991893768,2128.772,2128.768,2128.768,2128.773,9.68026028957013E-08,0.785398556787626,1.58923697943973E-07,1.71292420247937E-08,-3.64038186262405E-07,1.37905567498819E-06,0,0,0,15
12.02,-0.0599999688565731,2.94000005722046,1.95999944210052,-0.0599999986588955,2.94000005722046,1.95999991893768,2128.766,2128.772,2128.774,2128.768,3.47186403462401E-08,0.785398556787626,1.3384293913826E-07,1.12820242037515E-08,-3.93274433463375E-07,1.39224005124561E-06,0,0,0,15
12.04,-0.0599999688565731,2.94000005722046,1.95999944210052,-0.0599999986588955,2.94000005722046,1.95999991893768,2128.768,2128.771,2128.772,2128.77,3.84193857383153E-08,0.785398556787626,1.40009926128982E-07,1.12821023634524E-08,-4.07892258635911E-07,1.43179340739152E-06,0,0,0,15
12.06,-0.0599999688565731,2.94000005722046,1.95999944210052,-0.0599999986588955,2.94000005722046,1.95999991893768,2128.77,2128.77,2128.77,2128.77,7.09009527600703E-08,0.785398556787626,1.55222321573239E-07,1.12821476605518E-08,-4.22510197495285E-07,1.47574155562324E-06,0,0,0,15
12.08,-0.0599999688565731,2.94000005722046,1.95999944210052,-0.0599999986588955,2.94000005722046,1.95999991893768,2128.771,2128.77,2128.77,2128.77,1.01737879860139E-07,0.785398556787626,1.72079309318152E-07,5.43492673088508E-09,-4.51746274165998E-07,1.48453113979485E-06,0,0,0,15
12.1,-0.0599999688565731,2.94000005722046,1.95999944210052,-0.0599999986588955,2.94000005722046,1.95999991893768,2128.77,2128.77,2128.77,2128.77,1.21884814142856E-07,0.785398556787626,1.89758617023908E-07,-6.25952667476781E-09,-4.22510225916994E-07,1.45816227359319E-06,0,0,0,15
12.12,-0.0599999688565731,2.94000005722046,1.95999944210052,-0.0599999986588955,2.94000005722046,1.95999991893768,2128.772,2128.767,2128.768,2128.773,1.42854028702224E-07,0.785398556787626,2.06615620642498E-07,1.71293326189925E-08,-4.02044975089666E-07,1.44058299156313E-06,0,0,0,15
12.14,-0.0599999688565731,2.94000005722046,1.95999944210052,-0.0599999986588955,2.94000005722046,1.95999991893768,2128.772,2128.771,2128.768,2128.77,1.28463992903002E-07,0.785398556787626,1.76601037313787E-07,4.05182163376594E-08,-3.81579923214304E-07,1.41860891744727E-06,0,0,0,15
12.16,-0.0599999688565731,2.94000005722046,1.95999944210052,-0.0599999986588955,2.94000005722046,1.95999991893768,2128.77,2128.771,2128.77,2128.769,7.78924105948627E-08,0.785398556787626,1.51520262634397E-07,4.05181239671037E-08,-3.96198032603934E-07,1.42739850161888E-06,0,0,0,15
12.18,-0.0599999688565731,2.94000005722046,1.95999944210052,-0.0599999986588955,2.94000005722046,1.95999991893768,2128.766,2128.772,2128.774,2128.768,2.73207628078061E-08,0.785398556787626,1.47819537084418E-07,3.46708617371405E-08,-4.25434052431228E-07,1.42739850161888E-06,0,0,0,15
12.2,-0.0599999688565731,2.94000005722046,1.95999944210052,-0.0599999986588955,2.94000005722046,1.95999991893768,2128.767,2128.771,2128.773,2128.769,3.7599962723516E-08,0.785398556787626,1.68788077012515E-07,2.88237309575834E-08,-4.54669930149976E-07,1.42300370953308E-06,0,0,0,15
12.22,-0.0599999688565731,2.94000005722046,1.95999944210052,-0.0599999986588955,2.94000005722046,1.95999991893768,2128.771,2128.769,2128.769,2128.771,9.55730675631594E-08,0.785398556787626,2.06202793925996E-07,2.29765895198852E-08,-4.83905864712142E-07,1.40542442750302E-06,0,0,0,15
12.24,-0.0599999688565731,2.94000005722046,1.95999944210052,-0.0599999986588955,2.94000005722046,1.95999991893768,2128.772,2128.769,2128.768,2128.772,1.37100011291096E-07,0.785398556787626,2.22237509331096E-07,1.12821751940828E-08,-4.89753176680097E-07,1.40102963541722E-06,0,0,0,15
12.26,-0.0599999688565731,2.94000005722046,1.95999944210052,-0.0599999986588955,2.94000005722046,1.95999991893768,2128.772,2128.77,2128.769,2128.771,1.45734624858779E-07,0.785398556787626,2.15247503937745E-07,3.46710073984013E-08,-4.69288067961315E-07,1.3878452591598E-06,0,0,0,15
12.28,-0.0599999688565731,2.94000005722046,1.95999944210052,-0.0599999986588955,2.94000005722046,1.95999991893768,2128.772,2128.771,2128.768,2128.77,1.33811493384217E-07,0.785398556787626,1.95922921363225E-07,5.80598431554336E-08,-4.48822902399115E-07,1.37026597712975E-06,0,0,0,15
12.3,-0.0599999688565731,2.94000005722046,1.95999944210052,-0.0599999986588955,2.94000005722046,1.95999991893768,2128.771,2128.771,2128.77,2128.769,8.81737038517207E-08,0.785398556787626,1.82354467398868E-07,8.14486114109059E-08,-4.28357708415206E-07,1.37026597712975E-06,0,0,0,15
12.32,-0.0599999688565731,2.94000005722046,1.95999944210052,-0.0599999986588955,2.94000005722046,1.95999991893768,2128.769,2128.771,2128.771,2128.769,3.92467098758176E-08,0.785398556787626,1.83587566371886E-07,6.39069313024265E-08,-3.99121603322783E-07,1.37026597712975E-06,0,0,0,15
12.34,-0.0599999688565731,2.94000005722046,1.95999944210052,-0.0599999986588955,2.94000005722046,1.95999991893768,2128.767,2128.768,2128.773,2128.772,1.00550893918668E-08,0.785398556787626,1.979776418553E-07,5.22125205293378E-08,-4.28357594728368E-07,1.40981933327566E-06,0,0,0,15
12.36,-0.0599999688565731,2.94000005722046,1.95999944210052,-0.0599999986588955,2.94000005722046,1.95999991893768,2128.768,2128.771,2128.772,2128.769,2.6090483396657E-08,0.785398556787626,1.83586899677454E-07,1.12821965103649E-08,-4.40051991290602E-07,1.39224005124561E-06,0,0,0,15
12.38,-0.0599999688565731,2.94000005722046,1.95999944210052,-0.0599999986588955,2.94000005722046,1.95999991893768,2128.768,2128.77,2128.772,2128.771,7.25512675212669E-08,0.785398556787626,1.83175422223493E-07,-4.12192946441792E-10,-4.69287954274478E-07,1.44058299156313E-06,0,0,0,15
12.4,-0.0599999688565731,2.94000005722046,1.95999944210052,-0.0599999986588955,2.94000005722046,1.95999991893768,2128.771,2128.772,2128.769,2128.769,1.4368133299763E-07,0.785398556787626,1.74540872150518E-07,-1.79537611444403E-08,-4.40051849182055E-07,1.45376736782055E-06,0,0,0,15
12.42,-0.0599999688565731,2.94000005722046,1.95999944210052,-0.0599999986588955,2.94000005722046,1.95999991893768,2128.774,2128.768,2128.766,2128.772,1.94253677242263E-07,0.785398556787626,1.89753251721098E-07,-1.79538623967801E-08,-4.54669873306557E-07,1.44497778364894E-06,0,0,0,15
12.44,-0.0599999688565731,2.94000005722046,1.95999944210052,-0.0599999986588955,2.94000005722046,1.95999991893768,2128.772,2128.771,2128.768,2128.769,1.75752065449341E-07,0.785398556787626,1.77007117717584E-07,-2.38011690356643E-08,-4.69288124804734E-07,1.48453113979485E-06,0,0,0,15
12.46,-0.0599999688565731,2.94000005722046,1.95999944210052,-0.0599999986588955,2.94000005722046,1.95999991893768,2128.769,2128.771,2128.771,2128.769,1.32581219925697E-07,0.785398556787626,1.77417960224466E-07,-2.38012543007926E-08,-4.83906205772655E-07,1.48892593188066E-06,0,0,0,15
12.48,-0.0599999688565731,2.94000005722046,1.95999944210052,-0.0599999986588955,2.94000005722046,1.95999991893768,2128.768,2128.77,2128.772,2128.77,1.03389599441746E-07,0.785398556787626,1.88518755864508E-07,-2.38012471953652E-08,-4.98524173053738E-07,1.47574155562324E-06,0,0,0,15
12.5,-0.0599999688565731,2.94000005722046,1.95999944210052,-0.0599999986588955,2.94000005722046,1.95999991893768,2128.768,2128.77,2128.772,2128.77,9.80449641592208E-08,0.785398556787626,2.0044188733907E-07,-4.13428367096458E-08,-4.69288039539606E-07,1.48892593188066E-06,0,0,0,15
12.52,-0.0599999688565731,2.94000005722046,1.95999944210052,-0.0599999986588955,2.94000005722046,1.95999991893768,2128.771,2128.767,2128.77,2128.773,1.23125715028096E-07,0.785398556787626,2.16476570996817E-07,-5.30372048501704E-08,-4.75135180977304E-07,1.47574155562324E-06,0,0,0,15
12.54,-0.0599999688565731,2.94000005722046,1.95999944210052,-0.0599999986588955,2.94000005722046,1.95999991893768,2128.77,2128.771,2128.77,2128.77,1.4245032934997E-07,0.785398556787626,1.88928884055928E-07,-2.96482678407983E-08,-4.54670043836813E-07,1.44058310524997E-06,0,0,0,15
12.56,-0.0599999688565731,2.94000005722046,1.95999944210052,-0.0599999986588955,2.94000005722046,1.95999991893768,2128.773,2128.772,2128.767,2128.769,1.62597279506364E-07,0.785398556787626,1.65492781045577E-07,-6.25941964926824E-09,-4.34204793009485E-07,1.42300382321991E-06,0,0,0,15
12.58,-0.0599999688565731,2.94000005722046,1.95999944210052,-0.0599999986588955,2.94000005722046,1.95999991893768,2128.77,2128.771,2128.77,2128.769,1.35050275133584E-07,0.785398556787626,1.65081303591617E-07,-6.2595804095622E-09,-4.48822873977406E-07,1.42739861530572E-06,0,0,0,15
12.6,-0.0599999688565731,2.94000005722046,1.95999944210052,-0.0599999986588955,2.94000005722046,1.95999991893768,2128.769,2128.77,2128.771,2128.77,1.09147878935136E-07,0.785398556787626,1.84405171850674E-07,-6.25962170985872E-09,-4.63440869680198E-07,1.40981933327566E-06,0,0,0,15
12.62,-0.0599999688565731,2.94000005722046,1.95999944210052,-0.0599999986588955,2.94000005722046,1.95999991893768,2128.769,2128.77,2128.771,2128.771,1.00514003493431E-07,0.785398556787626,2.02906783643596E-07,-2.38012223263695E-08,-4.34204764587776E-07,1.40981933327566E-06,0,0,0,15
12.64,-0.0599999688565731,2.94000005722046,1.95999944210052,-0.0599999986588955,2.94000005722046,1.95999991893768,2128.77,2128.767,2128.77,2128.773,1.08326265352917E-07,0.785398556787626,2.13185322817503E-07,-3.54955957959646E-08,-4.40051962868893E-07,1.40981933327566E-06,0,0,0,15
12.66,-0.0599999688565731,2.94000005722046,1.95999944210052,-0.0599999986588955,2.94000005722046,1.95999991893768,2128.769,2128.771,2128.771,2128.77,1.15316270746269E-07,0.785398556787626,1.79881475519097E-07,-3.54954998726953E-08,-4.25434024009519E-07,1.44497778364894E-06,0,0,0,15
12.68,-0.0599999688565731,2.94000005722046,1.95999944210052,-0.0599999986588955,2.94000005722046,1.95999991893768,2128.771,2128.771,2128.769,2128.769,1.3546318121847E-07,0.785398556787626,1.53156140286405E-07,-5.30371266904694E-08,-3.96197918917096E-07,1.44497778364894E-06,0,0,0,15
12.7,-0.0599999688565731,2.94000005722046,1.95999944210052,-0.0599999986588955,2.94000005722046,1.95999991893768,2128.771,2128.772,2128.77,2128.769,1.37519298594117E-07,0.785398556787626,1.41232326243734E-07,-4.7189988805485E-08,-4.10815971463308E-07,1.43618819947733E-06,0,0,0,15
12.72,-0.0599999688565731,2.94000005722046,1.95999944210052,-0.0599999986588955,2.94000005722046,1.95999991893768,2128.77,2128.771,2128.77,2128.77,1.33819255612247E-07,0.785398556787626,1.51510833670287E-07,-4.13428402623595E-08,-4.254339671661E-07,1.43618819947733E-06,0,0,0,15
12.74,-0.0599999688565731,2.94000005722046,1.95999944210052,-0.0599999986588955,2.94000005722046,1.95999991893768,2128.77,2128.77,2128.77,2128.77,1.30941516717543E-07,0.785398556787626,1.67545501454356E-07,-3.54956384285288E-08,-4.40051991290602E-07,1.44497778364894E-06,0,0,0,15
12.76,-0.0599999688565731,2.94000005722046,1.95999944210052,-0.0599999986588955,2.94000005722046,1.95999991893768,2128.77,2128.77,2128.771,2128.77,1.28886113657359E-07,0.785398556787626,1.79468664676272E-07,-3.54956277703877E-08,-4.54670043836813E-07,1.43618819947733E-06,0,0,0,15
12.78,-0.0599999688565731,2.94000005722046,1.95999944210052,-0.0599999986588955,2.94000005722046,1.95999991893768,2128.77,2128.769,2128.77,2128.771,1.35053767342513E-07,0.785398556787626,1.94681012499499E-07,-4.13428296042184E-08,-4.69288039539606E-07,1.46255706567899E-06,0,0,0,15
12.8,-0.0599999688565731,2.94000005722046,1.95999944210052,-0.0599999986588955,2.94000005722046,1.95999991893768,2128.77,2128.77,2128.77,2128.771,1.42043725114834E-07,0.785398556787626,1.92624926871206E-07,-1.79539370037674E-08,-4.48822817133987E-07,1.43179340739152E-06,0,0,0,15
12.82,-0.0599999688565731,2.94000005722046,1.95999944210052,-0.0599999986588955,2.94000005722046,1.95999991893768,2128.772,2128.77,2128.768,2128.77,1.49033698760831E-07,0.785398556787626,1.77411864732517E-07,5.43494671489952E-09,-4.28357594728368E-07,1.41860903113411E-06,0,0,0,15
12.84,-0.0599999688565731,2.94000005722046,1.95999944210052,-0.0599999986588955,2.94000005722046,1.95999991893768,2128.771,2128.771,2128.769,2128.769,1.23131342246576E-07,0.785398556787626,1.60554226166849E-07,5.43487566062595E-09,-4.42975704117998E-07,1.4098194469625E-06,0,0,0,15
12.86,-0.0599999688565731,2.94000005722046,1.95999944210052,-0.0599999986588955,2.94000005722046,1.95999991893768,2128.767,2128.771,2128.773,2128.769,7.996050465977E-08,0.785398556787626,1.57675757083005E-07,-4.12408773797779E-10,-4.72211780788712E-07,1.4054246548767E-06,0,0,0,15
12.88,-0.0599999688565731,2.94000005722046,1.95999944210052,-0.0599999986588955,2.94000005722046,1.95999991893768,2128.767,2128.771,2128.773,2128.769,8.03719741768921E-08,0.785398556787626,1.7699968883677E-07,-6.25957330413485E-09,-5.01447686929168E-07,1.4054246548767E-06,0,0,0,15
12.9,-0.0599999688565731,2.94000005722046,1.95999944210052,-0.0599999986588955,2.94000005722046,1.95999991893768,2128.771,2128.769,2128.77,2128.771,1.26832758301502E-07,0.785398556787626,2.14414374002898E-07,-1.79539370037674E-08,-4.72211468149908E-07,1.37905578867503E-06,0,0,0,15
12.92,-0.0599999688565731,2.94000005722046,1.95999944210052,-0.0599999986588955,2.94000005722046,1.95999991893768,2128.772,2128.769,2128.768,2128.772,1.6095887793972E-07,0.785398556787626,2.34560609843829E-07,5.43492895133113E-09,-4.51746302587708E-07,1.36587141241762E-06,0,0,0,15
12.94,-0.0599999688565731,2.94000005722046,1.95999944210052,-0.0599999986588955,2.94000005722046,1.95999991893768,2128.773,2128.77,2128.767,2128.771,1.68771187420237E-07,0.785398556787626,2.31682172507339E-07,2.88237771428612E-08,-4.31281165447217E-07,1.36147662033181E-06,0,0,0,15
12.96,-0.0599999688565731,2.94000005722046,1.95999944210052,-0.0599999986588955,2.94000005722046,1.95999991893768,2128.771,2128.771,2128.769,2128.77,1.28067254158092E-07,0.785398556787626,2.14824518067994E-07,5.22125525037609E-08,-4.10816056728436E-07,1.35268703616021E-06,0,0,0,15
12.98,-0.0599999688565731,2.94000005722046,1.95999944210052,-0.0599999986588955,2.94000005722046,1.95999991893768,2128.767,2128.771,2128.773,2128.77,6.92725357362295E-08,0.785398556787626,1.99611471802982E-07,7.56013633917973E-08,-3.90350834322817E-07,1.33950265990279E-06,0,0,0,15
13,-0.0599999688565731,2.94000005722046,1.95999944210052,-0.0599999986588955,2.94000005722046,1.95999991893768,2128.77,2128.771,2128.771,2128.77,5.32378758889984E-08,0.785398556787626,1.92621450535953E-07,5.80598005228694E-08,-3.61114643965266E-07,1.35268703616021E-06,0,0,0,15
13.02,-0.0599999688565731,2.94000005722046,1.95999944210052,-0.0599999986588955,2.94000005722046,1.95999991893768,2128.768,2128.771,2128.772,2128.77,4.62486086216254E-08,0.785398556787626,1.94676885343491E-07,4.05181594942405E-08,-3.31878538872843E-07,1.37026631819026E-06,0,0,0,15
13.04,-0.0599999688565731,2.94000005722046,1.95999944210052,-0.0599999986588955,2.94000005722046,1.95999991893768,2128.77,2128.77,2128.771,2128.77,6.88624472290023E-08,0.785398556787626,2.00021584120724E-07,2.88237913537159E-08,-3.61114530278428E-07,1.42739884267939E-06,0,0,0,15
13.06,-0.0599999688565731,2.94000005722046,1.95999944210052,-0.0599999986588955,2.94000005722046,1.95999991893768,2128.771,2128.77,2128.769,2128.77,9.47655577429129E-08,0.785398556787626,2.07010906945967E-07,1.12821503250871E-08,-3.31878453607715E-07,1.44937291679526E-06,0,0,0,15
13.08,-0.0599999688565731,2.94000005722046,1.95999944210052,-0.0599999986588955,2.94000005722046,1.95999991893768,2128.771,2128.77,2128.769,2128.771,1.07511683809589E-07,0.785398556787626,2.14000182150178E-07,-4.12306633279513E-10,-3.3772570873225E-07,1.45376770888106E-06,0,0,0,15
13.1,-0.0599999688565731,2.94000005722046,1.95999944210052,-0.0599999986588955,2.94000005722046,1.95999991893768,2128.771,2128.77,2128.77,2128.771,1.0134472856622E-07,0.785398556787626,2.16877936918559E-07,-4.12340300792735E-10,-3.23107713029458E-07,1.49332095134014E-06,0,0,0,15
13.12,-0.0599999688565731,2.94000005722046,1.95999944210052,-0.0599999986588955,2.94000005722046,1.95999991893768,2128.77,2128.77,2128.77,2128.77,8.61323489956397E-08,0.785398556787626,2.13999499582069E-07,-1.21067751379655E-08,-3.28954968153994E-07,1.50211053551175E-06,0,0,0,15
13.14,-0.0599999688565731,2.94000005722046,1.95999944210052,-0.0599999986588955,2.94000005722046,1.95999991893768,2128.769,2128.77,2128.771,2128.77,7.25645934730685E-08,0.785398556787626,2.09476501692278E-07,-2.38011956810169E-08,-3.3480219485682E-07,1.47574166931008E-06,0,0,0,15
13.16,-0.0599999688565731,2.94000005722046,1.95999944210052,-0.0599999986588955,2.94000005722046,1.95999991893768,2128.769,2128.77,2128.771,2128.77,7.05091824760461E-08,0.785398556787626,2.04953472055133E-07,-4.13428082879364E-08,-3.05566089764397E-07,1.46255729305267E-06,0,0,0,15
13.18,-0.0599999688565731,2.94000005722046,1.95999944210052,-0.0599999986588955,2.94000005722046,1.95999991893768,2128.77,2128.768,2128.77,2128.772,7.99660842572188E-08,0.785398556787626,2.00430426544311E-07,-5.88844244475695E-08,-2.76329984671975E-07,1.44937291679526E-06,0,0,0,15
13.2,-0.0599999688565731,2.94000005722046,1.95999944210052,-0.0599999986588955,2.94000005722046,1.95999991893768,2128.771,2128.769,2128.77,2128.771,8.53114735393993E-08,0.785398556787626,1.72060483137287E-07,-7.64260192909205E-08,-2.4709399326639E-07,1.45376770888106E-06,0,0,0,15
13.22,-0.0599999688565731,2.94000005722046,1.95999944210052,-0.0599999986588955,2.94000005722046,1.95999991893768,2128.771,2128.77,2128.77,2128.77,8.07891185335247E-08,0.785398556787626,1.3053353940935E-07,-8.81204371694366E-08,-2.17857973439095E-07,1.4317936347652E-06,0,0,0,15
13.24,-0.0599999725818634,2.94000005722046,1.95999944210052,-0.0599999986588955,2.94000005722046,1.95999991893768,2128.77,2128.771,2128.77,2128.769,6.96883308303212E-08,0.785398556787626,8.90066433024449E-08,-9.39676638722631E-08,-2.47094050109808E-07,1.4317936347652E-06,0,0,0,15
13.26,-0.0599999725818634,2.94000005722046,1.95999944210052,-0.0599999986588955,2.94000005722046,1.95999991893768,2128.767,2128.773,2128.773,2128.767,5.69429032054315E-08,0.785398556787626,6.55705164815789E-08,-5.88844280002832E-08,-2.50017620828658E-07,1.46255729305267E-06,0,0,0,15
13.27999,-0.0599999725818634,2.94000005722046,1.95999944210052,-0.0599999986588955,2.94000005722046,1.95999991893768,2128.772,2128.772,2128.768,2128.768,8.77798144318234E-08,0.785398556787626,9.22952167671928E-08,-1.79539476619084E-08,-2.5294102101725E-07,1.46255729305267E-06,0,0,0,15
13.3,-0.0599999725818634,2.94000005722046,1.95999944210052,-0.0599999986588955,2.94000005722046,1.95999991893768,2128.772,2128.77,2128.768,2128.77,8.65466916482902E-08,0.785398556787626,1.5273458304758E-07,1.71291851813749E-08,-2.55864620157809E-07,1.49771574342594E-06,0,0,0,15
13.31999,-0.0599999725818634,2.94000005722046,1.95999944210052,-0.0599999986588955,2.94000005722046,1.95999991893768,2128.77,2128.768,2128.77,2128.772,5.57104709268457E-08,0.785398556787626,2.11529301469442E-07,1.12819078523785E-08,-2.85100753671941E-07,1.48892615925433E-06,0,0,0,15
13.34,-0.0599999725818634,2.94000005722046,1.95999944210052,-0.0599999986588955,2.94000005722046,1.95999991893768,2128.768,2128.767,2128.772,2128.773,2.32296321100209E-08,0.785398556787626,2.37431681794212E-07,-6.25966034561998E-09,-2.55864762266356E-07,1.47574178299692E-06,0,0,0,15
13.35999,-0.0599999725818634,2.94000005722046,1.95999944210052,-0.0599999986588955,2.94000005722046,1.95999991893768,2128.769,2128.769,2128.772,2128.771,2.28188530978462E-08,0.785398556787626,2.11528603027656E-07,-4.71899568310619E-08,-2.67559244093718E-07,1.44497812470945E-06,0,0,0,15
13.38,-0.0599999725818634,2.94000005722046,1.95999944210052,-0.0599999986588955,2.94000005722046,1.95999991893768,2128.768,2128.77,2128.773,2128.771,4.70773336111188E-08,0.785398556787626,1.62600914578386E-07,-8.8120344798881E-08,-2.79253669077661E-07,1.44058333262365E-06,0,0,0,15
13.39999,-0.0599999763071537,2.94000005722046,1.95999944210052,-0.0599999986588955,2.94000005722046,1.95999991893768,2128.77,2128.771,2128.77,2128.769,1.12451270477319E-07,0.785398556787626,1.0380553739893E-07,-9.3967443604015E-08,-3.08489660483247E-07,1.44497812470945E-06,0,0,0,15
13.42,-0.0599999763071537,2.94000005722046,1.95999944210052,-0.0599999986588955,2.94000005722046,1.95999991893768,2128.774,2128.773,2128.766,2128.767,1.79469791707336E-07,0.785398556787626,6.47455773640387E-08,-8.22730541472083E-08,-2.52941077860669E-07,1.43618854053784E-06,0,0,0,15
13.43999,-0.0599999763071537,2.94000005722046,1.95999944210052,-0.0599999986588955,2.94000005722046,1.95999991893768,2128.776,2128.77,2128.764,2128.77,1.85637461266167E-07,0.785398556787626,7.50241006642685E-08,-4.71900207799081E-08,-2.5001750714182E-07,1.48013668876956E-06,0,0,0,15
13.46,-0.0599999763071537,2.94000005722046,1.95999944210052,-0.0599999986588955,2.94000005722046,1.95999991893768,2128.771,2128.772,2128.77,2128.768,1.05462701651732E-07,0.785398556787626,8.28356878924846E-08,-1.2106930569189E-08,-2.47094106953227E-07,1.51968993122864E-06,0,0,0,15
13.47999,-0.0599999763071537,2.94000005722046,1.95999944210052,-0.0599999986588955,2.94000005722046,1.95999991893768,2128.767,2128.77,2128.773,2128.77,2.28209940600251E-08,0.785398556787626,1.22717293256949E-07,-4.1258196858962E-10,-1.91545510119795E-07,1.49771585711278E-06,0,0,0,15
13.5,-0.0599999763071537,2.94000005722046,1.95999944210052,-0.0599999986588955,2.94000005722046,1.95999991893768,2128.769,2128.766,2128.772,2128.774,-1.95275473764528E-08,0.785398556787626,1.66710498425628E-07,-4.1249967330792E-10,-2.06163434768314E-07,1.52408472331445E-06,0,0,0,15
13.51999,-0.0599999763071537,2.94000005722046,1.95999944210052,-0.0599999986588955,2.94000005722046,1.95999991893768,2128.766,2128.769,2128.774,2128.771,-3.967375147003E-08,0.785398556787626,1.40807419659072E-07,-6.2595035821289E-09,-2.3539961091501E-07,1.53287430748605E-06,0,0,0,15
13.54,-0.0599999763071537,2.94000005722046,1.95999944210052,-0.0599999986588955,2.94000005722046,1.95999991893768,2128.769,2128.771,2128.771,2128.769,-1.43602458681063E-09,0.785398556787626,1.00925131726498E-07,-1.79537646971539E-08,-2.64635588109741E-07,1.51968993122864E-06,0,0,0,15
13.56,-0.0599999763071537,2.94000005722046,1.95999944210052,-0.0599999986588955,2.94000005722046,1.95999991893768,2128.771,2128.772,2128.769,2128.768,5.40701843610638E-08,0.785398556787626,7.83113407401524E-08,-3.5495403949426E-08,-2.79253555390824E-07,1.49332106502698E-06,0,0,0,15
13.58,-0.0599999763071537,2.94000005722046,1.95999944210052,-0.0599999986588955,2.94000005722046,1.95999991893768,2128.771,2128.771,2128.769,2128.769,8.9840963763064E-08,0.785398556787626,7.87221753101964E-08,5.43499112382051E-09,-2.82177154531382E-07,1.48453148085537E-06,0,0,0,15
13.6,-0.0599999763071537,2.94000005722046,1.95999944210052,-0.0599999986588955,2.94000005722046,1.95999991893768,2128.772,2128.77,2128.768,2128.77,1.13277114394445E-07,0.785398556787626,9.64014830159522E-08,4.05182021268047E-08,-2.85100753671941E-07,1.51529513914284E-06,0,0,0,15
13.62,-0.0599999763071537,2.94000005722046,1.95999944210052,-0.0599999986588955,2.94000005722046,1.95999991893768,2128.771,2128.77,2128.769,2128.771,1.02176318754403E-07,0.785398556787626,1.17370022944049E-07,5.22125418456199E-08,-2.2955231315791E-07,1.49332106502698E-06,0,0,0,15
13.64,-0.0599999763071537,2.94000005722046,1.95999944210052,-0.0599999986588955,2.94000005722046,1.95999991893768,2128.77,2128.769,2128.77,2128.771,7.62739463664711E-08,0.785398556787626,1.28470858268284E-07,4.05181026508217E-08,-1.85698269206114E-07,1.44937291679526E-06,0,0,0,15
13.66,-0.0599999763071537,2.94000005722046,1.95999944210052,-0.0599999986588955,2.94000005722046,1.95999991893768,2128.769,2128.77,2128.771,2128.771,5.61277462413132E-08,0.785398556787626,1.23947812757462E-07,3.46709363441278E-08,-2.14934360087682E-07,1.4317936347652E-06,0,0,0,15
13.68,-0.0599999763071537,2.94000005722046,1.95999944210052,-0.0599999986588955,2.94000005722046,1.95999991893768,2128.768,2128.771,2128.772,2128.769,5.16054110775347E-08,0.785398556787626,1.136686227628E-07,5.80598360500062E-08,-2.17857945017386E-07,1.39663518439193E-06,0,0,0,15
13.7,-0.0599999763071537,2.94000005722046,1.95999944210052,-0.0599999986588955,2.94000005722046,1.95999991893768,2128.772,2128.771,2128.769,2128.769,7.58638657960823E-08,0.785398556787626,1.25591770111039E-07,5.80598502608609E-08,-2.26628657173933E-07,1.44058333262365E-06,0,0,0,15
13.72,-0.0599999763071537,2.94000005722046,1.95999944210052,-0.0599999986588955,2.94000005722046,1.95999991893768,2128.771,2128.769,2128.77,2128.771,7.46307588862261E-08,0.785398556787626,1.53138806231173E-07,6.39069739349907E-08,-2.41246709720144E-07,1.44058333262365E-06,0,0,0,15
13.74,-0.0599999763071537,2.94000005722046,1.95999944210052,-0.0599999986588955,2.94000005722046,1.95999991893768,2128.77,2128.769,2128.77,2128.771,6.76414916188531E-08,0.785398556787626,1.60128081435384E-07,5.80597934174421E-08,-2.70482843234277E-07,1.44937291679526E-06,0,0,0,15
13.76,-0.0599999763071537,2.94000005722046,1.95999944210052,-0.0599999986588955,2.94000005722046,1.95999991893768,2128.77,2128.77,2128.77,2128.771,6.22968364942316E-08,0.785398556787626,1.49026571479879E-07,4.63654110660627E-08,-2.41246823406982E-07,1.41860925850779E-06,0,0,0,15
13.77999,-0.0599999763071537,2.94000005722046,1.95999944210052,-0.0599999986588955,2.94000005722046,1.95999991893768,2128.771,2128.769,2128.77,2128.771,5.53075731952779E-08,0.785398556787626,1.36280485097396E-07,5.22126271107481E-08,-2.55864875953193E-07,1.43618854053784E-06,0,0,0,15
13.8,-0.0599999763071537,2.94000005722046,1.95999944210052,-0.0599999986588955,2.94000005722046,1.95999991893768,2128.769,2128.772,2128.771,2128.768,3.68059971181292E-08,0.785398556787626,1.05443565934166E-07,7.56014983949171E-08,-2.5878856035888E-07,1.41421446642198E-06,0,0,0,15
13.81999,-0.0599999763071537,2.94000005722046,1.95999944210052,-0.0599999986588955,2.94000005722046,1.95999991893768,2128.77,2128.773,2128.77,2128.768,2.98167397718043E-08,0.785398556787626,1.00920544233859E-07,7.56014628677804E-08,-2.67559300937137E-07,1.43618854053784E-06,0,0,0,15
13.84,-0.0599999763071537,2.94000005722046,1.95999944210052,-0.0599999986588955,2.94000005722046,1.95999991893768,2128.769,2128.77,2128.771,2128.771,2.03605284955791E-08,0.785398556787626,1.38335269084179E-07,7.56013633917973E-08,-2.76330041515394E-07,1.47134699091112E-06,0,0,0,15
13.85999,-0.0599999763071537,2.94000005722046,1.95999944210052,-0.0599999986588955,2.94000005722046,1.95999991893768,2128.769,2128.769,2128.771,2128.771,2.89951142843279E-08,0.785398556787626,1.69171521552977E-07,6.97542077432445E-08,-3.05566089764397E-07,1.47134699091112E-06,0,0,0,15
13.88,-0.0599999763071537,2.94000005722046,1.95999944210052,-0.0599999986588955,2.94000005722046,1.95999991893768,2128.769,2128.77,2128.771,2128.771,5.40758830110897E-08,0.785398556787626,1.80272333066696E-07,6.3907080516401E-08,-3.34802166435111E-07,1.45376770888106E-06,0,0,0,15
13.89999,-0.0599999763071537,2.94000005722046,1.95999944210052,-0.0599999986588955,2.94000005722046,1.95999991893768,2128.772,2128.769,2128.768,2128.771,9.97143670169527E-08,0.785398556787626,1.82327799621588E-07,5.22127194813038E-08,-3.64038214684115E-07,1.47574178299692E-06,0,0,0,15
13.92,-0.0599999763071537,2.94000005722046,1.95999944210052,-0.0599999986588955,2.94000005722046,1.95999991893768,2128.772,2128.77,2128.768,2128.77,1.20683613323674E-07,0.785398556787626,1.66292481016763E-07,3.46710606891065E-08,-3.34802251700239E-07,1.47574178299692E-06,0,0,0,15
13.93999,-0.0599999763071537,2.94000005722046,1.95999944210052,-0.0599999986588955,2.94000005722046,1.95999991893768,2128.771,2128.771,2128.769,2128.77,1.20272802564146E-07,0.785398556787626,1.48612522490253E-07,2.8823802011857E-08,-3.64038385214371E-07,1.48453136716853E-06,0,0,0,15
13.96,-0.0599999763071537,2.94000005722046,1.95999944210052,-0.0599999986588955,2.94000005722046,1.95999991893768,2128.77,2128.771,2128.77,2128.769,1.06705062915251E-07,0.785398556787626,1.37511012534748E-07,2.29765433346074E-08,-3.93274461885085E-07,1.49332095134014E-06,0,0,0,15
13.97999,-0.0599999763071537,2.94000005722046,1.95999944210052,-0.0599999986588955,2.94000005722046,1.95999991893768,2128.77,2128.771,2128.771,2128.77,9.39596273535232E-08,0.785398556787626,1.38744143255119E-07,1.71293041972831E-08,-4.22510510134089E-07,1.49771574342594E-06,0,0,0,15
14,-0.0599999763071537,2.94000005722046,1.95999944210052,-0.0599999986588955,2.94000005722046,1.95999991893768,2128.768,2128.771,2128.772,2128.769,9.02595923084917E-08,0.785398556787626,1.45733434333008E-07,1.12820979225603E-08,-4.51746529961383E-07,1.50211053551175E-06,0,0,0,15
14.01999,-0.0599999763071537,2.94000005722046,1.95999944210052,-0.0599999986588955,2.94000005722046,1.95999991893768,2128.769,2128.77,2128.771,2128.77,1.22741111709216E-07,0.785398556787626,1.65879686047616E-07,5.43493738902612E-09,-4.80982464523549E-07,1.49771574342594E-06,0,0,0,15
14.04,-0.0599999763071537,2.94000005722046,1.95999944210052,-0.0599999986588955,2.94000005722046,1.95999991893768,2128.771,2128.77,2128.77,2128.77,1.73313440080172E-07,0.785398556787626,1.86025921888547E-07,-4.12234690827518E-10,-5.10218512772553E-07,1.48013646139589E-06,0,0,0,15
14.05999,-0.0599999763071537,2.94000005722046,1.95999944210052,-0.0599999986588955,2.94000005722046,1.95999991893768,2128.771,2128.77,2128.769,2128.77,2.13195767696937E-07,0.785398556787626,2.03705245467979E-07,2.29766001780263E-08,-5.13142140334821E-07,1.44937280310842E-06,0,0,0,15
14.08,-0.0599999763071537,2.94000005722046,1.95999944210052,-0.0599999986588955,2.94000005722046,1.95999991893768,2128.773,2128.769,2128.767,2128.771,2.30875757970802E-07,0.785398556787626,2.18917656785914E-07,1.71293415007767E-08,-5.27760221302742E-07,1.48013646139589E-06,0,0,0,15
14.09999,-0.0599999763071537,2.94000005722046,1.95999944210052,-0.0599999986588955,2.94000005722046,1.95999991893768,2128.771,2128.77,2128.769,2128.771,2.07440305781207E-07,0.785398556787626,2.14394611275092E-07,1.12820792708135E-08,-5.42378415957501E-07,1.51090011968336E-06,0,0,0,15
14.12,-0.0599999763071537,2.94000005722046,1.95999944210052,-0.0599999986588955,2.94000005722046,1.95999991893768,2128.769,2128.77,2128.771,2128.77,1.6755866073255E-07,0.785398556787626,2.03293101319587E-07,5.43484413029205E-09,-5.56996496925422E-07,1.53287419379922E-06,0,0,0,15
14.13999,-0.0599999763071537,2.94000005722046,1.95999944210052,-0.0599999986588955,2.94000005722046,1.95999991893768,2128.768,2128.771,2128.772,2128.769,1.4659013667813E-07,0.785398556787626,1.9465850362558E-07,2.88237327339402E-08,-5.36531217676384E-07,1.51529491176916E-06,0,0,0,15
14.16,-0.0599999763071537,2.94000005722046,1.95999944210052,-0.0599999986588955,2.94000005722046,1.95999991893768,2128.769,2128.771,2128.771,2128.77,1.51935502149795E-07,0.785398556787626,1.95891650219629E-07,5.22126235580345E-08,-5.16065881583927E-07,1.48013646139589E-06,0,0,0,15
14.17999,-0.0599999763071537,2.94000005722046,1.95999944210052,-0.0599999986588955,2.94000005722046,1.95999991893768,2128.77,2128.77,2128.77,2128.77,1.76193956868342E-07,0.785398556787626,2.0452554947185E-07,7.56014983949171E-08,-4.95600602334889E-07,1.44937280310842E-06,0,0,0,15
14.2,-0.0599999725818634,2.94000005722046,1.95999944210052,-0.0599999986588955,2.94000005722046,1.95999991893768,2128.771,2128.77,2128.769,2128.77,2.00452427460567E-07,0.785398556787626,2.11514840549738E-07,9.89903554682314E-08,-4.75135351507561E-07,1.44058321893681E-06,0,0,0,15
14.21999,-0.0599999688565731,2.94000005722046,1.95999944210052,-0.0599999986588955,2.94000005722046,1.95999991893768,2128.771,2128.77,2128.769,2128.77,2.04975488845066E-07,0.785398556787626,2.16859555200648E-07,9.31431003436956E-08,-4.89753460897191E-07,1.47574166931008E-06,0,0,0,15
14.24,-0.0599999688565731,2.94000005722046,1.95999944210052,-0.0599999986588955,2.94000005722046,1.95999991893768,2128.771,2128.77,2128.77,2128.77,1.90585445109005E-07,0.785398556787626,2.23026526317693E-07,8.14486327271879E-08,-4.45899388523685E-07,1.47574166931008E-06,0,0,0,15
14.25999,-0.0599999688565731,2.94000005722046,1.95999944210052,-0.0599999986588955,2.94000005722046,1.95999991893768,2128.77,2128.77,2128.771,2128.77,1.68794601093742E-07,0.785398556787626,2.30015753900874E-07,7.56013989189341E-08,-4.3712859110201E-07,1.51090011968336E-06,0,0,0,15
14.27999,-0.0599999651312828,2.94000005722046,1.95999944210052,-0.0599999986588955,2.94000005722046,1.95999991893768,2128.77,2128.769,2128.771,2128.771,1.51115309261663E-07,0.785398556787626,2.34538132717264E-07,9.89902702031031E-08,-4.16663340274681E-07,1.4933208376533E-06,0,0,0,15
14.29999,-0.0599999614059925,2.94000005722046,1.95999944210052,-0.0599999986588955,2.94000005722046,1.95999991893768,2128.772,2128.771,2128.768,2128.769,1.44126049931129E-07,0.785398556787626,2.21792014587427E-07,1.22379191225264E-07,-3.96198117869062E-07,1.45816238728003E-06,0,0,0,15
14.31999,-0.0599999576807022,2.94000005722046,1.95999944210052,-0.0599999986588955,2.94000005722046,1.95999991893768,2128.771,2128.771,2128.769,2128.769,1.14112141233689E-07,0.785398556787626,2.23847449394965E-07,1.45767955928022E-07,-3.75732895463443E-07,1.42300393690675E-06,0,0,0,15
14.34,-0.0599999539554119,2.94000005722046,1.95999944210052,-0.0599999986588955,2.94000005722046,1.95999991893768,2128.768,2128.77,2128.773,2128.771,6.76520476140265E-08,0.785398556787626,2.39059797218191E-07,1.45767884873749E-07,-3.61114871338941E-07,1.45376759519422E-06,0,0,0,15
14.35999,-0.0599999502301216,2.94000005722046,1.95999944210052,-0.0599999986588955,2.94000005722046,1.95999991893768,2128.768,2128.77,2128.772,2128.771,5.73735560611506E-08,0.785398556787626,2.49338288771067E-07,1.2237912017099E-07,-3.72809239479466E-07,1.45816238728003E-06,0,0,0,15
14.38,-0.0599999502301216,2.94000005722046,1.95999944210052,-0.0599999986588955,2.94000005722046,1.95999991893768,2128.77,2128.77,2128.771,2128.771,7.01197218120186E-08,0.785398556787626,2.49749115404273E-07,8.72959162734332E-08,-3.49420361089869E-07,1.42739872899256E-06,0,0,0,15
14.39999,-0.0599999502301216,2.94000005722046,1.95999944210052,-0.0599999986588955,2.94000005722046,1.95999991893768,2128.77,2128.768,2128.77,2128.773,8.86219844256955E-08,0.785398556787626,2.44403829300992E-07,6.39070876218284E-08,-3.61114786073813E-07,1.41860914482095E-06,0,0,0,15
14.42,-0.0599999502301216,2.94000005722046,1.95999944210052,-0.0599999986588955,2.94000005722046,1.95999991893768,2128.771,2128.772,2128.769,2128.768,1.07124350218273E-07,0.785398556787626,2.01232269461885E-07,4.05183193663561E-08,-3.72809296322885E-07,1.42300393690675E-06,0,0,0,15
14.43999,-0.0599999502301216,2.94000005722046,1.95999944210052,-0.0599999986588955,2.94000005722046,1.95999991893768,2128.771,2128.772,2128.769,2128.768,1.08358163506753E-07,0.785398556787626,1.81907702761042E-07,2.88238002355001E-08,-3.78656494604002E-07,1.42300393690675E-06,0,0,0,15
14.46,-0.0599999502301216,2.94000005722046,1.95999944210052,-0.0599999986588955,2.94000005722046,1.95999991893768,2128.77,2128.771,2128.77,2128.769,9.64350320321911E-08,0.785398556787626,1.85607729869235E-07,1.12820774944566E-08,-3.49420417933288E-07,1.42739872899256E-06,0,0,0,15
14.47999,-0.0599999502301216,2.94000005722046,1.95999944210052,-0.0599999986588955,2.94000005722046,1.95999991893768,2128.77,2128.77,2128.771,2128.77,8.36896123441399E-08,0.785398556787626,2.04931645749323E-07,-6.25960083766586E-09,-3.20184312840865E-07,1.42739872899256E-06,0,0,0,15
14.5,-0.0599999502301216,2.94000005722046,1.95999944210052,-0.0599999986588955,2.94000005722046,1.95999991893768,2128.77,2128.769,2128.771,2128.771,7.99895772991084E-08,0.785398556787626,2.23433289289599E-07,-2.38012187736558E-08,-2.90948236170152E-07,1.43179352107836E-06,0,0,0,15
14.51999,-0.0599999502301216,2.94000005722046,1.95999944210052,-0.0599999986588955,2.94000005722046,1.95999991893768,2128.77,2128.769,2128.77,2128.771,8.53349427707735E-08,0.785398556787626,2.27955668105989E-07,-3.54955957959646E-08,-2.96795462872979E-07,1.42739872899256E-06,0,0,0,15
14.54,-0.0599999502301216,2.94000005722046,1.95999944210052,-0.0599999986588955,2.94000005722046,1.95999991893768,2128.77,2128.77,2128.77,2128.771,9.06803003056001E-08,0.785398556787626,2.17676478111327E-07,-4.7189988805485E-08,-3.02642717997514E-07,1.41860914482095E-06,0,0,0,15
14.55999,-0.0599999502301216,2.94000005722046,1.95999944210052,-0.0599999986588955,2.94000005722046,1.95999991893768,2128.77,2128.771,2128.77,2128.77,9.68479857381083E-08,0.785398556787626,1.9999655133217E-07,-5.888439602586E-08,-3.08489944700341E-07,1.41860914482095E-06,0,0,0,15
14.58,-0.0599999502301216,2.94000005722046,1.95999944210052,-0.0599999986588955,2.94000005722046,1.95999991893768,2128.77,2128.771,2128.77,2128.77,1.03837959384106E-07,0.785398556787626,1.84783505067158E-07,-7.64260406072026E-08,-2.79253868029627E-07,1.42739872899256E-06,0,0,0,15
14.59999,-0.0599999539554119,2.94000005722046,1.95999944210052,-0.0599999986588955,2.94000005722046,1.95999991893768,2128.771,2128.771,2128.77,2128.77,1.10005628942937E-07,0.785398556787626,1.76971259081348E-07,-9.39676993993999E-08,-2.50017791358914E-07,1.43618831316417E-06,0,0,0,15
14.62,-0.0599999576807022,2.94000005722046,1.95999944210052,-0.0599999986588955,2.94000005722046,1.95999991893768,2128.771,2128.768,2128.77,2128.772,1.12061770129099E-07,0.785398556787626,1.76559765753711E-07,-1.05662152805053E-07,-2.20781714688201E-07,1.42739872899256E-06,0,0,0,15
14.63999,-0.0599999614059925,2.94000005722046,1.95999944210052,-0.0599999986588955,2.94000005722046,1.95999991893768,2128.771,2128.769,2128.77,2128.771,1.10828663219243E-07,0.785398556787626,1.39966733853995E-07,-1.17356506734723E-07,-1.9154573749347E-07,1.41421435273514E-06,0,0,0,15
14.66,-0.0599999651312828,2.94000005722046,1.95999944210052,-0.0599999986588955,2.94000005722046,1.95999991893768,2128.77,2128.771,2128.77,2128.77,1.03017099801542E-07,0.785398556787626,8.85721172695495E-08,-1.2320370501584E-07,-2.20781856796748E-07,1.39663507070509E-06,0,0,0,15
14.67999,-0.0599999688565731,2.94000005722046,1.95999944210052,-0.0599999986588955,2.94000005722046,1.95999991893768,2128.77,2128.773,2128.771,2128.767,9.35609123358324E-08,0.785398556787626,4.37559770350449E-08,-1.11509294242751E-07,-1.65233316806734E-07,1.39224027861928E-06,0,0,0,15
14.7,-0.0599999688565731,2.94000005722046,1.95999944210052,-0.0599999986588955,2.94000005722046,1.95999991893768,2128.772,2128.77,2128.768,2128.771,9.23278133628146E-08,0.785398556787626,4.82783637882734E-08,-7.05788920640771E-08,-1.681567880496E-07,1.38784548653348E-06,0,0,0,15
14.71999,-0.0599999688565731,2.94000005722046,1.95999944210052,-0.0599999986588955,2.94000005722046,1.95999991893768,2128.77,2128.773,2128.77,2128.767,6.39585247449647E-08,0.785398556787626,4.53999581991375E-08,-2.96484401474117E-08,-1.71080472455287E-07,1.40981956064934E-06,0,0,0,15
14.74,-0.0599999688565731,2.94000005722046,1.95999944210052,-0.0599999986588955,2.94000005722046,1.95999991893768,2128.77,2128.771,2128.771,2128.769,3.31222901340528E-08,0.785398556787626,9.26823836849008E-08,5.43472111758092E-09,-2.09087261282548E-07,1.45376770888106E-06,0,0,0,15
14.75999,-0.0599999688565731,2.94000005722046,1.95999944210052,-0.0599999986588955,2.94000005722046,1.95999991893768,2128.768,2128.77,2128.772,2128.77,6.39759530501536E-09,0.785398556787626,1.60522526433975E-07,5.43468381408729E-09,-2.17858030282514E-07,1.48453136716853E-06,0,0,0,15
14.77999,-0.0599999688565731,2.94000005722046,1.95999944210052,-0.0599999986588955,2.94000005722046,1.95999991893768,2128.768,2128.766,2128.771,2128.774,1.66767996851969E-08,0.785398556787626,2.29184973270215E-07,-4.12447409559036E-10,-2.47094021688099E-07,1.48013657508272E-06,0,0,0,15
14.79999,-0.0599999688565731,2.94000005722046,1.95999944210052,-0.0599999986588955,2.94000005722046,1.95999991893768,2128.769,2128.768,2128.771,2128.772,5.24475771029876E-08,0.785398556787626,2.27951223476442E-07,-4.13427194700944E-08,-2.5878856035888E-07,1.4317936347652E-06,0,0,0,15
14.81999,-0.0599999688565731,2.94000005722046,1.95999944210052,-0.0599999986588955,2.94000005722046,1.95999991893768,2128.77,2128.768,2128.77,2128.772,1.0548687726173E-07,0.785398556787626,1.91358175703049E-07,-7.64258771823734E-08,-2.35399753023557E-07,1.40981956064934E-06,0,0,0,15
14.83999,-0.0599999725818634,2.94000005722046,1.95999944210052,-0.0599999986588955,2.94000005722046,1.95999991893768,2128.773,2128.77,2128.767,2128.771,1.57703853491211E-07,0.785398556787626,1.21050493682237E-07,-9.3967443604015E-08,-2.06163761617972E-07,1.41421435273514E-06,0,0,0,15
14.85999,-0.0599999725818634,2.94000005722046,1.95999944210052,-0.0599999986588955,2.94000005722046,1.95999991893768,2128.773,2128.774,2128.768,2128.766,1.61404610788544E-07,0.785398556787626,4.49866274933927E-08,-7.05786860066837E-08,-2.20781913640167E-07,1.41421435273514E-06,0,0,0,15
14.87999,-0.0599999725818634,2.94000005722046,1.95999944210052,-0.0599999986588955,2.94000005722046,1.95999991893768,2128.771,2128.773,2128.77,2128.767,1.24812229709583E-07,0.785398556787626,3.38851492852418E-08,-5.30372830098713E-08,-1.65233331017589E-07,1.39224027861928E-06,0,0,0,15
14.89999,-0.0599999725818634,2.94000005722046,1.95999944210052,-0.0599999986588955,2.94000005722046,1.95999991893768,2128.772,2128.769,2128.768,2128.771,8.49306084714415E-08,0.785398556787626,7.21221702858892E-08,-2.9648548505179E-08,-1.44767980714278E-07,1.38345069444767E-06,0,0,0,15
14.91999,-0.0599999725818634,2.94000005722046,1.95999944210052,-0.0599999986588955,2.94000005722046,1.95999991893768,2128.769,2128.77,2128.772,2128.771,1.29789472707463E-08,0.785398556787626,9.14460941028156E-08,5.43470513036937E-09,-1.47691707752529E-07,1.41860914482095E-06,0,0,0,15
14.93999,-0.0599999725818634,2.94000005722046,1.95999944210052,-0.0599999986588955,2.94000005722046,1.95999991893768,2128.767,2128.771,2128.773,2128.769,-3.84149887297994E-08,0.785398556787626,1.08303081847728E-07,-1.21068826075543E-08,-1.62309703455321E-07,1.40542476856353E-06,0,0,0,15
14.95999,-0.0599999725818634,2.94000005722046,1.95999944210052,-0.0599999986588955,2.94000005722046,1.95999991893768,2128.767,2128.768,2128.773,2128.772,-4.62265640527578E-08,0.785398556787626,1.39139350190204E-07,-2.96484561346233E-08,-1.76927613892985E-07,1.37905590236187E-06,0,0,0,15
14.97999,-0.0599999725818634,2.94000005722046,1.95999944210052,-0.0599999986588955,2.94000005722046,1.95999991893768,2128.77,2128.769,2128.771,2128.772,-6.34423693204462E-09,0.785398556787626,1.46950992976289E-07,-4.13427230228081E-08,-2.06163619509425E-07,1.37026631819026E-06,0,0,0,15
14.99999,-0.0599999725818634,2.94000005722046,1.95999944210052,-0.0599999986588955,2.94000005722046,1.95999991893768,2128.771,2128.77,2128.769,2128.771,4.01165675307139E-08,0.785398556787626,1.3338260250664E-07,-4.71898715659336E-08,-2.35399724601848E-07,1.37466111027607E-06,0,0,0,15
15.01999,-0.0599999725818634,2.94000005722046,1.95999944210052,-0.0599999986588955,2.94000005722046,1.95999991893768,2128.771,2128.772,2128.77,2128.769,6.43750500281961E-08,0.785398556787626,1.17347283901815E-07,-4.71899177512114E-08,-2.50017819780624E-07,1.41421446642198E-06,0,0,0,15
15.03999,-0.0599999725818634,2.94000005722046,1.95999944210052,-0.0599999986588955,2.94000005722046,1.95999991893768,2128.772,2128.77,2128.768,2128.77,8.53443003033369E-08,0.785398556787626,1.24336598790219E-07,-5.30371906393157E-08,-2.29552526320731E-07,1.40981967433618E-06,0,0,0,15
15.05999,-0.0599999725818634,2.94000005722046,1.95999944210052,-0.0599999986588955,2.94000005722046,1.95999991893768,2128.771,2128.77,2128.769,2128.771,8.24665534717946E-08,0.785398556787626,1.3050359371778E-07,-5.88844564219926E-08,-2.58788645624008E-07,1.41860925850779E-06,0,0,0,15
15.07999,-0.0599999725818634,2.94000005722046,1.95999944210052,-0.0599999986588955,2.94000005722046,1.95999991893768,2128.77,2128.77,2128.77,2128.771,6.88988138229003E-08,0.785398556787626,1.30914444161501E-07,-6.47316795721053E-08,-2.88024750716431E-07,1.4317936347652E-06,0,0,0,15
15.09999,-0.0599999725818634,2.94000005722046,1.95999944210052,-0.0599999986588955,2.94000005722046,1.95999991893768,2128.768,2128.771,2128.772,2128.769,5.36864779049314E-08,0.785398556787626,1.29680670557212E-07,-5.88844670801336E-08,-3.02642803262643E-07,1.44937291679526E-06,0,0,0,15
15.12,-0.0599999725818634,2.94000005722046,1.95999944210052,-0.0599999986588955,2.94000005722046,1.95999991893768,2128.77,2128.77,2128.77,2128.771,6.97218322255292E-08,0.785398556787626,1.41603817905451E-07,-3.54955709269689E-08,-3.05566317138073E-07,1.42300405059359E-06,0,0,0,15
15.13999,-0.0599999725818634,2.94000005722046,1.95999944210052,-0.0599999986588955,2.94000005722046,1.95999991893768,2128.771,2128.77,2128.77,2128.771,8.41126140875679E-08,0.785398556787626,1.48593140730694E-07,-2.96483495532129E-08,-3.20184369684284E-07,1.42739884267939E-06,0,0,0,15
15.16,-0.0599999725818634,2.94000005722046,1.95999944210052,-0.0599999986588955,2.94000005722046,1.95999991893768,2128.771,2128.77,2128.77,2128.771,9.35695158687406E-08,0.785398556787626,1.45714751015235E-07,-3.54955531634005E-08,-3.49420474776707E-07,1.44058321893681E-06,0,0,0,15
15.17999,-0.0599999725818634,2.94000005722046,1.95999944210052,-0.0599999986588955,2.94000005722046,1.95999991893768,2128.77,2128.77,2128.77,2128.77,9.89148813404057E-08,0.785398556787626,1.3543557689425E-07,-4.13427585499448E-08,-3.7865657986913E-07,1.44937280310842E-06,0,0,0,15
15.2,-0.0599999725818634,2.94000005722046,1.95999944210052,-0.0599999986588955,2.94000005722046,1.95999991893768,2128.769,2128.772,2128.771,2128.769,1.02615606890385E-07,0.785398556787626,1.23511778725256E-07,-4.71899710419166E-08,-4.07892656539843E-07,1.44937280310842E-06,0,0,0,15
15.21999,-0.0599999725818634,2.94000005722046,1.95999944210052,-0.0599999986588955,2.94000005722046,1.95999991893768,2128.77,2128.771,2128.771,2128.769,1.29340989744108E-07,0.785398556787626,1.32968029685673E-07,-5.30371799811746E-08,-4.37128619523719E-07,1.45376759519422E-06,0,0,0,15
15.24,-0.0599999725818634,2.94000005722046,1.95999944210052,-0.0599999986588955,2.94000005722046,1.95999991893768,2128.772,2128.769,2128.768,2128.771,1.66756373352021E-07,0.785398556787626,1.54758873700937E-07,-5.888439602586E-08,-4.66364639351013E-07,1.44937280310842E-06,0,0,0,15
15.25999,-0.0599999725818634,2.94000005722046,1.95999944210052,-0.0599999986588955,2.94000005722046,1.95999991893768,2128.77,2128.77,2128.77,2128.77,1.80324827316378E-07,0.785398556787626,1.60925892439013E-07,-5.88844137894284E-08,-4.80982748740644E-07,1.44058321893681E-06,0,0,0,15
15.27999,-0.0599999725818634,2.94000005722046,1.95999944210052,-0.0599999986588955,2.94000005722046,1.95999991893768,2128.772,2128.769,2128.769,2128.771,1.93070961319892E-07,0.785398556787626,1.71204399865566E-07,-6.47316369395412E-08,-4.95600772865146E-07,1.46695208513847E-06,0,0,0,15
15.29999,-0.0599999725818634,2.94000005722046,1.95999944210052,-0.0599999986588955,2.94000005722046,1.95999991893768,2128.771,2128.77,2128.77,2128.771,1.86903990202847E-07,0.785398556787626,1.67503721936618E-07,-6.47316511503959E-08,-5.10218910676485E-07,1.50211053551175E-06,0,0,0,15
15.31999,-0.0599999725818634,2.94000005722046,1.95999944210052,-0.0599999986588955,2.94000005722046,1.95999991893768,2128.77,2128.77,2128.77,2128.77,1.72513930593109E-07,0.785398556787626,1.58869124242611E-07,-7.0578870747795E-08,-5.24836991644406E-07,1.54166377797083E-06,0,0,0,15
15.33999,-0.0599999725818634,2.94000005722046,1.95999944210052,-0.0599999986588955,2.94000005722046,1.95999991893768,2128.769,2128.771,2128.771,2128.77,1.60590799118547E-07,0.785398556787626,1.54346094605466E-07,-7.05788778532224E-08,-5.39455015768908E-07,1.52408449594077E-06,0,0,0,15
15.35999,-0.0599999725818634,2.94000005722046,1.95999944210052,-0.0599999986588955,2.94000005722046,1.95999991893768,2128.769,2128.77,2128.771,2128.77,1.61002308319862E-07,0.785398556787626,1.55579225325838E-07,-7.05788636423677E-08,-5.54072983049991E-07,1.51968970385497E-06,0,0,0,15
15.37999,-0.0599999725818634,2.94000005722046,1.95999944210052,-0.0599999986588955,2.94000005722046,1.95999991893768,2128.77,2128.77,2128.77,2128.77,1.72103818275367E-07,0.785398556787626,1.60923939976748E-07,-7.05788494315129E-08,-5.68691007174493E-07,1.4977156297391E-06,0,0,0,15
15.39999,-0.0599999725818634,2.94000005722046,1.95999944210052,-0.0599999986588955,2.94000005722046,1.95999991893768,2128.77,2128.77,2128.77,2128.77,1.82383040017382E-07,0.785398556787626,1.67090911093793E-07,-7.05788565369403E-08,-5.83309031298995E-07,1.50650521391071E-06,0,0,0,15
15.41999,-0.0599999725818634,2.94000005722046,1.95999944210052,-0.0599999986588955,2.94000005722046,1.95999991893768,2128.77,2128.77,2128.77,2128.77,1.87728326120663E-07,0.785398556787626,1.73257882210838E-07,-7.64260832397667E-08,-5.97927055423497E-07,1.54166366428399E-06,0,0,0,15
15.43999,-0.0599999725818634,2.94000005722046,1.95999944210052,-0.0599999986588955,2.94000005722046,1.95999991893768,2128.769,2128.77,2128.771,2128.77,1.88139835321977E-07,0.785398556787626,1.79424869201561E-07,-7.64260974506215E-08,-6.12545079547999E-07,1.57682211465726E-06,0,0,0,15
15.45999,-0.0599999725818634,2.94000005722046,1.95999944210052,-0.0599999986588955,2.94000005722046,1.95999991893768,2128.77,2128.77,2128.77,2128.77,2.06642097935654E-07,0.785398556787626,1.87236448492938E-07,-8.22732744154564E-08,-6.27163046829082E-07,1.59879618877312E-06,0,0,0,15
15.47999,-0.0599999725818634,2.94000005722046,1.95999944210052,-0.0599999986588955,2.94000005722046,1.95999991893768,2128.771,2128.769,2128.769,2128.77,2.30900536780525E-07,0.785398556787626,1.99159595841177E-07,-8.81204869074281E-08,-6.41781070953584E-07,1.62516505497479E-06,0,0,0,15
15.49999,-0.0599999763071537,2.94000005722046,1.95999944210052,-0.0599999986588955,2.94000005722046,1.95999991893768,2128.771,2128.77,2128.769,2128.77,2.37890462805491E-07,0.785398556787626,2.05326582831899E-07,-9.39677278211093E-08,-6.56399151921505E-07,1.64274433700484E-06,0,0,0,15
15.51999,-0.059999980032444,2.94000005722046,1.95999944210052,-0.0599999986588955,2.94000005722046,1.95999991893768,2128.77,2128.77,2128.77,2128.77,2.31723459941092E-07,0.785398556787626,2.06559713552271E-07,-1.05662167015907E-07,-6.12545079547999E-07,1.62516505497479E-06,0,0,0,15
15.53999,-0.0599999837577343,2.94000005722046,1.95999944210052,-0.0599999986588955,2.94000005722046,1.95999991893768,2128.771,2128.767,2128.769,2128.773,2.23089576562548E-07,0.785398556787626,2.03681323836812E-07,-1.11509379507879E-07,-6.27163103672501E-07,1.64274433700484E-06,0,0,0,15
15.55999,-0.0599999874830246,2.94000005722046,1.95999944210052,-0.0599999986588955,2.94000005722046,1.95999991893768,2128.767,2128.772,2128.772,2128.768,2.0376566068246E-07,0.785398556787626,1.57220547649041E-07,-1.1735651384015E-07,-6.41781241483841E-07,1.6603236190349E-06,0,0,0,15
15.57999,-0.0599999912083149,2.94000005722046,1.95999944210052,-0.0599999986588955,2.94000005722046,1.95999991893768,2128.77,2128.772,2128.77,2128.768,2.21445619208971E-07,0.785398556787626,1.36251341026512E-07,-1.17356485418441E-07,-6.56399151921505E-07,1.6647184111207E-06,0,0,0,15
15.59999,-0.0599999949336052,2.94000005722046,1.95999944210052,-0.0599999986588955,2.94000005722046,1.95999991893768,2128.77,2128.771,2128.769,2128.769,2.40770185909814E-07,0.785398556787626,1.4981911242276E-07,-9.39677065048272E-08,-6.35933815829048E-07,1.62516516866162E-06,0,0,0,15
15.61999,-0.0599999949336052,2.94000005722046,1.95999944210052,-0.0599999986588955,2.94000005722046,1.95999991893768,2128.772,2128.769,2128.768,2128.771,2.52694015826162E-07,0.785398556787626,1.80655349017881E-07,-8.81205508562743E-08,-6.27162989985663E-07,1.59440151037415E-06,0,0,0,15
15.63999,-0.0599999986588955,2.94000005722046,1.95999944210052,-0.0599999986588955,2.94000005722046,1.95999991893768,2128.77,2128.769,2128.771,2128.771,2.31725428277034E-07,0.785398556787626,1.99979264897969E-07,-1.17356663054125E-07,-5.97926998580078E-07,1.55924306000088E-06,0,0,0,15
15.65999,-0.0600000023841858,2.94000005722046,1.95999944210052,-0.0599999986588955,2.94000005722046,1.95999991893768,2128.768,2128.766,2128.771,2128.774,2.17335384540974E-07,0.785398556787626,2.02857051413704E-07,-1.23203818702677E-07,-6.12545079547999E-07,1.58121713411674E-06,0,0,0,15
15.67999,-0.0600000061094761,2.94000005722046,1.95999944210052,-0.0599999986588955,2.94000005722046,1.95999991893768,2128.769,2128.772,2128.771,2128.768,2.26792302195823E-07,0.785398556787626,1.50640098994739E-07,-1.29050846453538E-07,-6.2716316051592E-07,1.5987964161468E-06,0,0,0,15
15.69999,-0.0600000098347664,2.94000005722046,1.95999944210052,-0.0599999986588955,2.94000005722046,1.95999991893768,2128.77,2128.772,2128.77,2128.768,2.42827636674325E-07,0.785398556787626,1.23092435864365E-07,-1.05662039118215E-07,-6.06697824423463E-07,1.56363796577352E-06,0,0,0,15
15.71999,-0.0600000135600567,2.94000005722046,1.95999944210052,-0.0599999986588955,2.94000005722046,1.95999991893768,2128.772,2128.771,2128.768,2128.769,2.57218378852171E-07,0.785398556787626,1.30081742815931E-07,-9.98149118913716E-08,-5.9792694173666E-07,1.52847951540025E-06,0,0,0,15
15.73999,-0.060000017285347,2.94000005722046,1.95999944210052,-0.0599999986588955,2.94000005722046,1.95999991893768,2128.77,2128.77,2128.77,2128.77,2.42005999281591E-07,0.785398556787626,1.55161842864051E-07,-9.39678059808102E-08,-5.89156172736693E-07,1.48453136716853E-06,0,0,0,15
15.75999,-0.060000017285347,2.94000005722046,1.95999944210052,-0.0599999986588955,2.94000005722046,1.95999991893768,2128.769,2128.769,2128.771,2128.771,2.33372036534662E-07,0.785398556787626,1.80241903227979E-07,-8.81205792779838E-08,-5.80385346893308E-07,1.45376770888106E-06,0,0,0,15
