t,x_s1,x_s2,x_s3,x_s_d1,x_s_d2,x_s_d3,propellers_rpms1,propellers_rpms2,propellers_rpms3,propellers_rpms4,rollRad,pitchRad,yawRad,v_s1,v_s2,v_s3,v_s_d1,v_s_d2,v_s_d3,insideCount
1.939999,-0.0599999725818634,2.94000005722046,1.95948922634125,-0.0599999986588955,2.94000005722046,1.95999991893768,2141.215,2141.215,2141.215,2141.214,4.24122208642075E-06,45.0000228881836,8.71495285537094E-06,2.9320386119025E-08,-3.95690307186669E-07,-0.00800241623073816,0,0,0,7
1.959999,-0.0599999725818634,2.94000005722046,1.95935213565826,-0.0599999986588955,2.94000005722046,1.95999991893768,2140.268,2140.267,2140.268,2140.268,4.68882808490889E-06,45.0000228881836,9.39809706324013E-06,2.34390018505337E-08,-4.25097283596187E-07,-0.00685545848682523,0,0,0,7
1.979999,-0.0599999725818634,2.94000005722046,1.95923626422882,-0.0599999986588955,2.94000005722046,1.95999991893768,2139.349,2139.351,2139.351,2139.349,5.0422045205778E-06,45.0000228881836,9.79855485638836E-06,1.16814202755222E-08,-3.95703324329588E-07,-0.00579579034820199,0,0,0,7
1.999999,-0.0599999725818634,2.94000005722046,1.95913982391357,-0.0599999986588955,2.94000005722046,1.95999991893768,2138.467,2138.462,2138.463,2138.467,6.57345299259759E-06,45.0000228881836,1.08115018520039E-05,-7.11040115675132E-11,-3.66321899036848E-07,-0.00482070026919246,0,0,0,7
2.019999,-0.0599999725818634,2.94000005722046,1.95906126499176,-0.0599999986588955,2.94000005722046,1.95999991893768,2137.616,2137.613,2137.613,2137.616,6.54991254123161E-06,45.0000228881836,9.51582569541642E-06,-1.18187593045604E-08,-3.72195898989958E-07,-0.0039271954447031,0,0,0,7
2.039999,-0.0599999725818634,2.94000005722046,1.95899903774261,-0.0599999986588955,2.94000005722046,1.95999991893768,2136.801,2136.804,2136.802,2136.8,5.34850005351473E-06,45.0000228881836,6.85381883158698E-06,-1.76902581472405E-08,-4.01553535311905E-07,-0.0031120590865612,0,0,0,7
2.059999,-0.0599999725818634,2.94000005722046,1.95895159244537,-0.0599999986588955,2.94000005722046,1.95999991893768,2136.024,2136.03,2136.03,2136.024,4.71246585220797E-06,45.0000228881836,5.88794455325115E-06,-4.70366714466763E-08,-4.42638366848769E-07,-0.00237178849056363,0,0,0,7
2.079999,-0.0599999725818634,2.94000005722046,1.95891749858856,-0.0599999986588955,2.94000005722046,1.95999991893768,2135.29,2135.293,2135.295,2135.292,6.10236838838318E-06,45.0000228881836,7.79607671574922E-06,-5.29038501895229E-08,-4.22103170194532E-07,-0.00170296861324459,0,0,0,7
2.099999,-0.0599999725818634,2.94000005722046,1.95889544487,-0.0599999986588955,2.94000005722046,1.95999991893768,2134.601,2134.596,2134.595,2134.599,9.9893541118945E-06,45.0000228881836,1.03166994449566E-05,-5.87689044095896E-08,-4.51428689984823E-07,-0.00110185076482594,0,0,0,7
2.119999,-0.0599999725818634,2.94000005722046,1.95888411998749,-0.0599999986588955,2.94000005722046,1.95999991893768,2133.947,2133.942,2133.941,2133.946,1.14734839371522E-05,45.0000228881836,1.14709919216693E-05,-6.46321680619621E-08,-4.6608690240646E-07,-0.000564712565392256,0,0,0,7
2.139999,-0.0599999725818634,2.94000005722046,1.95888233184814,-0.0599999986588955,2.94000005722046,1.95999991893768,2133.331,2133.33,2133.33,2133.331,1.05076478575938E-05,45.0000228881836,1.11176104837796E-05,-7.04936269357859E-08,-4.80740595776297E-07,-8.78228456713259E-05,0,0,0,7
2.159999,-0.0599999725818634,2.94000005722046,1.95888900756836,-0.0599999986588955,2.94000005722046,1.95999991893768,2132.757,2132.757,2132.757,2132.757,9.40046538744355E-06,45.0000228881836,1.05286526377313E-05,-7.63533662961891E-08,-4.95389940624591E-07,0.000332536408677697,0,0,0,7
2.179999,-0.0599999725818634,2.94000005722046,1.95890295505524,-0.0599999986588955,2.94000005722046,1.95999991893768,2132.222,2132.224,2132.224,2132.223,8.48174295242643E-06,45.0000228881836,9.9396993391565E-06,-5.87788626660313E-08,-4.9831902515507E-07,0.000699986529070884,0,0,0,7
2.199999,-0.0599999725818634,2.94000005722046,1.95892333984375,-0.0599999986588955,2.94000005722046,1.95999991893768,2131.728,2131.729,2131.729,2131.728,8.36397157399915E-06,45.0000228881836,9.49208970268955E-06,-5.87788377970355E-08,-5.12960752985236E-07,0.00101823243312538,0,0,0,7
2.219999,-0.0599999725818634,2.94000005722046,1.95894920825958,-0.0599999986588955,2.94000005722046,1.95999991893768,2131.271,2131.271,2131.271,2131.27,8.95292032510042E-06,45.0000228881836,9.46851014305139E-06,-5.87788271388945E-08,-5.27599070210272E-07,0.00129086012020707,0,0,0,7
2.239999,-0.0599999725818634,2.94000005722046,1.95897960662842,-0.0599999986588955,2.94000005722046,1.95999991893768,2130.849,2130.85,2130.85,2130.849,9.68321637628833E-06,45.0000228881836,9.86896702670492E-06,-5.87788377970355E-08,-5.4223426104727E-07,0.0015213240403682,0,0,0,7
2.259999,-0.0599999725818634,2.94000005722046,1.95901381969452,-0.0599999986588955,2.94000005722046,1.95999991893768,2130.465,2130.463,2130.463,2130.465,1.07904288597638E-05,45.0000228881836,1.10232604129124E-05,-5.87788520078902E-08,-5.56866552869906E-07,0.00171297299675643,0,0,0,7
2.279999,-0.0599999725818634,2.94000005722046,1.95905125141144,-0.0599999986588955,2.94000005722046,1.95999991893768,2130.113,2130.112,2130.112,2130.113,1.13322648758185E-05,45.0000228881836,1.16121755127097E-05,-6.46307185547812E-08,-5.71496286738693E-07,0.0018691293662414,0,0,0,7
2.299999,-0.0599999725818634,2.94000005722046,1.95909106731415,-0.0599999986588955,2.94000005722046,1.95999991893768,2129.793,2129.792,2129.792,2129.793,1.11673816718394E-05,45.0000228881836,1.16828259706381E-05,-7.04816258689789E-08,-5.86123576340469E-07,0.001992869656533,0,0,0,7
2.319999,-0.0599999725818634,2.94000005722046,1.95913279056549,-0.0599999986588955,2.94000005722046,1.95999991893768,2129.504,2129.504,2129.504,2129.504,1.08611502582789E-05,45.0000228881836,1.14236754598096E-05,-7.63316378993295E-08,-6.0074864904891E-07,0.00208713836036623,0,0,0,7
2.339999,-0.0599999725818634,2.94000005722046,1.95917594432831,-0.0599999986588955,2.94000005722046,1.95999991893768,2129.244,2129.245,2129.245,2129.244,1.08376061689341E-05,45.0000228881836,1.10702940219198E-05,-8.21808541218161E-08,-6.15371732237691E-07,0.00215480965562165,0,0,0,7
2.359999,-0.0599999725818634,2.94000005722046,1.95921993255615,-0.0599999986588955,2.94000005722046,1.95999991893768,2129.012,2129.013,2129.013,2129.012,1.10025239337119E-05,45.0000228881836,1.09996017272351E-05,-8.80293740124216E-08,-6.29992996437068E-07,0.00219857762567699,0,0,0,7
2.379999,-0.0599999763071537,2.94000005722046,1.95926439762115,-0.0599999986588955,2.94000005722046,1.95999991893768,2128.807,2128.807,2128.807,2128.806,1.13087844511028E-05,45.0000228881836,1.11644831122248E-05,-9.3877254414565E-08,-6.44612669020717E-07,0.00222095171920955,0,0,0,7
2.399999,-0.059999980032444,2.94000005722046,1.95930886268616,-0.0599999986588955,2.94000005722046,1.95999991893768,2128.625,2128.625,2128.625,2128.625,1.16621622510138E-05,45.0000228881836,1.15649390863837E-05,-9.97245734879471E-08,-6.59230920518894E-07,0.00222435779869556,0,0,0,7
2.419999,-0.0599999837577343,2.94000005722046,1.95935308933258,-0.0599999986588955,2.94000005722046,1.95999991893768,2128.467,2128.467,2128.467,2128.467,1.20155364129459E-05,45.0000228881836,1.20596241686144E-05,-1.05571395181414E-07,-6.73847978305275E-07,0.00221100635826588,0,0,0,7
2.439999,-0.0599999874830246,2.94000005722046,1.95939671993256,-0.0599999986588955,2.94000005722046,1.95999991893768,2128.328,2128.329,2128.331,2128.33,1.2274685104785E-05,45.0000228881836,1.24600801427732E-05,-1.11417776338385E-07,-6.88463956066698E-07,0.00218305527232587,0,0,0,7
2.459999,-0.0599999912083149,2.94000005722046,1.9594395160675,-0.0599999986588955,2.94000005722046,1.95999991893768,2128.212,2128.211,2128.211,2128.212,1.36645867314655E-05,45.0000228881836,1.25778478832217E-05,-1.17263724064287E-07,-7.03078910646582E-07,0.00214244285598397,0,0,0,7
2.479999,-0.0599999949336052,2.94000005722046,1.95948135852814,-0.0599999986588955,2.94000005722046,1.95999991893768,2128.113,2128.113,2128.112,2128.113,1.43006518555922E-05,45.0000228881836,1.2507155588537E-05,-1.28955107925321E-07,-6.59236320643686E-07,0.002090975176543,0,0,0,7
2.499999,-0.0599999986588955,2.94000005722046,1.95952200889587,-0.0599999986588955,2.94000005722046,1.95999991893768,2128.031,2128.027,2128.029,2128.032,1.42299923027167E-05,45.0000228881836,1.24835787573829E-05,-1.40645951773877E-07,-6.15395777003869E-07,0.00203037518076599,0,0,0,7
2.519999,-0.0600000023841858,2.94000005722046,1.95956122875214,-0.0599999986588955,2.94000005722046,1.95999991893768,2127.962,2127.961,2127.962,2127.963,1.30285789055051E-05,45.0000228881836,1.01042605820112E-05,-1.52336269820808E-07,-5.71557052353455E-07,0.00196214579045773,0,0,0,7
2.539999,-0.0600000061094761,2.94000005722046,1.95959901809692,-0.0599999986588955,2.94000005722046,1.95999991893768,2127.908,2127.909,2127.91,2127.908,1.15915954665979E-05,45.0000228881836,6.73553086016909E-06,-1.52336241399098E-07,-5.86169562666328E-07,0.00188771088141948,0,0,0,7
2.559999,-0.0600000098347664,2.94000005722046,1.95963513851166,-0.0599999986588955,2.94000005722046,1.95999991893768,2127.866,2127.873,2127.87,2127.864,1.06257557490608E-05,45.0000228881836,3.83794986191788E-06,-1.17267148880273E-07,-5.54022847154556E-07,0.00180831865873188,0,0,0,7
2.579999,-0.0600000098347664,2.94000005722046,1.95966958999634,-0.0599999986588955,2.94000005722046,1.95999991893768,2127.838,2127.842,2127.84,2127.837,1.11675917651155E-05,45.0000228881836,4.52109452453442E-06,-8.21988095367487E-08,-5.51100299617246E-07,0.00172523478977382,0,0,0,7
2.599999,-0.0600000098347664,2.94000005722046,1.95970237255096,-0.0599999986588955,2.94000005722046,1.95999991893768,2127.821,2127.821,2127.821,2127.821,1.24632642837241E-05,45.0000228881836,7.08883271727245E-06,-4.71309142824339E-08,-5.48177865766775E-07,0.00163947883993387,0,0,0,7
2.619999,-0.0600000098347664,2.94000005722046,1.95973336696625,-0.0599999986588955,2.94000005722046,1.95999991893768,2127.812,2127.809,2127.81,2127.813,1.36647067847662E-05,45.0000228881836,9.65657000051579E-06,-2.37524968582647E-08,-5.27721738308173E-07,0.00155195617116988,0,0,0,7
2.639999,-0.0600000098347664,2.94000005722046,1.95976269245148,-0.0599999986588955,2.94000005722046,1.95999991893768,2127.813,2127.808,2127.807,2127.811,1.40180845846771E-05,45.0000228881836,1.08108642962179E-05,-1.79078956108469E-08,-5.18954948347528E-07,0.00146355014294386,0,0,0,7
2.659999,-0.0600000098347664,2.94000005722046,1.95979022979736,-0.0599999986588955,2.94000005722046,1.95999991893768,2127.815,2127.814,2127.816,2127.816,1.18272619147319E-05,45.0000228881836,1.05517128758947E-05,-2.95970892238984E-08,-4.75120799592332E-07,0.0013750254875049,0,0,0,7
2.679999,-0.0600000098347664,2.94000005722046,1.95981597900391,-0.0599999986588955,2.94000005722046,1.95999991893768,2127.827,2127.825,2127.828,2127.829,9.77778290689457E-06,45.0000228881836,9.5858376880642E-06,-3.5441647838752E-08,-4.89732315145375E-07,0.00128705892711878,0,0,0,7
2.699999,-0.0600000098347664,2.94000005722046,1.95983994007111,-0.0599999986588955,2.94000005722046,1.95999991893768,2127.842,2127.847,2127.847,2127.843,8.1523385233595E-06,45.0000228881836,6.87671627019881E-06,-3.54415625736237E-08,-5.04343915963545E-07,0.00120015593711287,0,0,0,7
2.719999,-0.0600000098347664,2.94000005722046,1.95986223220825,-0.0599999986588955,2.94000005722046,1.95999991893768,2127.866,2127.869,2127.869,2127.865,8.69417453941423E-06,45.0000228881836,6.05218701821286E-06,-1.20628627087171E-08,-5.18955459938297E-07,0.00111488776747137,0,0,0,7
2.739999,-0.0600000098347664,2.94000005722046,1.95988285541534,-0.0599999986588955,2.94000005722046,1.95999991893768,2127.894,2127.896,2127.893,2127.891,1.05552262539277E-05,45.0000228881836,7.01802127878182E-06,2.30055192673717E-08,-5.21877723258513E-07,0.00103171158116311,0,0,0,7
2.759999,-0.0600000098347664,2.94000005722046,1.95990192890167,-0.0599999986588955,2.94000005722046,1.95999991893768,2127.925,2127.923,2127.921,2127.923,1.1898014236067E-05,45.0000228881836,1.02924823295325E-05,4.6384631247065E-08,-5.01420856835466E-07,0.000950899790041149,0,0,0,7
2.779999,-0.0600000098347664,2.94000005722046,1.95991933345795,-0.0599999986588955,2.94000005722046,1.95999991893768,2127.957,2127.952,2127.953,2127.958,1.1120634553663E-05,45.0000228881836,1.38967434395454E-05,4.05396463065699E-08,-5.16033139774663E-07,0.000872847973369062,0,0,0,7
2.799999,-0.0600000098347664,2.94000005722046,1.95993530750275,-0.0599999986588955,2.94000005722046,1.95999991893768,2127.988,2127.987,2127.991,2127.992,8.60000727698207E-06,45.0000228881836,1.48154631460784E-05,2.88497350453554E-08,-4.72196006739978E-07,0.00079771870514378,0,0,0,7
2.819999,-0.0600000098347664,2.94000005722046,1.95994985103607,-0.0599999986588955,2.94000005722046,1.95999991893768,2128.025,2128.022,2128.026,2128.028,7.63417119742371E-06,45.0000228881836,1.3425555152935E-05,-6.22052631626957E-09,-4.28358021054009E-07,0.000725740508642048,0,0,0,7
2.839999,-0.0600000098347664,2.94000005722046,1.95996296405792,-0.0599999986588955,2.94000005722046,1.95999991893768,2128.061,2128.061,2128.063,2128.063,7.04525473338435E-06,45.0000228881836,9.39722031034762E-06,1.71602660969938E-08,-4.07900017762586E-07,0.000657076016068459,0,0,0,7
2.859999,-0.0600000098347664,2.94000005722046,1.95997476577759,-0.0599999986588955,2.94000005722046,1.95999991893768,2128.101,2128.105,2128.099,2128.095,7.44574845157331E-06,45.0000228881836,4.47370166511973E-06,1.13150715463917E-08,-4.37126345786965E-07,0.00059181748656556,0,0,0,7
2.879999,-0.0600000098347664,2.94000005722046,1.95998537540436,-0.0599999986588955,2.94000005722046,1.95999991893768,2128.137,2128.142,2128.139,2128.135,7.04529020367772E-06,45.0000228881836,3.93186064684414E-06,4.63871003830718E-08,-4.40048893324274E-07,0.000530096760485321,0,0,0,7
2.899999,-0.0600000098347664,2.94000005722046,1.95999479293823,-0.0599999986588955,2.94000005722046,1.95999991893768,2128.176,2128.177,2128.177,2128.176,7.54001166569651E-06,45.0000228881836,6.64094295643736E-06,8.14598735132677E-08,-4.42971469283293E-07,0.000471909472253174,0,0,0,7
2.919999,-0.0600000061094761,2.94000005722046,1.9600031375885,-0.0599999986588955,2.94000005722046,1.95999991893768,2128.216,2128.215,2128.213,2128.215,8.27030908112647E-06,45.0000228881836,9.8682876341627E-06,1.16533357186199E-07,-4.45894244194278E-07,0.00041724240873009,0,0,0,7
2.939999,-0.0600000023841858,2.94000005722046,1.96001040935516,-0.0599999986588955,2.94000005722046,1.95999991893768,2128.253,2128.251,2128.25,2128.253,7.58715941628907E-06,45.0000228881836,1.30956314023933E-05,1.1653330034278E-07,-4.60508516653135E-07,0.000366056046914309,0,0,0,7
2.959999,-0.0599999986588955,2.94000005722046,1.96001672744751,-0.0599999986588955,2.94000005722046,1.95999991893768,2128.287,2128.285,2128.291,2128.292,5.53768040845171E-06,45.0000228881836,1.55220241140341E-05,1.39916437547072E-07,-4.40048324890085E-07,0.00031827567727305,0,0,0,7
2.979999,-0.0599999949336052,2.94000005722046,1.96002221107483,-0.0599999986588955,2.94000005722046,1.95999991893768,2128.326,2128.324,2128.324,2128.326,4.85453256260371E-06,45.0000228881836,1.47917216963833E-05,1.22378935429879E-07,-3.90358309232397E-07,0.000273910060059279,0,0,0,7
2.999999,-0.0599999912083149,2.94000005722046,1.96002686023712,-0.0599999986588955,2.94000005722046,1.95999991893768,2128.36,2128.358,2128.36,2128.363,3.46466526934819E-06,45.0000228881836,1.29777827169164E-05,9.89949882068686E-08,-4.02050375214458E-07,0.000232888894970529,0,0,0,7
3.019999,-0.0599999912083149,2.94000005722046,1.96003079414368,-0.0599999986588955,2.94000005722046,1.95999991893768,2128.39,2128.396,2128.397,2128.391,2.35748393606627E-06,45.0000228881836,8.99655879038619E-06,7.56107425559094E-08,-4.37126971064572E-07,0.000195128683117218,0,0,0,7
3.039999,-0.0599999912083149,2.94000005722046,1.96003401279449,-0.0599999986588955,2.94000005722046,1.95999991893768,2128.423,2128.429,2128.429,2128.422,4.12430654250784E-06,45.0000228881836,7.3239625635324E-06,6.97645816671866E-08,-4.66357676032203E-07,0.00016042725474108,0,0,0,7
3.059999,-0.0599999912083149,2.94000005722046,1.96003663539886,-0.0599999986588955,2.94000005722046,1.95999991893768,2128.459,2128.458,2128.454,2128.456,8.29398413770832E-06,45.0000228881836,8.80805964698084E-06,7.56108207156103E-08,-4.80973142202856E-07,0.000128701125504449,0,0,0,7
3.079999,-0.0599999912083149,2.94000005722046,1.96003866195679,-0.0599999986588955,2.94000005722046,1.95999991893768,2128.489,2128.485,2128.483,2128.487,1.01550358522218E-05,45.0000228881836,1.11873387140804E-05,7.56106928179179E-08,-4.9558906312086E-07,9.98272153083235E-05,0,0,0,7
3.099999,-0.0599999874830246,2.94000005722046,1.96004009246826,-0.0599999986588955,2.94000005722046,1.95999991893768,2128.516,2128.513,2128.513,2128.516,9.37765980779659E-06,45.0000228881836,1.28127794596367E-05,9.89963524489212E-08,-4.98512406466034E-07,7.36561196390539E-05,0,0,0,7
3.119999,-0.0599999837577343,2.94000005722046,1.96004104614258,-0.0599999986588955,2.94000005722046,1.95999991893768,2128.541,2128.54,2128.542,2128.542,7.42241036277846E-06,45.0000228881836,1.2977659025637E-05,1.22382402878429E-07,-4.78049742014264E-07,5.00647765875328E-05,0,0,0,7
3.139999,-0.059999980032444,2.94000005722046,1.96004164218903,-0.0599999986588955,2.94000005722046,1.95999991893768,2128.565,2128.567,2128.568,2128.567,5.89119645155733E-06,45.0000228881836,1.22473584269756E-05,1.4576879436845E-07,-4.57586708080271E-07,2.89521049126051E-05,0,0,0,7
3.159999,-0.0599999763071537,2.94000005722046,1.9600418806076,-0.0599999986588955,2.94000005722046,1.95999991893768,2128.589,2128.591,2128.591,2128.59,5.67919687455287E-06,45.0000228881836,1.15170560093247E-05,1.34075534674594E-07,-4.6343330950549E-07,1.01950518001104E-05,0,0,0,7
3.179999,-0.0599999725818634,2.94000005722046,1.96004176139832,-0.0599999986588955,2.94000005722046,1.95999991893768,2128.612,2128.613,2128.612,2128.612,6.55083886158536E-06,45.0000228881836,1.12107900349656E-05,1.22382118661335E-07,-4.69279967774128E-07,-6.37778066447936E-06,0,0,0,7
3.199999,-0.0599999688565731,2.94000005722046,1.96004128456116,-0.0599999986588955,2.94000005722046,1.95999991893768,2128.633,2128.633,2128.632,2128.632,7.75228545535356E-06,45.0000228881836,1.15170141725685E-05,1.2238210445048E-07,-4.54662966831165E-07,-2.09026293305214E-05,0,0,0,7
3.219999,-0.0599999651312828,2.94000005722046,1.96004056930542,-0.0599999986588955,2.94000005722046,1.95999991893768,2128.653,2128.652,2128.651,2128.652,8.62392516864929E-06,45.0000228881836,1.18703546831966E-05,1.45769433856913E-07,-4.3419905182418E-07,-3.36036318913102E-05,0,0,0,7
3.239999,-0.0599999614059925,2.94000005722046,1.96003973484039,-0.0599999986588955,2.94000005722046,1.95999991893768,2128.671,2128.67,2128.669,2128.67,8.83595930645242E-06,45.0000228881836,1.20352351586916E-05,1.69156976426166E-07,-4.13734966286938E-07,-4.45071564172395E-05,0,0,0,7
3.259999,-0.0599999576807022,2.94000005722046,1.96003866195679,-0.0599999986588955,2.94000005722046,1.95999991893768,2128.687,2128.686,2128.686,2128.686,8.43550151330419E-06,45.0000228881836,1.19645428640069E-05,1.92544717947385E-07,-3.9327071021944E-07,-5.37670239282306E-05,0,0,0,7
3.279999,-0.0599999539554119,2.94000005722046,1.96003746986389,-0.0599999986588955,2.94000005722046,1.95999991893768,2128.703,2128.702,2128.698,2128.7,7.6581236498896E-06,45.0000228881836,1.2082308785466E-05,2.15932629998861E-07,-3.72806283621685E-07,-6.15326571278274E-05,0,0,0,7
3.299999,-0.0599999502301216,2.94000005722046,1.96003615856171,-0.0599999986588955,2.94000005722046,1.95999991893768,2128.713,2128.714,2128.716,2128.715,4.52500717074145E-06,45.0000228881836,1.3142368516128E-05,2.39320598893755E-07,-3.52341771758802E-07,-6.79271033732221E-05,0,0,0,7
3.319999,-0.0599999465048313,2.94000005722046,1.96003472805023,-0.0599999986588955,2.94000005722046,1.95999991893768,2128.727,2128.727,2128.727,2128.727,2.89956233245903E-06,45.0000228881836,1.41082018672023E-05,2.1593241683604E-07,-3.64035827260523E-07,-7.30558458599262E-05,0,0,0,7
3.339999,-0.059999942779541,2.94000005722046,1.96003317832947,-0.0599999986588955,2.94000005722046,1.95999991893768,2128.735,2128.737,2128.741,2128.739,8.50084802550555E-07,45.0000228881836,1.51211461343337E-05,1.80849824005236E-07,-3.40647460461696E-07,-7.70463375374675E-05,0,0,0,7
3.359999,-0.0599999390542507,2.94000005722046,1.9600316286087,-0.0599999986588955,2.94000005722046,1.95999991893768,2128.748,2128.746,2128.749,2128.751,1.62749631726911E-06,45.0000228881836,1.53802593558794E-05,1.39920089736734E-07,-3.52341629650255E-07,-8.00260168034583E-05,0,0,0,7
3.379999,-0.0599999353289604,2.94000005722046,1.96002995967865,-0.0599999986588955,2.94000005722046,1.95999991893768,2128.758,2128.759,2128.757,2128.756,2.92317304229073E-06,45.0000228881836,1.33307448777487E-05,1.04837283743109E-07,-3.28953092321171E-07,-8.20520217530429E-05,0,0,0,7
3.399999,-0.0599999353289604,2.94000005722046,1.9600282907486,-0.0599999986588955,2.94000005722046,1.95999991893768,2128.767,2128.767,2128.765,2128.764,3.60635544893739E-06,45.0000228881836,1.22706396723515E-05,6.97541508998256E-08,-3.05564356040122E-07,-8.324741065735E-05,0,0,0,7
3.419999,-0.0599999353289604,2.94000005722046,1.96002662181854,-0.0599999986588955,2.94000005722046,1.95999991893768,2128.773,2128.771,2128.773,2128.775,3.25301198245143E-06,45.0000228881836,1.2718211110041E-05,5.22124459223505E-08,-2.76328336212828E-07,-8.36561303003691E-05,0,0,0,7
3.439999,-0.0599999353289604,2.94000005722046,1.96002495288849,-0.0599999986588955,2.94000005722046,1.95999991893768,2128.78,2128.778,2128.779,2128.78,2.80543849839887E-06,45.0000228881836,1.15638777060667E-05,1.71291780759475E-08,-2.5293951466665E-07,-8.34144157124683E-05,0,0,0,7
3.459999,-0.0599999353289604,2.94000005722046,1.96002328395844,-0.0599999986588955,2.94000005722046,1.95999991893768,2128.784,2128.787,2128.785,2128.783,1.69825830198533E-06,45.0000228881836,9.74993781710509E-06,-4.12537559668635E-10,-2.23703381152518E-07,-8.25794049887918E-05,0,0,0,7
3.479999,-0.0599999353289604,2.94000005722046,1.96002161502838,-0.0599999986588955,2.94000005722046,1.95999991893768,2128.789,2128.791,2128.79,2128.788,9.20881632282544E-07,45.0000228881836,9.86770464805886E-06,-6.25985441260468E-09,-2.52939571510069E-07,-8.12389844213612E-05,0,0,0,7
3.499999,-0.0599999353289604,2.94000005722046,1.96002006530762,-0.0599999986588955,2.94000005722046,1.95999991893768,2128.793,2128.793,2128.794,2128.793,6.14652094554913E-07,45.0000228881836,1.10219962152769E-05,-1.21071437320097E-08,-2.82175847132748E-07,-7.94502993812785E-05,0,0,0,7
3.519999,-0.0599999353289604,2.94000005722046,1.96001851558685,-0.0600288961006432,2.93998730007973,1.96002917230514,2128.797,2128.796,2128.797,2128.798,6.85340864947648E-07,45.0000228881836,1.22705196190509E-05,-2.38016859555046E-08,-3.11412208020556E-07,-7.72616840549745E-05,-0.00086444842932187,-0.00038078716911113,0.000318091779059607,7
3.539999,-0.0599999353289604,2.94000005722046,1.96001696586609,-0.0602281358374977,2.93989953552051,1.96010248671027,2381.955,2228.695,1878.723,2033.244,1.03871934697963E-06,45.0000228881836,1.27652028822922E-05,-6.47326601210807E-08,-3.23106803534756E-07,-7.48269594623707E-05,-0.00338829209885001,-0.0014925334035877,0.00124679255018277,7
3.559999,-0.0599999390542507,2.94000005722046,1.96001899242401,-0.0607584431821783,2.93966593658541,1.9602976243275,2361.136,2223.768,1902.684,2045.706,359.778503417969,44.9999351501465,0.0860434398055077,-1.17907546837159E-07,-3.40189473035934E-07,9.87944295047782E-05,-0.00746886618134938,-0.00329001512779033,0.00274832465488357,7
3.579999,-0.0600148662924767,2.93999338150024,1.9600293636322,-0.0617704461346436,2.93922015205237,1.96067001186231,2276.275,2195.612,1990.902,2084.781,359.355194091797,44.999153137207,0.250457227230072,-0.000746393692679703,-0.000329078349750489,0.000516828731633723,-0.0130056226501465,-0.00572894121093786,0.00478568935546916,7
3.599999,-0.0600733123719692,2.9399676322937,1.96005439758301,-0.0634048237322131,2.93850021319017,1.96127141509242,2157.083,2154.966,2115.133,2138.648,358.806304931641,44.9970741271973,0.463685482740402,-0.00292234448716044,-0.0012876302935183,0.00125111336819828,-0.0199001302791294,-0.00876595296710765,0.00732266683504026,7
3.619999,-0.0602124929428101,2.93990635871887,1.96010184288025,-0.0657925177296233,2.93744844051393,1.96215001675994,2077.699,2129.652,2202.621,2178.209,358.238922119141,44.9941482543945,0.684147417545319,-0.00695902854204178,-0.00306574581190944,0.00237113493494689,-0.0280560746427476,-0.0123586241552356,0.0103238161974911,7
3.639999,-0.0604710802435875,2.93979239463806,1.96018075942993,-0.0690549442790836,2.93601135054065,1.96335049446337,2077.141,2134.798,2214.483,2188.267,357.726531982422,44.9917335510254,0.883264005184174,-0.0129293343052268,-0.00569546222686768,0.00394791830331087,-0.0373792581160124,-0.0164654609791163,0.0137544754675094,6
3.659999,-0.0608842708170414,2.93961048126221,1.9603019952774,-0.0733042056103325,2.93413956254468,1.96491409854974,2146.944,2168.185,2157.792,2172.623,357.274597167969,44.9907569885254,1.05883049964905,-0.0206596180796623,-0.00910009723156691,0.00606321962550282,-0.0477775998744965,-0.0210459020874027,0.0175807615905765,6
3.679999,-0.0614834427833557,2.93934655189514,1.96047818660736,-0.078643301710694,2.93178770531328,1.96687873000667,2240.712,2212.894,2077.344,2149.952,356.827362060547,44.990909576416,1.2324286699295,-0.0299586094915867,-0.0131954401731491,0.00881004612892866,-0.0591611358943339,-0.0260603185736064,0.0217695704329673,6
3.699999,-0.0622999593615532,2.93898701667786,1.96072375774384,-0.0851663420051336,2.92891432390213,1.96927901835442,2304.319,2248.155,2027.107,2141.209,356.308227539063,44.9909019470215,1.43378758430481,-0.0408258363604546,-0.0179811120033264,0.0122780967503786,-0.0714420189522207,-0.0314700139760975,0.0262885767817501,6
3.719999,-0.063370481133461,2.93851542472839,1.96105456352234,-0.0929587570363144,2.9254817863908,1.97214639953802,2307.242,2260.689,2039.515,2157.76,355.667022705078,44.9893951416016,1.68240129947662,-0.0535261034965515,-0.0235738903284073,0.0165382139384747,-0.084534518625414,-0.0372372242781046,0.0311062343447868,6
3.739999,-0.0647405311465263,2.93791198730469,1.96148729324341,-0.102097510144653,2.92145619063831,1.97550919381934,2256.709,2251.304,2110.434,2195.715,354.907958984375,44.9858474731445,1.97662770748138,-0.0685026571154594,-0.0301688965409994,0.0216374192386866,-0.0983550212917328,-0.0433251179077152,0.0361917757507328,6
3.759999,-0.0664643794298172,2.93715286254883,1.96203947067261,-0.112651309148377,2.91680727103862,1.97939268366911,2189.691,2232.673,2205.044,2240.136,354.084442138672,44.9811515808105,2.2956702709198,-0.0861924588680267,-0.037958525121212,0.0276068411767483,-0.112822030129557,-0.0496977957378749,0.0415152125490371,6
3.779999,-0.0686014741659164,2.93621182441711,1.96272897720337,-0.124680818023579,2.91150830527617,1.9838191916591,2148.699,2221.609,2280.253,2274.515,353.267608642578,44.9773712158203,2.61164617538452,-0.106854930520058,-0.047056395560503,0.0344770029187202,-0.12785616511783,-0.056320291086388,0.0470473352099422,6
3.799999,-0.0712115988135338,2.93506240844727,1.96357488632202,-0.138238868584274,2.90553602108136,1.98880815835409,2157.606,2229.536,2308.83,2290.452,352.508514404297,44.9765281677246,2.90432548522949,-0.130506321787834,-0.0574693456292152,0.0422937572002411,-0.143380163036054,-0.0631585697159175,0.0527597131244842,6
3.819999,-0.0743512958288193,2.93367981910706,1.9645973443985,-0.153370672162457,2.89887050298608,1.99437622020404,2210.58,2256.906,2292.542,2291.242,351.815856933594,44.9791030883789,3.17005443572998,-0.156984806060791,-0.0691263452172279,0.0511230900883675,-0.159318877464294,-0.0701795298339847,0.0586246946044925,5
3.839999,-0.0780732184648514,2.93204092979431,1.9658180475235,-0.170114031288154,2.89149509907925,2.00053728743612,2278.958,2293.823,2258,2288.454,351.1591796875,44.9836692810059,3.42066812515259,-0.18609619140625,-0.0819429010152817,0.0610378012061119,-0.175599278783178,-0.0773510020929698,0.0646154068825904,5
3.859999,-0.0824282467365265,2.9301233291626,1.96725988388062,-0.188499551369486,2.88339632776227,2.00730262194681,2329.88,2326.386,2239.456,2294.119,350.493194580078,44.9877891540527,3.67399168014526,-0.217751517891884,-0.0958811044692993,0.0720921009778976,-0.192150454173893,-0.0846417495901111,0.0707057561121944,5
3.879999,-0.087468683719635,2.92790389060974,1.96894598007202,-0.208550852372718,2.8745637845046,2.01468091519395,2344.989,2344.574,2259.084,2313.913,349.787414550781,44.9896202087402,3.94221830368042,-0.252021759748459,-0.110972918570042,0.0843022167682648,-0.208903607618189,-0.0920214678675059,0.0768704273675147,5
3.899999,-0.0932504385709763,2.92535781860352,1.97089886665344,-0.230284780502319,2.86499004859924,2.02267836608887,2328.74,2347.329,2316.001,2344.778,349.043792724609,44.9889526367188,4.22478532791138,-0.289087742567062,-0.12729799747467,0.0976469293236732,-0.225792059898377,-0.0994607849121097,0.083084884643555,5
3.919999,-0.0998329371213913,2.9224591255188,1.97314059734344,-0.253711619881018,2.85467058991826,2.03129875888841,2303.004,2342.332,2389.009,2377.769,348.294555664063,44.9873199462891,4.50913190841675,-0.329124927520752,-0.144932627677917,0.112086452543736,-0.24275124859733,-0.106931261155737,0.0893253708561126,5
3.939999,-0.107276774942875,2.91918110847473,1.97569239139557,-0.278835304229858,2.84360367566829,2.04054354108706,2292.667,2340.911,2450.157,2403.971,347.583068847656,44.9870338439941,4.77811193466187,-0.372192084789276,-0.163901463150978,0.127588093280792,-0.259718728098482,-0.11440538947506,0.0955689078417781,5
3.959999,-0.115640506148338,2.91549801826477,1.97857522964478,-0.305653628548254,2.83179027714606,2.05041190130898,2311.239,2351.611,2480.77,2419.329,346.940856933594,44.9897270202637,5.01916074752808,-0.418186724185944,-0.184158772230148,0.144143268465996,-0.27663416958583,-0.12185659519161,0.101793296357936,5
3.979999,-0.124978199601173,2.91138577461243,1.98181056976318,-0.334158460794049,2.8192339764939,2.06090084720014,2354.719,2375.61,2480.545,2426.318,346.373229980469,44.9952621459961,5.23015785217285,-0.466884881258011,-0.205606788396835,0.161765947937965,-0.29343936104393,-0.129259236071778,0.107977116082764,4
3.999999,-0.135338887572289,2.90682315826416,1.9854199886322,-0.364335953563568,2.80594087345526,2.07200528332032,2405.841,2406.694,2465.773,2431.468,345.861114501953,45.0017890930176,5.41891765594482,-0.51803457736969,-0.228136375546455,0.180471956729889,-0.310078207257902,-0.136588602326811,0.114099725615234,4
4.019999,-0.146767809987068,2.90178990364075,1.98942506313324,-0.39616675577168,2.79191949213022,2.08371808903529,2445.253,2435.12,2458.38,2441.272,345.375549316406,45.0069618225098,5.59737730026245,-0.571446359157562,-0.251666098833084,0.200252443552017,-0.326496729813427,-0.143820916612816,0.120141262475109,4
4.039999,-0.159308418631554,2.89626669883728,1.99384617805481,-0.429626224331846,2.77718068773101,2.09603019640881,2462.164,2453.452,2473.508,2458.16,344.89599609375,45.0093383789063,5.77409934997559,-0.627030968666077,-0.276157051324844,0.221058040857315,-0.342643067096746,-0.15093333403076,0.12608264310295,4
4.059999,-0.173003822565079,2.89023470878601,1.99870228767395,-0.464684635836182,2.76173755333752,2.10893066809473,2459.286,2460.159,2511.495,2480.005,344.421691894531,45.0090866088867,5.94971179962158,-0.684770405292511,-0.301600366830826,0.242804333567619,-0.358467474294663,-0.157903942126465,0.131905562860108,4
4.079998,-0.187896698713303,2.88367509841919,2.00401020050049,-0.501307398235511,2.74560532665282,2.12240677522908,2449.436,2459.914,2559.353,2501.724,343.970550537109,45.0077629089355,6.11714839935303,-0.744644463062286,-0.327984720468521,0.265393048524857,-0.373922323394543,-0.164711760890615,0.137592496028728,4
4.099998,-0.204027906060219,2.8765697479248,2.00978493690491,-0.53945526251942,2.72880129675865,2.13644407532215,2447.1,2460.371,2599.274,2518.434,343.567932128906,45.0073356628418,6.26618576049805,-0.806559681892395,-0.355266839265823,0.288737028837204,-0.388962103184313,-0.171336742758751,0.143126695811749,4
4.119998,-0.22143429517746,2.86890244483948,2.01604032516479,-0.579084534396318,2.71134471087097,2.15102649015057,2460.154,2467.564,2618.865,2528.121,343.232482910156,45.008960723877,6.38929080963135,-0.870319962501526,-0.383359432220459,0.312773466110229,-0.403543419252461,-0.177759772611273,0.148492194332904,4
4.139998,-0.240147307515144,2.8606595993042,2.022789478302,-0.620147285973492,2.69325668109546,2.16613638364935,2486.315,2482.631,2617.251,2532.352,342.967102050781,45.0123481750488,6.48536777496338,-0.935650885105133,-0.412142515182495,0.337459236383438,-0.417624993988037,-0.183962667773438,0.153673802636719,4
4.159998,-0.260192483663559,2.85182976722717,2.03004455566406,-0.66259156743716,2.67456009118301,2.18175463980404,2515.578,2501.579,2604.364,2534.796,342.759704589844,45.0160522460938,6.55955648422241,-1.00225961208344,-0.441489100456238,0.362752437591553,-0.431167666580653,-0.189928178015364,0.158657110688514,4
4.179998,-0.281590342521667,2.84240388870239,2.03781628608704,-0.706361618732529,2.65527950328528,2.19786074054273,2536.55,2517.996,2594.342,2538.763,342.591796875,45.0184059143066,6.61957883834839,-1.06989336013794,-0.471289426088333,0.388591557741165,-0.444134393020481,-0.195639985552025,0.163428487374401,5
4.199998,-0.304357647895813,2.83237457275391,2.04611396789551,-0.751398081243854,2.63544106471017,2.21443284362815,2542.891,2526.682,2597.107,2545.577,342.44970703125,45.0185508728027,6.67116546630859,-1.13836526870728,-0.501461267471313,0.414885222911835,-0.456490246098256,-0.201082705043257,0.167975080501289,5
4.219998,-0.328508377075195,2.82173562049866,2.05494427680969,-0.797638209474488,2.61507241467737,2.23144786054981,2536.094,2526.428,2613.421,2553.96,342.331878662109,45.0167808532715,6.71503782272339,-1.20753717422485,-0.531942486763,0.441518813371658,-0.468202415405274,-0.20624188359375,0.172284816796875,5
4.239998,-0.354053884744644,2.81048226356506,2.06431174278259,-0.845016082726945,2.59420259107384,2.24888153441597,2523.632,2520.231,2635.497,2561.061,342.248382568359,45.014331817627,6.74702024459839,-1.27727437019348,-0.562671661376953,0.468371748924255,-0.479240207333392,-0.211104000753057,0.176346401909656,5
4.259998,-0.381001889705658,2.79861092567444,2.07421851158142,-0.89346281678295,2.57286193720936,2.26670851784582,2514.161,2513.149,2652.097,2564.291,342.214416503906,45.0125198364258,6.76084470748901,-1.34740126132965,-0.593569397926331,0.495335429906845,-0.489575045075029,-0.215656468515587,0.180149320408917,5
4.279998,-0.409355521202087,2.78612041473389,2.08466506004333,-0.9429067755835,2.55108200857202,2.2849024508615,2512.566,2509.324,2655.23,2562.564,342.241424560547,45.0120391845703,6.75175428390503,-1.41768169403076,-0.624531507492065,0.522321760654449,-0.499180468623167,-0.219887631320608,0.18368383578474,5
4.299998,-0.439112186431885,2.77301168441772,2.09565019607544,-0.993273782908917,2.52889547958374,2.30343603878021,2517.818,2509.732,2644.016,2556.823,342.33154296875,45.0126152038574,6.71890687942505,-1.48783457279205,-0.655434906482697,0.549258530139923,-0.508032134771347,-0.223786766052246,0.186940990447998,6
4.319998,-0.470263659954071,2.75928854942322,2.10717177391052,-1.04448733405891,2.50633605035577,2.32228113010627,2524.194,2511.996,2624.548,2549.141,342.477600097656,45.0133094787598,6.66530656814575,-1.55757093429565,-0.686153829097748,0.57607626914978,-0.516107817113673,-0.227344082039488,0.189912605730361,6
4.339998,-0.502796292304993,2.74495697021484,2.11922574043274,-1.09646880753261,2.48343835344424,2.3414087944232,2525.025,2512.029,2605.624,2541.587,342.668182373047,45.0131225585938,6.59565544128418,-1.62663102149963,-0.716575145721436,0.602694928646088,-0.523387406044811,-0.230550721056175,0.192591281884289,6
4.359998,-0.536692261695862,2.73002481460571,2.13180613517761,-1.14913767670867,2.46023786060565,2.36078940028582,2516.391,2506.593,2593.765,2534.964,342.894622802734,45.0115737915039,6.51344156265259,-1.69480121135712,-0.746604800224304,0.629018187522888,-0.529852908759987,-0.233398757321012,0.194970398083037,6
4.379999,-0.571930408477783,2.71450161933899,2.14490485191345,-1.20241172152527,2.43677078955237,2.38039269311231,2498.972,2494.925,2589.829,2528.718,343.155456542969,45.0089340209961,6.41912269592285,-1.76190447807312,-0.776163935661316,0.654938697814941,-0.53548844925499,-0.235881197497559,0.197044112420654,7
4.399999,-0.608485817909241,2.69839811325073,2.15851187705994,-1.25620724016021,2.41307401070818,2.40018787307628,2477.16,2478.956,2589.231,2521.381,343.45654296875,45.0059356689453,6.31012010574341,-1.82777333259583,-0.805177569389343,0.680348992347717,-0.540280268326169,-0.237991980694235,0.198807361911982,7
4.419999,-0.646330296993256,2.68172693252563,2.17261481285095,-1.31043926071094,2.38918495396379,2.42014367299888,2456.291,2462.108,2585.063,2511.419,343.807159423828,45.003345489502,6.18244028091431,-1.89222228527069,-0.833563208580017,0.705152273178101,-0.544216723570436,-0.239725978464317,0.200255862492657,7
4.439999,-0.685430943965912,2.66450238227844,2.18720006942749,-1.36502175287464,2.36514151543232,2.44022843624087,2439.651,2447,2572.295,2498.322,344.214691162109,45.0014839172363,6.03300523757935,-1.95503520965576,-0.861225724220276,0.72926652431488,-0.547288289385265,-0.241078994805944,0.201386109019107,7
4.459999,-0.725750505924225,2.64674115180969,2.20225238800049,-1.41986783962828,2.34098196420483,2.46041019459467,2427.079,2434.509,2550.162,2482.542,344.680847167969,45.0001525878906,5.8610405921936,-2.01597452163696,-0.888061463832855,0.752621650695801,-0.549487556968689,-0.242047766162109,0.202195375268555,8
4.479999,-0.76724648475647,2.62846183776855,2.21775531768799,-1.47489000890862,2.31674484910587,2.48065674617648,2415.392,2423.177,2522.392,2465.428,345.201354980469,44.9988059997559,5.66819763183594,-2.07480335235596,-0.913966774940491,0.775150954723358,-0.550809234319305,-0.242629961420667,0.202681713939017,8
4.499999,-0.809872686862946,2.60968494415283,2.23369097709656,-1.53000032529235,2.29246890544891,2.50093573331833,2400.636,2410.688,2494.452,2448.256,345.769195556641,44.9969291687012,5.45720672607422,-2.13130855560303,-0.938848435878754,0.796784818172455,-0.55125014623627,-0.24282418191433,0.202843956649304,8
4.519999,-0.853578865528107,2.5904324054718,2.25003981590271,-1.58511064167608,2.26819296179196,2.52121472046018,2380.223,2395.045,2470.669,2431.78,346.378509521484,44.994327545166,5.23021459579468,-2.18531107902527,-0.962627649307251,0.817447900772095,-0.550809234319305,-0.242629961420667,0.202681713939017,8
4.539999,-0.898312151432037,2.57072758674622,2.26678109169006,-1.64013281095642,2.24395584669299,2.54146127204199,2354.424,2376.014,2451.719,2415.813,347.027770996094,44.9911880493164,4.98757600784302,-2.23666167259216,-0.985238611698151,0.837062418460846,-0.549487556968689,-0.242047766162109,0.202195375268555,8
4.559999,-0.944016635417938,2.5505952835083,2.2838921546936,-1.69497889771005,2.21979629546551,2.56164303039579,2325.846,2354.828,2435.014,2399.647,347.719909667969,44.9878997802734,4.72787952423096,-2.28522443771362,-1.00662124156952,0.85555374622345,-0.547288289385265,-0.241078994805944,0.201386109019107,8
4.579998,-0.990633726119995,2.53006100654602,2.30134916305542,-1.74956138987376,2.19575285693404,2.58172779363778,2297.984,2333.615,2416.342,2382.451,348.460174560547,44.9848022460938,4.44888114929199,-2.33085989952087,-1.02671408653259,0.872855663299561,-0.544216723570436,-0.239725978464318,0.200255862492657,8
4.599998,-1.03810203075409,2.50915193557739,2.31912732124329,-1.80379341042449,2.17186380018964,2.60168359356038,2273.207,2314.153,2392.656,2363.708,349.252563476563,44.9820213317871,4.14882898330688,-2.3734176158905,-1.04545152187347,0.8889120221138,-0.540280268326169,-0.237991980694235,0.198807361911982,8
4.619998,-1.08635687828064,2.48789668083191,2.33720088005066,-1.85758892905943,2.14816702134546,2.62147877352435,2251.812,2296.891,2363.523,2343.701,350.097534179688,44.9794120788574,3.82747292518616,-2.41274046897888,-1.06276452541351,0.903674364089966,-0.535488449254989,-0.235881197497559,0.197044112420654,8
4.639998,-1.13533043861389,2.46632504463196,2.3555428981781,-1.91086297387603,2.12469995029218,2.64108206635084,2232.198,2281.061,2331.141,2323.204,350.991668701172,44.9767570495605,3.48609328269958,-2.44867777824402,-1.07858717441559,0.917098641395569,-0.529852908759987,-0.233398757321012,0.194970398083038,8
4.659998,-1.1849524974823,2.44446778297424,2.37412571907043,-1.96353184305208,2.10149945745358,2.66046267221346,2211.952,2265.34,2299.029,2303.035,351.929321289063,44.9738883972168,3.12678384780884,-2.48109841346741,-1.09286212921143,0.929142236709595,-0.523387406044811,-0.230550721056175,0.192591281884289,7
4.679998,-1.23515057563782,2.42235660552979,2.39292097091675,-2.01551331652579,2.07860176054205,2.67959033653039,2189.379,2248.678,2269.933,2283.783,352.9052734375,44.9707908630371,2.75149202346802,-2.50989890098572,-1.10554385185242,0.939763605594635,-0.516107817113673,-0.227344082039488,0.189912605730361,5
4.699998,-1.28585028648376,2.40002489089966,2.41189932823181,-2.06672686767578,2.05604233131409,2.69843542785645,2164.485,2230.911,2244.484,2265.559,353.916625976563,44.9676475524902,2.36131477355957,-2.53499937057495,-1.11659753322601,0.948924005031586,-0.508032134771347,-0.223786766052247,0.186940990447999,4
4.719998,-1.33697712421417,2.37750482559204,2.43103122711182,-2.1170938750012,2.0338558023258,2.71696901577516,2139.07,2212.791,2221.02,2248.043,354.963104248047,44.9646606445313,1.95639204978943,-2.55633544921875,-1.12599492073059,0.956589698791504,-0.499180468623168,-0.219887631320608,0.18368383578474,0
4.739998,-1.38845407962799,2.3548309803009,2.45028591156006,-2.16653783380174,2.01207587368846,2.73516294879084,2115.066,2195.543,2197.667,2230.496,356.045623779297,44.9619369506836,1.53639936447144,-2.57384753227234,-1.13371002674103,0.962733924388885,-0.48957504507503,-0.215656468515587,0.180149320408917,0
4.759998,-1.44020342826843,2.33203649520874,2.46963262557983,-2.21498456785775,1.99073521982398,2.75298993222069,2094.694,2180.114,2172.108,2212.593,357.164428710938,44.9595260620117,1.10140824317932,-2.58747625350952,-1.1397168636322,0.967336535453796,-0.479240207333392,-0.211104000753058,0.176346401909656,0
4.779998,-1.49214696884155,2.30915689468384,2.48904037475586,-2.26236244111021,1.96986539622046,2.77042360608685,2078.147,2166.844,2144.588,2194.042,358.317260742188,44.9574012756348,0.652434051036835,-2.597163438797,-1.14399003982544,0.970383286476135,-0.468202415405274,-0.206241883593751,0.172284816796876,0
4.799998,-1.54420399665833,2.28622674942017,2.50847768783569,-2.30860256934084,1.94949674618766,2.78743862300851,2064.793,2154.846,2116.322,2175.598,359.499328613281,44.9555435180664,0.191709384322166,-2.60286045074463,-1.14650821685791,0.971864461898804,-0.456490246098257,-0.201082705043257,0.167975080501289,0
4.819998,-1.59629464149475,2.26328158378601,2.52791309356689,-2.35363903185217,1.92965830761255,2.80401072609393,2053.112,2143.665,2089.532,2157.417,0.704100430011749,44.9539947509766,359.721954345703,-2.6045355796814,-1.14725732803345,0.971774756908417,-0.444134393020482,-0.195639985552025,0.163428487374402,0
4.839998,-1.64833831787109,2.24035692214966,2.5473153591156,-2.39740908314754,1.91037771971482,2.82011682683262,2041.752,2132.307,2066.078,2140.333,1.9249382019043,44.9529190063477,359.246154785156,-2.60217833518982,-1.14623248577118,0.970113694667816,-0.431167666580653,-0.189928178015364,0.158657110688514,0
4.859998,-1.70025408267975,2.21748828887939,2.56665301322937,-2.4398533646112,1.89168112980237,2.83573508298731,2030.56,2120.739,2046.37,2124.418,3.15656638145447,44.9524421691895,358.766662597656,-2.59579801559448,-1.14343762397766,0.966886401176453,-0.417624993988038,-0.183962667773438,0.153673802636719,0
4.879998,-1.75196242332458,2.19471073150635,2.58589506149292,-2.48091611618838,1.87359310002685,2.85084497648609,2020.475,2109.461,2029.52,2109.362,4.39527559280396,44.9526710510254,358.285278320313,-2.58541893959045,-1.13888311386108,0.962104320526123,-0.403543419252463,-0.177759772611273,0.148492194332905,0
4.899998,-1.80338394641876,2.17205905914307,2.60501074790955,-2.52054538806528,1.85613651413917,2.86542739131451,2012.651,2098.949,2014.369,2094.867,5.63812351226807,44.9535827636719,357.803527832031,-2.57107281684875,-1.13258254528046,0.955784678459167,-0.388962103184314,-0.171336742758752,0.143126695811749,0
4.919998,-1.8544397354126,2.1495680809021,2.6239697933197,-2.55869325234918,1.83933248424501,2.87946469140758,2008.431,2089.701,1999.697,2080.427,6.88191890716553,44.9551467895508,357.323028564453,-2.55279660224915,-1.12455189228058,0.947950065135956,-0.373922323394544,-0.164711760890616,0.137592496028728,0
4.939998,-1.90505230426788,2.12727189064026,2.642742395401,-2.59531601474851,1.8232002575603,2.89294079854193,2008.175,2081.671,1985.33,2065.944,8.1220817565918,44.9573059082031,356.845916748047,-2.53063225746155,-1.11480915546417,0.938627362251282,-0.358467474294664,-0.157903942126465,0.131905562860108,0
4.959998,-1.95514488220215,2.10520434379578,2.66129922866821,-2.63037442625285,1.80775712316682,2.90584127022785,2011.085,2074.448,1972.173,2051.705,9.35242080688477,44.9600639343262,356.374938964844,-2.50463104248047,-1.10337626934052,0.927847921848297,-0.342643067096747,-0.15093333403076,0.126082643102951,0
4.979998,-2.00464224815369,2.08339881896973,2.679612159729,-2.66383389481301,1.79301831876761,2.91815337760136,2016.012,2067.543,1961.326,2038.159,10.5658779144287,44.9635009765625,355.913024902344,-2.474858045578,-1.09028124809265,0.915648102760315,-0.326496729813429,-0.143820916612817,0.12014126247511,0
4.999998,-2.05347013473511,2.06188774108887,2.6976535320282,-2.69566469702113,1.77899693744257,2.92986618331634,2021.746,2060.604,1953.677,2025.822,11.7554969787598,44.9676780700684,355.463043212891,-2.44139432907104,-1.07555902004242,0.902069866657257,-0.310078207257904,-0.136588602326811,0.114099725615234,0
5.019998,-2.1015567779541,2.04070281982422,2.71539664268494,-2.72584218979064,1.76570383440393,2.94097061943652,2027.867,2053.784,1949.214,2014.761,12.9153652191162,44.9725761413574,355.027282714844,-2.40433669090271,-1.05925142765045,0.887160837650299,-0.293439361043933,-0.129259236071778,0.107977116082765,0
5.039998,-2.14883232116699,2.01987481117249,2.73281621932983,-2.75434702203644,1.75314753375177,2.95145956532768,2034.486,2047.246,1947.313,2005.051,14.0407962799072,44.9781074523926,354.607574462891,-2.36379361152649,-1.0414057970047,0.870973885059357,-0.276634169585831,-0.12185659519161,0.101793296357937,0
5.059998,-2.19523024559021,1.99943315982819,2.74988746643066,-2.78116534635483,1.74133413522954,2.9613279255496,2042.351,2041.368,1946.9,1996.31,15.1279764175415,44.9840545654297,354.205230712891,-2.31988263130188,-1.02207338809967,0.853565812110901,-0.259718728098483,-0.114405389475061,0.095568907841779,0
5.079998,-2.24068450927734,1.97940719127655,2.76658749580383,-2.80628903070367,1.73026722097957,2.97057270774825,2051.867,2036.302,1947.24,1988.349,16.1731872558594,44.990234375,353.821441650391,-2.27272772789001,-1.00130844116211,0.834996283054352,-0.242751248597333,-0.106931261155738,0.0893253708561135,0
5.099998,-2.28513383865356,1.9598240852356,2.78289413452148,-2.82971587008238,1.71994776229858,2.97919310054779,2063.678,2032.064,1947.717,1980.702,17.1723175048828,44.9964752197266,353.457489013672,-2.22245931625366,-0.979167878627777,0.815327346324921,-0.225792059898378,-0.0994607849121103,0.0830848846435555,0
5.119998,-2.32851791381836,1.94070959091187,2.79878664016724,-2.85144979821198,1.71037402639323,2.98719055144271,2076.641,2028.454,1948.864,1973.735,18.1202812194824,45.0027008056641,353.114868164063,-2.1692168712616,-0.955712735652924,0.79462331533432,-0.208903607618189,-0.0920214678675058,0.0768704273675147,0
5.139998,-2.3707811832428,1.92208933830261,2.81424570083618,-2.87150109921521,1.70154148313556,2.99456884468985,2090.152,2025.436,1950.986,1967.307,19.0117874145508,45.0088844299316,352.795104980469,-2.11315107345581,-0.931009769439697,0.772952020168304,-0.192150454173895,-0.0846417495901115,0.0707057561121951,0
5.159998,-2.41186952590942,1.90398669242859,2.82925343513489,-2.88988661929654,1.69344271181858,3.00133417920054,2103.235,2022.44,1954.42,1962.13,19.8417091369629,45.0150184631348,352.499786376953,-2.05442667007446,-0.905131697654724,0.750384986400604,-0.17559927878318,-0.0773510020929702,0.0646154068825906,0
5.179998,-2.45173406600952,1.88642358779907,2.8437933921814,-2.90662997842224,1.68606730791174,3.00749524643262,2115.61,2019.808,1958.946,1957.856,20.6056976318359,45.0210075378418,352.229949951172,-1.99322211742401,-0.878157079219818,0.726997673511505,-0.159318877464296,-0.0701795298339845,0.0586246946044928,0
5.199998,-2.49032878875732,1.86942028999329,2.8578507900238,-2.92176178200042,1.67940178981647,3.01306330828257,2127.035,2017.461,1964.157,1954.704,21.3001670837402,45.0267143249512,351.986389160156,-1.929727435112,-0.850169897079468,0.702868521213531,-0.143380163036056,-0.0631585697159176,0.0527597131244848,0
5.219998,-2.52761173248291,1.85299515724182,2.87141227722168,-2.93531983256111,1.67342950562166,3.01805227497756,2138.212,2015.635,1969.236,1952.051,21.9222717285156,45.0319404602051,351.76953125,-1.86414289474487,-0.821258902549744,0.678078472614288,-0.127856165117833,-0.0563202910863883,0.0470473352099434,0
5.239998,-2.5635449886322,1.8371649980545,2.88446640968323,-2.94734934143632,1.66813053985921,3.02247878296754,2149.524,2014.423,1973.598,1949.515,22.469217300415,45.0365333557129,351.579803466797,-1.79667770862579,-0.791516721248627,0.652709662914276,-0.11282203012956,-0.0496977957378757,0.0415152125490377,0
5.259998,-2.59809613227844,1.82194399833679,2.8970034122467,-2.95790314044004,1.66348162025952,3.02636227281732,2161.165,2013.641,1976.969,1946.889,22.9378356933594,45.0403938293457,351.417846679688,-1.72754991054535,-0.761040329933167,0.626845479011536,-0.0983550212917335,-0.043325117907715,0.0361917757507337,0
5.279998,-2.63123559951782,1.80734550952911,2.90901494026184,-2.96704189354838,1.65945602450703,3.02972506709864,2172.505,2013.186,1979.576,1944.244,23.3243923187256,45.0435333251953,351.284637451172,-1.65698826313019,-0.72993129491806,0.60057121515274,-0.0845345186254143,-0.0372372242781047,0.0311062343447879,0
5.299998,-2.66294026374817,1.79337930679321,2.92049431800842,-2.97483430857956,1.65602348699569,3.03259244828224,2183.66,2012.741,1981.386,1941.412,23.6249542236328,45.045970916748,351.181213378906,-1.58523404598236,-0.698296725749969,0.573974907398224,-0.0714420189522222,-0.0314700139760973,0.0262885767817505,0
5.319998,-2.69319128990173,1.7800544500351,2.93143725395203,-2.981357348874,1.65315010558454,3.03499273662999,2193.389,2012.466,1982.77,1938.759,23.8353309631348,45.0477447509766,351.108764648438,-1.51254189014435,-0.666249573230743,0.547147631645203,-0.0591611358943362,-0.0260603185736064,0.0217695704329683,0
5.339998,-2.72197484970093,1.76737630367279,2.9418408870697,-2.98669644497436,1.65079824835315,3.03695736808692,2201.894,2012.092,1983.49,1936.29,23.951774597168,45.0488166809082,351.068420410156,-1.43918037414551,-0.633908867835999,0.520184338092804,-0.0477775998744976,-0.0210459020874021,0.017580761590577,0
5.359998,-2.74928331375122,1.75534844398499,2.95170450210571,-2.99094570630561,1.64892646035718,3.03852097217329,2209.009,2012.099,1983.278,1933.727,23.9707908630371,45.0491256713867,351.061065673828,-1.36543083190918,-0.60139924287796,0.493182837963104,-0.0373792581160144,-0.0164654609791168,0.0137544754675103,0
5.379998,-2.77511548995972,1.74397134780884,2.96102929115295,-2.99420813285508,1.64748937038389,3.03972144987672,2215.034,2012.381,1981.739,1931.114,23.8891181945801,45.0485687255859,351.087890625,-1.29158627986908,-0.568850755691528,0.466243356466293,-0.0280560746427483,-0.0123586241552358,0.0103238161974919,0
5.399998,-2.79947400093079,1.73324346542358,2.96981859207153,-2.99659582685248,1.64643759770766,3.04060005154424,2220.057,2013.12,1978.621,1928.369,23.7033729553223,45.0470504760742,351.150054931641,-1.21795070171356,-0.53639829158783,0.439468294382095,-0.0199001302791295,-0.00876595296710647,0.0073226668350399,0
5.419998,-2.82237100601196,1.72315955162048,2.97807788848877,-2.99823020445005,1.64571765884546,3.04120145477435,2224.746,2014.419,1973.561,1925.098,23.4099769592285,45.0445404052734,351.249084472656,-1.14483904838562,-0.504181385040283,0.412962317466736,-0.0130056226501472,-0.00572894121093759,0.00478568935546964,0
5.439998,-2.84382247924805,1.71371281147003,2.98581457138062,-2.99924220740252,1.64527187431242,3.04157384230916,2227.982,2016.317,1966.941,1922.135,23.0046348571777,45.041015625,351.386901855469,-1.07257759571075,-0.47234445810318,0.38683208823204,-0.00746886618134823,-0.00329001512778992,0.00274832465488384,0
5.459998,-2.86385250091553,1.70489192008972,2.99303841590881,-2.9997725147472,1.64503827537732,3.04176897992639,2230.321,2018.852,1958.62,1919.272,22.4830360412598,45.0364799499512,351.565460205078,-1.00150585174561,-0.441037386655807,0.361187905073166,-0.00338829209884928,-0.00149253340358735,0.0012467925501829,0
5.479998,-2.88249182701111,1.69668364524841,2.99976134300232,-2.99997175448405,1.64495051081809,3.04184229433152,2230.547,2022.558,1949.009,1917.163,21.8405380249023,45.0308647155762,351.787017822266,-0.931976020336151,-0.410415679216385,0.336143016815186,-0.000864448429320319,-0.000380787169110164,0.000318091779059504,0
5.499998,-2.8997790813446,1.6890709400177,3.00599765777588,-3.00000071525573,1.64493775367737,3.04185295104981,2228.768,2027.469,1938.08,1916.213,21.0728740692139,45.0240936279297,352.053863525391,-0.864353835582733,-0.380640745162964,0.311814069747925,1.77635683940025E-15,8.88178419700125E-16,8.88178419700125E-16,0
5.519998,-2.91575908660889,1.68203365802765,3.01176404953003,-3.00000071525573,1.64493775367737,3.04185295104981,2224.575,2034.072,1925.929,1916.936,20.1761093139648,45.0160636901855,352.368316650391,-0.799017488956451,-0.351879417896271,0.288320571184158,0,0,0,0
5.539998,-2.93048644065857,1.67554724216461,3.01707983016968,-3.00000071525573,1.64493775367737,3.04185295104981,1810.757,2045.711,2100.238,2137.563,19.1468639373779,45.0066184997559,352.732604980469,-0.736356973648071,-0.32430362701416,0.265784621238708,0,0,0,0
5.559998,-2.94402170181274,1.66958570480347,3.0219669342041,-3.00000071525573,1.64493775367737,3.04185295104981,1812.708,2029.482,2118.865,2127.153,18.2457599639893,44.9931716918945,353.053619384766,-0.676764011383057,-0.298085808753967,0.24435593187809,0,0,0,0
5.579998,-2.95641922950745,1.66412436962128,3.02644395828247,-3.00000071525573,1.64493775367737,3.04185295104981,1887.833,2043.811,2056.876,2095.17,17.4798412322998,44.9737548828125,353.328674316406,-0.619873106479645,-0.273060113191605,0.223851025104523,0,0,0,0
5.599998,-2.96772480010986,1.65914356708527,3.03052616119385,-3.00000071525573,1.64493775367737,3.04185295104981,2028.042,2064.521,1955.978,2032.639,16.7890491485596,44.9553413391113,353.580688476563,-0.565290749073029,-0.249043211340904,0.204107195138931,0,0,0,0
5.619998,-2.9779806137085,1.65462505817413,3.03422737121582,-3.00000071525573,1.64493775367737,3.04185295104981,2139.838,2076.402,1883.456,1981.164,16.0673561096191,44.945198059082,353.848480224609,-0.512795329093933,-0.225930199027061,0.185054928064346,0,0,0,0
5.639998,-2.9872305393219,1.65054976940155,3.03756237030029,-3.00000071525573,1.64493775367737,3.04185295104981,2162.192,2071.621,1880.605,1968.388,15.2334413528442,44.9459190368652,354.160522460938,-0.462478876113892,-0.203761205077171,0.166746288537979,0,0,0,0
5.659998,-2.99552416801453,1.64689564704895,3.04054856300354,-3.00000071525573,1.64493775367737,3.04185295104981,2089.597,2053.327,1945.547,1998.697,14.2758655548096,44.9540824890137,354.51904296875,-0.414677619934082,-0.18269194662571,0.149309754371643,0,0,0,0
5.679998,-3.00291967391968,1.64363789558411,3.04320597648621,-3.00000071525573,1.64493775367737,3.04185295104981,1970.211,2032.33,2039.223,2052.256,13.2548675537109,44.9630432128906,354.900695800781,-0.369765371084213,-0.162898391485214,0.13287016749382,0,0,0,0
5.699998,-3.0094780921936,1.64074850082397,3.04555559158325,-3.00000071525573,1.64493775367737,3.04185295104981,1872.825,2020.004,2111.024,2099.389,12.2641458511353,44.9675636291504,355.271392822266,-0.32793915271759,-0.144475892186165,0.117481529712677,0,0,0,0
5.719998,-3.01526069641113,1.6382007598877,3.04761791229248,-3.00000071525573,1.64493775367737,3.04185295104981,1846.807,2022.984,2127.512,2117.346,11.3783006668091,44.966552734375,355.605010986328,-0.289116233587265,-0.127388507127762,0.103110194206238,0,0,0,0
5.739998,-3.02032041549683,1.63597095012665,3.04941129684448,-3.00000071525573,1.64493775367737,3.04185295104981,1896.983,2038.842,2089.077,2103.216,10.6162281036377,44.9625434875488,355.895751953125,-0.252987444400787,-0.111492447555065,0.0896698608994484,0,0,0,0
5.759998,-3.02470397949219,1.63403844833374,3.05095291137695,-3.00000071525573,1.64493775367737,3.04185295104981,1987.179,2059.073,2025.931,2071.305,9.93904685974121,44.9594116210938,356.157836914063,-0.219184130430222,-0.0966136008501053,0.0770759060978889,0,0,0,0
5.779998,-3.02845287322998,1.63238608837128,3.05225849151611,-3.00000071525573,1.64493775367737,3.04185295104981,2063.874,2073.203,1979.373,2044.031,9.27926254272461,44.9599533081055,356.414794921875,-0.187454283237457,-0.0826326087117195,0.0652824193239212,0,0,0,0
5.799998,-3.03160810470581,1.63099527359009,3.05334424972534,-3.00000071525573,1.64493775367737,3.04185295104981,2088.843,2074.792,1977.326,2037.835,8.58252334594727,44.9646644592285,356.684906005859,-0.157752394676208,-0.0695291310548782,0.0542882457375526,0,0,0,0
5.819998,-3.03421211242676,1.62984824180603,3.0542266368866,-3.00000071525573,1.64493775367737,3.04185295104981,2057.019,2065.128,2021.029,2055.025,7.83681583404541,44.9718360900879,356.971252441406,-0.13020122051239,-0.0573650002479553,0.0441176556050777,0,0,0,0
5.839998,-3.03631114959717,1.62892377376556,3.05492234230042,-3.00000071525573,1.64493775367737,3.04185295104981,1996.491,2051.199,2085.968,2084.815,7.07528781890869,44.9788398742676,357.261657714844,-0.104961916804314,-0.0462228544056416,0.034790713340044,0,0,0,0
5.859998,-3.03795337677002,1.62820076942444,3.05544829368591,-3.00000071525573,1.64493775367737,3.04185295104981,1947.127,2042.475,2138.925,2110.832,6.35313653945923,44.983829498291,357.53662109375,-0.0820941478013992,-0.0361373052000999,0.0262998938560486,0,0,0,0
5.879998,-3.03918313980103,1.62765955924988,3.05582046508789,-3.00000071525573,1.64493775367737,3.04185295104981,1938.371,2044.663,2156.134,2121.43,5.71541547775269,44.9865684509277,357.781005859375,-0.0614859536290169,-0.0270603559911251,0.0186066180467606,0,0,0,0
5.899998,-3.04004049301147,1.62728238105774,3.05605363845825,-3.00000071525573,1.64493775367737,3.04185295104981,1974.032,2057.707,2135.422,2114.811,5.17358541488647,44.9879913330078,357.991241455078,-0.0428834408521652,-0.0188739690929651,0.0116547560319304,0,0,0,0
5.919998,-3.04056072235107,1.62705326080322,3.05616140365601,-3.00000071525573,1.64493775367737,3.04185295104981,2032.712,2075.669,2095.739,2099.165,4.70284843444824,44.9893608093262,358.176208496094,-0.0259949453175068,-0.0114401625469327,0.00538940727710724,0,0,0,0
5.939998,-3.0407726764679,1.62696051597595,3.056156873703,-3.00000071525573,1.64493775367737,3.04185295104981,2082.968,2090.51,2064.408,2086.442,4.2599024772644,44.9915199279785,358.350799560547,-0.0106046525761485,-0.00465685734525323,-0.000231357757002115,0,0,0,0
