t,x_s1,x_s2,x_s3,x_s_d1,x_s_d2,x_s_d3,propellers_rpms1,propellers_rpms2,propellers_rpms3,propellers_rpms4,rollRad,pitchRad,yawRad,v_s1,v_s2,v_s3,v_s_d1,v_s_d2,v_s_d3,insideCount
0,-0.0599999874830246,2.94000005722046,1.95999956130981,-0.0599999874830246,2.94000005722046,1.95999956130981,2128.77,2128.769,2128.77,2128.771,1.9419E-07,-8.34465E-05,2.329043E-07,1.83398682906954E-08,-5.29154249306885E-07,1.18023137929413E-06,-1.06581410364015E-15,2.66453525910038E-16,-4.44089209850063E-16,7
0.0199995040893555,-0.0599999874830246,2.94000005722046,1.95999956130981,-0.0600018576723477,2.93999923441227,1.96000022287377,2128.769,2128.765,2128.769,2128.773,1.909011E-07,-8.34465E-05,2.217323E-07,6.645470840283E-09,-4.85300176933379E-07,1.17583658720832E-06,-0.000279972722722852,-0.000123176752602946,9.90380273591797E-05,7
0.0399999618530273,-0.0599999874830246,2.94000005722046,1.95999956130981,-0.0600148601827232,2.93999351382997,1.96000482240391,2461.224,2262.568,1799.749,2000.586,1.884345E-07,-8.34465E-05,1.523076E-07,7.98395571877109E-10,-4.76529493198541E-07,1.07475591448747E-06,-0.00111096661606858,-0.000488780687944704,0.000392995221277095,7
0.0599994659423828,-0.0599999874830246,2.94000005722046,1.96000373363495,-0.0600498792827243,2.93997810683255,1.96001721011994,2300.68,2200.725,1963.42,2069.153,-0.005081311,-8.58463E-05,0.001953179,-2.10553388058088E-08,-4.98278893701354E-07,0.000209568985155784,-0.00247951794679298,-0.00109088830418188,0.000877108897844157,7
0.0799999237060547,-0.0600195527076721,2.93999123573303,1.96001660823822,-0.0601175378901462,2.93994833976286,1.96004114379086,2105.183,2127.933,2162.89,2147.947,-0.01275388,-0.0001033306,0.004887249,-0.000978171010501683,-0.000435509689850733,0.000642079743556678,-0.00437248028023627,-0.00192371569810434,0.00154672861489279,7
0.0999994277954102,-0.0600882284343243,2.93996071815491,1.96004235744476,-0.0602281840174153,2.93989965991108,1.96008028394021,1940.205,2065.479,2333.99,2214.025,-0.0199833,-0.0001310275,0.007672459,-0.00343381892889738,-0.00153061258606613,0.00128899561241269,-0.00677650536083692,-0.00298139017341151,0.00239713253778618,7
0.119999885559082,-0.0602339804172516,2.93989586830139,1.96008503437042,-0.0603919210525656,2.93982762219228,1.96013820455765,1901.435,2049.195,2380.161,2232.127,-0.02418736,-0.0001432781,0.009350149,-0.00728766527026892,-0.0032462403178215,0.00213366071693599,-0.00967876227320535,-0.00425826664269898,0.00342378183668032,6
0.139999389648438,-0.0604733005166054,2.93978953361511,1.96014845371246,-0.0606185654717202,2.93972790775126,1.96021837814016,1995.837,2082.903,2292.351,2200.689,-0.0247136,-0.0001251686,0.009663443,-0.0119659900665283,-0.00531606422737241,0.00316957058385015,-0.0130660232627196,-0.00574852542523957,0.00462199730314584,6
0.159999847412109,-0.0608086287975311,2.93964123725891,1.96023654937744,-0.0609177136539968,2.93959629456665,1.96032419932721,2157.613,2143.908,2134.693,2144.312,-0.02296231,-9.069477E-05,0.00909827,-0.0167664550244808,-0.00741772819310427,0.0044064992107451,-0.0169257679513482,-0.00744665805759332,0.00598734995735216,6
0.179999351501465,-0.0612335912883282,2.93945407867432,1.96035361289978,-0.0612986554583355,2.93942869547367,1.96045895432932,2291.615,2197.575,2002.554,2097.286,-0.02138731,-6.386268E-05,0.00853029,-0.0212481394410133,-0.00935565866529942,0.00585418054834008,-0.0212448940259772,-0.00934690004825817,0.00751520496476248,6
0.199999809265137,-0.0617422796785831,2.93923091888428,1.96050369739532,-0.0617704925781598,2.93922110609277,1.960625862795,2328.643,2217.325,1966.878,2084.25,-0.02203233,-5.572334E-05,0.008710374,-0.0254344530403614,-0.0111544672399759,0.00750563619658351,-0.0260111867467082,-0.0114438774022964,0.00920124146249948,6
0.219999313354492,-0.0623370856046677,2.9389705657959,1.96069049835205,-0.0623419933703154,2.93896966869914,1.96082802645773,2260.843,2197.97,2037.413,2108.603,-0.02545662,-6.672797E-05,0.00988298,-0.0297402795404196,-0.0130200609564781,0.00933984108269215,-0.0312116740998169,-0.0137318829547038,0.0110408707083542,6
0.239999771118164,-0.0630309730768204,2.93866658210754,1.96091723442078,-0.0630217769714392,2.93867059121886,1.96106849426557,2138.469,2155.619,2164.801,2153.501,-0.03059759,-9.178151E-05,0.01172231,-0.0346942096948624,-0.0152028314769268,0.0113338455557823,-0.036834442167,-0.0162056750599617,0.0130298782525923,6
0.25999927520752,-0.0638436004519463,2.93830966949463,1.96118664741516,-0.0638180955440324,2.93832024303188,1.96135018535251,2036.163,2116.566,2273.789,2193.207,-0.03553616,-0.0001171791,0.01357768,-0.0406314730644226,-0.0178505387157202,0.0134694911539555,-0.0428666540091171,-0.0188596059804572,0.0151637231345178,6
0.279999732971191,-0.0647941455245018,2.93789100646973,1.96150135993958,-0.0647390976058454,2.93791503911768,1.96167598218911,2008.692,2101.94,2307.796,2208.294,-0.03864886,-0.0001246359,0.01486124,-0.0475272834300995,-0.0209331531077623,0.0157369989901781,-0.0492966917956094,-0.0216885643373868,0.0174382956429792,6
0.299999237060547,-0.0658950656652451,2.93740558624268,1.96186411380768,-0.0657925246221384,2.9374515735425,1.96204862325445,2063.613,2117.547,2257.315,2194.965,-0.03946432,-0.0001075917,0.01535106,-0.0550461523234844,-0.0242750756442547,0.0181390661746264,-0.0561118583544272,-0.0246869638850437,0.019849104258729,6
0.319999694824219,-0.0671501532196999,2.93685221672058,1.96227788925171,-0.0669860662419749,2.93692646316961,1.96247082869808,2162.138,2152.262,2160.43,2165.143,-0.0387916,-7.806542E-05,0.01526324,-0.062754362821579,-0.0276651326566935,0.0206879116594791,-0.0633008272915933,-0.0278498214650141,0.0223921423638877,6
0.339999198913574,-0.0685573816299438,2.93623280525208,1.9627457857132,-0.0683269589165248,2.93633652425115,1.96294515835454,2246.227,2186.276,2076.21,2137.576,-0.03813221,-5.456598E-05,0.01507965,-0.0703615322709084,-0.0309752784669399,0.0233926549553871,-0.0708510458119681,-0.0311716143516327,0.025062969511342,6
0.359999656677246,-0.0701144933700562,2.93554830551147,1.96327078342438,-0.0698224449919714,2.9356785704457,1.96347417414371,2272.223,2202.266,2050.374,2127.453,-0.03877829,-4.916175E-05,0.0152598,-0.0778556913137436,-0.0342207178473473,0.0262484382838011,-0.0787514743896798,-0.0346474855969298,0.0278576805604241,6
0.379999160766602,-0.071823924779892,2.93479752540588,1.96385550498962,-0.0714792617712835,2.93494963761057,1.9640602593306,2233.471,2194.918,2091.285,2138.417,-0.04112933,-6.243698E-05,0.01599843,-0.0854714810848236,-0.0375339984893799,0.0292374808341265,-0.0869897091336315,-0.0382719779870381,0.03077188773759,6
0.399999618530273,-0.0736944749951363,2.9339759349823,1.96450221538544,-0.0733042156824864,2.9341467311908,1.96470582163263,2159.383,2171.65,2169.94,2162.71,-0.04457173,-8.621367E-05,0.01715881,-0.0935277193784714,-0.0410766415297985,0.0323384329676628,-0.095554992900268,-0.042040358810865,0.0338017857925732,6
0.419999122619629,-0.0757392346858978,2.93307709693909,1.96521294116974,-0.0753035509256678,2.93326710398917,1.96541306988378,2095.624,2147.591,2239.582,2186.282,-0.04793371,-0.0001070591,0.01838585,-0.102238193154335,-0.0449433177709579,0.0355348289012909,-0.10443507514698,-0.0459472383217182,0.0369430411975848,6
0.439999580383301,-0.0779712647199631,2.93209481239319,1.96598935127258,-0.0774836492176395,2.93230794830661,1.96618426156342,2076.592,2136.199,2263.956,2197.483,-0.05018993,-0.0001118528,0.01932382,-0.111601434648037,-0.0491134263575077,0.0388200506567955,-0.113619476709428,-0.0499880061081947,0.0401919470351988,6
0.459999084472656,-0.0803996846079826,2.93102526664734,1.9668333530426,-0.0798502678770528,2.93126673115416,1.96702143327523,2108.496,2142.773,2235.26,2192.633,-0.05100646,-9.829978E-05,0.01980404,-0.121420979499817,-0.0534717850387096,0.042198121547699,-0.123096104755249,-0.0541573418097756,0.043544225566317,6
0.479999542236328,-0.0830282717943192,2.9298677444458,1.96774697303772,-0.0824093749419798,2.93014082683477,1.96792669616315,2168.508,2162.19,2176.013,2177.199,-0.05084933,-7.540215E-05,0.01991208,-0.131429329514503,-0.0578798614442348,0.0456795282661915,-0.132854753778902,-0.0584507554139386,0.0469962666780434,6
0.499999046325684,-0.0858569964766502,2.92862272262573,1.96873235702515,-0.085166247243896,2.92892791375456,1.96890191686255,2221.391,2183.237,2122.487,2161.353,-0.05063468,-5.737027E-05,0.01990848,-0.141436383128166,-0.0622526779770851,0.049271397292614,-0.142883492937342,-0.0628629978289573,0.050543849933656,6
0.519999504089355,-0.0888853520154953,2.92729067802429,1.96979176998138,-0.0881264500034457,2.92762554343997,1.96994906402403,2239.334,2195.068,2104.302,2154.107,-0.05117957,-5.359932E-05,0.02006875,-0.151417851448059,-0.0665977597236633,0.0529703721404076,-0.153172386146102,-0.0673896975767605,0.0541834605257282,6
0.539999008178711,-0.0921154320240021,2.92587065696716,1.97092700004578,-0.0912947861286983,2.92623160280436,1.97106983663647,2217.357,2193.199,2127.765,2158.632,-0.05276148,-6.467009E-05,0.02053516,-0.1615040153265,-0.0709992796182632,0.0567630082368851,-0.163709668747836,-0.0720256786806546,0.05791093680435,6
0.559999465942383,-0.0955531299114227,2.92435956001282,1.97213959693909,-0.0946764287163265,2.92474381589298,1.97226606463989,2172.461,2180.728,2176.134,2171.597,-0.05503209,-8.312011E-05,0.02125971,-0.171884819865227,-0.0755606964230537,0.0606325715780258,-0.174485669924113,-0.0767666863689687,0.0617228577977531,6
0.579998970031738,-0.0992070138454437,2.92275261878967,1.9734308719635,-0.0982757134809647,2.92316027516554,1.97353928175737,2132.692,2166.232,2220.373,2185.417,-0.05727394,-9.853244E-05,0.02205224,-0.182694181799889,-0.0803428590297699,0.0645658671855927,-0.185488795316979,-0.0816076195899032,0.0656151220980257,6
0.59999942779541,-0.103085771203041,2.92104601860046,1.97480201721191,-0.102097431924223,2.92147887255379,1.97489118294283,2119.538,2158.088,2237.514,2193.172,-0.05884254,-0.0001022654,0.02270114,-0.193937808275223,-0.0853321775794029,0.0685577318072319,-0.196709635301688,-0.0865443384865159,0.0695844011284969,6
0.619998931884766,-0.107195779681206,2.91923689842224,1.97625422477722,-0.106145459460165,2.91969790303119,1.97632313909184,2138.014,2160.372,2221.304,2192.037,-0.05950514,-9.271159E-05,0.02308773,-0.20550012588501,-0.0904535874724388,0.0726112127304077,-0.20813676985069,-0.0915718187053832,0.0736266551491888,6
0.639999389648438,-0.111540094017982,2.91732454299927,1.9777889251709,-0.110424216363006,2.91781542185464,1.97783671383973,2174.531,2170.975,2185.192,2184.271,-0.05952804,-7.633217E-05,0.02323789,-0.217215642333031,-0.0956157892942429,0.0767335295677185,-0.219761046543253,-0.096686033548999,0.077738646567217,6
0.659998893737793,-0.116119295358658,2.9153094291687,1.97940754890442,-0.114937124798693,2.91582992340858,1.97943311774929,2207.775,2183.756,2151.279,2175.234,-0.05946838,-6.344919E-05,0.02328911,-0.228960111737251,-0.100761637091637,0.0809295251965523,-0.231571223630558,-0.101882037099419,0.0819163987072237,6
0.679999351501465,-0.120933443307877,2.91319155693054,1.98111152648926,-0.119688244023782,2.91373962178317,1.98111378674886,2220.041,2191.909,2138.633,2170.353,-0.05984283,-6.076686E-05,0.02340445,-0.240707606077194,-0.10589337348938,0.0851966217160225,-0.243558401988908,-0.107155914099659,0.0861567635780497,6
0.699999809265137,-0.125983998179436,2.91097021102905,1.98290205001831,-0.12468079403062,2.9115431003111,1.982879859884,2207.658,2192.241,2151.892,2171.867,-0.06084258,-6.89613E-05,0.02368115,-0.252528488636017,-0.111063525080681,0.0895252749323845,-0.255712105347975,-0.112503055411566,0.0904560352860016,6
0.719999313354492,-0.131274670362473,2.9086434841156,1.98478007316589,-0.129917751515848,2.90923904936542,1.98473239013646,2180.427,2185.767,2181.453,2178.573,-0.0622711,-8.211781E-05,0.02411007,-0.264534085988998,-0.116337761282921,0.0939030200242996,-0.268021934054418,-0.117918885605383,0.09481053504001,6
0.739999771118164,-0.136810794472694,2.90620827674866,1.98674643039703,-0.135402653011385,2.90682591301413,1.98667262852503,2155.366,2177.096,2209.578,2186.576,-0.06369109,-9.29634E-05,0.02459251,-0.276806622743607,-0.121755339205265,0.0983199775218964,-0.280479361788326,-0.123399653442816,0.0992172467251598,6
0.75999927520752,-0.142597839236259,2.90366220474243,1.98880183696747,-0.141137819429657,2.90430267014899,1.98870139605325,2146.483,2171.591,2221.137,2191.638,-0.0646951,-9.571785E-05,0.02500379,-0.289352476596832,-0.127307325601578,0.102771684527397,-0.293073609231225,-0.128940616456699,0.103672357246992,6
0.779999732971191,-0.148639902472496,2.90100336074829,1.99094700813293,-0.14712645114013,2.90166791273598,1.99081982482525,2156.901,2171.856,2212.208,2191.95,-0.06512601,-8.927412E-05,0.02526504,-0.302102416753769,-0.132944643497467,0.107259690761566,-0.305796393954509,-0.134538130711119,0.108172936765116,6
0.799999237060547,-0.154938951134682,2.89823126792908,1.99318277835846,-0.153370441699775,2.89892080768608,1.99302858467109,2179.261,2177.539,2189.96,2188.063,-0.06513133,-7.84742E-05,0.02537621,-0.314953655004501,-0.138607174158096,0.11178832501173,-0.318637128086438,-0.140187537967783,0.112715239907767,6
0.819999694824219,-0.161495432257652,2.89534616470337,1.99550998210907,-0.159872664998621,2.89606009060312,1.99532869220553,2199.921,2185.013,2168.672,2182.968,-0.06505463,-6.980319E-05,0.02540905,-0.327824324369431,-0.144255712628365,0.116360157728195,-0.331587769472141,-0.145885300001569,0.117296421829395,6
0.839999198913574,-0.168309256434441,2.89234828948975,1.99792945384979,-0.166634594967845,2.89308511301659,1.99772066881949,2208.324,2190.474,2159.752,2179.618,-0.06521815,-6.779598E-05,0.02545759,-0.340691417455673,-0.149889782071114,0.120973080396652,-0.34463792526284,-0.151626844376453,0.121912806145987,6
0.859999656677246,-0.175381079316139,2.88923740386963,2.00044178962708,-0.173658788558005,2.88999474997093,2.000205419013,2201.134,2191.317,2167.302,2179.848,-0.06575451,-7.305366E-05,0.02558753,-0.353590965270996,-0.155541062355042,0.125620201230049,-0.357779790042512,-0.1574087370229,0.126561631756399,6
0.879999160766602,-0.182712838053703,2.88601231575012,2.00304770469666,-0.180946307945543,2.88678853415117,2.00278331852218,2184.657,2188.017,2185.065,2183.149,-0.0665508,-8.201285E-05,0.0258032,-0.366587221622467,-0.161250993609428,0.130292534828186,-0.371003169478882,-0.163226492844173,0.131239292500183,6
0.899999618530273,-0.190307423472404,2.88267135620117,2.00574731826782,-0.188499402541773,2.8834654759067,2.0054551630576,2168.796,2182.854,2202.749,2187.62,-0.06734388,-8.946114E-05,0.0260551,-0.379729121923447,-0.167044341564178,0.134982779622078,-0.384300491442582,-0.169076780407493,0.135943109799411,6
0.919999122619629,-0.198167830705643,2.8792130947113,2.00854110717773,-0.196318730777547,2.88002528555437,2.00822118553372,2162.716,2179.152,2210.372,2190.763,-0.06787652,-9.126661E-05,0.0262711,-0.393021196126938,-0.172915279865265,0.139687031507492,-0.397661763528691,-0.174955203456049,0.140669548923762,6
0.939999580383301,-0.206296265125275,2.8756365776062,2.01142930984497,-0.204406243788722,2.87646710467279,2.01108207614865,2168.437,2178.61,2205.416,2191.369,-0.0680427,-8.734719E-05,0.02640015,-0.406421095132828,-0.178831666707993,0.144405484199524,-0.411079643524983,-0.180858531711372,0.14541601262659,6
0.959999084472656,-0.214693546295166,2.87194156646729,2.01441216468811,-0.212762204404487,2.87279081762767,2.01403792787604,2181.969,2181.456,2191.688,2189.406,-0.06792499,-8.055629E-05,0.02643387,-0.419864267110825,-0.18475379049778,0.149139985442162,-0.42454434428206,-0.186782459220835,0.150179038785012,6
0.979999542236328,-0.22335946559906,2.86812853813171,2.01748991012573,-0.221388274615911,2.86899569320969,2.01708932863144,2194.715,2185.658,2178.242,2186.44,-0.06773271,-7.476367E-05,0.0264084,-0.433296591043472,-0.190654724836349,0.153891667723656,-0.438048750218017,-0.192723855414206,0.154956110320977,6
0.999999046325684,-0.232293456792831,2.86419796943665,2.020663022995,-0.230284329925915,2.86508178619256,2.02023623437504,2200.277,2189.068,2171.982,2184.126,-0.06766666,-7.343928E-05,0.02637741,-0.446698814630508,-0.196532279253006,0.158658549189568,-0.451583282684455,-0.198678506070925,0.1597438388671,6
1.01999950408936,-0.241495206952095,2.86014986038208,2.02393174171448,-0.239451752181625,2.86104848861906,2.0234791339238,2196.067,2189.816,2176.057,2183.763,-0.06781793,-7.68371E-05,0.02638357,-0.460087865591049,-0.202405095100403,0.163435563445091,-0.465141049525657,-0.204643378919307,0.164539786380489,6
1.03999900817871,-0.250965178012848,2.85598397254944,2.02729606628418,-0.248890037963259,2.85689602197366,2.02681784919714,2185.966,2188.113,2186.58,2185.156,-0.06812312,-8.249505E-05,0.02643501,-0.473499655723572,-0.208298772573471,0.168216288089752,-0.478712683757016,-0.21061435286236,0.16934063936807,6
1.05999946594238,-0.260704427957535,2.8516993522644,2.0307559967041,-0.258600297848335,2.85262389764687,2.03025277305264,2175.802,2184.933,2197.531,2187.519,-0.06842353,-8.724901E-05,0.02650843,-0.486962258815765,-0.214228674769402,0.172995164990425,-0.49229151352755,-0.216588492553635,0.174144037717924,6
1.07999897003174,-0.270713984966278,2.84729552268982,2.03431129455566,-0.268581658022789,2.84823250008178,2.03378359638583,2171.545,2182.426,2202.373,2189.272,-0.06855669,-8.865999E-05,0.02656235,-0.500477850437164,-0.220190703868866,0.177768722176552,-0.505868386596549,-0.222561771374827,0.178946743900847,6
1.09999942779541,-0.280994415283203,2.8427722454071,2.03796195983887,-0.27883496654566,2.84372145616647,2.03741061919057,2174.476,2181.548,2199.546,2189.742,-0.06845336,-8.630288E-05,0.02656496,-0.514019846916199,-0.226163893938065,0.18253630399704,-0.519436848379009,-0.228531349567789,0.183746474660956,6
1.11999893188477,-0.291545331478119,2.83812975883484,2.04170799255371,-0.289358987858573,2.83909130949701,2.04113340439832,2182.546,2182.779,2190.927,2188.624,-0.06815722,-8.198404E-05,0.02650638,-0.527547061443329,-0.232121855020523,0.187298312783241,-0.532987964375535,-0.234493296311652,0.188540069493232,6
1.13999938964844,-0.302365779876709,2.83336877822876,2.04554915428162,-0.300154316133325,2.83434179866166,2.04495216219242,2190.265,2184.928,2182.329,2186.779,-0.06779715,-7.845557E-05,0.02640426,-0.541023194789886,-0.238045766949654,0.192054718732834,-0.546515494311024,-0.240444866136018,0.193325320952141,6
1.15999889373779,-0.313454449176788,2.8284900188446,2.049485206604,-0.311219362835443,2.82947362255178,2.048866330642,2193.827,2186.874,2177.821,2185.077,-0.06749782,-7.757217E-05,0.02628853,-0.554432809352875,-0.243932589888573,0.196803390979767,-0.560010724342125,-0.246382225299811,0.198099146587907,6
1.17999935150146,-0.324810087680817,2.82349419593811,2.05351591110229,-0.322554476764124,2.82448662770975,2.05287603313187,2191.188,2187.277,2179.86,2184.438,-0.06732098,-7.974451E-05,0.02618639,-0.567782342433929,-0.24979293346405,0.201540589332581,-0.573467625630252,-0.25230272135621,0.202859413748911,6
1.19999885559082,-0.336431860923767,2.81838130950928,2.05764102935791,-0.334157725291949,2.81938166441401,2.05698058601112,2184.905,2186.262,2185.844,2184.796,-0.0672315,-8.324784E-05,0.02610551,-0.581090986728668,-0.255642205476761,0.206261545419693,-0.58687770782014,-0.258202618889922,0.207603119042433,6
1.21999931335449,-0.348319321870804,2.81315159797668,2.06186032295227,-0.34602922024688,2.81415868346473,2.06118002883796,2178.185,2184.201,2192.516,2185.818,-0.06713456,-8.631501E-05,0.02603553,-0.594373941421509,-0.261489659547806,0.210962116718292,-0.600235150719022,-0.264079357249902,0.212328203623578,6
1.23999881744385,-0.360471963882446,2.80780506134033,2.06617307662964,-0.358166693903326,2.80881868257009,2.06547355942329,2175.152,2182.39,2195.343,2186.625,-0.0669279,-8.749218E-05,0.02595337,-0.607631504535675,-0.267332702875137,0.215639412403107,-0.613531690209075,-0.269929300556246,0.217031744129247,7
1.25999927520752,-0.372888892889023,2.8023419380188,2.07057881355286,-0.370570029409403,2.80336171314023,2.06986113643172,2176.367,2181.389,2193.647,2186.771,-0.06656624,-8.609965E-05,0.02583947,-0.620846211910248,-0.273157298564911,0.22029210627079,-0.626761712035336,-0.275749978762273,0.221711754563334,7
1.27999877929688,-0.385568678379059,2.79676294326782,2.07507729530334,-0.383236633044451,2.79778891630806,2.07434184235609,2181.024,2181.723,2188.066,2185.914,-0.06607143,-8.362074E-05,0.02568537,-0.633991301059723,-0.278945773839951,0.224919572472572,-0.639917180984093,-0.281537856696691,0.226365392535667,7
1.29999923706055,-0.398509532213211,2.7910692691803,2.07966780662537,-0.396166167461458,2.79210044049272,2.0789155578627,2185.498,2182.582,2182.457,2184.617,-0.06552228,-8.147195E-05,0.02550006,-0.647042095661163,-0.284685015678406,0.229521125555038,-0.652992686112864,-0.287290553762145,0.230990743970246,7
1.3199987411499,-0.411709249019623,2.78526186943054,2.08434963226318,-0.409355722152804,2.78629756620065,2.08358125338362,2187.668,2183.471,2179.056,2183.272,-0.06499711,-8.10795E-05,0.02529969,-0.659986317157745,-0.290371656417847,0.234094709157944,-0.66598042369603,-0.293004636632807,0.23558504836389,7
1.33999919891357,-0.425165742635727,2.77934169769287,2.08912229537964,-0.422804747357717,2.78038053530452,2.08833873444554,2185.853,2183.471,2179.85,2182.493,-0.06453745,-8.221094E-05,0.02510093,-0.672825038433075,-0.296011209487915,0.2386374771595,-0.678875183560951,-0.298677813041987,0.240146462661264,7
1.35999870300293,-0.438877046108246,2.77330946922302,2.09398531913757,-0.436510025091431,2.77435076358836,2.09318686271306,2181.791,2182.72,2183.033,2182.215,-0.06412412,-8.442229E-05,0.0249095,-0.685567677021027,-0.301612764596939,0.243145897984505,-0.691669395971392,-0.30430675260979,0.244672309130991,7
1.3799991607666,-0.452841520309448,2.76716589927673,2.09893774986267,-0.450470801160724,2.7682085828669,2.09812537139659,2177.178,2181.202,2186.926,2182.427,-0.06370175,-8.623696E-05,0.02472183,-0.698221743106842,-0.307181715965271,0.247616767883301,-0.704358049064609,-0.309889250317913,0.249160814868214,7
1.39999866485596,-0.467057198286057,2.76091146469116,2.10397863388062,-0.464683559511902,2.76195554006254,2.1031530167213,2174.874,2179.803,2188.392,2182.538,-0.06320374,-8.674197E-05,0.02452494,-0.71078622341156,-0.312716126441956,0.252047449350357,-0.716933809512358,-0.31542207979648,0.253609385768922,7
1.41999912261963,-0.481522142887115,2.7545473575592,2.10910725593567,-0.479147349403858,2.75559205346318,2.10826946237043,2175.051,2178.768,2187.229,2182.326,-0.06260239,-8.609712E-05,0.02430759,-0.723249077796936,-0.318206578493118,0.25643652677536,-0.729391861384524,-0.320903122229677,0.258016318237802,7
1.43999862670898,-0.496234059333801,2.74807453155518,2.11432290077209,-0.493858366217273,2.7491197969485,2.11347336249145,2177.63,2178.504,2183.352,2181.556,-0.06190731,-8.470668E-05,0.02406368,-0.735592663288116,-0.323641330003738,0.260782957077026,-0.741725110096775,-0.32632925628536,0.262379102624518,7
1.45999908447266,-0.511189997196198,2.74149441719055,2.11962461471558,-0.508815470454288,2.7425392718518,2.11876431399646,2179.989,2178.513,2179.586,2180.516,-0.06116802,-8.345846E-05,0.02379702,-0.747799813747406,-0.329010814428329,0.265085697174072,-0.753928933357052,-0.331698448340682,0.266696103831612,7
1.47999954223633,-0.526387274265289,2.73480820655823,2.1250114440918,-0.524015309036487,2.73585195339289,2.12414113076179,2181.188,2178.741,2176.866,2179.279,-0.06043245,-8.324682E-05,0.0235155,-0.759860932826996,-0.334311902523041,0.269342720508575,-0.765997049693203,-0.337007934800197,0.270965099840436,7
1.49999904632568,-0.541822731494904,2.72801733016968,2.13048243522644,-0.539454369875939,2.7290593867494,2.12960257041548,2179.847,2178.455,2176.803,2178.344,-0.05972937,-8.386766E-05,0.02323003,-0.771774411201477,-0.339547157287598,0.273551851511002,-0.777923311894222,-0.342255011137972,0.275183916126108,7
1.51999950408936,-0.557493567466736,2.7211229801178,2.13603663444519,-0.555131244749703,2.72216219148286,2.13514813481035,2176.726,2177.573,2178.627,2177.798,-0.05905027,-8.5102E-05,0.02294542,-0.78354424238205,-0.344721883535385,0.277710467576981,-0.789703384005937,-0.347437769708331,0.27935101888082,7
1.53999900817871,-0.573397040367126,2.7141261100769,2.14167284965515,-0.571041449792449,2.71516234031391,2.14077623781625,2173.738,2176.476,2180.322,2177.379,-0.05835625,-8.613609E-05,0.02265914,-0.795173823833466,-0.349839180707932,0.281815826892853,-0.80133077798373,-0.352553356032238,0.28346411301263,7
1.55999946594238,-0.589530229568481,2.70702815055847,2.14739012718201,-0.58718340711532,2.70806052745028,2.14648632126809,2171.541,2175.13,2181.24,2177.1,-0.05761163,-8.660832E-05,0.02236609,-0.806660830974579,-0.354897171258926,0.285866022109985,-0.812801346136776,-0.357599945292329,0.287521731310327,7
1.57999897003174,-0.605890154838562,2.6998302936554,2.15318727493286,-0.603552378250131,2.70085883762764,2.15227670897208,2171.53,2174.184,2179.779,2176.534,-0.05679244,-8.629636E-05,0.02205832,-0.817997097969055,-0.359889715909958,0.289859473705292,-0.824108846688948,-0.362574791357814,0.291521665797401,7
1.59999942779541,-0.622473537921906,2.69253420829773,2.15906310081482,-0.620146623132255,2.69355803640454,2.15814678539477,2172.396,2173.42,2177.351,2175.787,-0.05590987,-8.553372E-05,0.02173302,-0.829169988632202,-0.364808320999146,0.293795019388199,-0.835249318207598,-0.367476151357444,0.295462515149928,7
1.61999893188477,-0.639276921749115,2.68514132499695,2.16501641273499,-0.636961158580934,2.68616031618035,2.16409478777735,2173.823,2173.101,2174.185,2174.697,-0.05498948,-8.464232E-05,0.02139007,-0.840168058872223,-0.369646489620209,0.297671318054199,-0.846216767148915,-0.372301388372679,0.299342159201519,7
1.63999938964844,-0.65629655122757,2.67765331268311,2.17104625701904,-0.653994089767368,2.67866651060364,2.17012004583984,2173.872,2172.647,2172.423,2173.634,-0.0540659,-8.449177E-05,0.02103527,-0.850983381271362,-0.374401330947876,0.301486879587173,-0.85700741641595,-0.377048840632571,0.303159261835474,7
1.65999889373779,-0.673528909683228,2.67007184028625,2.17715096473694,-0.671240198765405,2.67107891535233,2.17622071378417,2172.912,2172.218,2171.629,2172.512,-0.0531535,-8.488759E-05,0.02067315,-0.861614048480988,-0.37907412648201,0.305239707231522,-0.867615522578345,-0.381715981258454,0.306911791360963,7
1.67999935150146,-0.690970063209534,2.66239857673645,2.18332958221436,-0.688697443318422,2.66339842893731,2.182396069179,2170.46,2171.237,2172.436,2171.757,-0.05225122,-8.571653E-05,0.02030888,-0.872060477733612,-0.38366761803627,0.308927893638611,-0.878037491035052,-0.386301228770249,0.310598476217695,7
1.69999885559082,-0.708616554737091,2.65463495254517,2.18958067893982,-0.706360380795648,2.65562744589751,2.18864418673886,2168.289,2170.254,2172.918,2170.982,-0.05133349,-8.626505E-05,0.01994072,-0.882323920726776,-0.388183385133743,0.312549263238907,-0.888267830267619,-0.390802167120408,0.314217373826588,6
1.71999931335449,-0.726464569568634,2.64678263664246,2.19590282440186,-0.724226828777044,2.64776692641008,2.19496429445078,2166.367,2168.951,2173.184,2170.418,-0.05038062,-8.660678E-05,0.01956712,-0.89240163564682,-0.392619848251343,0.316102296113968,-0.898303126413795,-0.395217294346662,0.3177672765622,6
1.73999881744385,-0.744510293006897,2.63884329795837,2.20229458808899,-0.74229113003828,2.63981935942651,2.20135439111859,2165.967,2167.97,2171.789,2169.612,-0.04937501,-8.641167E-05,0.01918257,-0.902287900447845,-0.396972835063934,0.31958544254303,-0.908138141582793,-0.399544305987452,0.321246331564132,6
1.75999927520752,-0.762749850749969,2.63081860542297,2.20875453948975,-0.760550969191687,2.63178576362436,2.20781365769312,2165.968,2166.982,2169.958,2168.78,-0.04832466,-8.594633E-05,0.01878576,-0.91197395324707,-0.401236534118652,0.322997719049454,-0.917769640976739,-0.40378177886164,0.324653394549478,6
1.77999877929688,-0.781178891658783,2.62271046638489,2.21528124809265,-0.779000484597405,2.62366871788974,2.21434002066792,2166.476,2166.361,2167.499,2167.648,-0.04724395,-8.553777E-05,0.01837556,-0.921451687812805,-0.40540623664856,0.326337724924088,-0.927192641965593,-0.407927520812142,0.327986702954208,6
1.79999923706055,-0.799793183803558,2.61452078819275,2.22187328338623,-0.79763723503059,2.61546929626352,2.22093261647994,2166.057,2165.603,2165.981,2166.575,-0.04615471,-8.545993E-05,0.0179558,-0.930715024471283,-0.409479767084122,0.32960432767868,-0.936404087224118,-0.411980186738654,0.331245175274892,6
1.8199987411499,-0.818588316440582,2.60625171661377,2.22852921485901,-0.816455164677559,2.60719016306049,2.22758930293536,2165.161,2164.952,2164.895,2165.391,-0.04506654,-8.568136E-05,0.01752882,-0.939761638641357,-0.413457334041595,0.332795947790146,-0.945399250933413,-0.415937697470677,0.33442713979231,6
1.83999919891357,-0.83756023645401,2.597904920578,2.23524737358093,-0.835451713544736,2.59883244457499,2.23430917445768,2163.201,2163.889,2164.936,2164.497,-0.04398051,-8.595556E-05,0.01709857,-0.948590755462646,-0.417340010404587,0.335911065340042,-0.954175251731836,-0.419798785324823,0.33753157724869,6
1.85999870300293,-0.856704294681549,2.58948230743408,2.24202632904053,-0.854620641946681,2.59039888601799,2.24109002380997,2161.439,2162.863,2164.744,2163.557,-0.04288115,-8.619054E-05,0.01666381,-0.957202196121216,-0.421128690242767,0.338948100805283,-0.962727622079323,-0.423561484762905,0.340556907288809,6
1.8799991607666,-0.876016080379486,2.58098578453064,2.24886441230774,-0.87395927813082,2.58189066285332,2.24793090588192,2159.706,2161.627,2164.546,2162.747,-0.04175624,-8.641055E-05,0.01622387,-0.965593695640564,-0.424822121858597,0.341905862092972,-0.971053655151469,-0.427224604890907,0.343502172395995,5
1.89999866485596,-0.895491361618042,2.57241749763489,2.25575995445251,-0.893461208899072,2.57331059663054,2.25482955205793,2159.064,2160.634,2163.164,2161.75,-0.04059403,-8.630424E-05,0.01577557,-0.973761081695557,-0.428417563438416,0.344783008098602,-0.979149143072061,-0.430786294412312,0.346365884068956,5
1.91999912261963,-0.91512531042099,2.56377935409546,2.26271152496338,-0.9131236576942,2.5646599089233,2.26178498015392,2158.507,2159.479,2161.694,2160.87,-0.0394004,-8.59557E-05,0.01531895,-0.981698095798492,-0.431910961866379,0.34757873415947,-0.987011552210261,-0.434245438631314,0.349147146056809,5
1.93999862670898,-0.934913277626038,2.55507326126099,2.26971745491028,-0.932940048218352,2.55594149303852,2.26879486385909,2158.512,2158.689,2159.574,2159.675,-0.03818227,-8.571255E-05,0.01485196,-0.989399254322052,-0.435299187898636,0.350291907787323,-0.994636935656037,-0.437600301066032,0.351844562172881,4
1.95999908447266,-0.954850494861603,2.54630160331726,2.27677583694458,-0.952907506011866,2.547156613623,2.27585818635719,2157.712,2157.742,2158.283,2158.569,-0.03695615,-8.554589E-05,0.01437764,-0.996859848499298,-0.438580244779587,0.352921456098557,-1.00202293171113,-0.440849842664092,0.354457296986013,4
1.97999858856201,-0.974932014942169,2.53746652603149,2.28388524055481,-0.973019302140423,2.53830823113755,2.28297256734355,2156.847,2156.906,2157.005,2157.375,-0.03572577,-8.564116E-05,0.01389716,-1.00407791137695,-0.441754162311554,0.35546612739563,-1.00916585565133,-0.443992442294843,0.356984047055591,3
1.99999904632568,-0.995153069496155,2.5285701751709,2.29104375839233,-0.993272471095395,2.52939765028687,2.2901369577941,2155.112,2155.782,2156.646,2156.381,-0.0344938,-8.578251E-05,0.0134132,-1.01105201244354,-0.444821268320084,0.357924968004227,-1.01606351653267,-0.447027136030938,0.359424037353367,1
2.01999855041504,-1.0155086517334,2.51961445808411,2.2982497215271,-1.01366014181643,2.52042789406153,2.29734892712825,2153.698,2154.762,2155.928,2155.294,-0.0332501,-8.595263E-05,0.01292479,-1.01778185367584,-0.447781920433044,0.360296726226807,-1.0227124929537,-0.449952418593168,0.361776057586974,0
2.03999900817871,-1.03599393367767,2.51060175895691,2.30550122261047,-1.03417926455392,2.51140030422885,2.30460739652239,2152.044,2153.534,2155.476,2154.356,-0.03198936,-8.602344E-05,0.01243242,-1.02426528930664,-0.450635194778442,0.362580567598343,-1.02911076362913,-0.452767400697189,0.364039392743511,0
2.05999851226807,-1.05660390853882,2.50153422355652,2.31279683113098,-1.05482283667573,2.5023179616657,2.31190988885352,2151.272,2152.483,2154.083,2153.281,-0.03070199,-8.592688E-05,0.01193391,-1.03049957752228,-0.453379303216934,0.364775419235229,-1.03525517153456,-0.455470693379072,0.366212926051796,0
2.07999897003174,-1.07733356952667,2.49241399765015,2.32013440132141,-1.07558773095707,2.4931822422254,2.31925529789181,2150.389,2151.294,2152.813,2152.3,-0.02939331,-8.572472E-05,0.01142947,-1.03648030757904,-0.456011533737183,0.366880685091019,-1.04114386403045,-0.45806148155183,0.368296002155962,0
2.09999847412109,-1.09817755222321,2.48324346542358,2.32751226425171,-1.09646682378882,2.48399628000981,2.32664110371965,2150.027,2150.385,2150.966,2151.082,-0.02806599,-8.555851E-05,0.01091753,-1.04220390319824,-0.45852980017662,0.368895381689072,-1.04677394944101,-0.460538492994267,0.370287598149699,0
2.11999893188477,-1.11913096904755,2.47402477264404,2.33492875099182,-1.11745691719796,2.47476148199864,2.33406617508062,2149.067,2149.309,2149.735,2149.986,-0.02673121,-8.54879E-05,0.0104004,-1.04766702651978,-0.460932642221451,0.370818883180618,-1.05214374284223,-0.462900986407488,0.372187118005116,0
2.13999843597412,-1.14018833637238,2.46476030349731,2.34238171577454,-1.13855077723036,2.46548103084111,2.34152795302349,2148.16,2148.388,2148.42,2148.755,-0.02539164,-8.560084E-05,0.009878247,-1.05286812782288,-0.463219851255417,0.372650235891342,-1.05725061879582,-0.465147806704107,0.373993632995209,0
2.15999889373779,-1.16134440898895,2.45545244216919,2.3498694896698,-1.15974514185613,2.45615636169938,2.34902528363224,2146.576,2147.234,2147.811,2147.707,-0.02404994,-8.55367E-05,0.009353374,-1.05780589580536,-0.465391486883163,0.374388724565506,-1.06209305924574,-0.467278286000435,0.375706606120247,0
2.17999839782715,-1.18259382247925,2.44610357284546,2.35739016532898,-1.18103267744205,2.44679070107749,2.35655557269498,2145.385,2146.217,2146.786,2146.54,-0.02269865,-8.549874E-05,0.008824974,-1.06247997283936,-0.467447757720947,0.376033633947372,-1.06666870579742,-0.469291386697593,0.377325203117727,0
2.19999885559082,-1.20393168926239,2.43671584129333,2.36494183540344,-1.20241006456052,2.43738550939025,2.36411764599174,2143.875,2144.966,2146.101,2145.57,-0.02133671,-8.556795E-05,0.008294174,-1.0668888092041,-0.469387978315353,0.377584338188171,-1.07097620649792,-0.471186513990587,0.378848945745511,0
2.21999835968018,-1.22535228729248,2.42729139328003,2.37252259254456,-1.22386988059568,2.42794405229052,2.37170887783376,2142.978,2143.895,2144.776,2144.443,-0.01995773,-8.553357E-05,0.007758874,-1.07103085517883,-0.471211045980453,0.379040151834488,-1.07501347071992,-0.472962748087368,0.380277094461532,0
2.23999881744385,-1.24685037136078,2.41783332824707,2.38013052940369,-1.24540875535241,2.41846781252877,2.37932807604248,2141.872,2142.745,2143.671,2143.375,-0.01856436,-8.537473E-05,0.007219492,-1.07490336894989,-0.472915291786194,0.380400657653809,-1.0787793119314,-0.474619566961507,0.381609229539939,0
2.2599983215332,-1.26842045783997,2.40834331512451,2.3877637386322,-1.26701918795602,2.40896009018859,2.38697258724573,2141.386,2141.706,2141.915,2142.227,-0.01715768,-8.534436E-05,0.006675429,-1.07850408554077,-0.474499523639679,0.381665199995041,-1.0822719079131,-0.47615616890972,0.382844706385787,0
2.27999877929688,-1.29005694389343,2.3988242149353,2.39542031288147,-1.28869776404842,2.39942238745039,2.39464120364265,2140.237,2140.621,2140.848,2141.094,-0.01574674,-8.544036E-05,0.006127491,-1.08183062076569,-0.475962579250336,0.382833451032639,-1.08549023695446,-0.477572104420398,0.383983163577443,0
2.29999923706055,-1.31175458431244,2.38927793502808,2.40309834480286,-1.31043795325423,2.38985757741705,2.40233161516716,2139.442,2139.678,2139.405,2139.846,-0.01433154,-8.543657E-05,0.005576035,-1.0848822593689,-0.477304548025131,0.383904814720154,-1.0884328795244,-0.478866748956886,0.38502409896757,0
2.3199987411499,-1.33350801467896,2.37970733642578,2.41079592704773,-1.33223318960341,2.38026854885165,2.41004149916184,2138.066,2138.608,2138.565,2138.703,-0.01291633,-8.537149E-05,0.005023321,-1.08765804767609,-0.478525280952454,0.384878933429718,-1.09109857705105,-0.48003954879811,0.385967067346812,0
2.33999919891357,-1.35531091690063,2.37011480331421,2.41851091384888,-1.35408000482872,2.37065682765248,2.41776962875594,2136.519,2137.329,2137.903,2137.761,-0.01149687,-8.536068E-05,0.004469893,-1.09015810489655,-0.479625254869461,0.385755449533463,-1.09348655411482,-0.481090162790597,0.386811794416923,0
2.35999870300293,-1.37715864181519,2.36050271987915,2.42624163627625,-1.37597074947349,2.36102577927321,2.42551329801762,2135.618,2136.37,2136.584,2136.524,-0.01006728,-8.538291E-05,0.003913233,-1.0923820734024,-0.48060405254364,0.386533856391907,-1.09559566178081,-0.482018085449137,0.387557873751716,0
2.3799991607666,-1.39904522895813,2.3508734703064,2.43398594856262,-1.3979019275286,2.35137694181744,2.43327127026269,2134.302,2135.09,2135.698,2135.589,-0.008629707,-8.522988E-05,0.003355406,-1.0943284034729,-0.481460899114609,0.387214034795761,-1.09742528831391,-0.482823047634858,0.388205088954974,0
2.39999866485596,-1.42096519470215,2.34122967720032,2.44174194335938,-1.41986584897899,2.34171369858292,2.44104082521212,2133.639,2134.131,2134.148,2134.36,-0.007182013,-8.513503E-05,0.002793861,-1.09599614143372,-0.482194900512695,0.387795478105545,-1.09897455477903,-0.483504662651618,0.388753129110702,0
2.41999912261963,-1.44291269779205,2.33157348632813,2.44950747489929,-1.44185899661451,2.33203759700084,2.44882071868201,2132.557,2132.957,2133.035,2133.335,-0.005730057,-8.518842E-05,0.002230616,-1.09738349914551,-0.482805252075195,0.388278156518936,-1.10024301281547,-0.484062733238723,0.389201835615024,0
2.43999862670898,-1.46488261222839,2.32190775871277,2.45728063583374,-1.46387365066735,2.32235203345897,2.45660821986856,2131.846,2132.083,2131.548,2132.033,-0.004274373,-8.515642E-05,0.001664542,-1.09849011898041,-0.48329171538353,0.388661652803421,-1.10123005375669,-0.484496991607335,0.389550993157196,0
2.45999908447266,-1.48686873912811,2.31223464012146,2.46505951881409,-1.48590627925653,2.31265856184308,2.46440207939818,2130.516,2130.855,2130.697,2131.08,-0.00282082,-8.511576E-05,0.001098839,-1.09931528568268,-0.483654350042343,0.388945996761322,-1.10193539238899,-0.484807312274892,0.389800500845248,0
2.47999858856201,-1.50886607170105,2.30255675315857,2.4728422164917,-1.50794914367618,2.30296058687291,2.47219955976789,2129.585,2129.952,2129.451,2129.819,-0.001366202,-8.518052E-05,0.0005314515,-1.09985959529877,-0.483893483877182,0.389131009578705,-1.10235869050042,-0.484993546441715,0.389950239039504,0
2.49999904632568,-1.53086853027344,2.29287648200989,2.48062658309937,-1.52999870389717,2.2932596660191,2.47999940872177,2128.11,2128.712,2128.763,2128.895,8.730499E-05,-8.505736E-05,-3.49584E-05,-1.10012304782867,-0.484009385108948,0.389216661453247,-1.10249982587961,-0.48505564033971,0.390000164508706,0
2.51999855041504,-1.55287051200867,2.28319644927979,2.48841071128845,-1.55204721309612,2.28355920757276,2.48779888588531,2127.229,2127.753,2127.494,2127.704,0.001546038,-8.504494E-05,-0.0006029397,-1.10010612010956,-0.484002143144608,0.389202833175659,-1.10235873087255,-0.484993564203829,0.389950253320809,0
2.53999900817871,-1.57486665248871,2.27351903915405,2.49619245529175,-1.57409112961433,2.27386076972149,2.49559673842616,2126.023,2126.586,2126.559,2126.728,0.003006794,-8.5027E-05,-0.001170193,-1.09980821609497,-0.48387137055397,0.389089643955231,-1.10193544620816,-0.484807335953164,0.389800519883332,0
2.55999851226807,-1.59685134887695,2.26384663581848,2.50396990776062,-1.59612270933389,2.2641677595661,2.50339022692686,2125.314,2125.605,2125.144,2125.579,0.004471667,-8.494983E-05,-0.001738511,-1.09922933578491,-0.483616858720779,0.388877004384995,-1.10123017481105,-0.484497044866394,0.389551035979173,0
2.57999897003174,-1.61881875991821,2.25418186187744,2.51174116134644,-1.61813841548425,2.25448173314358,2.51117810028418,2124.156,2124.481,2124.188,2124.587,0.005935241,-8.474976E-05,-0.00230683,-1.09836912155151,-0.483238399028778,0.38856515288353,-1.10024312037112,-0.484062780558887,0.389201873661941,0
2.59999847412109,-1.64076328277588,2.24452710151672,2.51950430870056,-1.64013051747518,2.24480609160313,2.51895762386597,2123.463,2123.568,2122.786,2123.396,0.007399074,-8.466956E-05,-0.002876214,-1.09722805023193,-0.482736080884933,0.388154089450836,-1.09897475632959,-0.483504751325768,0.388753200407539,0
2.61999893188477,-1.66267943382263,2.2348849773407,2.52725720405579,-1.6620954899445,2.23514238596249,2.52672755060462,2122.228,2122.477,2121.931,2122.4,0.008857712,-8.469261E-05,-0.003444,-1.09580624103546,-0.482110202312469,0.387644052505493,-1.09742544944066,-0.482823118524156,0.388205145952225,0
2.63999843597412,-1.68456149101257,2.22525763511658,2.53499794006348,-1.68402562664765,2.22549400665976,2.53448515448007,2121.388,2121.524,2120.706,2121.277,0.0103141,-8.464246E-05,-0.004011253,-1.09410488605499,-0.481361508369446,0.387035131454468,-1.09559594351748,-0.482018209401957,0.387557973413726,0
2.65999889373779,-1.70640397071838,2.21564769744873,2.542724609375,-1.70591742015687,2.21586249682226,2.54222919476886,2120.047,2120.457,2119.985,2120.292,0.01176527,-8.462084E-05,-0.004576376,-1.09212458133698,-0.480490237474442,0.386327654123306,-1.09348676856462,-0.481090257139893,0.386811870276758,0
2.67999839782715,-1.72820115089417,2.20605802536011,2.55043506622314,-1.72776319938388,2.20625123142072,2.54995695788715,2119.235,2119.509,2118.765,2119.195,0.01321598,-8.451654E-05,-0.005140966,-1.0898665189743,-0.479497045278549,0.385521829128265,-1.09109893853973,-0.48003970783861,0.385967195220433,0
2.69999885559082,-1.74994790554047,2.19649028778076,2.55812740325928,-1.74955948137043,2.19666174281688,2.55766721176737,2118.125,2118.368,2117.855,2118.312,0.0146631,-8.448829E-05,-0.005702893,-1.08733129501343,-0.478381901979446,0.384618014097214,-1.08843314696649,-0.478866866620662,0.385024193572989,0
2.71999835968018,-1.77163827419281,2.18694734573364,2.56579971313477,-1.77129864098435,2.18709738576262,2.56535725908229,2117.339,2117.475,2116.649,2117.192,0.01610818,-8.430992E-05,-0.006264288,-1.08452010154724,-0.477145105600357,0.38361644744873,-1.08549067763701,-0.477572298303018,0.383983319465237,0
2.73999881744385,-1.79326701164246,2.17743158340454,2.57345008850098,-1.7929772262844,2.17755967897342,2.57302587873635,2116.272,2116.429,2115.732,2116.252,0.01754799,-8.419136E-05,-0.006823551,-1.0814334154129,-0.475787073373795,0.382517665624619,-1.08227238794546,-0.476156380104676,0.382844876193249,0
2.7599983215332,-1.81482815742493,2.16794538497925,2.58107662200928,-1.81458766888035,2.16805195223701,2.5806703934743,2115.592,2115.549,2114.463,2115.153,0.01898368,-8.413535E-05,-0.00738175,-1.07807242870331,-0.474308162927628,0.381321907043457,-1.07877983112565,-0.474619795386121,0.381609413200595,0
2.77999877929688,-1.83631706237793,2.15849113464355,2.58867716789246,-1.83612655441118,2.15857570773509,2.58828959549428,2114.514,2114.573,2113.595,2114.184,0.02041073,-8.41012E-05,-0.007936752,-1.07443821430206,-0.472709089517593,0.380029797554016,-1.07501402887637,-0.472962993653786,0.380277291904744,0
2.79999828338623,-1.85772776603699,2.14907121658325,2.59625005722046,-1.857586381997,2.14913424555353,2.59588083142224,2113.692,2113.641,2112.508,2113.18,0.02183075,-8.396358E-05,-0.008489092,-1.0705326795578,-0.470990717411041,0.378641754388809,-1.07097680339767,-0.4711867766025,0.378849156893842,0
2.8199987411499,-1.87905490398407,2.13968825340271,2.60379314422607,-1.87896378143927,2.13972904844432,2.60344290907845,2112.515,2112.631,2111.778,2112.289,0.02324169,-8.381418E-05,-0.009038236,-1.06635725498199,-0.469153702259064,0.377158433198929,-1.06666934120974,-0.469291666253493,0.377325427889563,0
2.83999824523926,-1.90029335021973,2.13034415245056,2.61130475997925,-1.90025133011616,2.13036338206293,2.61097320277201,2111.845,2111.752,2110.591,2111.267,0.02464698,-8.378473E-05,-0.009584184,-1.06191396713257,-0.467198818922043,0.375580251216888,-1.06209373292075,-0.467278582390381,0.375706844427192,0
2.85999870300293,-1.92143726348877,2.12104177474976,2.61878299713135,-1.92144570859621,2.12103870682587,2.6184705382816,2110.683,2110.766,2109.886,2110.402,0.02604266,-8.383179E-05,-0.01012694,-1.057204246521,-0.465126723051071,0.373907923698425,-1.05725133047177,-0.46514811981294,0.37399388474467,0
2.87999820709229,-1.94248199462891,2.11178302764893,2.62622594833374,-1.94253958323945,2.11175824924016,2.62593232139292,2110.146,2109.951,2108.615,2109.357,0.02743223,-8.36129E-05,-0.01066703,-1.0522301197052,-0.46293830871582,0.37214207649231,-1.05214449223824,-0.462901316111634,0.372187383097736,0
2.89999866485596,-1.96342170238495,2.10257005691528,2.63363170623779,-1.96352969201163,2.10252344446986,2.63335739818845,2109.026,2108.968,2107.914,2108.536,0.02881007,-8.353825E-05,-0.01120285,-1.04699289798737,-0.460634171962738,0.370283395051956,-1.04677473626431,-0.460538839164913,0.370287876481911,0
2.91999816894531,-1.98425161838531,2.09340596199036,2.64099836349487,-1.98440880095114,2.09333747516751,2.64074320971427,2108.421,2108.254,2106.761,2107.434,0.03017936,-8.356692E-05,-0.01173549,-1.04149508476257,-0.458215355873108,0.368332594633102,-1.04114468796917,-0.458061844051774,0.368296293617448,0
2.93999862670898,-2.00496649742126,2.08429217338562,2.64832425117493,-2.00517371208011,2.08420174831493,2.64808862471227,2107.427,2107.186,2105.99,2106.741,0.03153593,-8.331586E-05,-0.01226173,-1.03573846817017,-0.455682724714279,0.36629045009613,-1.03525603226489,-0.455471072065846,0.366213230528008,0
2.95999813079834,-2.02556109428406,2.07523155212402,2.65560746192932,-2.02581730178116,2.07511939801762,2.65539112326191,2106.726,2106.441,2104.978,2105.727,0.03288148,-8.335614E-05,-0.01278477,-1.02972590923309,-0.453037261962891,0.3641577064991,-1.02911166080824,-0.452767795419961,0.364039710113176,0
2.97999858856201,-2.04603028297424,2.0662260055542,2.66284608840942,-2.04633644282419,2.06609180013124,2.66264959913148,2105.733,2105.479,2104.258,2104.977,0.03421364,-8.332434E-05,-0.01330249,-1.02345955371857,-0.450280159711838,0.361935317516327,-1.02271342622673,-0.449952829195815,0.361776387724563,0
2.99999809265137,-2.06636905670166,2.05727744102478,2.67003846168518,-2.06672413256805,2.05712203553662,2.66986157519481,2105.119,2104.76,2103.217,2103.985,0.03553454,-8.312293E-05,-0.01381648,-1.01694202423096,-0.447412699460983,0.359624207019806,-1.01606448552581,-0.447027562348999,0.35942438012665,0
3.01999855041504,-2.08657264709473,2.04838895797729,2.67718291282654,-2.08697732125734,2.04821144600363,2.6770259726262,2104.086,2103.955,2102.582,2103.142,0.03684084,-8.309184E-05,-0.01432514,-1.01017558574677,-0.444435805082321,0.357225239276886,-1.00916685997868,-0.443992884158538,0.356984402328057,0
3.03999805450439,-2.10663557052612,2.03956198692322,2.68427777290344,-2.10708913782192,2.03936305452716,2.68414036084163,2103.606,2103.098,2101.467,2102.333,0.03813562,-8.292818E-05,-0.01482742,-1.00316333770752,-0.441350877285004,0.354739338159561,-1.00202397096792,-0.440850299895335,0.354457664614476,0
3.05999851226807,-2.12655401229858,2.03079891204834,2.69132113456726,-2.12705661674689,2.03057816581464,2.69120369081481,2102.683,2102.32,2100.785,2101.508,0.03941397,-8.281923E-05,-0.01532383,-0.995907723903656,-0.438158750534058,0.352167546749115,-0.994638009425308,-0.437600773481383,0.35184494200985,0
3.07999897003174,-2.14632225036621,2.02210140228271,2.69831132888794,-2.14687397037583,2.02185932620243,2.69821391521032,2102.046,2101.493,2099.873,2100.734,0.04067776,-8.274961E-05,-0.01581438,-0.988411903381348,-0.43486088514328,0.349510848522186,-0.987012290774809,-0.434245763570049,0.349147407317888,0
3.09999847412109,-2.16593551635742,2.01347231864929,2.70524668693542,-2.166535500377,2.01320904272764,2.70516901829056,2101.273,2100.827,2099.11,2099.844,0.04192489,-8.274757E-05,-0.01629961,-0.980678915977478,-0.431458592414856,0.346770346164703,-0.979150284546819,-0.430786796615357,0.346366287856179,0
3.11999893188477,-2.18538975715637,2.0049135684967,2.71212553977966,-2.18603838037644,2.00462855888125,2.71206800024923,2100.475,2099.982,2098.396,2099.163,0.04315539,-8.251645E-05,-0.01677738,-0.97271192073822,-0.427953541278839,0.343947291374207,-0.971054438243187,-0.42722494941981,0.343502449408192,0
3.13999843597412,-2.2046799659729,1.99642658233643,2.71894645690918,-2.20537611431164,1.99612073266988,2.71890856315811,2099.925,2099.237,2097.488,2098.391,0.04437,-8.242214E-05,-0.01724876,-0.964514315128326,-0.42434686422348,0.34104260802269,-0.962728829399103,-0.423562015935115,0.340557334368162,0
3.15999889373779,-2.22380208969116,1.98801374435425,2.72570753097534,-2.22454597715549,1.98768676299598,2.72568974306146,2099.025,2098.542,2096.922,2097.632,0.0455659,-8.247246E-05,-0.01771428,-0.956089198589325,-0.420640081167221,0.338057607412338,-0.954176078069075,-0.419799148880017,0.337531869558631,0
3.17999839782715,-2.24275088310242,1.9796769618988,2.73240733146667,-2.24354164115754,1.97932943381559,2.73240930157009,2098.521,2097.859,2096.03,2096.854,0.04674567,-8.235718E-05,-0.01817235,-0.947440147399902,-0.416834950447083,0.334993451833725,-0.94540052211372,-0.415938256738955,0.334427589461795,0
3.19999885559082,-2.26152229309082,1.97141826152802,2.7390444278717,-2.2623604895654,1.97104989639467,2.73906631302955,2097.789,2097.193,2095.368,2096.115,0.04790634,-8.230688E-05,-0.01862349,-0.938570320606232,-0.412932753562927,0.331851452589035,-0.936404955442535,-0.411980568719885,0.331245482399952,0
3.21999835968018,-2.28011202812195,1.96323943138123,2.74561715126038,-2.28099637332713,1.96285085606908,2.74565860226374,2097.376,2096.561,2094.449,2095.344,0.04904842,-8.22271E-05,-0.01906664,-0.929483532905579,-0.408935159444809,0.328632861375809,-0.9271939748979,-0.407928107248818,0.327987174467951,0
3.23999881744385,-2.29851579666138,1.95514261722565,2.75212383270264,-2.29944679094665,1.95473341339663,2.75218528438917,2096.558,2095.819,2093.924,2094.751,0.05016804,-8.220703E-05,-0.01950073,-0.920183420181274,-0.404843628406525,0.325338959693909,-0.917770549629304,-0.403782178632272,0.324653715977782,0
3.2599983215332,-2.3167290687561,1.94712948799133,2.75856328010559,-2.31770578240154,1.94670019054778,2.75864425109739,2096.133,2095.166,2093.088,2094.058,0.05126744,-8.202889E-05,-0.01992684,-0.910674452781677,-0.400660037994385,0.321971148252487,-0.908139534034544,-0.399544918610293,0.321246824132384,0
3.27999877929688,-2.3347487449646,1.93920159339905,2.76493382453918,-2.33577096849069,1.93875223427546,2.76503466076573,2095.362,2094.509,2092.583,2093.443,0.05234348,-8.192551E-05,-0.02034442,-0.900960505008698,-0.396386027336121,0.318530887365341,-0.898304073970797,-0.395217711233683,0.317767611752627,0
3.29999828338623,-2.35256910324097,1.93136143684387,2.77123427391052,-2.3536365884935,1.93089207906535,2.7713544755871,2094.779,2093.892,2091.948,2092.798,0.05339816,-8.177822E-05,-0.02075455,-0.891045928001404,-0.392023831605911,0.315019696950912,-0.888269279882224,-0.390802804892609,0.314217886615725,0
3.3199987411499,-2.37018799781799,1.92360985279083,2.77746295928955,-2.3713003926029,1.9231207147422,2.7776028997109,2094.286,2093.344,2091.253,2092.114,0.05443116,-8.167181E-05,-0.02115615,-0.880934834480286,-0.387575268745422,0.311439096927643,-0.878038475884086,-0.386301662064267,0.310598824599868,0
3.33999824523926,-2.38760042190552,1.91594886779785,2.78361868858337,-2.38875682961039,1.91544058361478,2.78377796944321,2093.713,2092.789,2090.661,2091.484,0.05544085,-8.159501E-05,-0.0215487,-0.870631217956543,-0.383042216300964,0.307790488004684,-0.867617026875185,-0.381716643088643,0.306912323493487,0
3.35999870300293,-2.40480351448059,1.90838050842285,2.7897002696991,-2.40600378626561,1.90785261542836,2.78987893723922,2093.135,2092.252,2090.106,2090.868,0.05642712,-8.162225E-05,-0.02193166,-0.860139608383179,-0.378426551818848,0.304075509309769,-0.857008436861928,-0.377049289587814,0.30315962280977,0
3.37999820709229,-2.42179274559021,1.90090572834015,2.79570627212524,-2.42303593101712,1.90035915585143,2.79590391710689,2092.792,2091.612,2089.375,2090.363,0.05739014,-8.17111E-05,-0.02230451,-0.849464595317841,-0.37373024225235,0.30029571056366,-0.846218323523343,-0.372302073114914,0.299342709756057,0
3.39999866485596,-2.43856501579285,1.89352679252625,2.80163526535034,-2.43985129440097,1.89296107136902,2.80185221236466,2092.183,2091.14,2088.907,2089.759,0.05832694,-8.170947E-05,-0.02266776,-0.838610649108887,-0.368954986333847,0.296452790498734,-0.835250372472742,-0.367476615191762,0.295462888087473,0
3.41999816894531,-2.45511651039124,1.88624477386475,2.80748629570007,-2.45644477459912,1.88566060657615,2.80772201828675,2091.915,2090.584,2088.181,2089.228,0.0592386,-8.169351E-05,-0.0230209,-0.827582716941833,-0.36410316824913,0.292548328638077,-0.824110452412278,-0.362575497811585,0.291522233808704,0
3.43999862670898,-2.47144436836243,1.87906110286713,2.81325793266296,-2.47281455323398,1.87845856148592,2.81351269163717,2091.287,2090.1,2087.799,2088.708,0.06012156,-8.159828E-05,-0.02336391,-0.816385567188263,-0.359176754951477,0.288584113121033,-0.812802432360624,-0.357600423187194,0.287522115552999,0
3.45999813079834,-2.48754453659058,1.87197780609131,2.8189492225647,-2.48895576822531,1.87135707521835,2.81922251249539,2090.88,2089.646,2087.262,2088.163,0.06097777,-8.165021E-05,-0.02369681,-0.80502450466156,-0.354178309440613,0.284561932086945,-0.801332430203256,-0.352554082942468,0.283464697471577,0
3.47999858856201,-2.50341486930847,1.86499524116516,2.82455897331238,-2.50486675965544,1.86435687807055,2.8248508936793,2090.419,2089.146,2086.797,2087.714,0.06180621,-8.160912E-05,-0.02401852,-0.793504536151886,-0.349110007286072,0.280483543872833,-0.789704500245332,-0.347438260808831,0.279351413741244,0
3.49999809265137,-2.51905155181885,1.85811591148376,2.83008599281311,-2.52054291511106,1.85745999931909,2.83039620358597,2089.954,2088.764,2086.371,2087.185,0.06260684,-8.157995E-05,-0.02432904,-0.781830906867981,-0.343974173069,0.276350826025009,-0.777925007633198,-0.342255757195012,0.275184515979699,0
3.51999855041504,-2.53445172309875,1.85134053230286,2.83552932739258,-2.53598274058487,1.8506670962672,2.83585791372272,2089.599,2088.238,2085.879,2086.825,0.06337997,-8.156561E-05,-0.02462838,-0.770008862018585,-0.3387730717659,0.272165656089783,-0.765998193922313,-0.337008438215047,0.270965504601988,0
3.53999805450439,-2.54961228370667,1.84467029571533,2.84088802337646,-2.55118188318112,1.84398008401415,2.8412344842888,2089.405,2087.905,2085.281,2086.292,0.06412455,-8.156681E-05,-0.02491707,-0.758043706417084,-0.333508878946304,0.26792985200882,-0.753930669514706,-0.331699212180316,0.266696717982976,0
3.55999851226807,-2.56453132629395,1.83810651302338,2.84616088867188,-2.56613902233353,1.83739954355608,2.84652544814484,2088.974,2087.544,2084.922,2085.855,0.06483749,-8.159185E-05,-0.02519404,-0.745940744876862,-0.32818403840065,0.263645499944687,-0.741726865262663,-0.326330028487853,0.262379723499886,0
3.57999801635742,-2.57920551300049,1.83165073394775,2.85134720802307,-2.58085007443263,1.83092727151712,2.85172936074788,2088.666,2087.131,2084.499,2085.49,0.06551928,-8.172177E-05,-0.02545822,-0.733705759048462,-0.322801113128662,0.25931441783905,-0.729393634736051,-0.320903902433122,0.258016945546188,0
3.59999847412109,-2.59363222122192,1.82530331611633,2.85644602775574,-2.59531389996733,1.82456376923638,2.85684581900533,2088.297,2086.711,2084.162,2085.177,0.06616907,-8.17531E-05,-0.02571016,-0.721344709396362,-0.317362636327744,0.254938811063766,-0.716935600213164,-0.31542286763291,0.253610019214473,0
3.61999797821045,-2.60780954360962,1.81906604766846,2.86145639419556,-2.60952669429802,1.81831071060248,2.8618734770575,2088.061,2086.519,2083.743,2084.662,0.06678718,-8.163232E-05,-0.02595037,-0.708863437175751,-0.311871349811554,0.250520706176758,-0.704359856261175,-0.309890045411815,0.249161454149003,0
3.63999843597412,-2.62173509597778,1.81293940544128,2.86637759208679,-2.62348750666982,1.81216851390937,2.86681199858274,2087.667,2086.082,2083.493,2084.454,0.06737208,-8.171394E-05,-0.02617728,-0.69626772403717,-0.306329846382141,0.246062234044075,-0.691671218796267,-0.30430755457952,0.244672953940164,0
3.65999794006348,-2.63540601730347,1.806924700737,2.87120890617371,-2.63719282100805,1.8061387260887,2.8716601397988,2087.482,2085.847,2083.1,2084.059,0.06792496,-8.163036E-05,-0.02639193,-0.683563947677612,-0.300740748643875,0.241565495729446,-0.67887702112969,-0.298678621498425,0.240147112685956,0
3.67999839782715,-2.64882135391235,1.80102229118347,2.87594962120056,-2.65064188310514,1.80022167896149,2.87641763391103,2087.268,2085.586,2082.762,2083.737,0.0684442,-8.165664E-05,-0.02659326,-0.670757949352264,-0.295106768608093,0.237032681703568,-0.66598227511009,-0.293005451180631,0.235585703286251,0
3.6999979019165,-2.66197848320007,1.79523396492004,2.88059902191162,-2.66383147495469,1.7944187883213,2.88108334257635,2087.026,2085.337,2082.487,2083.447,0.06892885,-8.168469E-05,-0.02678075,-0.657856106758118,-0.28943058848381,0.232465982437134,-0.652994550456878,-0.287291373998629,0.230991403466471,0
3.71999835968018,-2.67487573623657,1.78955948352814,2.88515639305115,-2.676761046781,1.78873029604737,2.88565707131619,2086.868,2084.99,2082.176,2083.283,0.06937864,-8.16202E-05,-0.02695385,-0.644864797592163,-0.283714950084686,0.227867662906647,-0.639919057328424,-0.281538682212833,0.226366056276904,0
3.73999786376953,-2.6875114440918,1.78400015830994,2.88962125778198,-2.68942768805413,1.78315748265596,2.89013779055472,2086.72,2084.893,2081.894,2082.913,0.06979243,-8.171527E-05,-0.02711471,-0.631790518760681,-0.277962654829025,0.223239973187447,-0.626763599433699,-0.275750809141744,0.221712422214843,0
3.7599983215332,-2.69988441467285,1.77855670452118,2.89399290084839,-2.70183106141159,1.77770049657301,2.89452538095276,2086.49,2084.651,2081.72,2082.74,0.07016914,-8.168831E-05,-0.02726065,-0.618639886379242,-0.272176831960678,0.218585327267647,-0.613533587700733,-0.269930135376362,0.217032415351176,0
3.77999782562256,-2.71199250221252,1.77322947978973,2.89827108383179,-2.71396857310972,1.77236047894156,2.89881892499502,2086.405,2084.445,2081.462,2082.555,0.07050924,-8.166704E-05,-0.02739274,-0.60541969537735,-0.266360372304916,0.213906034827232,-0.600237057326775,-0.264080196080733,0.21232887807025,0
3.79999828338623,-2.72383522987366,1.76801908016205,2.90245509147644,-2.72584010628059,1.7671374811788,2.90301838134044,2086.242,2084.356,2081.302,2082.31,0.07081138,-8.1803E-05,-0.02751045,-0.592136800289154,-0.260516345500946,0.209204629063606,-0.58687962255215,-0.2582034612951,0.207603796362993,0
3.81999778747559,-2.73541116714478,1.76292622089386,2.90654468536377,-2.73744339317496,1.76203250100331,2.90712294779153,2086.156,2084.209,2081.118,2082.159,0.0710756,-8.186242E-05,-0.02761272,-0.578798115253448,-0.254647850990295,0.204483404755592,-0.573469547478403,-0.252303566892206,0.202860093586747,0
3.83999824523926,-2.74671936035156,1.75795125961304,2.9105396270752,-2.74877854560414,1.75704548922261,2.91113266390063,2086.028,2084.045,2081.005,2082.076,0.07130111,-8.18222E-05,-0.02770007,-0.565410673618317,-0.248757928609848,0.1997449696064,-0.560012652283477,-0.24638307351657,0.198099828581163,0
