t,x_s1,x_s2,x_s3,x_s_d1,x_s_d2,x_s_d3,propellers_rpms1,propellers_rpms2,propellers_rpms3,propellers_rpms4,rollRad,pitchRad,yawRad,v_s1,v_s2,v_s3,v_s_d1,v_s_d2,v_s_d3,insideCount
9.599997,-0.060000017285347,2.94000005722046,1.95999944210052,-0.0599999986588955,2.94000005722046,1.95999991893768,2128.77,2128.77,2128.77,2128.77,1.23755862659891E-05,45.0000228881836,1.06627012428362E-05,-1.05662103067061E-07,-6.47627871330769E-07,1.63834874911117E-06,0,0,0,7
9.619997,-0.0600000210106373,2.94000005722046,1.95999944210052,-0.0599999986588955,2.94000005722046,1.95999991893768,2128.77,2128.77,2128.77,2128.77,1.24462758321897E-05,45.0000228881836,1.05920125861303E-05,-1.11509308453606E-07,-6.62245895455271E-07,1.66471761531284E-06,0,0,0,7
9.639997,-0.0600000247359276,2.94000005722046,1.95999944210052,-0.0599999986588955,2.94000005722046,1.95999991893768,2128.77,2128.77,2128.77,2128.77,1.27996581795742E-05,45.0000228881836,1.05213212009403E-05,-1.17356506734723E-07,-6.76863919579773E-07,1.6910864815145E-06,0,0,0,7
9.659997,-0.0600000284612179,2.94000005722046,1.95999944210052,-0.0599999986588955,2.94000005722046,1.95999991893768,2128.77,2128.77,2128.77,2128.77,1.32943823700771E-05,45.0000228881836,1.0780434422486E-05,-1.23203733437549E-07,-6.91481943704275E-07,1.70866576354456E-06,0,0,0,7
9.679996,-0.0600000321865082,2.94000005722046,1.95999944210052,-0.0599999986588955,2.94000005722046,1.95999991893768,2128.77,2128.77,2128.77,2128.77,1.38833338496624E-05,45.0000228881836,1.13222349682474E-05,-1.29050960140376E-07,-7.06099967828777E-07,1.72624504557461E-06,0,0,0,7
9.699997,-0.0600000359117985,2.94000005722046,1.95999944210052,-0.0599999986588955,2.94000005722046,1.95999991893768,2128.77,2128.769,2128.77,2128.77,1.44722880577319E-05,45.0000228881836,1.16755791168544E-05,-1.40745385124319E-07,-6.62245895455271E-07,1.71745546140301E-06,0,0,0,7
9.719996,-0.0600000396370888,2.94000005722046,1.95999944210052,-0.0599999986588955,2.94000005722046,1.95999991893768,2128.771,2128.767,2128.769,2128.773,1.49670140672242E-05,45.0000228881836,1.14635449790512E-05,-1.52439795897408E-07,-6.18391823081765E-07,1.69108659520134E-06,0,0,0,7
9.739997,-0.0600000433623791,2.94000005722046,1.95999944210052,-0.0599999986588955,2.94000005722046,1.95999991893768,2128.77,2128.769,2128.769,2128.771,1.45194426295348E-05,45.0000228881836,8.42461940919748E-06,-1.64134149827078E-07,-5.74537864395097E-07,1.66032293691387E-06,0,0,0,7
9.759996,-0.0600000470876694,2.94000005722046,1.95999944210052,-0.0599999986588955,2.94000005722046,1.95999991893768,2128.769,2128.774,2128.771,2128.766,1.36007247419911E-05,45.0000228881836,4.53762959296E-06,-1.58286923124251E-07,-5.65767095395131E-07,1.6295592786264E-06,0,0,0,7
9.779997,-0.0600000508129597,2.94000005722046,1.95999944210052,-0.0599999986588955,2.94000005722046,1.95999991893768,2128.769,2128.773,2128.771,2128.767,1.37185306812171E-05,45.0000228881836,4.13713587477105E-06,-1.23203733437549E-07,-5.33607249053603E-07,1.60319041242474E-06,0,0,0,7
9.799996,-0.06000005453825,2.94000005722046,1.95999944210052,-0.0599999986588955,2.94000005722046,1.95999991893768,2128.77,2128.77,2128.77,2128.77,1.46844031405635E-05,45.0000228881836,6.1866112446296E-06,-9.98149474185084E-08,-5.13141856117727E-07,1.56363716996566E-06,0,0,0,7
9.819997,-0.06000005453825,2.94000005722046,1.95999944210052,-0.0599999986588955,2.94000005722046,1.95999991893768,2128.771,2128.769,2128.769,2128.771,1.56973874254618E-05,45.0000228881836,8.75434943736764E-06,-7.64261116614762E-08,-4.92676576868689E-07,1.52847871959239E-06,0,0,0,7
9.839996,-0.06000005453825,2.94000005722046,1.95999944210052,-0.0599999986588955,2.94000005722046,1.95999991893768,2128.771,2128.768,2128.769,2128.772,1.60978815983981E-05,45.0000228881836,1.01442183222389E-05,-5.30372368245935E-08,-4.83905807868723E-07,1.51089943756233E-06,0,0,0,7
9.859997,-0.06000005453825,2.94000005722046,1.95999944210052,-0.0599999986588955,2.94000005722046,1.95999991893768,2128.77,2128.769,2128.77,2128.771,1.57445410877699E-05,45.0000228881836,9.83795416686917E-06,-2.96483460004993E-08,-4.75135095712176E-07,1.48453057136066E-06,0,0,0,7
9.879996,-0.06000005453825,2.94000005722046,1.95999944210052,-0.0599999986588955,2.94000005722046,1.95999991893768,2128.771,2128.771,2128.769,2128.769,1.51085150719155E-05,45.0000228881836,8.58939256431768E-06,-6.25946405818922E-09,-4.6636432671221E-07,1.47574098718906E-06,0,0,0,7
9.899997,-0.06000005453825,2.94000005722046,1.95999944210052,-0.0599999986588955,2.94000005722046,1.95999991893768,2128.769,2128.771,2128.771,2128.77,1.34359570438392E-05,45.0000228881836,8.09466746432008E-06,1.71293201844946E-08,-4.57593529290534E-07,1.46255661093164E-06,0,0,0,7
9.919996,-0.06000005453825,2.94000005722046,1.95999944210052,-0.0599999986588955,2.94000005722046,1.95999991893768,2128.769,2128.771,2128.771,2128.77,1.27056955534499E-05,45.0000228881836,7.88263241702225E-06,4.05182021268047E-08,-4.37128221619787E-07,1.44497732890159E-06,0,0,0,7
9.939997,-0.06000005453825,2.94000005722046,1.95999944210052,-0.0599999986588955,2.94000005722046,1.95999991893768,2128.77,2128.77,2128.771,2128.77,1.29177342387266E-05,45.0000228881836,7.95328742242418E-06,6.3907080516401E-08,-4.16662942370749E-07,1.42739804687153E-06,0,0,0,7
9.959996,-0.06000005453825,2.94000005722046,1.95999944210052,-0.0599999986588955,2.94000005722046,1.95999991893768,2128.772,2128.77,2128.768,2128.77,1.36480330183986E-05,45.0000228881836,8.16528336144984E-06,8.729595180057E-08,-3.96197663121711E-07,1.40542397275567E-06,0,0,0,7
9.979997,-0.0600000508129597,2.94000005722046,1.95999944210052,-0.0599999986588955,2.94000005722046,1.95999991893768,2128.772,2128.77,2128.769,2128.77,1.25879705592524E-05,45.0000228881836,8.377283847949E-06,1.10684737819611E-07,-3.75732497559511E-07,1.38344989863981E-06,0,0,0,7
9.999996,-0.0600000470876694,2.94000005722046,1.95999944210052,-0.0599999986588955,2.94000005722046,1.95999991893768,2128.769,2128.77,2128.772,2128.77,1.02558087746729E-05,45.0000228881836,8.54216523293871E-06,1.34073545154934E-07,-3.55267303575602E-07,1.3746603144682E-06,0,0,0,7
10.02,-0.0600000433623791,2.94000005722046,1.95999944210052,-0.0599999986588955,2.94000005722046,1.95999991893768,2128.769,2128.77,2128.772,2128.77,9.47843454923714E-06,45.0000228881836,8.75416390044848E-06,1.28226389506381E-07,-3.69885270856685E-07,1.41860846269992E-06,0,0,0,7
10.04,-0.0600000396370888,2.94000005722046,1.95999944210052,-0.0599999986588955,2.94000005722046,1.95999991893768,2128.77,2128.77,2128.771,2128.77,9.92604509519879E-06,45.0000228881836,9.06039076653542E-06,1.28226432138945E-07,-3.84503266559477E-07,1.42739804687153E-06,0,0,0,7
10.06,-0.0600000359117985,2.94000005722046,1.95999944210052,-0.0599999986588955,2.94000005722046,1.95999991893768,2128.771,2128.77,2128.77,2128.77,1.06563456938602E-05,45.0000228881836,9.55507766775554E-06,1.28226432138945E-07,-3.99121290683979E-07,1.43179283895734E-06,0,0,0,7
10.08,-0.0600000321865082,2.94000005722046,1.95999944210052,-0.0599999986588955,2.94000005722046,1.95999991893768,2128.771,2128.77,2128.77,2128.771,1.09154962046887E-05,45.0000228881836,1.01439918580581E-05,1.22379191225264E-07,-4.13739343230191E-07,1.47134619510325E-06,0,0,0,7
10.1,-0.0600000284612179,2.94000005722046,1.95999944210052,-0.0599999986588955,2.94000005722046,1.95999991893768,2128.77,2128.77,2128.77,2128.77,1.0373696568422E-05,45.0000228881836,1.05915642052423E-05,1.22379162803554E-07,-4.28357424198111E-07,1.51089943756233E-06,0,0,0,7
10.12,-0.0600000247359276,2.94000005722046,1.95999944210052,-0.0599999986588955,2.94000005722046,1.95999991893768,2128.77,2128.77,2128.77,2128.77,9.83189511316596E-06,45.0000228881836,1.14160548037034E-05,1.16531936100728E-07,-4.42975448322613E-07,1.53726830376399E-06,0,0,0,7
10.14,-0.0600000210106373,2.94000005722046,1.95999944210052,-0.0599999986588955,2.94000005722046,1.95999991893768,2128.77,2128.769,2128.77,2128.771,9.24298001336865E-06,45.0000228881836,1.25703500089003E-05,1.3992077185776E-07,-4.45899047463172E-07,1.51968902173394E-06,0,0,0,7
10.16,-0.060000017285347,2.94000005722046,1.95999944210052,-0.0599999986588955,2.94000005722046,1.95999991893768,2128.771,2128.771,2128.769,2128.769,8.88964041223517E-06,45.0000228881836,1.27352304843953E-05,1.63309678669066E-07,-4.25433825057553E-07,1.49332015553227E-06,0,0,0,7
10.18,-0.0600000135600567,2.94000005722046,1.95999944210052,-0.0599999986588955,2.94000005722046,1.95999991893768,2128.771,2128.77,2128.769,2128.771,7.59400109018316E-06,45.0000228881836,1.35597210828564E-05,1.86698471793534E-07,-4.04968602651934E-07,1.48013577927486E-06,0,0,0,7
10.2,-0.0600000098347664,2.94000005722046,1.95999944210052,-0.0599999986588955,2.94000005722046,1.95999991893768,2128.77,2128.77,2128.77,2128.771,5.26183976035099E-06,45.0000228881836,1.37246042868355E-05,2.10087307550566E-07,-3.84503437089734E-07,1.4537669130732E-06,0,0,0,7
10.22,-0.0600000061094761,2.94000005722046,1.95999944210052,-0.0599999986588955,2.94000005722046,1.95999991893768,2128.769,2128.77,2128.771,2128.77,2.88256137537246E-06,45.0000228881836,1.35596810650895E-05,1.86698457582679E-07,-3.96197890495387E-07,1.4537669130732E-06,0,0,0,7
10.24,-0.0600000023841858,2.94000005722046,1.95999944210052,-0.0599999986588955,2.94000005722046,1.95999991893768,2128.767,2128.77,2128.773,2128.77,1.16289095331013E-06,45.0000228881836,1.34889896798995E-05,1.51615196841703E-07,-3.7280901210579E-07,1.44058253681578E-06,0,0,0,7
10.26,-0.0599999986588955,2.94000005722046,1.95999944210052,-0.0599999986588955,2.94000005722046,1.95999991893768,2128.769,2128.77,2128.772,2128.77,2.27011037168268E-06,45.0000228881836,1.32298391690711E-05,1.10684823084739E-07,-3.84503323402896E-07,1.41421367061412E-06,0,0,0,7
10.28,-0.0599999986588955,2.94000005722046,1.95999944210052,-0.0599999986588955,2.94000005722046,1.95999991893768,2128.771,2128.77,2128.77,2128.77,4.60231422039215E-06,45.0000228881836,1.29706913867267E-05,7.56015907654728E-08,-3.6111441659159E-07,1.40542408644251E-06,0,0,0,7
10.3,-0.0599999986588955,2.94000005722046,1.95999944210052,-0.0599999986588955,2.94000005722046,1.95999991893768,2128.771,2128.768,2128.769,2128.773,6.36914046481252E-06,45.0000228881836,1.28057727124542E-05,6.39071373598199E-08,-3.66961643294417E-07,1.40542408644251E-06,0,0,0,7
10.32,-0.0599999986588955,2.94000005722046,1.95999944210052,-0.0599999986588955,2.94000005722046,1.95999991893768,2128.772,2128.772,2128.769,2128.769,7.00521377439145E-06,45.0000228881836,1.0567799108685E-05,6.39071728869567E-08,-3.52343732856752E-07,1.44497744258842E-06,0,0,0,7
10.34,-0.0599999986588955,2.94000005722046,1.95999944210052,-0.0599999986588955,2.94000005722046,1.95999991893768,2128.771,2128.772,2128.77,2128.769,6.32206820228021E-06,45.0000228881836,9.64904120337451E-06,8.72959233788606E-08,-3.31878482029424E-07,1.43618785841682E-06,0,0,0,7
10.36,-0.0599999986588955,2.94000005722046,1.95999944210052,-0.0599999986588955,2.94000005722046,1.95999991893768,2128.77,2128.771,2128.771,2128.77,5.26200483363937E-06,45.0000228881836,9.95526897895616E-06,8.14486469380427E-08,-3.61114530278428E-07,1.43618785841682E-06,0,0,0,7
10.38,-0.0599999986588955,2.94000005722046,1.95999944210052,-0.0599999986588955,2.94000005722046,1.95999991893768,2128.769,2128.77,2128.771,2128.77,4.3904015001317E-06,45.0000228881836,1.09211032395251E-05,6.97542006378171E-08,-3.31878425186005E-07,1.40542420012935E-06,0,0,0,7
10.4,-0.0599999986588955,2.94000005722046,1.95999944210052,-0.0599999986588955,2.94000005722046,1.95999991893768,2128.77,2128.769,2128.771,2128.771,4.22551920564729E-06,45.0000228881836,1.193405205413E-05,5.2212584478184E-08,-3.02642320093582E-07,1.39663461595774E-06,0,0,0,7
10.42,-0.0599999986588955,2.94000005722046,1.95999944210052,-0.0599999986588955,2.94000005722046,1.95999991893768,2128.771,2128.767,2128.77,2128.773,4.5789010982844E-06,45.0000228881836,1.22402816487011E-05,3.46709896348329E-08,-2.73406271844578E-07,1.39663461595774E-06,0,0,0,7
10.44,-0.0599999986588955,2.94000005722046,1.95999944210052,-0.0599999986588955,2.94000005722046,1.95999991893768,2128.771,2128.769,2128.77,2128.771,4.6967093112471E-06,45.0000228881836,1.00494253274519E-05,1.7129437424046E-08,-2.44170308860703E-07,1.40102940804354E-06,0,0,0,7
10.46,-0.0599999986588955,2.94000005722046,1.95999944210052,-0.0599999986588955,2.94000005722046,1.95999991893768,2128.77,2128.771,2128.77,2128.77,4.34337061960832E-06,45.0000228881836,6.82204154145438E-06,5.43503286820624E-09,-2.14934303244263E-07,1.39223982387193E-06,0,0,0,7
10.48,-0.0599999986588955,2.94000005722046,1.95999944210052,-0.0599999986588955,2.94000005722046,1.95999991893768,2128.77,2128.772,2128.77,2128.769,3.80157075596799E-06,45.0000228881836,4.34849607700016E-06,-4.12218259526753E-10,-1.9446903820608E-07,1.37466054184188E-06,0,0,0,7
10.5,-0.0599999986588955,2.94000005722046,1.95999944210052,-0.0599999986588955,2.94000005722046,1.95999991893768,2128.77,2128.772,2128.771,2128.769,3.16554201162944E-06,45.0000228881836,3.19416449201526E-06,3.46710073984013E-08,-1.97392594714074E-07,1.40981899221515E-06,0,0,0,7
10.52,-0.0599999986588955,2.94000005722046,1.95999944210052,-0.0599999986588955,2.94000005722046,1.95999991893768,2128.771,2128.773,2128.77,2128.767,2.71797193818202E-06,45.0000228881836,3.35904815074173E-06,6.97542432703813E-08,-2.35399426173899E-07,1.44497744258842E-06,0,0,0,7
10.54,-0.0599999949336052,2.94000005722046,1.95999944210052,-0.0599999986588955,2.94000005722046,1.95999991893768,2128.769,2128.772,2128.771,2128.768,1.846368149927E-06,45.0000228881836,6.3979346123233E-06,1.04837397429947E-07,-2.7340621500116E-07,1.4801358929617E-06,0,0,0,7
10.56,-0.0599999912083149,2.94000005722046,1.95999944210052,-0.0599999986588955,2.94000005722046,1.95999991893768,2128.77,2128.77,2128.77,2128.771,2.05840365197218E-06,45.0000228881836,1.11800709419185E-05,1.04837369008237E-07,-2.82176927157707E-07,1.51968924910761E-06,0,0,0,7
10.58,-0.0599999874830246,2.94000005722046,1.95999944210052,-0.0599999986588955,2.94000005722046,1.95999991893768,2128.77,2128.764,2128.77,2128.776,2.60024239651102E-06,45.0000228881836,1.56324022100307E-05,9.31429653405758E-08,-3.1141300382842E-07,1.55924249156669E-06,0,0,0,7
10.6,-0.0599999874830246,2.94000005722046,1.95999944210052,-0.0599999986588955,2.94000005722046,1.95999991893768,2128.77,2128.767,2128.77,2128.773,3.047852715099E-06,45.0000228881836,1.51847907545744E-05,5.80598751298567E-08,-2.88024352812499E-07,1.53726841745083E-06,0,0,0,7
10.62,-0.0599999874830246,2.94000005722046,1.95999944210052,-0.0599999986588955,2.94000005722046,1.95999991893768,2128.77,2128.767,2128.77,2128.772,3.25989162774931E-06,45.0000228881836,1.18631796794944E-05,2.29766996540093E-08,-2.6463561653145E-07,1.51968913542078E-06,0,0,0,7
10.64,-0.0599999874830246,2.94000005722046,1.95999944210052,-0.0599999986588955,2.94000005722046,1.95999991893768,2128.77,2128.771,2128.77,2128.769,3.66038989341178E-06,45.0000228881836,6.18582635070197E-06,5.43516165407709E-09,-2.3539963933672E-07,1.49771506130492E-06,0,0,0,7
10.66,-0.0599999874830246,2.94000005722046,1.95999944210052,-0.0599999986588955,2.94000005722046,1.95999991893768,2128.771,2128.773,2128.769,2128.767,4.01377292291727E-06,45.0000228881836,1.49788388625893E-06,5.43512035378058E-09,-1.79851070924997E-07,1.46695140301745E-06,0,0,0,7
10.68,-0.0599999874830246,2.94000005722046,1.95999944210052,-0.0599999986588955,2.94000005722046,1.95999991893768,2128.772,2128.772,2128.768,2128.768,3.37774372383137E-06,45.0000228881836,-1.27595598087282E-07,4.05182376539415E-08,-2.17857873963112E-07,1.4845306850475E-06,0,0,0,7
10.7,-0.0599999874830246,2.94000005722046,1.95999944210052,-0.0599999986588955,2.94000005722046,1.95999991893768,2128.768,2128.776,2128.772,2128.764,6.21547258106148E-07,45.0000228881836,3.67090478903265E-07,4.05180706763986E-08,-2.20781487314525E-07,1.46255661093164E-06,0,0,0,7
10.72,-0.0599999874830246,2.94000005722046,1.95999944210052,-0.0599999986588955,2.94000005722046,1.95999991893768,2128.768,2128.768,2128.772,2128.772,-4.38517986367515E-07,45.0000228881836,6.23286632617237E-06,4.05179250151377E-08,-2.23704816448844E-07,1.43618774472998E-06,0,0,0,7
10.74,-0.0599999874830246,2.94000005722046,1.95999944210052,-0.0599999986588955,2.94000005722046,1.95999991893768,2128.769,2128.766,2128.771,2128.774,2.44665983473169E-07,45.0000228881836,1.0543853022682E-05,2.2976415436915E-08,-2.38322840573346E-07,1.41860846269992E-06,0,0,0,7
10.76,-0.0599999874830246,2.94000005722046,1.95999944210052,-0.0599999986588955,2.94000005722046,1.95999991893768,2128.771,2128.767,2128.77,2128.773,1.96437690647144E-06,45.0000228881836,1.10856553874328E-05,1.12821796349749E-08,-2.67559016720043E-07,1.4537669130732E-06,0,0,0,7
10.78,-0.0599999874830246,2.94000005722046,1.95999944210052,-0.0599999986588955,2.94000005722046,1.95999991893768,2128.769,2128.77,2128.771,2128.77,3.49563015333842E-06,45.0000228881836,8.70633903105045E-06,-4.1213965573661E-10,-2.96795207077594E-07,1.50210985339072E-06,0,0,0,7
10.8,-0.0599999874830246,2.94000005722046,1.95999944210052,-0.0599999986588955,2.94000005722046,1.95999991893768,2128.77,2128.772,2128.77,2128.768,5.78071922063828E-06,45.0000228881836,6.32702267466811E-06,5.43510392247981E-09,-3.11413202780386E-07,1.49332026921911E-06,0,0,0,7
10.82,-0.0599999874830246,2.94000005722046,1.95999944210052,-0.0599999986588955,2.94000005722046,1.95999991893768,2128.773,2128.771,2128.767,2128.769,7.73600459069712E-06,45.0000228881836,5.69095527680474E-06,-6.25940543841352E-09,-2.67559045141752E-07,1.44497732890159E-06,0,0,0,7
10.84,-0.0599999874830246,2.94000005722046,1.95999944210052,-0.0599999986588955,2.94000005722046,1.95999991893768,2128.773,2128.768,2128.767,2128.772,7.42977908885223E-06,45.0000228881836,6.18564172327751E-06,2.88237416157244E-08,-2.70482701125729E-07,1.48013577927486E-06,0,0,0,7
10.86,-0.0599999874830246,2.94000005722046,1.95999944210052,-0.0599999986588955,2.94000005722046,1.95999991893768,2128.771,2128.773,2128.77,2128.767,4.81492861581501E-06,45.0000228881836,4.93707966597867E-06,6.39070023567001E-08,-2.73406470796544E-07,1.52408392750658E-06,0,0,0,7
10.88,-0.0599999837577343,2.94000005722046,1.95999944210052,-0.0599999986588955,2.94000005722046,1.95999991893768,2128.767,2128.77,2128.773,2128.77,1.96450309886131E-06,45.0000228881836,5.99714212512481E-06,9.89901849379748E-08,-2.76329984671975E-07,1.56363716996566E-06,0,0,0,7
10.9,-0.059999980032444,2.94000005722046,1.95999944210052,-0.0599999986588955,2.94000005722046,1.95999991893768,2128.768,2128.769,2128.772,2128.771,1.32847378608858E-06,45.0000228881836,7.19855142961023E-06,9.89902702031031E-08,-2.85100725250231E-07,1.59879562033893E-06,0,0,0,7
10.92,-0.0599999763071537,2.94000005722046,1.95999944210052,-0.0599999986588955,2.94000005722046,1.95999991893768,2128.769,2128.769,2128.771,2128.771,2.38857796830416E-06,45.0000228881836,8.02304202807136E-06,9.89903554682314E-08,-2.99718692531314E-07,1.6295592786264E-06,0,0,0,7
10.94,-0.0599999725818634,2.94000005722046,1.95999944210052,-0.0599999986588955,2.94000005722046,1.95999991893768,2128.771,2128.769,2128.769,2128.77,3.77848641619494E-06,45.0000228881836,8.23504069558112E-06,1.22379248068683E-07,-3.02642320093582E-07,1.56803196205146E-06,0,0,0,7
10.96,-0.0599999688565731,2.94000005722046,1.95999944210052,-0.0599999986588955,2.94000005722046,1.95999991893768,2128.771,2128.77,2128.769,2128.77,4.27321219831356E-06,45.0000228881836,8.11723384686047E-06,1.28226432138945E-07,-3.17260401061503E-07,1.53287351167819E-06,0,0,0,7
10.98,-0.0599999651312828,2.94000005722046,1.95999944210052,-0.0599999986588955,2.94000005722046,1.95999991893768,2128.771,2128.77,2128.77,2128.77,3.91987259718007E-06,45.0000228881836,7.99942790763453E-06,1.22379191225264E-07,-3.46496506153926E-07,1.53287351167819E-06,0,0,0,7
11,-0.0599999614059925,2.94000005722046,1.95999944210052,-0.0599999986588955,2.94000005722046,1.95999991893768,2128.769,2128.772,2128.771,2128.768,3.095383362961E-06,45.0000228881836,8.16431020211894E-06,1.28226375295526E-07,-3.61114558700137E-07,1.52408392750658E-06,0,0,0,7
11.02,-0.0599999576807022,2.94000005722046,1.95999944210052,-0.0599999986588955,2.94000005722046,1.95999991893768,2128.77,2128.771,2128.77,2128.769,3.30742068399559E-06,45.0000228881836,9.74263639363926E-06,1.51615211052558E-07,-3.64038072575568E-07,1.49771506130492E-06,0,0,0,7
11.04,-0.0599999539554119,2.94000005722046,1.95999944210052,-0.0599999986588955,2.94000005722046,1.95999991893768,2128.771,2128.77,2128.769,2128.77,3.51945664078812E-06,45.0000228881836,1.19805699796416E-05,1.45767970138877E-07,-3.93274120824572E-07,1.49332026921911E-06,0,0,0,7
11.06,-0.0599999502301216,2.94000005722046,1.95999944210052,-0.0599999986588955,2.94000005722046,1.95999991893768,2128.769,2128.768,2128.771,2128.772,2.41227962760604E-06,45.0000228881836,1.43127335832105E-05,1.28226275819543E-07,-3.64038100997277E-07,1.4845306850475E-06,0,0,0,7
11.08,-0.0599999465048313,2.94000005722046,1.95999944210052,-0.0599999986588955,2.94000005722046,1.95999991893768,2128.769,2128.768,2128.771,2128.772,1.77625008745963E-06,45.0000228881836,1.45718458952615E-05,9.31431003436956E-08,-3.40649307872809E-07,1.46255661093164E-06,0,0,0,7
11.1,-0.0599999465048313,2.94000005722046,1.95999944210052,-0.0599999986588955,2.94000005722046,1.95999991893768,2128.77,2128.77,2128.771,2128.77,1.79982794179523E-06,45.0000228881836,1.35117434183485E-05,5.80598999988524E-08,-3.17260486326632E-07,1.44937223467423E-06,0,0,0,7
11.12,-0.0599999465048313,2.94000005722046,1.95999944210052,-0.0599999986588955,2.94000005722046,1.95999991893768,2128.77,2128.771,2128.77,2128.77,2.10609596251743E-06,45.0000228881836,1.24516418509302E-05,2.29766285997357E-08,-2.93871607937035E-07,1.42300336847256E-06,0,0,0,7
11.14,-0.0599999465048313,2.94000005722046,1.95999944210052,-0.0599999986588955,2.94000005722046,1.95999991893768,2128.77,2128.768,2128.77,2128.772,2.36524806496163E-06,45.0000228881836,1.21924913401017E-05,-1.79539014766306E-08,-3.05566004499269E-07,1.40542408644251E-06,0,0,0,7
11.16,-0.0599999465048313,2.94000005722046,1.95999944210052,-0.0599999986588955,2.94000005722046,1.95999991893768,2128.768,2128.771,2128.772,2128.77,2.71863018497243E-06,45.0000228881836,1.04256669146707E-05,-5.30371195850421E-08,-2.82177211374801E-07,1.38345001232665E-06,0,0,0,7
11.18,-0.0599999465048313,2.94000005722046,1.95999944210052,-0.0599999986588955,2.94000005722046,1.95999991893768,2128.772,2128.772,2128.769,2128.768,4.43834187535685E-06,45.0000228881836,8.80018887983169E-06,-6.47314948309941E-08,-3.11413231202096E-07,1.42300336847256E-06,0,0,0,7
11.2,-0.0599999465048313,2.94000005722046,1.95999944210052,-0.0599999986588955,2.94000005722046,1.95999991893768,2128.771,2128.771,2128.769,2128.769,4.83883741253521E-06,45.0000228881836,8.77661204867763E-06,-7.05788210098035E-08,-3.406492794511E-07,1.44058265050262E-06,0,0,0,7
11.22,-0.0599999465048313,2.94000005722046,1.95999944210052,-0.0599999986588955,2.94000005722046,1.95999991893768,2128.77,2128.77,2128.77,2128.77,4.39126733908779E-06,45.0000228881836,9.69533266470535E-06,-7.64261045560488E-08,-3.69885356121813E-07,1.43179306633101E-06,0,0,0,7
11.24,-0.0599999465048313,2.94000005722046,1.95999944210052,-0.0599999986588955,2.94000005722046,1.95999991893768,2128.77,2128.77,2128.771,2128.771,3.80235155716946E-06,45.0000228881836,1.06611669252743E-05,-8.81205366454196E-08,-3.406492794511E-07,1.4230034821594E-06,0,0,0,7
11.26,-0.0599999502301216,2.94000005722046,1.95999944210052,-0.0599999986588955,2.94000005722046,1.95999991893768,2128.77,2128.769,2128.771,2128.771,3.59035516339645E-06,45.0000228881836,1.12500829345663E-05,-1.05662152805053E-07,-3.11413202780386E-07,1.4186086900736E-06,0,0,0,7
11.28,-0.0599999539554119,2.94000005722046,1.95999944210052,-0.0599999986588955,2.94000005722046,1.95999991893768,2128.77,2128.767,2128.77,2128.773,3.89662045563455E-06,45.0000228881836,1.10380469777738E-05,-1.23203747648404E-07,-2.82177154531382E-07,1.41421389798779E-06,0,0,0,7
11.3,-0.0599999576807022,2.94000005722046,1.95999944210052,-0.0599999986588955,2.94000005722046,1.95999991893768,2128.77,2128.772,2128.77,2128.769,4.20288870373042E-06,45.0000228881836,8.09335415397072E-06,-1.40745285648336E-07,-2.52941191547507E-07,1.41421389798779E-06,0,0,0,7
11.32,-0.0599999614059925,2.94000005722046,1.95999944210052,-0.0599999986588955,2.94000005722046,1.95999991893768,2128.77,2128.77,2128.77,2128.771,4.55627014162019E-06,45.0000228881836,6.42075974610634E-06,-1.46592554983727E-07,-2.82177211374801E-07,1.4230034821594E-06,0,0,0,7
11.34,-0.0599999651312828,2.94000005722046,1.95999944210052,-0.0599999986588955,2.94000005722046,1.95999991893768,2128.77,2128.773,2128.77,2128.767,4.81542247143807E-06,45.0000228881836,4.0885583985073E-06,-1.52439753264844E-07,-2.61711988969182E-07,1.40981910590199E-06,0,0,0,7
11.36,-0.0599999688565731,2.94000005722046,1.95999944210052,-0.0599999986588955,2.94000005722046,1.95999991893768,2128.77,2128.772,2128.77,2128.768,4.98034478368936E-06,45.0000228881836,4.20632568420842E-06,-1.17356577788996E-07,-2.64635502844612E-07,1.44058276418946E-06,0,0,0,7
11.38,-0.0599999688565731,2.94000005722046,1.95999944210052,-0.0599999986588955,2.94000005722046,1.95999991893768,2128.77,2128.77,2128.77,2128.77,5.09815254190471E-06,45.0000228881836,5.69042458664626E-06,-8.22733525751573E-08,-2.67559045141752E-07,1.46695163039112E-06,0,0,0,7
11.4,-0.0599999688565731,2.94000005722046,1.95999944210052,-0.0599999986588955,2.94000005722046,1.95999991893768,2128.771,2128.771,2128.769,2128.77,5.21596075486741E-06,45.0000228881836,7.17452303433674E-06,-7.05789275912139E-08,-2.12010519362593E-07,1.44937234836107E-06,0,0,0,7
11.42,-0.0599999688565731,2.94000005722046,1.95999944210052,-0.0599999986588955,2.94000005722046,1.95999991893768,2128.772,2128.766,2128.768,2128.774,4.01455235987669E-06,45.0000228881836,9.12976975087076E-06,-7.64262111374592E-08,-2.41246624455016E-07,1.44937234836107E-06,0,0,0,7
11.44,-0.0599999688565731,2.94000005722046,1.95999944210052,-0.0599999986588955,2.94000005722046,1.95999991893768,2128.766,2128.771,2128.774,2128.77,9.28552822188067E-07,45.0000228881836,7.59851764087216E-06,-8.81205721725564E-08,-2.12010775157978E-07,1.4230034821594E-06,0,0,0,7
11.46,-0.0599999688565731,2.94000005722046,1.95999944210052,-0.0599999986588955,2.94000005722046,1.95999991893768,2128.769,2128.769,2128.771,2128.772,1.61173841206619E-06,45.0000228881836,6.53841607345385E-06,-8.8120444274864E-08,-2.26628642963078E-07,1.44937234836107E-06,0,0,0,7
11.48,-0.0599999688565731,2.94000005722046,1.95999944210052,-0.0599999986588955,2.94000005722046,1.95999991893768,2128.77,2128.772,2128.77,2128.768,2.90741786557192E-06,45.0000228881836,4.39467430624063E-06,-8.81203803260178E-08,-2.35399483017318E-07,1.48453079873434E-06,0,0,0,7
11.5,-0.0599999688565731,2.94000005722046,1.95999944210052,-0.0599999986588955,2.94000005722046,1.95999991893768,2128.771,2128.772,2128.769,2128.769,4.25021107730572E-06,45.0000228881836,3.52303118233976E-06,-4.71899390674935E-08,-2.38323039525312E-07,1.49332038290595E-06,0,0,0,7
11.52,-0.0599999688565731,2.94000005722046,1.95999944210052,-0.0599999986588955,2.94000005722046,1.95999991893768,2128.773,2128.773,2128.767,2128.767,4.69782253276207E-06,45.0000228881836,3.92348829336697E-06,-1.21067458280777E-08,-2.41246624455016E-07,1.51529445702181E-06,0,0,0,7
11.54,-0.0599999688565731,2.94000005722046,1.95999944210052,-0.0599999986588955,2.94000005722046,1.95999991893768,2128.769,2128.769,2128.771,2128.771,2.83680788015772E-06,45.0000228881836,6.72680107527412E-06,2.29763479353551E-08,-2.44170223595574E-07,1.55045290739508E-06,0,0,0,7
11.56,-0.0599999688565731,2.94000005722046,1.95999944210052,-0.0599999986588955,2.94000005722046,1.95999991893768,2128.77,2128.77,2128.77,2128.77,1.3527111377698E-06,45.0000228881836,8.58781731949421E-06,2.29763994497034E-08,-2.52941077860669E-07,1.56803218942514E-06,0,0,0,7
11.58,-0.0599999688565731,2.94000005722046,1.95999944210052,-0.0599999986588955,2.94000005722046,1.95999991893768,2128.768,2128.768,2128.772,2128.772,-1.31385718304955E-07,45.0000228881836,1.02603726190864E-05,1.71291922868022E-08,-2.82177154531382E-07,1.55924260525353E-06,0,0,0,7
11.6,-0.0599999688565731,2.94000005722046,1.95999944210052,-0.0599999986588955,2.94000005722046,1.95999991893768,2128.769,2128.769,2128.771,2128.771,-1.5492160798658E-07,45.0000228881836,9.81276298261946E-06,5.43490852322748E-09,-3.11413259623805E-07,1.57682188728359E-06,0,0,0,7
11.62,-0.0599999688565731,2.94000005722046,1.95999944210052,-0.0599999986588955,2.94000005722046,1.95999991893768,2128.768,2128.771,2128.772,2128.769,9.52297170897509E-07,45.0000228881836,8.23439859232167E-06,-4.12214706813074E-10,-3.40649336294518E-07,1.56803230311198E-06,0,0,0,7
11.64,-0.0599999688565731,2.94000005722046,1.95999944210052,-0.0599999986588955,2.94000005722046,1.95999991893768,2128.772,2128.771,2128.768,2128.769,3.80276446776406E-06,45.0000228881836,7.5512143666856E-06,-6.25939433618328E-09,-3.69885299278394E-07,1.55484792685456E-06,0,0,0,7
11.66,-0.0599999688565731,2.94000005722046,1.95999944210052,-0.0599999986588955,2.94000005722046,1.95999991893768,2128.77,2128.772,2128.77,2128.768,5.19267132403911E-06,45.0000228881836,7.76321394369006E-06,-4.12275102945614E-10,-3.84503351824605E-07,1.54605834268295E-06,0,0,0,7
11.68,-0.0599999688565731,2.94000005722046,1.95999944210052,-0.0599999986588955,2.94000005722046,1.95999991893768,2128.771,2128.77,2128.769,2128.77,6.34700472801342E-06,45.0000228881836,9.34154104470508E-06,-6.25955198785277E-09,-4.137393716519E-07,1.54605834268295E-06,0,0,0,7
11.7,-0.0599999688565731,2.94000005722046,1.95999944210052,-0.0599999986588955,2.94000005722046,1.95999991893768,2128.77,2128.77,2128.771,2128.771,6.27635290584294E-06,45.0000228881836,1.11083272713586E-05,-1.21068222114218E-08,-4.42975476744323E-07,1.5284790606529E-06,0,0,0,7
11.72,-0.0599999688565731,2.94000005722046,1.95999944210052,-0.0599999986588955,2.94000005722046,1.95999991893768,2128.769,2128.769,2128.771,2128.771,6.48838977213018E-06,45.0000228881836,1.25924252643017E-05,-2.38012258790832E-08,-4.48822703447149E-07,1.51968947648129E-06,0,0,0,7
11.74,-0.0599999688565731,2.94000005722046,1.95999944210052,-0.0599999986588955,2.94000005722046,1.95999991893768,2128.77,2128.768,2128.77,2128.772,7.31291856936878E-06,45.0000228881836,1.29928821479552E-05,-2.38011583775233E-08,-4.34204679322647E-07,1.5328738527387E-06,0,0,0,7
11.76,-0.0599999688565731,2.94000005722046,1.95999944210052,-0.0599999986588955,2.94000005722046,1.95999991893768,2128.772,2128.769,2128.768,2128.771,8.04322007752489E-06,45.0000228881836,1.15087459562346E-05,-4.12233802649098E-10,-4.13739513760447E-07,1.51968947648129E-06,0,0,0,7
11.78,-0.0599999688565731,2.94000005722046,1.95999944210052,-0.0599999986588955,2.94000005722046,1.95999991893768,2128.77,2128.771,2128.77,2128.769,7.3600767791504E-06,45.0000228881836,9.08231504581636E-06,2.29766001780263E-08,-3.93274348198247E-07,1.48453102610802E-06,0,0,0,7
11.8,-0.0599999688565731,2.94000005722046,1.95999944210052,-0.0599999986588955,2.94000005722046,1.95999991893768,2128.771,2128.772,2128.769,2128.768,6.72404712531716E-06,45.0000228881836,7.83375162427546E-06,2.8823768261077E-08,-4.0789234390104E-07,1.48453102610802E-06,0,0,0,7
11.82,-0.0599999688565731,2.94000005722046,1.95999944210052,-0.0599999986588955,2.94000005722046,1.95999991893768,2128.768,2128.771,2128.772,2128.769,4.86303224533913E-06,45.0000228881836,7.99863391875988E-06,2.29764509640518E-08,-4.37128392150044E-07,1.48453102610802E-06,0,0,0,7
11.84,-0.0599999688565731,2.94000005722046,1.95999944210052,-0.0599999986588955,2.94000005722046,1.95999991893768,2128.769,2128.77,2128.771,2128.77,4.27411850978388E-06,45.0000228881836,9.05869819689542E-06,1.71292526829347E-08,-4.66364383555629E-07,1.48453102610802E-06,0,0,0,7
11.86,-0.0599999688565731,2.94000005722046,1.95999944210052,-0.0599999986588955,2.94000005722046,1.95999991893768,2128.77,2128.77,2128.771,2128.771,4.86307271785336E-06,45.0000228881836,1.01658770290669E-05,1.1282084599884E-08,-4.95600374961214E-07,1.48892581819382E-06,0,0,0,7
11.88,-0.0599999688565731,2.94000005722046,1.95999944210052,-0.0599999986588955,2.94000005722046,1.95999991893768,2128.77,2128.769,2128.77,2128.771,5.97029020354967E-06,45.0000228881836,1.06605630207923E-05,-4.12296863316897E-10,-4.6636432671221E-07,1.46255695199216E-06,0,0,0,7
11.9,-0.0599999688565731,2.94000005722046,1.95999944210052,-0.0599999986588955,2.94000005722046,1.95999991893768,2128.771,2128.768,2128.769,2128.772,6.98327858117409E-06,45.0000228881836,1.05898707261076E-05,-1.7953919240199E-08,-4.37128278463206E-07,1.45816215990635E-06,0,0,0,7
11.92,-0.0599999688565731,2.94000005722046,1.95999944210052,-0.0599999986588955,2.94000005722046,1.95999991893768,2128.771,2128.769,2128.769,2128.771,6.86551447870443E-06,45.0000228881836,8.72881628311006E-06,5.43496270211108E-09,-4.16663141322715E-07,1.43618808579049E-06,0,0,0,7
11.94,-0.0599999688565731,2.94000005722046,1.95999944210052,-0.0599999986588955,2.94000005722046,1.95999991893768,2128.77,2128.773,2128.771,2128.767,6.13525571679929E-06,45.0000228881836,6.06681032877532E-06,-4.12243572611715E-10,-4.45899274836847E-07,1.42300370953308E-06,0,0,0,7
11.96,-0.0599999688565731,2.94000005722046,1.95999944210052,-0.0599999986588955,2.94000005722046,1.95999991893768,2128.768,2128.773,2128.772,2128.767,5.54634016225464E-06,45.0000228881836,5.90188801652403E-06,1.12820908171329E-08,-3.90350635370851E-07,1.39224005124561E-06,0,0,0,7
11.98,-0.0599999688565731,2.94000005722046,1.95999944210052,-0.0599999986588955,2.94000005722046,1.95999991893768,2128.773,2128.768,2128.767,2128.772,6.93624724590336E-06,45.0000228881836,8.46962666400941E-06,2.29764882675454E-08,-3.34801939061435E-07,1.37905567498819E-06,0,0,0,7
12,-0.0599999688565731,2.94000005722046,1.95999944210052,-0.0599999986588955,2.94000005722046,1.95999991893768,2128.772,2128.768,2128.768,2128.773,5.54638063476887E-06,45.0000228881836,9.10565722733736E-06,1.71292420247937E-08,-3.64038186262405E-07,1.37905567498819E-06,0,0,0,7
12.02,-0.0599999688565731,2.94000005722046,1.95999944210052,-0.0599999986588955,2.94000005722046,1.95999991893768,2128.766,2128.772,2128.774,2128.768,1.98923157768149E-06,45.0000228881836,7.66863558965269E-06,1.12820242037515E-08,-3.93274433463375E-07,1.39224005124561E-06,0,0,0,7
12.04,-0.0599999688565731,2.94000005722046,1.95999944210052,-0.0599999986588955,2.94000005722046,1.95999991893768,2128.768,2128.771,2128.772,2128.77,2.2012686713424E-06,45.0000228881836,8.02197791927028E-06,1.12821023634524E-08,-4.07892258635911E-07,1.43179340739152E-06,0,0,0,7
12.06,-0.0599999688565731,2.94000005722046,1.95999944210052,-0.0599999986588955,2.94000005722046,1.95999991893768,2128.77,2128.77,2128.77,2128.77,4.06232538807672E-06,45.0000228881836,8.89358398126205E-06,1.12821476605518E-08,-4.22510197495285E-07,1.47574155562324E-06,0,0,0,7
12.08,-0.0599999688565731,2.94000005722046,1.95999944210052,-0.0599999986588955,2.94000005722046,1.95999991893768,2128.771,2128.77,2128.77,2128.77,5.82915117774974E-06,45.0000228881836,9.85941824183101E-06,5.43492673088508E-09,-4.51746274165998E-07,1.48453113979485E-06,0,0,0,7
12.1,-0.0599999688565731,2.94000005722046,1.95999944210052,-0.0599999986588955,2.94000005722046,1.95999991893768,2128.77,2128.77,2128.77,2128.77,6.98348549121874E-06,45.0000228881836,1.08723679659306E-05,-6.25952667476781E-09,-4.22510225916994E-07,1.45816227359319E-06,0,0,0,7
12.12,-0.0599999688565731,2.94000005722046,1.95999944210052,-0.0599999986588955,2.94000005722046,1.95999991893768,2128.772,2128.767,2128.768,2128.773,8.18493299448164E-06,45.0000228881836,1.18382031359943E-05,1.71293326189925E-08,-4.02044975089666E-07,1.44058299156313E-06,0,0,0,7
12.14,-0.0599999688565731,2.94000005722046,1.95999944210052,-0.0599999986588955,2.94000005722046,1.95999991893768,2128.772,2128.771,2128.768,2128.77,7.36044466975727E-06,45.0000228881836,1.01184941740939E-05,4.05182163376594E-08,-3.81579923214304E-07,1.41860891744727E-06,0,0,0,7
12.16,-0.0599999688565731,2.94000005722046,1.95999944210052,-0.0599999986588955,2.94000005722046,1.95999991893768,2128.77,2128.771,2128.77,2128.769,4.46290641775704E-06,45.0000228881836,8.68147162691457E-06,4.05181239671037E-08,-3.96198032603934E-07,1.42739850161888E-06,0,0,0,7
12.18,-0.0599999688565731,2.94000005722046,1.95999944210052,-0.0599999986588955,2.94000005722046,1.95999991893768,2128.766,2128.772,2128.774,2128.768,1.56536441409116E-06,45.0000228881836,8.46943567012204E-06,3.46708617371405E-08,-4.25434052431228E-07,1.42739850161888E-06,0,0,0,7
12.2,-0.0599999688565731,2.94000005722046,1.95999944210052,-0.0599999986588955,2.94000005722046,1.95999991893768,2128.767,2128.771,2128.773,2128.769,2.15431919059483E-06,45.0000228881836,9.67084451986011E-06,2.88237309575834E-08,-4.54669930149976E-07,1.42300370953308E-06,0,0,0,7
12.22,-0.0599999688565731,2.94000005722046,1.95999944210052,-0.0599999986588955,2.94000005722046,1.95999991893768,2128.771,2128.769,2128.769,2128.771,5.47593344890629E-06,45.0000228881836,1.18145499072853E-05,2.29765895198852E-08,-4.83905864712142E-07,1.40542442750302E-06,0,0,0,7
12.24,-0.0599999688565731,2.94000005722046,1.95999944210052,-0.0600289296114856,2.93998734787657,1.96000987166081,2128.772,2128.769,2128.768,2128.772,7.85525207902538E-06,45.0000228881836,1.27332714328077E-05,1.12821751940828E-08,-4.89753176680097E-07,1.40102963541722E-06,-0.000864447928748048,-0.000379360483885906,0.000311311352638006,7
12.26,-0.0599999688565731,2.94000005722046,1.95999944210052,-0.0602281692329669,2.9398999121425,1.96008162330021,2381.554,2228.86,1878.855,2032.813,8.34997899801238E-06,45.0000228881836,1.23327736218926E-05,3.46710073984013E-08,-4.69288067961315E-07,1.3878452591598E-06,-0.00338829013680139,-0.001486941368122,0.00122021599050522,7
12.28,-0.0599999688565731,2.94000005722046,1.96000266075134,-0.060758476270564,2.93966718842636,1.960272601375,2360.711,2223.853,1902.718,2045.24,359.778747558594,44.9999351501465,0.086304672062397,4.58697897443017E-08,-4.54164194252371E-07,0.000162699376232922,-0.00746886185637463,-0.00327768851504434,0.0026897415215528,7
12.3,-0.0600148923695087,2.93999338150024,1.96001386642456,-0.0617704786370116,2.93922307410245,1.96063705111812,2275.891,2195.54,1990.749,2084.344,359.355865478516,44.999153137207,0.251222729682922,-0.000746215169783682,-0.000327967281918973,0.000562930246815085,-0.0130056151190183,-0.00570747673828113,0.00468367787109375,7
12.32,-0.060073334723711,2.9399676322937,1.96003937721252,-0.0634048552881669,2.93850583261617,1.9612256348709,2156.758,2154.683,2114.739,2138.261,358.807525634766,44.9970664978027,0.465115457773209,-0.00292213493958116,-0.00128288962878287,0.00127313146367669,-0.0199001187556188,-0.0087331098027526,0.00716657728180289,7
12.34,-0.0602125078439713,2.93990659713745,1.96008658409119,-0.0657925479029421,2.93745800058882,1.96208550831483,2077.378,2129.188,2202.003,2177.803,358.240661621094,44.9941444396973,0.686287105083466,-0.00695865321904421,-0.00305431568995118,0.00236131716519594,-0.0280560583963981,-0.012312320424671,0.0101037543137169,7
12.36,-0.0604710839688778,2.9397931098938,1.96016454696655,-0.0690549725632385,2.93602629492257,1.96326039670325,2076.744,2134.203,2213.682,2187.755,357.728637695313,44.9917182922363,0.886088192462921,-0.012928768992424,-0.0056739766150713,0.00389652093872428,-0.0373792364709143,-0.0164037702715407,0.0134612858442342,7
12.38,-0.0608842596411705,2.93961191177368,1.9602837562561,-0.07330423143388,2.93416151990522,1.9647906710931,2146.355,2167.522,2156.88,2171.907,357.276885986328,44.9907417297363,1.0623025894165,-0.0206588041037321,-0.00906566251069307,0.00595888681709766,-0.0477775722080609,-0.020967049962158,0.0172060110681152,7
12.4,-0.061483409255743,2.93934893608093,1.96045649051666,-0.0786433244425467,2.93181847431518,1.9667134245767,2239.86,2212.206,2076.348,2148.962,356.829711914063,44.990894317627,1.23657274246216,-0.0299575328826904,-0.0131453676149249,0.00863955821841955,-0.0591611016360674,-0.0259626790666114,0.0213055314974821,7
12.42,-0.0622999034821987,2.93899059295654,1.96069705486298,-0.0851663609597084,2.92895585852623,1.96906254851341,2303.223,2247.394,2025.969,2139.964,356.310577392578,44.9908752441406,1.4387378692627,-0.0408247373998165,-0.017912982031703,0.0120266247540712,-0.0714419775824991,-0.0313521061062811,0.0257282109618187,7
12.44,-0.063370406627655,2.93852090835571,1.9610208272934,-0.0929587714785582,2.92553618161249,1.97186880876144,2305.938,2259.77,2038.162,2156.321,355.669342041016,44.9893646240234,1.68837070465088,-0.0535252764821053,-0.0234849434345961,0.0161893498152494,-0.0845344696742568,-0.0370977085538397,0.0304431756079709,6
12.46,-0.0647404491901398,2.9379198551178,1.96144425868988,-0.102097519294946,2.92152566845323,1.97515992190952,2255.297,2250.083,2108.73,2194.205,354.910217285156,44.9857940673828,1.98384761810303,-0.0685023367404938,-0.0300555117428303,0.021173344925046,-0.0983549643375775,-0.0431627928332518,0.0354203139001465,6
12.48,-0.0664643049240112,2.93716359138489,1.96198439598083,-0.112651312187312,2.91689416683777,1.9789606315087,2188.13,2231.154,2203.019,2238.513,354.086547851563,44.9810676574707,2.30426859855652,-0.0861927270889282,-0.0378161072731018,0.0270084254443645,-0.112821964798034,-0.0495115943197737,0.0406302766199148,6
12.5,-0.0686014220118523,2.93622589111328,1.96265888214111,-0.124680814096622,2.91161505457033,1.98329278430404,2146.94,2219.804,2277.956,2272.723,353.269317626953,44.9772682189941,2.62167048454285,-0.106855772435665,-0.0468800961971283,0.0337239876389503,-0.127856091080534,-0.0561092773399542,0.0460444768662071,6
12.52,-0.071211576461792,2.93508076667786,1.9634861946106,-0.138238856806296,2.9056651465749,1.98817540646635,2155.575,2227.501,2306.336,2288.402,352.509613037109,44.9764099121094,2.91577005386353,-0.130507826805115,-0.0572543516755104,0.041364885866642,-0.143380080009321,-0.0629219351716338,0.0516350900553167,6
12.54,-0.0743513181805611,2.93370342254639,1.96448612213135,-0.153370651622149,2.89902460200015,1.99362477982396,2208.266,2254.626,2289.83,2288.955,351.816162109375,44.9789886474609,3.18292617797852,-0.156987145543098,-0.0688681602478027,0.0499962344765663,-0.159318785207977,-0.0699165900439451,0.0573750539208984,6
12.56,-0.0780733078718185,2.9320707321167,1.96567988395691,-0.170114001052318,2.89167683132424,1.99965451809443,2276.33,2291.337,2255.087,2285.888,351.158447265625,44.9835433959961,3.43497133255005,-0.186099722981453,-0.0816371515393257,0.0596901066601276,-0.175599177099416,-0.077061193137313,0.0632380685139692,6
12.58,-0.082428440451622,2.93016028404236,1.96708989143372,-0.188499510487201,2.88360840345976,2.00627564311627,2326.944,2323.688,2236.326,2291.283,350.491363525391,44.9876747131348,3.68976354598999,-0.217756748199463,-0.0955237299203873,0.0705001503229141,-0.19215034290589,-0.084324624583454,0.0691985962029076,5
12.6,-0.0874690264463425,2.92794919013977,1.96873879432678,-0.208550799879384,2.87480895285853,2.01349666108071,2341.768,2341.63,2255.74,2310.815,349.784362792969,44.9895057678223,3.95952343940735,-0.252029031515121,-0.110559806227684,0.0824424028396606,-0.208903486648986,-0.0916766934653769,0.0752318616734541,5
12.62,-0.093250960111618,2.92541265487671,1.97064864635468,-0.230284715423583,2.86527108661652,2.02132363876343,2325.292,2344.081,2312.399,2341.471,349.039489746094,44.9888229370117,4.24369478225708,-0.289097338914871,-0.126824706792831,0.0954955890774727,-0.225791929149627,-0.0990881378173826,0.0813138519287109,5
12.64,-0.0998336970806122,2.92252469062805,1.9728410243988,-0.253711541236571,2.8549902915787,2.02976027975627,2299.339,2338.751,2385.183,2374.255,348.288909912109,44.9871864318848,4.52967596054077,-0.329136669635773,-0.144394263625145,0.109619930386543,-0.242751108028072,-0.106530624625064,0.0874213162891424,5
12.66,-0.107277803122997,2.91925883293152,1.97533667087555,-0.278835211037112,2.84396484144392,2.038808000699,2288.782,2337.007,2446.143,2400.227,347.576019287109,44.9868965148926,4.80026197433472,-0.372205674648285,-0.163292989134789,0.124783128499985,-0.259718577703916,-0.113976749825306,0.0935317663925743,5
12.68,-0.115641832351685,2.91558933258057,1.978156208992,-0.305653519825899,2.83219570386978,2.04846600751104,2307.136,2347.408,2476.575,2415.358,346.932342529297,44.9896011352539,5.04284954071045,-0.418201804161072,-0.183475285768509,0.140977099537849,-0.276634009396089,-0.121400038306285,0.0996234761941946,5
12.7,-0.124979853630066,2.91149234771729,1.98132050037384,-0.334158335565484,2.81968644757749,2.05873137162318,2350.375,2371.172,2476.196,2422.087,346.363220214844,44.9951591491699,5.25528192520142,-0.466901302337646,-0.204843580722809,0.158216312527657,-0.293439191122856,-0.128774943907471,0.105675481966553,5
12.72,-0.13534089922905,2.90694665908813,1.98485088348389,-0.364335810860211,2.80644314945675,2.06959910620935,2401.26,2402.032,2461.257,2427.014,345.849548339844,45.0017204284668,5.44538688659668,-0.518052339553833,-0.227289348840714,0.176517367362976,-0.31007802770182,-0.136076849419623,0.11166758229956,4
12.74,-0.14677020907402,2.90193200111389,1.9887683391571,-0.396166594636153,2.79247430167063,2.08106224241834,2440.442,2430.279,2453.711,2436.579,345.362518310547,45.006950378418,5.62510251998901,-0.571465492248535,-0.250731319189072,0.195872277021408,-0.326496540749919,-0.143282066584797,0.117580338100491,4
12.76,-0.159311234951019,2.89642930030823,1.99309301376343,-0.429626043821042,2.77779071876042,2.09311190560552,2457.152,2448.42,2468.7,2453.248,344.881561279297,45.0093460083008,5.80302762985229,-0.627051532268524,-0.275131046772003,0.21623283624649,-0.342642868683425,-0.150367836096335,0.123395072593979,4
12.78,-0.173007071018219,2.89041972160339,1.99784338474274,-0.464684435024206,2.7624054447505,2.1057373915646,2454.117,2454.908,2506.541,2474.919,344.405914306641,45.0090980529785,5.97979164123535,-0.684792041778564,-0.30047944188118,0.237515732645988,-0.358467266717949,-0.157312327598877,0.129093871322022,4
12.8,-0.187900394201279,2.88388442993164,2.0030357837677,-0.501307176216498,2.74633366025325,2.11892624275937,2444.144,2454.44,2554.269,2496.479,343.953552246094,45.0077857971191,6.14831399917603,-0.744666695594788,-0.326765328645706,0.259624123573303,-0.373922106868434,-0.16409463968835,0.134659582143978,4
12.82,-0.20403203368187,2.87680554389954,2.00868511199951,-0.539455018410235,2.72959258957386,2.1326643245554,2441.681,2454.689,2594.116,2513.028,343.549835205078,45.0073776245117,6.2983341217041,-0.806581974029541,-0.353945374488831,0.282472193241119,-0.388961877949163,-0.170694799911976,0.140075815236568,4
12.84,-0.221438869833946,2.8691668510437,2.01480507850647,-0.579084267339127,2.71220140781526,2.14693590145182,2454.635,2461.698,2613.598,2522.6,343.213348388672,45.0090217590332,6.42229986190796,-0.870341718196869,-0.38193267583847,0.305998593568802,-0.403543185573751,-0.177093764768268,0.145326943093876,4
12.86,-0.240152299404144,2.86095476150513,2.02140831947327,-0.620146995138213,2.69418114798296,2.16172371331302,2480.692,2476.645,2611.898,2526.699,342.947082519531,45.0124435424805,6.51908779144287,-0.93567168712616,-0.410607635974884,0.330161809921265,-0.417624752155151,-0.183273419707031,0.150398100527344,4
12.88,-0.260197877883911,2.85215783119202,2.02850675582886,-0.662591252023795,2.67555460808991,2.17700905160043,2509.843,2495.522,2598.947,2529.017,342.738891601563,45.016170501709,6.59384202957153,-1.00227916240692,-0.439843744039536,0.354921460151672,-0.431167416905651,-0.189216579129363,0.155275184665779,5
12.9,-0.281596064567566,2.84276723861694,2.0361111164093,-0.706361277973369,2.65634625826139,2.1927718356042,2530.712,2511.896,2588.871,2532.882,342.570343017578,45.0185546875,6.65430879592896,-1.06991159915924,-0.469531804323196,0.380217730998993,-0.444134135836874,-0.194906986387653,0.159944854955349,5
12.92,-0.30436372756958,2.83277535438538,2.04423022270203,-0.75139771440556,2.63658214783989,2.20899068867497,2536.999,2520.529,2591.552,2539.653,342.427795410156,45.0187072753906,6.70624971389771,-1.13838195800781,-0.499589949846268,0.405960977077484,-0.456489981759782,-0.200329313785583,0.164394533159584,5
12.94,-0.328514754772186,2.82217621803284,2.05287098884583,-0.797637815860058,2.61628981248995,2.22564301445562,2530.148,2520.218,2607.88,2547.975,342.309661865234,45.0169334411621,6.75037860870361,-1.20755207538605,-0.52995640039444,0.432038456201553,-0.468202144284668,-0.205469162578125,0.168612403359375,5
12.96,-0.354060471057892,2.81096482276917,2.06203770637512,-0.845015661677548,2.59549818130307,2.24270507311295,2517.688,2513.975,2629.918,2555.068,342.226043701172,45.0144729614258,6.78252220153809,-1.27728724479675,-0.560569643974304,0.458331257104874,-0.479239929821164,-0.210313062971545,0.172587411952976,5
12.98,-0.381008684635162,2.79913783073425,2.07173228263855,-0.893462367679644,2.57423748390253,2.26015205756951,2508.225,2506.861,2646.54,2558.286,342.192108154297,45.0126533508301,6.79639196395874,-1.34741151332855,-0.591350793838501,0.48473271727562,-0.489574761578237,-0.214848474123401,0.176309267656002,5
13,-0.409362494945526,2.78669381141663,2.08195543289185,-0.942906297848826,2.55253915754831,2.27795816973522,2506.656,2503.023,2649.688,2556.589,342.219299316406,45.0121650695801,6.78721761703491,-1.41768908500671,-0.622195780277252,0.511156499385834,-0.49918017956419,-0.219063784142543,0.17976844150143,6
13.02,-0.439119249582291,2.77363419532776,2.09270596504211,-0.993273276008367,2.53043575424194,2.2960966967392,2511.934,2503.471,2638.514,2550.872,342.309814453125,45.0127487182617,6.75414085388184,-1.48783886432648,-0.652982115745544,0.537532329559326,-0.508031840586662,-0.222948310089111,0.1829561668396,6
13.04,-0.470270693302155,2.75996255874634,2.10398173332214,-1.04448679750228,2.50796084783136,2.31454008716146,2518.383,2505.798,2619.01,2543.291,342.456390380859,45.0134544372559,6.70017623901367,-1.55757200717926,-0.68358451128006,0.56379246711731,-0.516107518252626,-0.22649229797454,0.185864439338211,6
13.06,-0.502803206443787,2.74568486213684,2.11577892303467,-1.09646824087522,2.48514894111582,2.33326002726467,2519.274,2505.944,2600.126,2535.798,342.647674560547,45.0132522583008,6.63001155853271,-1.62662875652313,-0.713890135288239,0.589858651161194,-0.523387102968394,-0.229686922761555,0.188486016982326,6
13.08,-0.536699175834656,2.7308087348938,2.12809157371521,-1.14913707955247,2.4620353729507,2.35222751722584,2510.711,2500.635,2588.325,2529.264,342.874908447266,45.0116806030273,6.54715967178345,-1.69479560852051,-0.743805646896362,0.615636467933655,-0.52985260193961,-0.232524288364173,0.190814420074371,7
13.1,-0.571937084197998,2.71534371376038,2.14091205596924,-1.20241109351982,2.43865622535245,2.37141294736812,2493.336,2489.08,2584.563,2523.1,343.136627197266,45.0090065002441,6.45209312438965,-1.7618955373764,-0.773252487182617,0.641020119190216,-0.535488139171257,-0.234997427647705,0.192843931234131,7
13.12,-0.608492195606232,2.69930052757263,2.15423011779785,-1.25620658100355,2.41504823060341,2.39078617439248,2471.646,2473.282,2584.045,2515.872,343.438781738281,45.005989074707,6.34223890304565,-1.827761054039,-0.802156150341034,0.665903925895691,-0.540279955467651,-0.237100302428752,0.194569595398754,7
13.14,-0.646336436271667,2.68269181251526,2.16803407669067,-1.3104385701503,2.39124867835669,2.41031659760949,2450.916,2456.549,2580.013,2506.069,343.790618896484,45.0033874511719,6.21363878250122,-1.89220654964447,-0.830434322357178,0.690192759037018,-0.544216408432447,-0.238827803475208,0.19598721982275,7
13.16,-0.68543666601181,2.665531873703,2.18231010437012,-1.36502103070708,2.36729532274105,2.42997323517105,2434.458,2441.572,2567.336,2493.181,344.199523925781,45.0015029907227,6.06319046020508,-1.95501613616943,-0.857991874217987,0.71380627155304,-0.547287972468633,-0.240175750506259,0.197093374077991,8
13.18,-0.725755751132965,2.6478374004364,2.19704365730286,-1.41986708570115,2.34322628946577,2.44972480030209,2422.089,2429.252,2545.287,2477.624,344.667114257813,45.0001640319824,5.89009189605713,-2.01595211029053,-0.884725511074066,0.736675798892975,-0.549487238778534,-0.241140892192382,0.197885390053711,8
13.2,-0.767251312732697,2.62962675094604,2.21221828460693,-1.47488922311997,2.31907998292552,2.46953977753234,2410.61,2418.142,2517.614,2460.73,345.189147949219,44.9987945556641,5.69596719741821,-2.07477784156799,-0.910531997680664,0.758736371994019,-0.55080891536381,-0.241720906155349,0.198361361956504,8
13.22,-0.809876918792725,2.61092042922974,2.22781658172607,-1.52999950759113,2.29489499330521,2.48938649892807,2396.01,2405.904,2489.879,2443.756,345.758514404297,44.9968872070313,5.48355150222778,-2.13127994537354,-0.935318529605865,0.779919862747192,-0.551249827025458,-0.24191439896822,0.198520146310329,8
13.24,-0.853582501411438,2.59174036979675,2.24381971359253,-1.58510979206228,2.2707100036849,2.5092332203238,2375.802,2390.585,2466.243,2427.474,346.369384765625,44.9942512512207,5.25501489639282,-2.18527960777283,-0.959007084369659,0.80015230178833,-0.55080891536381,-0.241720906155349,0.198361361956504,8
13.26,-0.898315012454987,2.57210969924927,2.26020693778992,-1.6401319294811,2.24656369714464,2.52904819755405,2350.218,2371.835,2447.489,2411.742,347.020172119141,44.991081237793,5.01076793670654,-2.23662734031677,-0.981532037258148,0.819357216358185,-0.549487238778534,-0.241140892192383,0.197885390053711,9
13.27999,-0.944018721580505,2.55205297470093,2.27695608139038,-1.69497798447517,2.22249466386936,2.54879976268509,2321.89,2350.948,2430.986,2395.813,347.7138671875,44.9877548217773,4.7494215965271,-2.28518724441528,-1.00283348560333,0.837461173534393,-0.547287972468633,-0.240175750506259,0.197093374077991,9
13.3,-0.990635097026825,2.53159594535828,2.29404401779175,-1.74956044503195,2.19854130825372,2.56845640024665,2294.284,2330.004,2412.556,2378.891,348.455627441406,44.9846420288086,4.46875667572021,-2.33082032203674,-1.02285039424896,0.85439932346344,-0.544216408432447,-0.238827803475208,0.19598721982275,9
13.31999,-1.03810250759125,2.51076555252075,2.31144642829895,-1.80379243417871,2.174741756007,2.58798682346366,2269.815,2310.769,2389.074,2360.501,349.249450683594,44.9818382263184,4.16701650619507,-2.37337613105774,-1.04151678085327,0.870116591453552,-0.540279955467651,-0.237100302428752,0.194569595398754,9
13.34,-1.08635640144348,2.48959016799927,2.32913780212402,-1.85758792166243,2.15113376125796,2.60736005048802,2248.776,2293.814,2360.103,2340.812,350.095825195313,44.9792137145996,3.84389853477478,-2.41269731521606,-1.05876398086548,0.884565711021423,-0.535488139171257,-0.234997427647705,0.192843931234131,9
13.35999,-1.13532912731171,2.46809959411621,2.34709191322327,-1.91086193562978,2.12775461365971,2.6265454806303,2229.485,2278.349,2327.958,2320.578,350.991149902344,44.9765548706055,3.5006799697876,-2.44863319396973,-1.07452642917633,0.897703528404236,-0.52985260193961,-0.232524288364173,0.190814420074371,8
13.38,-1.18494999408722,2.44632458686829,2.36528158187866,-1.96353077430703,2.1046410454946,2.64551297059147,2209.545,2262.991,2296.116,2300.699,351.929840087891,44.9736671447754,3.13949680328369,-2.4810528755188,-1.08874702453613,0.909488439559937,-0.523387102968394,-0.229686922761554,0.188486016982326,6
13.39999,-1.23514711856842,2.42429685592651,2.38367915153503,-2.01551221767998,2.08182913877905,2.66423291069467,2187.341,2246.739,2267.237,2281.724,352.906555175781,44.970573425293,2.76232886314392,-2.50985264778137,-1.10138058662415,0.919879674911499,-0.516107518252627,-0.22649229797454,0.185864439338211,2
13.42,-1.28584599494934,2.40204930305481,2.40225601196289,-2.06672573917388,2.05935423236847,2.68267630111694,2162.783,2229.27,2242.106,2263.852,353.918395996094,44.9674224853516,2.37033009529114,-2.53495311737061,-1.11239266395569,0.928839266300201,-0.508031840586663,-0.222948310089111,0.1829561668396,0
13.43999,-1.33697175979614,2.37961411476135,2.42098259925842,-2.11709271733343,2.0372508290621,2.70081482812092,2137.672,2211.495,2219.032,2246.628,354.965087890625,44.964427947998,1.96361768245697,-2.55628967285156,-1.12175500392914,0.936334252357483,-0.49918017956419,-0.219063784142543,0.17976844150143,0
13.46,-1.38844776153564,2.35702538490295,2.43982934951782,-2.16653664750261,2.01555250270788,2.71862094028663,2114.078,2194.644,2195.954,2229.359,356.047515869141,44.9617233276367,1.54188883304596,-2.57380294799805,-1.12944173812866,0.942338287830353,-0.489574761578238,-0.214848474123402,0.176309267656002,0
13.47999,-1.44019651412964,2.33431696891785,2.45876598358154,-2.2149833535047,1.99429180530735,2.73606792474318,2094.067,2179.569,2170.768,2211.745,357.165924072266,44.9593315124512,1.10526692867279,-2.5874330997467,-1.13542699813843,0.946832001209259,-0.479239929821165,-0.210313062971546,0.172587411952976,0
13.5,-1.49213886260986,2.31152319908142,2.47776198387146,-2.26236119932219,1.97350017412046,2.75312998340052,2078.006,2166.522,2143.509,2193.618,358.318054199219,44.9572296142578,0.654796481132507,-2.59712243080139,-1.13968539237976,0.949801445007324,-0.468202144284669,-0.205469162578125,0.168612403359375,0
13.51999,-1.54419529438019,2.28867936134338,2.49678683280945,-2.30860130077669,1.95320783877053,2.76978230918117,2065.081,2155.021,2115.577,2175.314,359.4990234375,44.9553871154785,0.192619606852531,-2.60282206535339,-1.14219534397125,0.951237320899963,-0.456489981759783,-0.200329313785583,0.164394533159584,0
13.54,-1.59628522396088,2.26582050323486,2.51580953598022,-2.35363773720888,1.93344372834903,2.78600116225194,2053.773,2144.021,2089.186,2157.58,0.702210187911987,44.9538841247559,359.721618652344,-2.60450005531311,-1.14294302463531,0.951134562492371,-0.444134135836876,-0.194906986387654,0.159944854955349,0
13.56,-1.64832830429077,2.24298191070557,2.53479933738708,-2.39740776315846,1.91423537852051,2.80176394625571,2042.821,2133.029,2066.106,2140.743,1.92103230953217,44.9528427124023,359.24462890625,-2.60214638710022,-1.14192342758179,0.949492692947388,-0.431167416905652,-0.189216579129364,0.155275184665779,0
13.58,-1.70024359226227,2.22019934654236,2.5537257194519,-2.43985202004404,1.89560883862746,2.81704928454311,2031.949,2121.787,2046.845,2125.124,3.15018606185913,44.9524154663086,358.764129638672,-2.59577012062073,-1.13914084434509,0.946317136287689,-0.417624752155152,-0.183273419707031,0.150398100527344,0
13.6,-1.75195169448853,2.19750690460205,2.57255816459656,-2.48091474784312,1.87758857879515,2.83183709640432,2022.24,2110.795,2030.387,2110.382,4.38601732254028,44.9526824951172,358.281860351563,-2.5853955745697,-1.13460540771484,0.941619217395782,-0.403543185573753,-0.177093764768268,0.145326943093876,0
13.62,-1.80337262153625,2.17494058609009,2.5912663936615,-2.52054399677202,1.86019739703655,2.84610867330074,2014.666,2100.658,2015.719,2096.125,5.62559175491333,44.9536399841309,357.799377441406,-2.57105445861816,-1.12833082675934,0.935416042804718,-0.388961877949165,-0.170694799911977,0.140075815236569,0
13.64,-1.8544282913208,2.15253400802612,2.6098210811615,-2.55869183896575,1.84345632635717,2.85984675509677,2011.012,2091.621,2001.259,2082.013,6.86581707000732,44.9552421569824,357.318359375,-2.55278348922729,-1.12033295631409,0.927730023860931,-0.373922106868437,-0.16409463968835,0.134659582143978,0
13.66,-1.9050407409668,2.13032150268555,2.62819290161133,-2.59531458015805,1.82738454185991,2.87303560629154,2010.955,2083.861,1987.391,2067.845,8.10196495056152,44.9574546813965,356.840850830078,-2.5306248664856,-1.11062932014465,0.918587684631348,-0.35846726671795,-0.157312327598877,0.129093871322022,0
13.68,-1.95513343811035,2.10833668708801,2.64635324478149,-2.63037297136121,1.81199926785,2.88566109225062,2014.173,2076.883,1974.612,2053.914,9.32797336578369,44.9602737426758,356.369598388672,-2.50462961196899,-1.0992419719696,0.90802001953125,-0.342642868683427,-0.150367836096336,0.123395072593979,0
