t,x_s1,x_s2,x_s3,x_s_d1,x_s_d2,x_s_d3,propellers_rpms1,propellers_rpms2,propellers_rpms3,propellers_rpms4,rollRad,pitchRad,yawRad,v_s1,v_s2,v_s3,v_s_d1,v_s_d2,v_s_d3
14.46,-1.24614548683167,-0.96169900894165,1.18633365631104,-1.25539197719239,-0.977270643914093,1.1861520057019,2654.12,2650.215,2535.908,2740.374,0.50408762130969,0.784379298467321,0.240595080954362,1.93179571628571,0.508734345436096,0.486678063869476,1.95647978082879,0.532802783707674,0.489119945207198
14.47999,-1.20671629905701,-0.949084758758545,1.19628965854645,-1.21587102419701,-0.965385064827671,1.19603224395075,2641.093,2635.16,2522.002,2726.616,0.497295129133519,0.784453001449918,0.241010733818277,1.97146129608154,0.630717813968658,0.497798323631287,1.99550548845483,0.655534339535906,0.498876372113706
14.5,-1.16651916503906,-0.934061765670776,1.20646107196808,-1.17558020000546,-0.951060219556018,1.20610494999864,2626.988,2618.518,2504.917,2711.706,0.489559511754116,0.784532696544922,0.24073378171181,2.00985789299011,0.751123428344727,0.508573114871979,2.03327262494882,0.7766157699523,0.508318156237204
14.51999,-1.12557995319366,-0.916668891906738,1.21684074401855,-1.13454879404614,-0.934333657912242,1.21636280148846,2611.526,2598.822,2488.27,2694.169,0.480857799407257,0.784618317173305,0.239752756397609,2.04695963859558,0.869639039039612,0.51898580789566,2.06975373547796,0.895729683390197,0.51743843386949
14.54,-1.08392524719238,-0.896950244903564,1.22742116451263,-1.09279881087,-0.91524603970365,1.2268002972825,2595.114,2578.004,2468.99,2675.098,0.47118186945168,0.78470959701896,0.23805350983249,2.08274054527283,0.985956311225891,0.529022514820099,2.10492925574912,1.01258653147312,0.526232313937281
14.55999,-1.04158163070679,-0.874954700469971,1.2381945848465,-1.05036060064158,-0.893847399432034,1.23740984983961,2577.513,2554.128,2450.761,2653.498,0.460510017124669,0.784806269765781,0.235625123056069,2.11717677116394,1.09977245330811,0.538668513298035,2.1387736149058,1.12687999656044,0.53469340372645
14.58,-0.998576939105988,-0.850739002227783,1.24915277957916,-1.00725692236063,-0.870189754039586,1.24818576940984,2559.343,2529.277,2429.758,2630.944,0.44883884689586,0.784908801466955,0.232453214998571,2.15024423599243,1.21079111099243,0.547911286354065,2.17126866270656,1.23833224807552,0.542817165676641
14.59999,-0.954938471317291,-0.824364185333252,1.26028752326965,-0.963519110260831,-0.844335117471037,1.25912022243479,2540.321,2501.482,2410.479,2605.826,0.436147519529886,0.785017857912749,0.228523288076925,2.18192148208618,1.318723320961,0.556736826896667,2.20239077686529,1.34665113548301,0.550597694216323
14.62,-0.910694658756256,-0.7958984375,1.27159023284912,-0.919170620299673,-0.816346338539162,1.27020734492508,2521.108,2473.108,2388.823,2579.781,0.422436068316259,0.785133305945109,0.223818364639312,2.21218681335449,1.42328786849976,0.565133988857269,2.23212326704126,1.45157335152443,0.558030816760315
14.63999,-0.865874111652374,-0.765414476394653,1.28305196762085,-0.874243691627088,-0.786296784418114,1.28143907709323,2501.364,2442.193,2369.44,2551.197,0.407687349155594,0.785255744775277,0.218323947102661,2.24102139472961,1.52421295642853,0.573089778423309,2.26044451919057,1.55282386289033,0.565111129797642
14.66,-0.820506155490875,-0.73298978805542,1.29466378688812,-0.82876241790663,-0.754259501147268,1.29280939552334,2481.792,2410.966,2348.281,2521.86,0.391906954686139,0.785384908087146,0.212025654397197,2.26840662956238,1.62123560905457,0.580593943595886,2.28733934503436,1.65015654450311,0.571834836258591
14.67999,-0.77461975812912,-0.698707103729248,1.30641651153564,-0.782759861765792,-0.720318468272401,1.30431003455855,2462.022,2377.574,2329.679,2490.469,0.375084764895828,0.785520929038768,0.204912550917777,2.2943263053894,1.71410405635834,0.587634801864624,2.3127881933698,1.74331625755084,0.57819704834245
14.7,-0.728244125843048,-0.662655830383301,1.31830060482025,-0.736260693711599,-0.684556191444458,1.3159348265721,2442.839,2344.346,2309.802,2458.491,0.357232863878014,0.785663741051117,0.196972519281537,2.31876397132874,1.80257737636566,0.594202637672424,2.33677741634675,1.83207654449478,0.584194354086687
14.71999,-0.681410372257233,-0.624927520751953,1.3303062915802,-0.689298716330183,-0.647066414559848,1.32767532091745,2423.64,2309.703,2293.345,2424.312,0.338348888077249,0.785812944650033,0.188199201191424,2.34170627593994,1.88642692565918,0.600286483764648,2.35928957499136,1.91620473739871,0.589822393747839
14.74,-0.634147465229034,-0.58561897277832,1.34242379665375,-0.641899114652335,-0.607940269743425,1.33952522133692,2405.31,2275.445,2276.206,2390.163,0.318457271996344,0.785967940624275,0.178591631251548,2.36313939094543,1.96543574333191,0.605877935886383,2.3803125963578,1.99549633301891,0.595078149089451
14.75999,-0.586486518383026,-0.544830799102783,1.35464310646057,-0.594096345834719,-0.567280318621345,1.35147591354132,2387.243,2240.64,2262.465,2354.427,0.297569933281085,0.786127930025522,0.168151290845255,2.383052110672,2.03940200805664,0.61096715927124,2.39983119775351,2.06974348376328,0.599957799438376
14.77999,-0.538457810878754,-0.502667665481567,1.36695408821106,-0.54591604581244,-0.525185399545024,1.36352098854689,2370.371,2207.006,2248.553,2318.88,0.275723540330448,0.78629158127324,0.156886968404075,2.40143346786499,2.10813641548157,0.615546524524689,2.4178349116342,2.138765705746,0.60445872790855
14.79999,-0.49009245634079,-0.459238767623901,1.37934625148773,-0.497393239271092,-0.481765856208522,1.37565169018223,2353.739,2173.597,2238.523,2282.307,0.252943493043132,0.78645762936592,0.144814176841237,2.41827511787415,2.1714653968811,0.619607448577881,2.43431065019392,2.20238207055305,0.608577662548479
14.81999,-0.44142085313797,-0.414653778076172,1.39180910587311,-0.44855394829162,-0.437127235125404,1.3878615129271,2338.358,2142.445,2228.747,2246.157,0.229283320956633,0.786623544300546,0.131957175889608,2.43356871604919,2.22922945022583,0.623143792152405,2.44924957773182,2.26043793617315,0.612312394432955
14.83999,-0.392474710941315,-0.369028329849243,1.40433204174042,-0.399433676613311,-0.391386547812875,1.40014158084667,2323.263,2112.467,2222.462,2210.144,0.204788098072051,0.786786796074104,0.118353357995078,2.44730877876282,2.28128600120544,0.626149117946625,2.46264083438942,2.31278112037589,0.615660208597355
14.85999,-0.343285024166107,-0.322478294372559,1.41690444946289,-0.350058766729057,-0.344654983143583,1.41248530831774,2309.4,2085.594,2216.634,2175.237,0.179526983353409,0.786943855998175,0.104046981565671,2.4594898223877,2.32750797271729,0.628619194030762,2.47447723862901,2.3592843845913,0.618619309657253
14.87999,-0.293882787227631,-0.27512264251709,1.42951548099518,-0.300465111746492,-0.29705503888181,1.42488372206338,2295.481,2061.008,2214.201,2141.429,0.153562644309622,0.787091528279475,0.0890967443358326,2.4701087474823,2.36778569221497,0.630550265312195,2.48475018597248,2.39982582950063,0.62118754649312
14.89999,-0.244299709796906,-0.227082252502441,1.44215428829193,-0.250679308027128,-0.248702423479941,1.43733017299322,2282.922,2040.48,2211.616,2109.794,0.126983481243439,0.787225485281269,0.0735693751351096,2.4791624546051,2.40202617645264,0.631941258907318,2.49345416718641,2.4343069048236,0.623363541796603
14.91999,-0.194566547870636,-0.178478717803955,1.45481014251709,-0.20073754737802,-0.199723883973437,1.4498156131555,2269.872,2023.204,2212.255,2080.305,0.0998651279292329,0.787341599103897,0.0575450559176383,2.48665022850037,2.43015432357788,0.632792234420776,2.50058285490868,2.46263722508591,0.625145713727171
14.93999,-0.144715249538422,-0.129436731338501,1.46747231483459,-0.150666612844726,-0.150238479976637,1.46233334678882,2258.192,2010.677,2212.265,2054.015,0.0723112895235234,0.787435142636461,0.0411116751598994,2.4925708770752,2.45211124420166,0.633106529712677,2.50613242612693,2.48474792345245,0.626533106531734
14.95999,-0.0947768092155457,-0.0800795555114746,1.48013007640839,-0.100502903510243,-0.100375927911351,1.47487427412244,2245.538,2002.278,2215.132,2030.912,0.0444094217391178,0.787502121137358,0.0243683565491359,2.49692606925964,2.46785616874695,0.632889330387115,2.51009884657847,2.5005810410011,0.627524711644618
14.97999,-0.0447825752198696,-0.0305323600769043,1.49277305603027,-0.0502733214480067,-0.0502574362962238,1.487431669638,2234.344,1998.884,2216.915,2011.984,0.0162758433372107,0.787538406706929,0.00742081093504821,2.49971604347229,2.47736406326294,0.632149398326874,2.51247998912925,2.51009808975553,0.628119997282311
14.99999,0.00523645058274269,0.0190804004669189,1.50539100170135,-1.43810698900593E-05,-1.43810698896876E-05,1.49999640473253,2222.274,1999.895,2220.622,1997.435,6.27119197894757,0.787541269605079,6.27356592072488,2.50094366073608,2.48062825202942,0.630898118019104,2.51327412280686,2.51327412261194,0.628318530701715
15.01999,0.0552485622465611,0.0686333179473877,1.5179740190506,0.0502469644796371,0.0502311043018759,1.51256174111991,2211.832,2005.732,2223.178,1987.537,6.24290547996452,0.787508446144898,6.25654512569781,2.50061106681824,2.47765707969666,0.629150390625,2.51248082172889,2.51010141910233,0.628120205432222
15.03999,0.105223000049591,0.118002891540527,1.53051245212555,0.100474177698224,0.100347310990851,1.52511854442456,2200.563,2015.78,2227.258,1982.709,6.21469834318134,0.787438538166825,6.23965695609201,2.49872183799744,2.46847558021545,0.626923978328705,2.51010066258582,2.5005882958557,0.627525165646454
15.05999,0.155128419399261,0.167065143585205,1.5429972410202,0.150640322456219,0.150212413881367,1.53766008061405,2191.377,2030.002,2230.246,1982.564,6.1866845518918,0.787332011724047,6.22300687308581,2.49527835845947,2.45312237739563,0.624239981174469,2.50613492182264,2.48475787787326,0.626533730455661
15.07999,0.204934298992157,0.2156982421875,1.55541968345642,0.200708930457525,0.199695701244362,1.55017723261438,2181.762,2047.807,2234.561,1987.551,6.15895625146891,0.787190797608339,6.20669927259314,2.49028515815735,2.43165111541748,0.621121823787689,2.50058648233598,2.46265166153597,0.625146620583995
15.09999,0.254609167575836,0.263780832290649,1.56777155399323,0.250653150630167,0.248676886497799,1.56266328765754,2174.783,2068.885,2238.178,1996.568,6.13161783782658,0.787017958454932,6.19082416945815,2.48374509811401,2.404128074646,0.617595255374908,2.49345831967386,2.43432338379922,0.623364579918465
15.12,0.304122388362885,0.311193466186523,1.58004534244537,0.300439045653595,0.29702986360373,1.5751097614134,2167.859,2092.52,2243.169,2010.369,6.10475133632576,0.78681788847959,6.17546785009949,2.47566318511963,2.37063264846802,0.613687694072723,2.48475516320251,2.3998455124879,0.621188790800629
15.13999,0.353443205356598,0.357818603515625,1.59223389625549,0.350032808399364,0.344630233145648,1.58750820209984,2163.49,2118.36,2248.261,2027.494,6.07844889233945,0.786595581109317,6.16070008933718,2.4660427570343,2.3312554359436,0.609427332878113,2.47448303741867,2.3593072217179,0.618620759354667
15.16,0.402540981769562,0.403540372848511,1.60433077812195,0.39940784244815,0.391362285637354,1.59985196061204,2161.526,2145.81,2253.926,2047.54,6.05278347648095,0.786356828719441,6.14658267250803,2.45488929748535,2.28609919548035,0.60484254360199,2.46264745111515,2.31280705410228,0.615661862778788
15.17999,0.451385319232941,0.448246002197266,1.61633002758026,0.448528254602056,0.437103522035833,1.61213206365051,2160.428,2174.363,2261.057,2070.912,6.02781687408708,0.786108089475555,6.13316726493679,2.4422082901001,2.23527789115906,0.599961280822754,2.44925700817547,2.26046690084266,0.612314252043868
15.2,0.499945044517517,0.491824626922607,1.6282262802124,0.497367702292871,0.481742752133704,1.62434192557322,2162.695,2203.531,2268.716,2095.72,6.00361566418457,0.785855355490064,6.12048955298178,2.42800426483154,2.17891573905945,0.59481006860733,2.43431888970096,2.2024139931412,0.608579722425239
15.21999,0.548190712928772,0.534167528152466,1.64001452922821,0.54589068166738,0.525162962817341,1.63647267041684,2165.773,2232.882,2277.923,2123.066,5.98022458787938,0.785604685454402,6.10858042931142,2.41228342056274,2.11714839935303,0.589413523674011,2.41784395496194,2.13880050547471,0.604460988740485
15.24,0.596091985702515,0.575169563293457,1.65169036388397,0.594071170551946,0.567258605950955,1.64851779263799,2172.091,2262.474,2287.867,2150.362,5.95769477786405,0.785361205953627,6.09745320973104,2.39505195617676,2.05012178421021,0.583793759346008,2.39984103922818,2.06978107286058,0.599960259807045
15.25999,0.643618285655975,0.614729642868042,1.66324973106384,0.641874144123686,0.607919335942511,1.66046853603092,2179.427,2291.564,2299.109,2179.094,5.93605872470363,0.785129910414746,6.08712440583929,2.37631821632385,1.97799301147461,0.577970087528229,2.38032322972544,1.99553661640102,0.59508080743136
15.27999,0.69074010848999,0.652748107910156,1.67468893527985,0.689273966337686,0.647046312547276,1.67231849158442,2189.608,2319.975,2311.002,2207.316,5.9153505168598,0.784914061210067,6.07759668079723,2.35609030723572,1.90093040466309,0.571958661079407,2.3593009935733,1.91624761343246,0.589825248393324
15.29999,0.737427651882172,0.689130544662476,1.6860044002533,0.736236179876964,0.684536971958722,1.68405904496924,2200.33,2347.647,2323.927,2236.079,5.89558719856342,0.784717120448981,6.06887216513371,2.33437824249268,1.81911361217499,0.565772593021393,2.33678961289352,1.83212190475084,0.584197403223381
15.31999,0.783651649951935,0.723784923553467,1.69719278812408,0.782735599584082,0.7203001799067,1.69568389989602,2213.219,2374.413,2337.353,2263.529,5.87679060773524,0.784541418397424,6.06094393462996,2.31119227409363,1.73273301124573,0.559421479701996,2.31280116021473,1.74336398756112,0.578200290053683
15.33999,0.829382419586182,0.756624937057495,1.70825099945068,0.828738422689972,0.754242190054058,1.70718460567249,2226.178,2400.009,2351.417,2290.992,5.85896766859406,0.784388020319824,6.05380879349269,2.28654432296753,1.6419905424118,0.552911579608917,2.2873530739508,1.65020652358765,0.571838268487699
15.35999,0.874591290950775,0.787566661834717,1.71917593479156,0.874219978544429,0.786280494374233,1.71855499463611,2240.548,2424.414,2365.641,2316.748,5.84213009904857,0.784257725164501,6.04745555644541,2.26044631004333,1.54709923267365,0.546245992183685,2.26045900154317,1.55287596490204,0.565114750385793
15.37999,0.919249534606934,0.816532611846924,1.72996437549591,0.919147204314862,0.816331110644967,1.72978680107872,2254.563,2447.361,2380.007,2342.022,5.82628002962764,0.784150333194376,6.04187676663713,2.23291230201721,1.44828355312347,0.539425134658813,2.23213849364699,1.45162744475135,0.558034623411748
15.39999,0.963328540325165,0.843447923660278,1.74061334133148,0.963496006178408,0.844320990244968,1.7408740015446,2269.417,2469.009,2394.115,2365.065,5.8114227866534,0.78406557809334,6.03705857563028,2.20395660400391,1.34577882289886,0.53244686126709,2.20240673814197,1.34670708337281,0.550601684535491
15.41999,1.006800532341,0.868244647979736,1.75111949443817,1.00723414475837,0.870176763114876,1.75180853618959,2283.443,2488.895,2407.911,2387.323,5.79755410906813,0.784002594334048,6.03299405920609,2.17359614372253,1.23983097076416,0.52530699968338,2.17128534853794,1.23838990921427,0.542821337134484
15.43999,1.04963755607605,0.89085841178894,1.76147949695587,1.05033816392219,0.89383557767975,1.76258454098055,2297.703,2507.425,2421.082,2406.94,5.78467399687185,0.783960383231097,6.0296699015592,2.14184784889221,1.13069653511047,0.517999410629272,2.13879101478705,1.12693922536953,0.534697753696763
15.45999,1.09181201457977,0.911231279373169,1.7716897726059,1.09277672918838,0.915235416930093,1.7731941822971,2310.831,2523.85,2433.539,2425.504,5.77277605847797,0.783937346887846,6.02708077636748,2.10873103141785,1.01864171028137,0.510516405105591,2.10494735865636,1.01264717826459,0.52623683966409
15.47999,1.13329756259918,0.929310321807861,1.78174674510956,1.13452708136679,0.934324261009172,1.7836317703417,2323.334,2538.899,2445.093,2441.377,5.76185496756437,0.783932420039868,6.02521549835444,2.07426500320435,0.903941988945007,0.502849519252777,2.06977253001026,0.895791595029198,0.517443132502565
15.49999,1.17406690120697,0.945047855377197,1.7916464805603,1.17555887002462,0.951052072201814,1.79388971750615,2334.748,2551.533,2455.576,2455.735,5.7519048651767,0.783944071369547,6.02407087172679,2.03847098350525,0.786881268024445,0.494988799095154,2.03329209920248,0.77667878998842,0.508323024800621
15.51999,1.21409440040588,0.958402872085571,1.80138492584229,1.21585009040571,0.965378187663242,1.80396252260143,2344.662,2562.928,2464.914,2467.414,5.74291829446395,0.783970769559268,6.0236378417369,2.00137042999268,0.667751252651215,0.486924707889557,1.99552563016164,0.655598308824385,0.498881407540411
15.53999,1.25335383415222,0.969339847564697,1.81095778942108,1.25537145279361,0.977265054250792,1.8138428631984,2353.442,2571.583,2472.927,2477.366,5.73489099436841,0.78401091671239,6.02391800628141,1.96298706531525,0.546850621700287,0.47864630818367,1.95650057723534,0.53286754061547,0.489125144308834
15.55999,1.29182088375092,0.977829575538635,1.82036066055298,1.29410176245198,0.986683776742886,1.823525440613,2360.513,2578.923,2479.539,2484.473,5.72781710593574,0.784063447564485,6.02490497377374,1.92334461212158,0.424484610557556,0.470143854618073,1.9162378689963,0.408784825779292,0.479059467249075
15.57999,1.32947015762329,0.983848810195923,1.82958877086639,1.33201286436898,0.993609665779005,1.83300321609224,2366.417,2583.435,2484.623,2489.599,5.72169183547601,0.784126697639884,6.02660300527162,1.8824690580368,0.300963580608368,0.461407035589218,1.87476677443406,0.283675423169496,0.468691693608516
15.59999,1.36627793312073,0.987380862236023,1.83863735198975,1.36908442736769,0.998025885543177,1.84227110684192,2370.244,2586.615,2488.214,2491.907,5.71650879140265,0.784199668253187,6.02901050287841,1.84038650989532,0.176602736115456,0.452426820993423,1.83210953389821,0.157843455313557,0.458027383474552
15.61999,1.40222036838531,0.988415241241455,1.84750127792358,1.40528950226271,0.99992085976888,1.85132237556568,2372.819,2586.794,2490.231,2492.227,5.71226531055459,0.784281294139966,6.03213598870951,1.79712462425232,0.0517201721668243,0.443193912506104,1.78829715708434,0.0316187663938091,0.447074289271085
15.63999,1.43727469444275,0.986947894096375,1.85617530345917,1.44060867279484,0.999289982052925,1.86015216819871,2373.191,2585.676,2490.734,2489.657,5.70895553397747,0.784371109247033,6.03598106066158,1.75271129608154,-0.0733626931905746,0.43370059132576,1.74335313993792,-0.0946918099655852,0.435838284984479
15.65999,1.4714183807373,0.982981324195862,1.86465406417847,1.47501626368096,0.996134906119307,1.86875406592024,2372.336,2581.507,2489.652,2485.081,5.70657839640688,0.784468181468014,6.04055796927554,1.7071760892868,-0.198323756456375,0.42393884062767,1.69731015452758,-0.220757175002592,0.424327538631895
15.67999,1.50462913513184,0.976524710655212,1.87293207645416,1.50849382262659,0.990463301492834,1.87712345565665,2369.289,2576.075,2487.087,2477.617,5.70513229994617,0.784571445538482,6.04587097560909,1.66054856777191,-0.322839468717575,0.413902699947357,1.650192893042,-0.346270882385935,0.412548223260499
15.69999,1.53688645362854,0.96759295463562,1.88100373744965,1.5410170131088,0.982290035188802,1.8852542532772,2365.158,2567.458,2482.986,2468.3,5.70461777722755,0.78468083487941,6.05193659126087,1.61285996437073,-0.446587234735489,0.403586000204086,1.60203560739052,-0.470903922191579,0.400508901847631
15.71999,1.56816923618317,0.956207990646362,1.88886344432831,1.57256839340985,0.971634975213562,1.89314209835246,2358.955,2557.798,2477.519,2455.972,5.70503323035439,0.784795617121503,6.05876174044965,1.5641416311264,-0.569245278835297,0.392984747886658,1.55286412363053,-0.594353329859885,0.388216030907633
15.73999,1.59845793247223,0.942398071289063,1.89650535583496,1.60312502724304,0.95852605174738,1.90078125681076,2351.909,2544.963,2470.646,2441.87,5.70638292038439,0.784915592527682,6.06636559793515,1.51442682743073,-0.69049459695816,0.38209468126297,1.50271418698897,-0.716295506629524,0.375678546747242
15.75999,1.62773275375366,0.92619776725769,1.90392363071442,1.63267052752659,0.942995130652082,1.90816763188165,2342.937,2531.041,2462.625,2425.025,5.70866578205312,0.785040827676973,6.07475881636162,1.46374845504761,-0.810018479824066,0.370913654565811,1.45161269215318,-0.836434029032496,0.362903173038294
15.77999,1.65597569942474,0.907647609710693,1.91111242771149,1.66118341614895,0.925082923235428,1.91529585403724,2333.416,2513.982,2453.414,2406.574,5.71188714168272,0.785171255990349,6.08396323364985,1.41214096546173,-0.927505373954773,0.359439224004745,1.39959678737231,-0.954453977153267,0.349899196843077
15.79999,1.68316829204559,0.886794805526733,1.91806578636169,1.6886484020594,0.904832971434946,1.92216210051485,2322.152,2496.016,2443.363,2385.54,5.71604593400878,0.785306877467811,6.0939889698119,1.35963845252991,-1.04264795780182,0.34767097234726,1.34669436802551,-1.07006846188384,0.336673592006378
15.81999,1.70929384231567,0.863692045211792,1.92477798461914,1.71504551957704,0.882298356585265,1.92876137989426,2310.752,2474.977,2432.361,2363.136,5.72115014851448,0.785447692109358,6.10485839540075,1.306276679039,-1.1551456451416,0.335607975721359,1.29294389154461,-1.18297442219905,0.323235972886153
15.83999,1.73433578014374,0.838397741317749,1.93124306201935,1.74036061230866,0.85753385701544,1.93509015307717,2297.942,2453.155,2420.845,2338.433,5.72719925256763,0.785593433598883,6.11658163042847,1.2520911693573,-1.26470386981964,0.323251277208328,1.23837418353452,-1.29289740034191,0.309593545883631
15.85999,1.7582780122757,0.810977220535278,1.93745505809784,1.76457527743894,0.830604388074495,1.94114381935973,2285.443,2428.552,2408.641,2312.53,5.73420123565143,0.785744567989575,6.12917944755139,1.19711899757385,-1.37103688716888,0.310601413249969,1.18302491346316,-1.39954925447165,0.295756228365789
15.87999,1.78110599517822,0.781499862670898,1.94340825080872,1.78767652899238,0.801575411334351,1.9469191322481,2271.916,2403.065,2396.31,2284.945,5.74215556513366,0.785900362912137,6.14266090151716,1.14139699935913,-1.47386622428894,0.297660708427429,1.12692576434534,-1.50267072964214,0.281731441086335
15.89999,1.8028050661087,0.750041246414185,1.94909691810608,1.80964757350628,0.770523020646676,1.95241189337657,2259.274,2375.075,2383.539,2256.442,5.75106969786532,0.786061550735866,6.15704197129219,1.08496308326721,-1.5729238986969,0.284431010484695,1.07011751747673,-1.60199151283801,0.267529379369183
15.91999,1.82336235046387,0.716682195663452,1.95451521873474,1.8304766282265,0.737522699798796,1.95761915705662,2245.911,2346.465,2371.095,2226.705,5.7609393727887,0.786226933038279,6.17232585266976,1.02785539627075,-1.66795134544373,0.270915806293488,1.01263063830036,-1.6972701698666,0.25315765957509
15.93999,1.84276461601257,0.681508302688599,1.95965754985809,1.85014946175199,0.702659247336619,1.962537365438,2234.036,2315.521,2358.409,2196.642,5.77177098149036,0.786396909293536,6.18852000250087,0.970112860202789,-1.75870168209076,0.257117718458176,0.954504130631394,-1.7882611789186,0.238626032657849
15.95999,1.86100018024445,0.644609451293945,1.96451842784882,1.86865279345198,0.66602252328183,1.967163198363,2222.148,2283.871,2346.267,2166.156,5.7835565344871,0.786570214500131,6.20561802919894,0.911774516105652,-1.84493899345398,0.24304111301899,0.89577752425683,-1.87473066622191,0.223944381064208
15.97999,1.87805759906769,0.606080770492554,1.9690922498703,1.88597670025669,0.62770158611352,1.97149417506417,2210.787,2251.518,2334.857,2135.36,5.79629283598564,0.786746116288768,6.223612475913,0.852879822254181,-1.92644095420837,0.22868974506855,0.836482313408219,-1.95646843719101,0.209120578352055
15.99999,1.89392697811127,0.566020727157593,1.97337365150452,1.90210858854614,0.58779688676163,1.97552714713654,2201.385,2217.355,2323.45,2105.57,5.80997935335375,0.786923083341833,6.24249162473433,0.793468773365021,-2.00299835205078,0.214067623019218,0.776661602759381,-2.03326023205796,0.194165400689845
16.01999,1.90859866142273,0.524532556533813,1.97735726833344,1.91703980702143,0.546405427671782,1.97925995175536,2192.354,2183.486,2313.138,2076.049,5.82460117288946,0.787099318025604,6.26222458299452,0.73358142375946,-2.07441449165344,0.199180439114571,0.716347473294205,-2.10491938128191,0.179086868323551
16.04,1.92206358909607,0.481722593307495,1.9810379743576,1.93076012664019,0.503633637879169,1.98269003166005,2185.599,2148.44,2302.766,2048.435,5.84014977247733,0.787273022706358,6.28278045802517,0.673258423805237,-2.1405086517334,0.184033453464508,0.655580862699992,-2.17126107811302,0.163895215674998
16.05999,1.93431437015533,0.437700271606445,1.98441064357758,1.94325974722389,0.459593825003235,1.98581493680597,2179.622,2113.909,2293.463,2022.286,5.85660011840332,0.787441068169841,0.0209207218553831,0.612540364265442,-2.20111393928528,0.16863352060318,0.594406007257885,-2.23211219290254,0.148601501814471
16.07999,1.94534373283386,0.392578601837158,1.98747038841248,1.95453315754358,0.414388843757486,1.9886332893859,2174.458,2080.343,2285.498,1997.692,5.87392930748223,0.787600658096927,0.0429566507309764,0.551467955112457,-2.25608062744141,0.152987346053123,0.532849879677339,-2.28733060824421,0.133212469919335
16.09999,1.95514535903931,0.346472978591919,1.99021244049072,1.96457198631894,0.368137032420097,1.99114299657974,2172.225,2046.549,2276.362,1977.113,5.89212029548321,0.787748130641148,0.0656396299585005,0.490082085132599,-2.30527544021606,0.137102395296097,0.470957177286173,-2.33677076351371,0.117739294321543
16.12,1.9637143611908,0.299501419067383,1.99263226985931,1.97336989252029,0.32095523242788,1.99334247313007,2170.364,2014.822,2268.602,1959.041,5.91112621077144,0.787879690797979,0.0888751443677194,0.428423494100571,-2.34857892990112,0.120988950133324,0.408766994631246,-2.38030776287213,0.102191748657812
16.13999,1.97104454040527,0.25178337097168,1.99472546577454,1.98092065839113,0.272967246201903,1.99523016459778,2169.724,1985.131,2261.051,1944.553,5.93090817119531,0.787991010930682,0.112566184155489,0.366532415151596,-2.38589191436768,0.104657582938671,0.346324580626071,-2.41782833440466,0.0865811451565177
16.15999,1.97713351249695,0.20344090461731,1.99648785591125,1.98722095471043,0.224285149390376,1.99680523867761,2169.375,1957.9,2255.025,1933.478,5.95142037038443,0.788077763402519,0.13660462498239,0.304448664188385,-2.41713190078735,0.0881206393241882,0.283657466861513,-2.44924484904607,0.0709143667153782
16.17999,1.98197770118713,0.154596567153931,1.99791574478149,1.99226602222701,0.175036462896173,1.99806650555675,2171.292,1933.724,2246.234,1928.142,5.97262658934824,0.788137018736315,0.160875318421683,0.242211788892746,-2.4422333240509,0.0713921785354614,0.220811180759996,-2.47447407547159,0.0552027951899989
16.2,1.98557496070862,0.105373620986938,1.99900555610657,1.99605267422225,0.12534559886931,1.99901316855556,2173.171,1913.424,2238.638,1926.526,5.99445385747345,0.788164582453383,0.185243558457522,0.179861962795258,-2.4611451625824,0.0544903092086315,0.157825419199852,-2.49345227954887,0.0394563547999629
16.21999,1.98792386054993,0.0558969974517822,1.99975419044495,1.9985783381482,0.0753428665554185,1.99964458453705,2175.363,1897.576,2230.796,1929.509,6.01683666099774,0.788156925865309,0.20957601226649,0.117437742650509,-2.47383594512939,0.0374343320727348,0.0947459868058861,-2.50613061080196,0.0236864967014715
16.23999,1.9890239238739,0.00629091262817383,2.00015902519226,1.99984190041009,0.0251450470298485,1.99996047510252,2177.49,1886.219,2223.725,1936.664,6.03970575773332,0.788112118180315,0.233737873964204,0.0549768358469009,-2.48029112815857,0.0202465523034334,0.031600696037799,-2.51247945906578,0.00790017400944975
16.25999,1.98887395858765,-0.0433194637298584,2.00021815299988,1.99984226184456,-0.0251162939738767,1.99996056546114,2180.354,1880.584,2213.681,1949.837,6.06299616655008,0.788029959661323,0.257596667932214,-0.00748381391167641,-2.48051166534424,0.0029518473893404,-0.0315645553208598,-2.51248127569011,-0.00789113883021496
16.27999,1.98747587203979,-0.0928094387054443,1.99992966651917,1.9985794222233,-0.0753141861354856,1.99964485555583,2182.958,1879.59,2205.181,1966.578,6.08661361154617,0.787910183992224,0.28101742183857,-0.0699071735143661,-2.47451186180115,-0.0144216120243073,-0.0947098689172433,-2.50613605608581,-0.0236774672293108
16.29999,1.98483037948608,-0.142055988311768,1.9992927312851,1.99605448018443,-0.125317063520689,1.99901362004611,2185.484,1884.448,2196.108,1987.498,6.11047500209622,0.787753856437448,0.303872803294638,-0.132258385419846,-2.46232295036316,-0.0318439453840256,-0.157789346947951,-2.49346133939256,-0.0394473367369878
16.31999,1.98094034194946,-0.190936088562012,1.99830710887909,1.99226854900442,-0.175008144715307,1.99806713725111,2187.887,1893.985,2188.814,2011.213,6.13449138862052,0.787563240683902,0.326046981438655,-0.194502919912338,-2.44399046897888,-0.0492827408015728,-0.220775176933144,-2.47448672733365,-0.0551937942332861
16.33999,1.9758083820343,-0.239327192306519,1.99697303771973,1.98722420070702,-0.224257119914723,1.99680605017676,2190.548,1910.368,2178.421,2039.691,6.15858607208025,0.787343596474699,0.347437923912146,-0.256606996059418,-2.41957306861877,-0.0667038708925247,-0.28362155420154,-2.44926106096534,-0.0709053885503851
16.35999,1.96943783760071,-0.287109851837158,1.99529159069061,1.98092462155658,-0.27293957623959,1.99523115538914,2193.596,1930.452,2170.327,2070.073,6.18265199340044,0.787099584341711,0.367958611927168,-0.318535953760147,-2.38914060592651,-0.0840718373656273,-0.346288781817221,-2.41784806542655,-0.0865721954543053
16.37999,1.96183252334595,-0.334165334701538,1.99326455593109,1.97337457028324,-0.320927991834576,1.99334364257081,2196.928,1954.814,2163.399,2102.448,6.20659540931143,0.786835665079728,0.387534476973777,-0.380257785320282,-2.35277605056763,-0.10135118663311,-0.408731332271751,-2.3803309628239,-0.102182833067938
16.39999,1.95299792289734,-0.380377054214478,1.99089443683624,1.96457737579296,-0.368110290048701,1.99114434394824,2200.897,1981.859,2158.963,2136.067,6.23032737023351,0.786557897380185,0.406107428851143,-0.441741049289703,-2.31057476997375,-0.118506833910942,-0.470921673914129,-2.33679737412094,-0.117730418478532
16.41999,1.94293880462646,-0.425629854202271,1.9881843328476,1.95453925532441,-0.414362667164635,1.9886348138311,2205.357,2014.27,2152.694,2171.984,6.25377011186345,0.786274004410181,0.423628765001212,-0.502954721450806,-2.2626428604126,-0.135504692792892,-0.532814557718454,-2.28736056228313,-0.133203639429614
16.43999,1.93166136741638,-0.469811677932739,1.98513805866241,1.94326654945985,-0.4595682803163,1.98581663736496,2211.15,2047.489,2149.984,2207.72,6.27682509724167,0.785989645386991,0.440072686051121,-0.563865661621094,-2.20909667015076,-0.152311876416206,-0.594370889023286,-2.23214541470318,-0.148592722255822
16.45999,1.91917216777802,-0.512812852859497,1.9817601442337,1.9307676289681,-0.503608789559761,1.98269190724203,2217.79,2082.719,2148.856,2243.688,0.0162270180240726,0.785709347684431,0.45541931816139,-0.624442934989929,-2.15006422996521,-0.168898373842239,-0.655545970349529,-2.17129748345102,-0.163886492587382
16.47999,1.90547919273376,-0.554526090621948,1.97805535793304,1.91704800476943,-0.546381338555145,1.97926200119236,2225.645,2118.054,2150.719,2279.135,0.0382691585148009,0.785438371045615,0.469661137901998,-0.684655070304871,-2.08568549156189,-0.185236588120461,-0.71631282888812,-2.10495887849778,-0.17907820722203
16.49999,1.89058995246887,-0.594848871231079,1.97402930259705,1.90211747653613,-0.587773617701754,1.97552936913403,2234.012,2156.739,2151.375,2314.816,0.0597036020598862,0.785181908634627,0.482794416847447,-0.744470238685608,-2.01611137390137,-0.201302051544189,-0.776627228180836,-2.03330272137374,-0.194156807045209
16.51999,1.87451267242432,-0.633678674697876,1.9696878194809,1.8859854751415,-0.627681061724658,1.97149636878538,2244.081,2193.513,2156.325,2348.394,0.0804528392289372,0.784943023086697,0.494838529494519,-0.803854286670685,-1.94150400161743,-0.217072919011116,-0.836451070616513,-1.956510030035,-0.209112767654128
16.53999,1.857257604599,-0.67091965675354,1.96503722667694,1.86866389886544,-0.665999280486191,1.96716597471636,2254.823,2229.986,2162.244,2381.694,0.100461534528358,0.784724510720949,0.505812750471453,-0.862775206565857,-1.86203730106354,-0.232531279325485,-0.895740940098152,-1.87478282224833,-0.223935235024538
16.55999,1.83883321285248,-0.706477642059326,1.96008396148682,1.85016038499356,-0.702638782020892,1.96254009624839,2266.722,2264.546,2170.865,2413.209,0.119676765954271,0.784528502066237,0.515735755195248,-0.921200215816498,-1.77789640426636,-0.247663259506226,-0.954470695028657,-1.78831197140743,-0.238617673757164
16.57999,1.81925129890442,-0.740262985229492,1.95483481884003,1.83048821667519,-0.737503275778109,1.9576220541688,2278.817,2300.163,2178.756,2443.498,0.138059168657119,0.784356994493365,0.524624521317723,-0.979095876216888,-1.68927824497223,-0.26245790719986,-1.01259755821484,-1.69732348257239,-0.253149389553709
16.59999,1.79852271080017,-0.772190809249878,1.94929671287537,1.80965981984225,-0.770504686990035,1.95241495496056,2291.825,2333.149,2188.672,2471.925,0.155562362022401,0.784210920108706,0.532512837694945,-1.03642594814301,-1.59639132022858,-0.276906669139862,-1.07008481380347,-1.60204721108207,-0.267521203450868
16.61999,1.77665996551514,-0.802180051803589,1.94347667694092,1.78769050013748,-0.801556781184982,1.94692262503437,2305.144,2364.28,2199.673,2498.448,0.172151125744975,0.784088880752698,0.539427768701284,-1.0931556224823,-1.49945557117462,-0.291004508733749,-1.12689076549309,-1.50273350114089,-0.281722691373273
16.63999,1.75367474555969,-0.830154418945313,1.93738174438477,1.76458994409097,-0.830587036386966,1.94114748602274,2318.639,2392.567,2211.672,2523.497,0.187796964001397,0.783991275899503,0.545397410686022,-1.14924955368042,-1.39870250225067,-0.304748833179474,-1.18299036687503,-1.39961429931069,-0.295747591718757
16.65999,1.72958147525787,-0.856042146682739,1.93101894855499,1.74037478419653,-0.857519060624206,1.93509369604913,2331.689,2420.957,2222.784,2545.93,0.202479986307429,0.783916973705665,0.550437975642168,-1.20467209815979,-1.29437446594238,-0.318139761686325,-1.23834273198296,-1.29295938847848,-0.309585682995739
16.67999,1.70439398288727,-0.879776239395142,1.92439544200897,1.71506031596828,-0.88228481815244,1.92876507899207,2344.722,2445.874,2234.518,2566.711,0.216176989872254,0.783865374959944,0.554587713220585,-1.25938510894775,-1.18672478199005,-0.331177771091461,-1.29291289747633,-1.18303820053598,-0.323228224369081
16.69999,1.67812645435333,-0.901296377182007,1.9175181388855,1.68866509785627,-0.904819704537188,1.92216627446407,2357.243,2468.284,2246.024,2585.597,0.228871845926646,0.783835014923753,0.557870458712841,-1.31335258483887,-1.07601594924927,-0.343866586685181,-1.34666130789624,-1.07013931980261,-0.33666532697406
16.71999,1.65079593658447,-0.920546531677246,1.91039395332336,1.66120076782098,-0.925071089689181,1.91530019195524,2369.345,2486.755,2258.071,2602.583,0.240552120837361,0.783823896226288,0.560305187141559,-1.36653852462769,-0.962520062923431,-0.356211185455322,-1.39956426493972,-0.954526420923561,-0.349891066234931
16.73999,1.62241768836975,-0.937477350234985,1.90302956104279,1.63268713974667,-0.942985558034219,1.90817178493667,2380.036,2505.823,2267.78,2616.552,0.251214269271225,0.783831020182149,0.561895959827368,-1.4189065694809,-0.846518576145172,-0.368217706680298,-1.45158318673166,-0.836502195109077,-0.362895796682914
16.75999,1.59300935268402,-0.952043056488037,1.89543175697327,1.60314222427637,-0.958517853999372,1.90078555606909,2390.259,2520.27,2278.025,2628.454,0.260847605294448,0.78385465573664,0.562675333914342,-1.47041773796082,-0.728301644325256,-0.379890829324722,-1.5026852155021,-0.716364795441691,-0.375671303875526
16.77999,1.56258857250214,-0.964206457138062,1.88760697841644,1.57258468346616,-0.971628739861294,1.89314617086654,2399.033,2532.558,2286.379,2638.847,0.269451746077625,0.783893471309227,0.562656159154642,-1.52103614807129,-0.608165562152863,-0.39123746752739,-1.55283807263694,-0.594417713308773,-0.388209518159234
16.79999,1.53117430210114,-0.973934888839722,1.87956166267395,1.54103687458454,-0.982284196555269,1.88525921864614,2406.801,2541.657,2294.213,2646.648,0.277022713523909,0.783945669266188,0.561847024242716,-1.57072591781616,-0.486412912607193,-0.402265399694443,-1.60200543752327,-0.47098084614676,-0.400501359380818
16.81999,1.49878537654877,-0.981201648712158,1.87130200862885,1.50851270742955,-0.990459338327385,1.87712817685739,2413.108,2547.384,2300.536,2653.213,0.283562072240429,0.784009918026989,0.56025252313141,-1.61945164203644,-0.36335226893425,-0.412981986999512,-1.65016563169471,-0.346342480003633,-0.412541407923678
16.83999,1.46544170379639,-0.985987663269043,1.8628340959549,1.47503568770164,-0.9961323793419,1.86875892192541,2417.918,2552.635,2305.248,2655.649,0.289071619860906,0.784084419957907,0.557861403965205,-1.66717767715454,-0.23929750919342,-0.423394829034805,-1.69728349817468,-0.220829182656292,-0.424320874543671
16.85999,1.43116414546967,-0.988278865814209,1.85416388511658,1.44062696117191,-0.999288988348989,1.86015674029298,2421.447,2553.786,2309.103,2656.479,0.293552554807821,0.784168309531594,0.554690944001539,-1.71386694908142,-0.114567458629608,-0.433508574962616,-1.74332927494655,-0.0947580260977323,-0.435832318736638
16.87999,1.39597487449646,-0.988068819046021,1.84529733657837,1.40531167298206,-0.999921251285547,1.85132791824552,2423.384,2552.311,2311.236,2655.35,0.297010802614555,0.784260521483624,0.550740477450145,-1.75948584079742,0.0105176419019699,-0.443329960107803,-1.78826964443614,0.0315404615059434,-0.447067411109035
16.89999,1.35989463329315,-0.985356092453003,1.83624005317688,1.3691053940558,-0.998027691505355,1.84227634851395,2423.884,2547.138,2311.917,2652.898,0.299451756182272,0.784360656339835,0.546004478251803,-1.80400133132935,0.135635927319527,-0.45286551117897,-1.83208479190879,0.157771310809759,-0.458021197977197
16.91999,1.32294714450836,-0.980146884918213,1.82699763774872,1.3320343192343,-0.9936129117756,1.83300857980858,2422.995,2541.091,2311.409,2646.126,0.300881374333866,0.784467582256774,0.540460176379369,-1.84738111495972,0.260464191436768,-0.462121903896332,-1.87474270238956,0.283603597849552,-0.46868567559739
16.93999,1.28515517711639,-0.972453117370605,1.8175755739212,1.29412186447478,-0.986688064723432,1.82353046611869,2420.596,2531.522,2309.228,2638.408,0.301307979447678,0.784580899760279,0.534111333547855,-1.88959193229675,0.384678214788437,-0.471102625131607,-1.91621643099456,0.408719444799806,-0.479054107748641
16.95999,1.24654316902161,-0.962293863296509,1.80797934532166,1.25539570887781,-0.977271660143525,1.81384892721945,2416.898,2519.114,2305.884,2628.542,0.300739128243244,0.78470000963911,0.526943335660892,-1.93060350418091,0.507956266403198,-0.479812890291214,-1.95647599962744,0.532791009684651,-0.48911899990686
16.97999,1.20713531970978,-0.949694156646729,1.79821419715881,1.21587292725848,-0.965385689991162,1.80396823181462,2411.851,2503.365,2301.132,2617.574,0.299184108494792,0.78482464557716,0.518936175720945,-1.97038650512695,0.62997829914093,-0.488257527351379,-1.99550365737337,0.655528524123442,-0.498875914343343
16.99999,1.16695737838745,-0.934685945510864,1.78828537464142,1.17558213908449,-0.9510609601918,1.79389553477112,2405.732,2487.362,2295.768,2601.743,0.29665227455558,0.784954208363189,0.510053767895524,-2.00891208648682,0.750426054000854,-0.496440887451172,-2.03327085454459,0.776610040831331,-0.508317713636149
17.01999,1.12603425979614,-0.917306423187256,1.77819812297821,1.13454879404614,-0.934333657912242,1.78363719851154,2398.445,2468.032,2289.201,2585.184,0.293157541442195,0.785088631418169,0.500295745999981,-2.04614973068237,0.868983864784241,-0.504363834857941,-2.06975373547796,0.895729683390197,-0.51743843386949
17.03999,1.08439266681671,-0.897599458694458,1.76795756816864,1.0928028257008,-0.91524797104867,1.7732007064252,2390.251,2446.213,2281.869,2566.812,0.288713258249498,0.785228380795289,0.48964236935289,-2.08207321166992,0.985342800617218,-0.512029647827148,-2.10492596427215,1.01257550470814,-0.526231491068036
17.05999,1.0420595407486,-0.87561559677124,1.75756871700287,1.05036264033429,-0.893848474105975,1.76259066008357,2381.174,2421.358,2273.487,2547.921,0.283335204206825,0.785373256757467,0.478069369899004,-2.11665749549866,1.09920001029968,-0.519441783428192,-2.13877203307999,1.12687461208442,-0.534693008269997
17.07999,0.999062120914459,-0.851409912109375,1.74703669548035,1.00725899304306,-0.870190935002744,1.75181474826077,2371.609,2396.895,2265.289,2524.102,0.277037793673465,0.785522992988597,0.465532772191164,-2.14987850189209,1.21025824546814,-0.526603758335114,-2.17126714579409,1.23832700611114,-0.542816786448523
17.09999,0.955427944660187,-0.825045585632324,1.73636639118195,0.963519110260832,-0.844335117471037,1.74087977756521,2361.385,2369.56,2256.342,2500.321,0.269841433121112,0.785677722646732,0.452030712016622,-2.1817102432251,1.31822621822357,-0.533515572547913,-2.20239077686529,1.34665113548301,-0.550597694216323
17.11999,0.911185562610626,-0.796589136123657,1.72556281089783,0.919174877734293,-0.816349107186229,1.72979371943357,2350.914,2340.549,2247.849,2474.462,0.261765813296924,0.785837112836738,0.437538588424999,-2.21213150024414,1.42282271385193,-0.540179908275604,-2.23212049852581,1.45156351628386,-0.558030124631454
17.13999,0.866362988948822,-0.766113758087158,1.71463084220886,0.874245847354344,-0.786298265304093,1.71856146183859,2340.077,2309.421,2238.864,2448.731,0.25283668363949,0.786001163558616,0.422035262575307,-2.24112176895142,1.52377545833588,-0.5465989112854,-2.26044320259358,1.55281912629028,-0.565110800648394
17.15999,0.820989906787872,-0.733697175979614,1.70357537269592,0.828764599282824,-0.754261074857018,1.70719114982071,2329.407,2279.682,2231.075,2418.244,0.24307819569076,0.786169608496259,0.405482617974737,-2.26866149902344,1.62082195281982,-0.55277544260025,-2.28733809693134,1.65015200089308,-0.571834524232835
17.17999,0.775095045566559,-0.69942307472229,1.69240117073059,0.782759861765793,-0.720318468272401,1.69568996544145,2318.713,2248.346,2223.114,2388.343,0.232523172910915,0.786341981596479,0.3878891434492,-2.29472947120667,1.71370780467987,-0.55870920419693,-2.3127881933698,1.74331625755084,-0.57819704834245
17.19999,0.728708684444427,-0.663379430770874,1.68111312389374,0.736265150758693,-0.684559685845284,1.68406628768967,2308.342,2216.51,2216.252,2357.17,0.221202641126412,0.786517617069009,0.369247015963055,-2.31930875778198,1.80219340324402,-0.56440281867981,-2.33677519874916,1.83206829703867,-0.58419379968729
17.21999,0.681861221790314,-0.625658273696899,1.66971600055695,0.689300966323563,-0.647068241993235,1.67232524158089,2298.206,2183.896,2209.781,2326.672,0.209153684855146,0.786694783859154,0.34955337261815,-2.34238386154175,1.88605105876923,-0.569858491420746,-2.35928853691812,1.91620083951141,-0.58982213422953
17.23999,0.634582698345184,-0.586357116699219,1.65821444988251,0.641901384694865,-0.607942172795283,1.66047534617372,2288.612,2154.676,2204.567,2292.449,0.196413555062573,0.78687254986054,0.328794464845465,-2.36394023895264,1.96506583690643,-0.575079023838043,-2.3803116296675,1.99549267082447,-0.595077907416876
17.25999,0.586903154850006,-0.545576572418213,1.64661312103271,0.594096345834719,-0.567280318621345,1.64852408645868,2279.522,2124.946,2200.587,2259.376,0.18302439627262,0.787048584807231,0.307010240061043,-2.38396215438843,2.03903388977051,-0.580064654350281,-2.39983119775351,2.06974348376328,-0.599957799438376
17.27999,0.538854539394379,-0.503421306610107,1.63491678237915,0.545920657464984,-0.525189478910833,1.63648016436625,2270.887,2096.699,2197.796,2226.474,0.169033096764863,0.78722055843329,0.284227562902171,-2.40243864059448,2.10776853561401,-0.584817409515381,-2.41783326734765,2.13875937836287,-0.604458316836913
17.29999,0.490467369556427,-0.459999084472656,1.62312996387482,0.497395560810276,-0.48176795656235,1.62434889020257,2262.806,2069.641,2195.784,2195.255,0.154491005613675,0.787385674419596,0.26048281880696,-2.41936016082764,2.17109823226929,-0.589339077472687,-2.43430990112685,2.20237916842368,-0.608577475281712
17.31999,0.441772878170013,-0.415421724319458,1.61125731468201,0.44855628407771,-0.437129390845748,1.61213907101943,2255.436,2047.882,2195.255,2161.666,0.139449613373857,0.787541802237293,0.23580783255019,-2.43471765518188,2.22886681556702,-0.593630969524384,-2.44924890221584,2.26043530294347,-0.612312225553959
17.33999,0.392803013324738,-0.369803190231323,1.59930348396301,0.399433676613311,-0.391386547812875,1.59985841915333,2248.661,2027.733,2195.858,2130.71,0.123965237579649,0.787684947144776,0.210292702199792,-2.4485011100769,2.28093099594116,-0.597692012786865,-2.46264083438942,2.31278112037589,-0.615660208597355
17.35999,0.343589007854462,-0.323259830474854,1.58727300167084,0.350063486418835,-0.344659483117473,1.58751587160471,2242.39,2011.279,2197.288,2101.516,0.108096467774579,0.787811314137521,0.184018720747412,-2.46070504188538,2.32716751098633,-0.601521611213684,-2.47447618425742,2.35928023221026,-0.618619046064354
17.37999,0.294162333011627,-0.275910377502441,1.57517063617706,0.300467481388714,-0.297057327533217,1.57511687034718,2236.54,1997.367,2199.641,2075.969,0.091902833930928,0.787916442420737,0.157081445741172,-2.47132563591003,2.36747002601624,-0.605117976665497,-2.48474973347561,2.39982404005543,-0.621187433368903
17.39999,0.244555056095123,-0.227875471115112,1.56300103664398,0.25068168597015,-0.248704745015203,1.56267042149254,2231.221,1990.534,2202.787,2050.23,0.0754460464841022,0.787996869885035,0.129567413271072,-2.48036098480225,2.40174889564514,-0.608477473258972,-2.49345378966607,2.434305406651,-0.623363447416517
17.41999,0.19479912519455,-0.179276466369629,1.55076920986176,0.20073754737802,-0.199723883973437,1.55018438684451,2226.373,1986.603,2206.703,2029.141,0.0587884691762075,0.788049267579076,0.101618411696927,-2.4878077507019,2.42992901802063,-0.611593902111053,-2.50058285490868,2.46263722508591,-0.625145713727171
17.43999,0.144925653934479,-0.130237817764282,1.53848004341125,0.150671392912548,-0.150243219255464,1.53766784822814,2221.955,1987.253,2211.016,2011.92,0.0419935143690209,0.788070106814445,0.0733623310067166,-2.49366736412048,2.45195484161377,-0.614459455013275,-2.50613197231729,2.48474611337219,-0.626532993079322
17.45999,0.0949671864509583,-0.0808820724487305,1.52613878250122,0.100505297326968,-0.100378312650974,1.52512632433174,2217.598,1991.39,2216.314,1999.824,0.0251233231810277,0.788057123904231,0.0449322210629965,-2.49794268608093,2.46778798103333,-0.617063820362091,-2.5100986952211,2.50058043633651,-0.627524673805274
17.47999,0.0449538864195347,-0.0313339233398438,1.51375091075897,0.0502757175356097,-0.0502598301121623,1.5125689293839,2214.31,2002.695,2221.303,1989.691,0.00824655419325249,0.788008987267901,0.0164482299612956,-2.50063800811768,2.47740578651428,-0.619393646717072,-2.51247991341672,2.51009778700112,-0.62811997835418
17.49999,-0.00508099421858788,0.018282413482666,1.5013222694397,1.43810698903043E-05,-1.43810698899325E-05,1.50000359526747,2211.395,2016.532,2227.297,1985.67,6.2746061514386,0.787925763484481,6.27125589481324,-2.50175547599792,2.48079943656921,-0.621433019638062,-2.51327412280686,2.51327412261194,-0.628318530701715
17.51999,-0.0551068149507046,0.0678415298461914,1.48885905742645,-0.0502469644796369,0.0502311043018757,1.48743825888009,2209.421,2034.706,2233.338,1986.344,6.25789481572781,0.787807852028131,6.24311640232122,-2.50130176544189,2.47797799110413,-0.623163402080536,-2.51248082172889,2.51010141910233,-0.628120205432222
17.53999,-0.105092704296112,0.117220878601074,1.47636783123016,-0.100471783879623,0.100344926243733,1.47488205403009,2207.981,2056.402,2240.204,1992.025,6.24135445495767,0.787657250269653,6.21534549132122,-2.49928379058838,2.46896481513977,-0.624563574790955,-2.51010081389633,2.50058890033354,-0.627525203474082
17.55999,-0.15500682592392,0.166296720504761,1.46385562419891,-0.150637932419606,0.150210044231169,1.4623405168951,2207.413,2080.36,2247.667,2003.623,6.22504472393615,0.787477420318439,6.18806140616471,-2.49570965766907,2.45379686355591,-0.625610291957855,-2.50613514868248,2.48475878273496,-0.626533787170619
17.57999,-0.204818427562714,0.21494722366333,1.45133006572723,-0.200708930457525,0.199695701244362,1.44982276738562,2208.822,2109.375,2255.506,2017.048,6.20902421220677,0.787272290337064,6.16135522696027,-2.49058747291565,2.43252420425415,-0.626278102397919,-2.50058648233598,2.46265166153597,-0.625146620583995
17.59999,-0.254496872425079,0.263051509857178,1.43879926204681,-0.250653150630167,0.248676886497799,1.43733671234246,2211.313,2139.484,2264.508,2035.896,6.19334192193321,0.787047186647669,6.1353420022661,-2.48392224311829,2.40520787239075,-0.62654173374176,-2.49345831967386,2.43432338379922,-0.623364579918465
17.61999,-0.304011523723602,0.310489892959595,1.4262717962265,-0.30043430635837,0.297025286258262,1.42489142341041,2215.195,2171.497,2274.455,2058.682,6.17804685527915,0.786807102677258,6.11010482270757,-2.4757227897644,2.37192273139954,-0.626375019550323,-2.48475606810704,2.39984909103362,-0.621189017026759
17.63999,-0.35333114862442,0.357144832611084,1.4137567281723,-0.350030448548191,0.344627983133954,1.41249238786295,2220.012,2204.476,2285.621,2085.869,6.16318748177605,0.786557697643104,6.08571186520805,-2.46599769592285,2.33275508880615,-0.625752091407776,-2.47448356456004,2.359309297739,-0.618620891140011
17.65999,-0.402426302433014,0.402901172637939,1.40126383304596,-0.399405493884235,0.391360079971541,1.40014862652894,2227.88,2239.774,2297.504,2113.696,6.14881653201309,0.786303898393186,6.06220467508024,-2.45475554466248,2.28780317306519,-0.624647736549377,-2.46264805261445,2.31280941163406,-0.615662013153613
17.67999,-0.451266467571259,0.447644710540771,1.38880300521851,-0.448528254602056,0.437103522035833,1.38786793634949,2236.726,2274.871,2310.746,2145.318,6.13496809445195,0.786051230986722,6.03963917870658,-2.4420018196106,2.23717546463013,-0.623039901256561,-2.44925700817547,2.26046690084266,-0.612314252043868
17.69999,-0.499821126461029,0.491264343261719,1.37638485431671,-0.497363059196638,0.481738551356851,1.37565923520084,2247.106,2310.632,2325.153,2178.653,6.12168105124425,0.785804955166824,6.0180393445367,-2.42774486541748,2.18099308013916,-0.620908260345459,-2.43432038774769,2.20241979708365,-0.608580096936923
17.71999,-0.54806113243103,0.533652305603027,1.36402010917664,-0.545888375831304,0.52516092309672,1.36352790604217,2258.427,2346.357,2340.723,2214.115,6.1089937519094,0.785568266726777,5.99742487996252,-2.41199231147766,2.11938714981079,-0.618235349655151,-2.41784477706181,2.13880366901269,-0.604461194265452
17.73999,-0.595956027507782,0.574702024459839,1.3517199754715,-0.594068881884754,0.567256632052273,1.35148277952881,2272.862,2382.284,2357.107,2248.695,6.09694507859899,0.78534462777597,5.97779578498404,-2.39475154876709,2.05250120162964,-0.615007102489471,-2.39984193388702,2.06978448997991,-0.599960483471754
17.75999,-0.643476724624634,0.614311933517456,1.33949565887451,-0.641874144123686,0.607919335942511,1.33953146396908,2287.531,2417.912,2374.391,2284.776,6.08555793449824,0.785136568317419,5.95916377750996,-2.37602758407593,1.98048973083496,-0.611213803291321,-2.38032322972544,1.99553661640102,-0.59508080743136
17.77999,-0.690593063831329,0.652382373809814,1.32735872268677,-0.689269466326183,0.647042657587577,1.32768263341845,2303.37,2452.722,2392.444,2321.159,6.07485948385005,0.784946352038034,5.94152619437921,-2.35582852363586,1.90351951122284,-0.606849133968353,-2.35930306963505,1.91625540893184,-0.589825767408763
17.79999,-0.737276494503021,0.688817977905273,1.31532049179077,-0.736233951340203,0.684535224709154,1.31594151216495,2319.067,2487.067,2411.04,2358.126,6.06487422773625,0.784775110781268,5.92487238294751,-2.33416318893433,1.8217693567276,-0.60191011428833,-2.33679072165036,1.83212602834732,-0.584197680412591
17.81999,-0.783497393131256,0.723526239395142,1.30339252948761,-0.782733393924458,0.720298517303175,1.30431665151889,2337.496,2520.043,2430.035,2392.943,6.05563359145748,0.784622711389069,5.90918370108739,-2.31104063987732,1.73542988300323,-0.596397399902344,-2.31280233899888,1.74336832659286,-0.578200584749721
17.83999,-0.829226553440094,0.756420612335205,1.29158627986908,-0.828738422689972,0.754242190054058,1.29281539432751,2354.921,2552.476,2449.009,2428.089,6.047148227658,0.784489819651704,5.89444843089012,-2.28646898269653,1.64470458030701,-0.590315580368042,-2.2873530739508,1.65020652358765,-0.571838268487699
17.85999,-0.874435722827911,0.787416696548462,1.27991282939911,-0.874215667058526,0.786277532489347,1.28144608323537,2372.999,2583.311,2468.087,2462.026,6.03943837636194,0.784376235832092,5.88064739759602,-2.26045894622803,1.54980778694153,-0.583672225475311,-2.26046163465599,1.55288543787911,-0.565115408663998
17.87999,-0.919096171855927,0.816435813903809,1.26838326454163,-0.919145075581048,0.81632972626281,1.27021373110474,2389.359,2613.655,2486.801,2495.706,6.03251948390351,0.784281959930233,5.86775982854874,-2.23302245140076,1.45096576213837,-0.576477706432343,-2.23213987786464,1.4516323622674,-0.558034969466161
17.89999,-0.963179767131805,0.843404293060303,1.25700831413269,-0.963493905798974,0.844319705922584,1.25912652355026,2408.439,2641.31,2505.452,2525.843,6.02641551873234,0.784204927996299,5.85576228793087,-2.20417213439941,1.34841573238373,-0.568745255470276,-2.20240818914814,1.34671216949819,-0.550602047287035
17.91999,-1.0066579580307,0.868252277374268,1.24579846858978,-1.00723414475837,0.870176763114876,1.24819146381041,2425.377,2668.191,2523.093,2555.659,6.02113074190612,0.784144474240023,5.84463826414378,-2.17391991615295,1.24240696430206,-0.560490131378174,-2.17128534853794,1.23838990921427,-0.542821337134484
17.93999,-1.04950356483459,0.890916347503662,1.23476386070251,-1.05033408449906,0.89383342820349,1.23741647887524,2441.707,2693.453,2540.135,2583.422,6.01667633870136,0.784100398924323,5.83436751716334,-2.14228081703186,1.1331981420517,-0.551729619503021,-2.13879417836189,1.12694999415974,-0.534698544590473
17.95999,-1.09168922901154,0.911336898803711,1.22391426563263,-1.09277472175337,0.91523445119186,1.22680631956166,2455.852,2717.513,2556.122,2610.178,6.01306402702676,0.7840717033638,5.82493300275871,-2.10927176475525,1.02105748653412,-0.542482614517212,-2.10494900435706,1.01265269157435,-0.526237251089264
17.97999,-1.13318729400635,0.929462432861328,1.21325886249542,-1.13452510747707,0.93432340671305,1.21636872313073,2471.903,2738.203,2571.537,2633,6.01031404690644,0.784055857555437,5.8163160788024,-2.07491087913513,0.906262814998627,-0.53276914358139,-2.06977423858627,0.895797223329145,-0.517443559646568
17.99999,-1.17397141456604,0.945244550704956,1.2028067111969,-1.17555887002462,0.951052072201814,1.20611028249385,2485.416,2757.781,2585.274,2654.74,6.00842533307599,0.784051995971886,5.80850236422464,-2.03921580314636,0.789101839065552,-0.522609829902649,-2.03329209920248,0.77667878998842,-0.508323024800621
18.01999,-1.2140154838562,0.95864200592041,1.19256615638733,-1.21584628423913,0.965376937197613,1.19603842894022,2497.369,2775.561,2597.816,2674.22,6.00740427712196,0.784060052034121,5.80147534742679,-2.00220704078674,0.669868648052216,-0.512026071548462,-1.9955292922529,0.655609939555142,-0.498882323063224
18.03999,-1.25329375267029,0.969619035720825,1.1825453042984,-1.25536958692836,0.977264546065899,1.18615760326791,2506.593,2792.119,2608.83,2692.028,6.00726046642421,0.784079226793821,5.79522384313236,-1.96390688419342,0.548863410949707,-0.501040041446686,-1.95650246780089,0.53287342758871,-0.489125616950221
18.05999,-1.29178047180176,0.978147387504578,1.17275178432465,-1.29409993498422,0.986683386892463,1.17647501625395,2517.83,2804.401,2619.106,2705.431,6.00801094521358,0.784107123406024,5.78973932922594,-1.92433857917786,0.426393032073975,-0.489674359560013,-1.91623981788903,0.408790769490599,-0.479059954472258
18.07999,-1.32945084571838,0.98420250415802,1.16319274902344,-1.33201286436898,0.993609665779005,1.16699678390776,2525.792,2815.816,2627.198,2717.55,6.00965145243237,0.784143009501435,5.78501221832767,-1.88352501392365,0.302770912647247,-0.477950364351273,-1.87476677443406,0.283675423169496,-0.468691693608516
18.09999,-1.36628079414368,0.987768650054932,1.15387499332428,-1.36908093289214,0.998025584469211,1.15772976677697,2531.973,2825.252,2633.889,2727.061,6.01218518387384,0.784187684028375,5.78103718411541,-1.84149193763733,0.178313106298447,-0.465890020132065,-1.83211365752628,0.157855479384844,-0.45802841438157
18.11999,-1.40224599838257,0.988835692405701,1.14480471611023,-1.40528779680863,0.999920829612002,1.14867805079784,2535.428,2833.146,2638.905,2734.649,6.01561853112457,0.784240281459496,5.77781262869252,-1.79826653003693,0.0533383637666702,-0.453515380620956,-1.78829927342392,0.0316247898454582,-0.44707481835598
18.13999,-1.43732380867004,0.987398862838745,1.13598775863647,-1.44060701020269,0.999290072355202,1.13984824744933,2541.277,2836.103,2643.262,2737.593,6.01996587525434,0.784299137319131,5.77534014995564,-1.75387716293335,-0.0718311369419098,-0.440847992897034,-1.74335530946757,-0.0946857903139356,-0.435838827366892
18.15999,-1.47149050235748,0.983461618423462,1.12742960453033,-1.47501626368095,0.996134906119307,1.13124593407976,2542.818,2838.914,2645.121,2739.66,6.02521443309001,0.784364185028252,5.77361708474371,-1.70835185050964,-0.196870669722557,-0.427907258272171,-1.69731015452758,-0.220757175002591,-0.424327538631895
18.17999,-1.50472497940063,0.97703230381012,1.11913537979126,-1.5084906751291,0.990463961940748,1.12287733121773,2543.846,2838.852,2645.989,2738.38,6.03136793305708,0.784435957219074,5.77264716148221,-1.6617214679718,-0.321457326412201,-0.414713770151138,-1.65019743656669,-0.346258949421804,-0.412549359141674
18.19999,-1.53700530529022,0.968127012252808,1.11110961437225,-1.54101548528748,0.982290484274955,1.11474612867813,2541.376,2838.052,2644.992,2735.606,6.0384242446267,0.784514453891596,5.77243730438994,-1.61401724815369,-0.445268511772156,-0.401287198066711,-1.60203792813343,-0.47089800494533,-0.400509482033358
18.21999,-1.56831061840057,0.956767439842224,1.10335671901703,-1.57256691248209,0.971635542030277,1.10685827187948,2542.038,2831.749,2643.746,2728.13,6.04639455307534,0.78459801057015,5.77299869874338,-1.56527209281921,-0.567983150482178,-0.387647271156311,-1.5528664918893,-0.594347476798584,-0.388216622972324
18.23999,-1.59862112998962,0.942982077598572,1.09588050842285,-1.60312502724304,0.95852605174738,1.09921874318924,2538.988,2825.369,2640.24,2719.63,6.05526074890776,0.784686494096682,5.77433720349688,-1.51551806926727,-0.689280390739441,-0.373810976743698,-1.50271418698897,-0.716295506629523,-0.375678546747242
18.25999,-1.62791705131531,0.926804780960083,1.08868455886841,-1.63266775879042,0.942996726012549,1.0918330603024,2535.265,2816.458,2635.92,2708.41,6.06501644053736,0.784781635525889,5.77646453655916,-1.46478950977325,-0.808845400810242,-0.359796285629272,-1.45161760969424,-0.836422667952464,-0.36290440242356
18.27999,-1.6561793088913,0.908277750015259,1.08177220821381,-1.66118208138825,0.925083833471016,1.08470447965294,2529.111,2806.777,2630.316,2695.287,6.07565363848096,0.784883301699715,5.77939348110334,-1.41312158107758,-0.926367580890656,-0.345620512962341,-1.39959928908382,-0.954448404517163,-0.349899822270956
