t,x_s1,x_s2,x_s3,x_s_d1,x_s_d2,x_s_d3,propellers_rpms1,propellers_rpms2,propellers_rpms3,propellers_rpms4,rollRad,pitchRad,yawRad,v_s1,v_s2,v_s3,v_s_d1,v_s_d2,v_s_d3,insideCount
0,-0.0599999949336052,2.94000005722046,1.95999956130981,-0.0599999949336052,2.94000005722046,1.95999956130981,2128.77,2128.77,2128.77,2128.77,1.070916E-07,-8.34465E-05,2.216833E-07,1.41131252462401E-07,-3.97592032186367E-07,1.18902141821309E-06,1.77635683940025E-16,-4.44089209850063E-16,-4.44089209850063E-16,7
0.0200004577636719,-0.0599999912083149,2.94000005722046,1.95999956130981,-0.060001865389484,2.93999923618433,1.96000022296822,2128.769,2128.769,2128.769,2128.769,1.021581E-07,-8.34465E-05,2.248749E-07,1.41131238251546E-07,-3.82974008061865E-07,1.21539028441475E-06,-0.000279999248230517,-0.00012290559842845,9.90474348855346E-05,7
0.0399999618530273,-0.0599999874830246,2.94000005722046,1.95999956130981,-0.0600148676296478,2.93999352885433,1.96000482240391,2461.008,2262.811,1799.965,2000.344,9.886917E-08,-8.34465E-05,2.280666E-07,1.41131238251546E-07,-3.68355983937363E-07,1.1187044037797E-06,-0.00111096634297116,-0.000487658392225013,0.000392995221277095,7
0.0600004196166992,-0.0599999837577343,2.94000005722046,1.96000373363495,-0.0600498890857296,2.93997815619514,1.96001721095643,2300.535,2200.831,1963.561,2069.05,-0.005078116,-8.58527E-05,0.001956934,1.1342341110776E-07,-3.81309490649073E-07,0.000209599747904576,-0.00247959520296248,-0.00108841768042313,0.000877136442189847,7
0.0799999237060547,-0.0600195452570915,2.93999147415161,1.96001660823822,-0.0601175453118306,2.93994845851199,1.96004114379086,2105.219,2127.922,2162.849,2147.963,-0.01274536,-0.0001033306,0.004896238,-0.000978095107711852,-0.000434428715379909,0.000642106111627072,-0.0043724792053984,-0.00191929862936952,0.00154672861489279,7
0.100000381469727,-0.0600882209837437,2.93996095657349,1.96004235744476,-0.0602281978745388,2.93989988759788,1.96008028622631,1940.339,2065.308,2333.852,2214.199,-0.01996945,-0.0001310275,0.007686476,-0.00343377282842994,-0.00152710569091141,0.00128904404118657,-0.00677663031011516,-0.00297460014215476,0.00239717732682751,7
0.119999885559082,-0.060233972966671,2.93989610671997,1.96008503437042,-0.0603919284068015,2.9398280181226,1.96013820455765,1901.604,2049.067,2379.994,2232.251,-0.02417085,-0.0001432781,0.009366612,-0.00728765968233347,-0.00323892431333661,0.00213379273191094,-0.00967875989398511,-0.00424848918105422,0.00342378183668032,7
0.140000343322754,-0.0604732930660248,2.93979001045227,1.96014845371246,-0.0606185852310529,2.93972852716754,1.96021838254807,1995.887,2082.817,2292.307,2200.768,-0.02469709,-0.0001246359,0.009680448,-0.0119659546762705,-0.00530414655804634,0.00316972890868783,-0.0130661929346864,-0.00573540204826016,0.00462205845938408,7
0.159999847412109,-0.0608086213469505,2.93964195251465,1.96023654937744,-0.0609177208789832,2.93959722165136,1.96032419932721,2157.646,2143.919,2134.659,2144.299,-0.02294633,-9.062934E-05,0.009114593,-0.0167664065957069,-0.00740104541182518,0.00440664868801832,-0.0169257637906797,-0.00742955968878477,0.00598734995735216,7
0.180000305175781,-0.0612335838377476,2.93945527076721,1.96035361289978,-0.0612986828504874,2.93942999849136,1.96045896149641,2291.491,2197.65,2002.676,2097.21,-0.02137187,-6.384739E-05,0.008546105,-0.0212480966001749,-0.00933439936488867,0.00585432583466172,-0.0212451055169188,-0.00932553363526159,0.00751528162532386,7
0.199999809265137,-0.0617422722280025,2.93923258781433,1.96050369739532,-0.0617704995935173,2.93922289465263,1.960625862795,2328.579,2217.428,1966.934,2084.153,-0.02201635,-5.565491E-05,0.008726792,-0.0254345033317804,-0.011128825135529,0.00750573305413127,-0.0260111803526756,-0.0114176009659522,0.00920124146249948,7
0.220000267028809,-0.0623370781540871,2.93897271156311,1.96069049835205,-0.062342030011075,2.93897202152195,1.96082803698717,2260.73,2198.022,2037.52,2108.554,-0.02543851,-6.675541E-05,0.009901498,-0.029740359634161,-0.0129898702725768,0.00933992862701416,-0.0312119245722999,-0.0137004663115667,0.0110409620249899,7
0.239999771118164,-0.0630309656262398,2.93866944313049,1.96091723442078,-0.0630217836792077,2.93867364382311,1.96106849426557,2138.495,2155.653,2164.767,2153.473,-0.03057575,-9.198218E-05,0.01174368,-0.0346944071352482,-0.0151674896478653,0.0113339070230722,-0.0368344331124108,-0.0161684649978331,0.0130298782525923,7
0.260000228881836,-0.0638436004519463,2.93831324577332,1.96118664741516,-0.0638181429370097,2.93832408213049,1.96135019981382,2036.199,2116.476,2273.753,2193.294,-0.03551112,-0.0001171791,0.01360235,-0.0406316295266151,-0.0178091488778591,0.0134695656597614,-0.0428669406915623,-0.0188164326574686,0.015163828273604,6
0.279999732971191,-0.0647941455245018,2.93789553642273,1.96150135993958,-0.0647391038914646,2.93791982655498,1.96167598218911,2008.821,2101.885,2307.665,2208.348,-0.03862169,-0.0001251686,0.01488789,-0.0475274547934532,-0.0208848062902689,0.015737060457468,-0.0492966796775685,-0.0216387649415893,0.0174382956429792,6
0.300000190734863,-0.0658950731158257,2.93741106987,1.96186411380768,-0.06579258416139,2.93745740165982,1.96204864218409,2063.643,2117.455,2257.29,2195.047,-0.03943662,-0.0001081243,0.01537887,-0.0550462529063225,-0.024219224229455,0.0181391723453999,-0.0561121785406831,-0.0246304264251458,0.0198492224012668,6
0.319999694824219,-0.0671501606702805,2.93685913085938,1.96227788925171,-0.0669860719752476,2.93693352048905,1.96247082869808,2162.173,2152.287,2160.393,2165.115,-0.03876391,-7.821203E-05,0.01529093,-0.0627544894814491,-0.0276014525443316,0.0206880401819944,-0.0633008117310767,-0.0277858751262682,0.0223921423638877,6
0.340000152587891,-0.068557396531105,2.93624114990234,1.9627457857132,-0.0683270318891629,2.93634490647765,1.96294518225651,2246.161,2186.255,2076.273,2137.594,-0.03810504,-5.453569E-05,0.0151076,-0.0703617185354233,-0.0309037715196609,0.0233928356319666,-0.0708513968608847,-0.0311002025386622,0.0250630998529575,6
0.359999656677246,-0.0701145157217979,2.9355583190918,1.96327078342438,-0.0698224500280097,2.93568849306792,1.96347417414371,2272.198,2202.344,2050.385,2127.381,-0.03875059,-4.913348E-05,0.01528773,-0.0778559967875481,-0.0341414138674736,0.0262485519051552,-0.078751455031108,-0.0345679310528024,0.0278576805604241,6
0.380000114440918,-0.0718239545822144,2.93480944633484,1.96385550498962,-0.0714793493600676,2.9349611975297,1.96406028867702,2233.37,2194.933,2091.384,2138.397,-0.04110057,-6.256699E-05,0.01602748,-0.0854718461632729,-0.0374468713998795,0.0292375944554806,-0.086990088468634,-0.0381842770939671,0.0307720294885343,6
0.399999618530273,-0.0736945196986198,2.93398976325989,1.96450233459473,-0.0733042198626409,2.93416017108913,1.96470582163263,2159.435,2171.685,2169.877,2162.681,-0.04454084,-8.63278E-05,0.01718922,-0.0935282111167908,-0.0409813299775124,0.0323385410010815,-0.0955549694110803,-0.0419438293940102,0.0338017857925732,6
0.420000076293945,-0.0757392942905426,2.93309307098389,1.96521306037903,-0.0753036542115785,2.93328251989283,1.96541310511549,2095.583,2147.554,2239.63,2186.302,-0.04790121,-0.0001070591,0.01841809,-0.102238617837429,-0.0448394455015659,0.0355350263416767,-0.104435480255643,-0.0458419273588953,0.0369431935827339,6
0.439999580383301,-0.0779713317751884,2.93211317062378,1.96598947048187,-0.0774836523704118,2.93232561025833,1.96618426156342,2076.696,2136.197,2263.845,2197.484,-0.05015531,-0.0001118528,0.01935749,-0.111601836979389,-0.0490004569292068,0.0388201922178268,-0.113619448779656,-0.0498732279945951,0.0401919470351988,6
0.460000038146973,-0.0803997591137886,2.9310462474823,1.96683347225189,-0.0798503878418498,2.93128673232821,1.96702147480231,2108.483,2142.697,2235.28,2192.692,-0.05097184,-9.848906E-05,0.0198391,-0.121421292424202,-0.0533492900431156,0.0421983599662781,-0.123096533188868,-0.0540331917731669,0.0435443878251719,6
0.479999542236328,-0.0830283537507057,2.92989134788513,1.96774709224701,-0.0824093768839174,2.93016346474241,1.96792669616315,2168.594,2162.188,2175.917,2177.2,-0.05081365,-7.535021E-05,0.01994751,-0.131429672241211,-0.0577474869787693,0.0456797741353512,-0.132854721120743,-0.058316545871146,0.0469962666780434,6
0.5,-0.0858570858836174,2.92864918708801,1.96873247623444,-0.0851663847726583,2.92895327683449,1.968901965065,2221.287,2183.22,2122.595,2161.353,-0.05059953,-5.72705E-05,0.01994426,-0.141436621546745,-0.0621101781725883,0.0492715612053871,-0.142883942310512,-0.0627188699483875,0.0505440213203427,6
0.519999504089355,-0.0888854488730431,2.9273202419281,1.96979188919067,-0.0881264505400204,2.92765395672266,1.96994906402403,2239.364,2195.129,2104.251,2154.056,-0.05114334,-5.338278E-05,0.02010475,-0.151418194174767,-0.0664451494812965,0.0529704093933105,-0.153172348493493,-0.0672349632121375,0.0541834605257282,6
0.539999961853027,-0.0921155363321304,2.92590355873108,1.97092711925507,-0.0912949420123477,2.92626314820091,1.97106989186473,2217.256,2193.177,2127.866,2158.64,-0.05272526,-6.449774E-05,0.02057222,-0.16150438785553,-0.0708364471793175,0.056763056665659,-0.16371013673802,-0.0718605226680481,0.0579111165876192,6
0.559999465942383,-0.0955532416701317,2.92439579963684,1.97213971614838,-0.0946764276427951,2.92477884594792,1.97226606463989,2172.531,2180.763,2176.047,2171.568,-0.05499321,-8.309825E-05,0.02129761,-0.17188523709774,-0.0753873959183693,0.0606325156986713,-0.174485627032303,-0.0765904213779292,0.0617228577977531,6
0.579999923706055,-0.0992071330547333,2.92279267311096,1.97343099117279,-0.0982758884187717,2.92319886356052,1.97353934433291,2132.614,2166.205,2220.458,2185.424,-0.05723506,-9.85676E-05,0.02209146,-0.18269445002079,-0.0801587551832199,0.0645658373832703,-0.185489279664085,-0.0814204718875251,0.0656153095612535,6
0.59999942779541,-0.103085890412331,2.92108988761902,1.9748021364212,-0.102097429026471,2.92152139928776,1.97489118294283,2119.667,2158.09,2237.368,2193.176,-0.05880153,-0.0001022654,0.02274143,-0.193938046693802,-0.0851370245218277,0.0685577392578125,-0.196709586946816,-0.0863456229007665,0.0695844011284969,6
0.619999885559082,-0.107195898890495,2.91928505897522,1.97625434398651,-0.106145654062238,2.91974443194325,1.97632320930778,2137.944,2160.32,2221.388,2192.062,-0.05946413,-9.269336E-05,0.02312909,-0.205500230193138,-0.0902469009160995,0.0726112425327301,-0.208137268356642,-0.0913618007340804,0.0736268495903759,6
0.640000343322754,-0.111540213227272,2.91737699508667,1.97778904438019,-0.110424420999058,2.91786626829022,1.97783678797717,2174.642,2170.975,2185.061,2184.281,-0.05948596,-7.655191E-05,0.02327973,-0.21721576154232,-0.0953973829746246,0.0767335817217827,-0.219761551323758,-0.0964642767707047,0.0777388442387794,6
0.659999847412109,-0.116119414567947,2.91536641120911,1.97940766811371,-0.114937339588452,2.91588532382915,1.97943319587096,2207.729,2183.755,2151.32,2175.228,-0.05942737,-6.368835E-05,0.02333136,-0.228960171341896,-0.100531302392483,0.0809295475482941,-0.231571734158873,-0.101648353506861,0.081916599438996,6
0.680000305175781,-0.120933562517166,2.91325330734253,1.98111164569855,-0.119688469077493,2.91379981675458,1.98111386891445,2219.984,2191.917,2138.683,2170.342,-0.05980181,-6.090794E-05,0.02344717,-0.24070779979229,-0.105651184916496,0.0851966217160225,-0.243558917746472,-0.10691012467807,0.0861569672019865,6
0.699999809265137,-0.125984132289886,2.91103720664978,1.9829021692276,-0.12468078558146,2.91160844070147,1.982879859884,2207.605,2192.248,2151.937,2171.856,-0.06080103,-6.888957E-05,0.02372446,-0.25252890586853,-0.11080938577652,0.0895252302289009,-0.255712042489203,-0.1122447356769,0.0904560352860016,6
0.720000267028809,-0.131274819374084,2.90871572494507,1.98478019237518,-0.129917997385201,2.90930956791913,1.98473248055493,2180.363,2185.695,2181.517,2178.628,-0.06222795,-8.213346E-05,0.02415413,-0.264534711837769,-0.116071596741676,0.0939030423760414,-0.268022458744148,-0.117648389744804,0.0948107439508846,6
0.739999771118164,-0.136810958385468,2.90628623962402,1.98674654960632,-0.135402641926593,2.90690208459985,1.98667262852503,2155.49,2177.164,2209.435,2186.513,-0.06364582,-9.290336E-05,0.02463634,-0.276807337999344,-0.121476724743843,0.0983199253678322,-0.280479292841304,-0.123116313887115,0.0992172467251598,6
0.760000228881836,-0.142598018050194,2.9037458896637,1.98880195617676,-0.141138086432048,2.90438451270047,1.98870149492302,2146.47,2171.523,2221.159,2191.68,-0.0646493,-9.563122E-05,0.02504839,-0.289352923631668,-0.127016022801399,0.102771729230881,-0.29307414086875,-0.128644819208842,0.103672570793992,6
0.779999732971191,-0.148640066385269,2.90109300613403,1.99094712734222,-0.147126437173412,2.90175592767349,1.99081982482525,2157.024,2171.93,2212.068,2191.878,-0.06507914,-8.924105E-05,0.0253096,-0.302102625370026,-0.132640451192856,0.107259757816792,-0.305796318784092,-0.134229215952309,0.108172936765116,6
0.800000190734863,-0.154939129948616,2.89832711219788,1.99318289756775,-0.153370730074432,2.89901499690097,1.99302869216483,2179.146,2177.498,2190.087,2188.075,-0.06508606,-7.842917E-05,0.02542178,-0.314953535795212,-0.138289958238602,0.111788362264633,-0.31863766474749,-0.139865921480005,0.112715457454707,6
0.819999694824219,-0.161495611071587,2.89544868469238,1.99551010131836,-0.159872647898647,2.89616098173427,1.99532869220553,2199.981,2185.058,2168.588,2182.933,-0.06500883,-6.971076E-05,0.02545527,-0.327824205160141,-0.143925562500954,0.116360150277615,-0.331587687961727,-0.145550330859173,0.117296421829395,6
0.840000152587891,-0.168309435248375,2.89245772361755,1.99792957305908,-0.166634904878218,2.89319269076188,1.9977207850847,2208.193,2190.371,2159.887,2179.699,-0.06517288,-6.775372E-05,0.02550502,-0.340691328048706,-0.149546429514885,0.120973028242588,-0.34463846508282,-0.151278966139997,0.121913027071306,6
0.859999656677246,-0.175381258130074,2.88935399055481,2.00044202804565,-0.173658768069146,2.8901095678099,2.000205419013,2201.235,2191.334,2167.173,2179.845,-0.06570818,-7.293845E-05,0.02563481,-0.353591114282608,-0.155184552073479,0.125620141625404,-0.357779702093614,-0.157047308766279,0.126561631756399,6
0.880000114440918,-0.182712987065315,2.88613629341125,2.00304794311523,-0.180946639481687,2.88691055851654,2.00278344368183,2184.547,2187.951,2185.188,2183.183,-0.06650446,-8.185678E-05,0.0258505,-0.366587460041046,-0.160881206393242,0.130292505025864,-0.371003710652443,-0.162851983942409,0.131239516196942,6
0.899999618530273,-0.190307602286339,2.88280296325684,2.0057475566864,-0.188499378404818,2.88359528569712,2.0054551630576,2168.92,2182.935,2202.601,2187.547,-0.06729648,-8.945229E-05,0.02610163,-0.379729479551315,-0.16666117310524,0.134982645511627,-0.384300396974405,-0.168688561004087,0.135943109799411,6
0.920000076293945,-0.198168009519577,2.87935256958008,2.00854134559631,-0.196319083958477,2.88016282794347,2.00822131968676,2162.605,2179.104,2210.497,2190.777,-0.06782965,-9.12871E-05,0.02631804,-0.393021374940872,-0.172518685460091,0.139686897397041,-0.397662304309301,-0.174553766812719,0.140669774799651,6
0.939999580383301,-0.206296443939209,2.87578415870667,2.01142954826355,-0.20440621574157,2.87661298351479,2.01108207614865,2168.56,2178.692,2205.265,2191.3,-0.06799477,-8.729126E-05,0.02644702,-0.40642124414444,-0.178421720862389,0.144405290484428,-0.411079542473995,-0.180443260074944,0.14541601262659,6
0.960000038146973,-0.214693710207939,2.87209749221802,2.01441240310669,-0.212762579180529,2.87294495991959,2.01403807109804,2181.839,2181.391,2191.833,2189.436,-0.06787812,-8.042657E-05,0.02648181,-0.41986420750618,-0.184330329298973,0.149139896035194,-0.424544882981585,-0.186353867848286,0.150179266262344,6
0.979999542236328,-0.223359644412994,2.86829304695129,2.01749014854431,-0.221388242394261,2.86915872725711,2.01708932863144,2194.829,2185.709,2178.096,2186.404,-0.06768424,-7.468684E-05,0.02645672,-0.433296620845795,-0.190217718482018,0.153891548514366,-0.438048642537523,-0.192281339653079,0.154956110320977,6
1,-0.232293635606766,2.86437129974365,2.02066326141357,-0.23028472618103,2.86525361797333,2.02023638671875,2200.134,2188.969,2172.139,2184.19,-0.06761926,-7.328789E-05,0.02642674,-0.446698784828186,-0.196081519126892,0.158658415079117,-0.45158381767273,-0.19822260131836,0.159744067382812,6
1.01999950408936,-0.241495385766029,2.86033248901367,2.02393198013306,-0.239451715519638,2.86122977034672,2.0234791339238,2196.19,2189.863,2175.9,2183.733,-0.06776892,-7.672267E-05,0.02643269,-0.460088074207306,-0.201940596103668,0.163435354828835,-0.465140935185374,-0.204173494584607,0.164539786380489,6
1.03999996185303,-0.250965356826782,2.85617613792419,2.02729630470276,-0.248890455517354,2.85708663783777,2.02681801069307,2185.856,2188.006,2186.699,2185.233,-0.06807466,-8.252804E-05,0.02648451,-0.473499894142151,-0.207820326089859,0.168216079473495,-0.478713213461414,-0.210131042664071,0.169340868373726,6
1.05999946594238,-0.260704606771469,2.85190153121948,2.03075623512268,-0.258600256479281,2.85282452318788,2.03025277305264,2175.95,2184.996,2197.346,2187.476,-0.068374,-8.723884E-05,0.02655693,-0.486962616443634,-0.213736236095428,0.172994866967201,-0.49229139251318,-0.216091180887532,0.174144037717924,6
1.07999992370605,-0.270714163780212,2.8475079536438,2.03431153297424,-0.268582096634009,2.84844299700386,2.03378376704286,2171.441,2182.339,2202.492,2189.325,-0.06850875,-8.872422E-05,0.02661064,-0.500478088855743,-0.219684436917305,0.177768543362617,-0.505868909501561,-0.222051028498439,0.178946972862635,6
1.09999942779541,-0.280994594097137,2.84299516677856,2.03796219825745,-0.27883492020255,2.84394252271962,2.03741061919057,2174.604,2181.641,2199.387,2189.664,-0.06840542,-8.63784E-05,0.02661201,-0.514020085334778,-0.22564397752285,0.182536110281944,-0.519436720691814,-0.228006615751739,0.183746474660956,6
1.11999988555908,-0.291545510292053,2.83836340904236,2.04170823097229,-0.289359447225579,2.83932278427349,2.04113358420425,2182.374,2182.73,2191.119,2188.632,-0.06811141,-8.214008E-05,0.02655344,-0.527547121047974,-0.231588318943977,0.187298148870468,-0.532988479022341,-0.233955156606367,0.188540297891966,6
1.13999938964844,-0.302365958690643,2.83361339569092,2.0455493927002,-0.300154264549524,2.83458440196888,2.04495216219242,2190.372,2185.02,2182.185,2186.708,-0.06774975,-7.864043E-05,0.02645093,-0.541023373603821,-0.237498924136162,0.192054435610771,-0.546515359967396,-0.239892777539001,0.193325320952141,6
1.15999984741211,-0.313454627990723,2.82874584197998,2.04948544502258,-0.311219842599668,2.82972716931273,2.04886651956418,2193.655,2186.793,2178.012,2185.12,-0.06745148,-7.779403E-05,0.026336,-0.55443286895752,-0.243372395634651,0.196803137660027,-0.560011229328168,-0.245816785944643,0.198099373919024,7
1.17999935150146,-0.324810236692429,2.82376146316528,2.05351614952087,-0.322554419673949,2.8247518596037,2.05287603313187,2191.335,2187.341,2179.676,2184.396,-0.06727358,-7.999756E-05,0.02623375,-0.567782580852509,-0.249219343066216,0.201540261507034,-0.573467484661291,-0.251723405782975,0.202859413748911,7
1.19999980926514,-0.336432099342346,2.81866025924683,2.05764126777649,-0.334158225039844,2.8196583722049,2.05698078399699,2184.776,2186.156,2185.99,2184.865,-0.06718463,-8.347486E-05,0.02615355,-0.581091165542603,-0.255055040121078,0.206261247396469,-0.5868782017987,-0.257610036641941,0.207603344815995,7
1.21999931335449,-0.348319590091705,2.81344246864319,2.06186056137085,-0.346029157386178,2.81444762948632,2.06118002883796,2178.345,2184.248,2192.321,2185.791,-0.06708662,-8.650362E-05,0.02608295,-0.594374239444733,-0.260889023542404,0.210961788892746,-0.600235003170108,-0.263473001189205,0.212328203623578,7
1.23999977111816,-0.360472232103348,2.80810809135437,2.06617331504822,-0.358167213168582,2.80911963300378,2.065473766401,2175.004,2182.306,2195.51,2186.671,-0.06688103,-8.745521E-05,0.02600069,-0.607631683349609,-0.266718447208405,0.215639144182205,-0.613532171888842,-0.269309789998822,0.217031967869944,7
1.25999927520752,-0.372889161109924,2.80265760421753,2.07057905197144,-0.370569960516116,2.80367545022638,2.06986113643172,2176.526,2181.486,2193.453,2186.696,-0.06651831,-8.612902E-05,0.02588575,-0.620846450328827,-0.272529572248459,0.220291763544083,-0.626761557965702,-0.275116825635118,0.221711754563334,7
1.27999973297119,-0.385568976402283,2.79709148406982,2.07507753372192,-0.383237171310206,2.79811518128674,2.07434205823506,2180.884,2181.624,2188.225,2185.975,-0.06602562,-8.34929E-05,0.02573187,-0.633991360664368,-0.278304755687714,0.224919319152832,-0.639917649128741,-0.28089168848773,0.226365613782811,7
1.29999923706055,-0.398509800434113,2.79141092300415,2.07966804504395,-0.396166092276166,2.79244003473406,2.0789155578627,2185.647,2182.662,2182.276,2184.554,-0.06547595,-8.141657E-05,0.0255456,-0.647042274475098,-0.284030824899673,0.229520857334137,-0.652992525595171,-0.286630902170029,0.230990743970246,7
1.31999969482422,-0.411709547042847,2.78561687469482,2.08434987068176,-0.409356278853839,2.78665020570791,2.08358147805513,2187.49,2183.386,2179.258,2183.315,-0.06495237,-8.080669E-05,0.02534533,-0.65998637676239,-0.289704471826553,0.234094619750977,-0.665980877123792,-0.292332135752996,0.235585266671419,7
1.33999919891357,-0.425166040658951,2.77971029281616,2.08912253379822,-0.422804665624168,2.7807470397732,2.08833873444554,2185.99,2183.559,2179.679,2182.424,-0.06449217,-8.207171E-05,0.02514571,-0.672825217247009,-0.295331120491028,0.238637328147888,-0.67887501668086,-0.297992015015137,0.240146462661264,7
1.35999965667725,-0.438877403736115,2.7736918926239,2.09398555755615,-0.436510599616338,2.77473082355131,2.09318709605086,2181.617,2182.628,2183.228,2182.267,-0.06408045,-8.430622E-05,0.02495461,-0.685567736625671,-0.300919741392136,0.243145734071732,-0.691669833554631,-0.303608296610836,0.244672524067467,7
1.3799991607666,-0.452841848134995,2.76756238937378,2.09893798828125,-0.450470712626348,2.76860303551452,2.09812537139659,2177.348,2181.276,2186.72,2182.378,-0.06365594,-8.607395E-05,0.02476618,-0.698221921920776,-0.306476026773453,0.247616484761238,-0.704357875920358,-0.309177709563527,0.249160814868214,7
1.39999961853027,-0.467057555913925,2.76132249832153,2.10397887229919,-0.464684151205244,2.76236405028403,2.10315325858216,2174.716,2179.716,2188.57,2182.588,-0.06316006,-8.665552E-05,0.02456946,-0.71078622341156,-0.311997652053833,0.252047151327133,-0.716934230177144,-0.314698097049351,0.253609596917535,7
1.42000007629395,-0.481522530317307,2.7549729347229,2.10910749435425,-0.479147949422651,2.75601516975423,2.10826970843406,2175.261,2178.822,2186.979,2182.299,-0.06255712,-8.608114E-05,0.02435125,-0.723249197006226,-0.317475587129593,0.256436169147491,-0.729392273203813,-0.320166551850962,0.258016527340698,7
1.4399995803833,-0.496234387159348,2.74851489067078,2.11432313919067,-0.493858974381722,2.74955776910937,2.11347361271576,2177.576,2178.491,2183.414,2181.549,-0.0618647,-8.464231E-05,0.02410707,-0.735592544078827,-0.322897732257843,0.260782659053802,-0.741725512822458,-0.325580224228528,0.262379309583079,7
1.46000003814697,-0.511190354824066,2.74194979667664,2.11962485313416,-0.508816086580471,2.74299234853357,2.11876456833778,2179.934,2178.521,2179.636,2180.502,-0.061127,-8.35126E-05,0.02384012,-0.747799754142761,-0.328254878520966,0.265085339546204,-0.753929326746746,-0.330937085230643,0.266696308548842,7
1.47999954223633,-0.526387572288513,2.73527884483337,2.12501168251038,-0.524015202423509,2.73632070051998,2.12414113076179,2181.117,2178.72,2176.935,2179.291,-0.06039197,-8.329474E-05,0.02355846,-0.759861171245575,-0.333543956279755,0.269342422485352,-0.765996861396945,-0.336234126480238,0.270965099840436,7
1.5,-0.541823148727417,2.72850346565247,2.13048267364502,-0.539455001353323,2.72954340472698,2.12960283285141,2179.672,2178.373,2176.994,2178.394,-0.0596889,-8.389106E-05,0.02327261,-0.77177494764328,-0.338767379522324,0.2735515832901,-0.777923685912788,-0.34146940305233,0.275184116077423,7
1.51999950408936,-0.557493984699249,2.72162485122681,2.13603687286377,-0.555131130487851,2.72266237185104,2.13514813481035,2176.953,2177.663,2178.364,2177.734,-0.05900606,-8.509991E-05,0.02298664,-0.783545017242432,-0.343930244445801,0.277710109949112,-0.789703189882223,-0.34664001330824,0.27935101888082,7
1.53999996185303,-0.57339745759964,2.71464419364929,2.14167308807373,-0.571042095828231,2.71567825768258,2.14077650814879,2173.654,2176.402,2180.421,2177.422,-0.05831258,-8.612649E-05,0.02270013,-0.795174241065979,-0.349035441875458,0.281815499067307,-0.801331131741852,-0.351744095414797,0.283464307832406,7
1.55999946594238,-0.589530646800995,2.70756268501282,2.14739036560059,-0.587183284974453,2.7085930868334,2.14648632126809,2171.836,2175.215,2180.9,2177.051,-0.05756742,-8.666781E-05,0.02240598,-0.806660830974579,-0.354081511497498,0.285865664482117,-0.812801146335156,-0.356778855388176,0.287521731310327,7
1.57999992370605,-0.605890572071075,2.70038151741028,2.15318751335144,-0.603553038016971,2.70140758792037,2.15227698698889,2171.369,2174.084,2179.958,2176.602,-0.0567525,-8.620913E-05,0.02209809,-0.817996501922607,-0.359062165021896,0.28985920548439,-0.824109179349094,-0.361742513588703,0.291521855134637,7
1.59999942779541,-0.622474014759064,2.69310212135315,2.1590633392334,-0.62014649288842,2.69412389514673,2.15814678539477,2172.532,2173.509,2177.182,2175.722,-0.05587152,-8.541344E-05,0.02177142,-0.829169392585754,-0.363969534635544,0.293794751167297,-0.835249112887851,-0.366632384567575,0.295462515149928,7
1.61999988555908,-0.639277279376984,2.68572616577148,2.16501665115356,-0.636961831219021,2.68674280668542,2.16409507325237,2173.491,2173.014,2174.553,2174.734,-0.05495433,-8.478504E-05,0.02142828,-0.840167462825775,-0.368796825408936,0.297671109437943,-0.846217077924917,-0.371446770016594,0.299342342719841,7
1.63999938964844,-0.656297028064728,2.67825531959534,2.17104649543762,-0.653993951203199,2.67926656197269,2.17012004583984,2173.991,2172.774,2172.275,2173.528,-0.05402968,-8.457513E-05,0.02107233,-0.850983321666718,-0.373541325330734,0.301486611366272,-0.857007205747659,-0.37618309386585,0.303159261835474,7
1.65999984741211,-0.673529326915741,2.67069125175476,2.17715120315552,-0.671240883384499,2.67169602550095,2.17622100647815,2172.683,2172.086,2171.888,2172.602,-0.05311781,-8.486146E-05,0.02071079,-0.861614108085632,-0.378203779459,0.305239528417587,-0.867615810734967,-0.3808397383129,0.306911968738621,7
1.67999935150146,-0.690970480442047,2.66303563117981,2.18332982063293,-0.688697296223526,2.66403353754805,2.182396069179,2170.736,2171.331,2172.125,2171.691,-0.05221234,-8.561873E-05,0.02034543,-0.872060835361481,-0.382786780595779,0.308927595615387,-0.878037275197179,-0.385414237474302,0.310598476217695,7
1.69999980926514,-0.708617031574249,2.65528988838196,2.1895809173584,-0.706361076477112,2.65628002572155,2.18864448639998,2168.191,2170.122,2173.035,2171.083,-0.05129568,-8.623268E-05,0.01997739,-0.882323861122131,-0.387291789054871,0.312549024820328,-0.888268095120134,-0.389905053263935,0.314217544756458,7
1.71999931335449,-0.726465046405792,2.64745545387268,2.19590306282043,-0.724226672948367,2.6484379267179,2.19496429445078,2166.64,2169.034,2172.872,2170.367,-0.05034227,-8.657894E-05,0.01960218,-0.892401456832886,-0.391717731952667,0.316102027893066,-0.898302905594253,-0.394309830756113,0.3177672765622,6
1.73999977111816,-0.744510769844055,2.63953423500061,2.20229482650757,-0.742291835837094,2.64050822808632,2.20135469748305,2165.74,2167.898,2172.038,2169.651,-0.04934092,-8.645775E-05,0.01921702,-0.902287304401398,-0.396060347557068,0.319585293531418,-0.908138382496557,-0.398627110827903,0.321246495753713,6
1.75999927520752,-0.762750148773193,2.6315279006958,2.20875477790833,-0.760550804433864,2.63249345848874,2.20781365769312,2166.109,2167.107,2169.788,2168.679,-0.0482911,-8.601076E-05,0.0188188,-0.911973357200623,-0.400314331054688,0.322997510433197,-0.917769415371968,-0.402854650246356,0.324653394549478,6
1.77999973297119,-0.781179249286652,2.62343835830688,2.21528148651123,-0.779001199544152,2.624394662272,2.21434033346049,2166.221,2166.288,2167.775,2167.688,-0.04721305,-8.544457E-05,0.01840886,-0.921450972557068,-0.404474675655365,0.326337575912476,-0.927192858355616,-0.406991068134889,0.327986860125626,6
1.79999923706055,-0.799793541431427,2.6152675151825,2.22187352180481,-0.797637061156276,2.61621445558168,2.22093261647994,2166.211,2165.671,2165.802,2166.527,-0.04612275,-8.539021E-05,0.01798852,-0.930714666843414,-0.408539146184921,0.329604059457779,-0.936403857038655,-0.411034233651984,0.331245175274892,6
1.81999969482422,-0.81858879327774,2.60701727867126,2.22852945327759,-0.816455887780414,2.60795393644612,2.22758962187,2164.958,2164.805,2165.121,2165.506,-0.04503619,-8.555914E-05,0.01756183,-0.939761400222778,-0.412507563829422,0.332795709371567,-0.945399442263937,-0.414982843486866,0.334427289682315,6
1.83999919891357,-0.837560594081879,2.59868955612183,2.23524761199951,-0.835451530374923,2.59961580398557,2.23430917445768,2163.42,2163.966,2164.691,2164.44,-0.04394802,-8.576838E-05,0.01712992,-0.948590815067291,-0.416381299495697,0.335910797119141,-0.954175017177893,-0.418834879851839,0.33753157724869,6
1.85999965667725,-0.856704592704773,2.59028625488281,2.24202656745911,-0.854621372193364,2.5912012068202,2.24109034859041,2161.297,2162.784,2164.905,2163.607,-0.04284973,-8.611142E-05,0.0166945,-0.957202136516571,-0.420160919427872,0.338947921991348,-0.962727787863392,-0.422589116357691,0.340557049648776,6
1.8799991607666,-0.876016438007355,2.58180928230286,2.24886465072632,-0.873959085495135,2.58271292251015,2.24793090588192,2159.973,2161.74,2164.248,2162.662,-0.04172428,-8.616147E-05,0.01625292,-0.965593576431274,-0.423845648765564,0.341905653476715,-0.971053416448501,-0.426243648896646,0.343502172395995,5
1.89999961853027,-0.895491659641266,2.57326054573059,2.25576019287109,-0.893461945258792,2.57415214720287,2.25482988237824,2158.854,2160.52,2163.393,2161.834,-0.0405658,-8.607098E-05,0.01580448,-0.973760545253754,-0.427432507276535,0.344782948493958,-0.979149282871096,-0.429797327393106,0.346366018664885,5
1.91999912261963,-0.915125548839569,2.56464219093323,2.26271176338196,-0.913123455431185,2.56552173233924,2.26178498015392,2158.686,2159.612,2161.491,2160.757,-0.03937217,-8.586027E-05,0.01534623,-0.981697618961334,-0.430917829275131,0.34757861495018,-0.987011309584547,-0.433248362009019,0.349147146056809,5
1.9399995803833,-0.934913516044617,2.5559561252594,2.26971769332886,-0.932940789643738,2.55682291855301,2.26879519940427,2158.248,2158.585,2159.858,2159.75,-0.03815777,-8.557535E-05,0.01487947,-0.989398658275604,-0.434298247098923,0.350291848182678,-0.99463704907941,-0.43659567841074,0.351844688785397,5
1.95999908447266,-0.954850733280182,2.5472047328949,2.27677607536316,-0.952907293969244,2.54805862658384,2.27585818635719,2157.898,2157.817,2158.073,2158.515,-0.03693005,-8.554827E-05,0.01440403,-0.996859550476074,-0.437572032213211,0.352921366691589,-1.00202268539534,-0.439837601583453,0.354457296986013,4
1.97999954223633,-0.974932253360748,2.53838992118835,2.28388547897339,-0.973020047569431,2.53923013853294,2.28297290779013,2156.629,2156.771,2157.241,2157.483,-0.0357018,-8.564501E-05,0.01392341,-1.00407755374908,-0.440738588571548,0.355466097593307,-1.00916594235594,-0.442973132400107,0.356984165479944,3
1.99999904632568,-0.995153307914734,2.52951383590698,2.29104399681091,-0.993272249130318,2.53034043983534,2.2901369577941,2155.349,2155.888,2156.386,2156.295,-0.03446823,-8.579233E-05,0.01343751,-1.01105201244354,-0.443798631429672,0.357924848794937,-1.01606326676544,-0.446000711186332,0.359424037353367,1
2.01999950408936,-1.01550889015198,2.52057886123657,2.29824995994568,-1.01366089017423,2.52139085106155,2.29734927214484,2153.478,2154.681,2156.164,2155.352,-0.03322719,-8.595968E-05,0.01294857,-1.01778161525726,-0.446752339601517,0.360296666622162,-1.02271255264354,-0.448919413522607,0.361776167633039,0
2.03999900817871,-1.03599417209625,2.51158690452576,2.30550146102905,-1.03417903253319,2.51238441771862,2.30460739652239,2152.323,2153.625,2155.172,2154.288,-0.03196486,-8.592931E-05,0.01245463,-1.02426517009735,-0.449599087238312,0.362580448389053,-1.02911051065465,-0.451727795555923,0.364039392743511,0
2.05999946594238,-1.0566041469574,2.50254011154175,2.31279706954956,-1.05482358687659,2.50332249586744,2.31191023810143,2151.054,2152.384,2154.317,2153.357,-0.03068121,-8.589833E-05,0.01195576,-1.03049910068512,-0.452336698770523,0.364775329828262,-1.0352552039603,-0.454425007111522,0.366213027544072,0
2.07999897003174,-1.07733368873596,2.49344086647034,2.32013463973999,-1.07558748875737,2.49420818644524,2.31925529789181,2150.587,2151.421,2152.593,2152.194,-0.029372,-8.578066E-05,0.01144963,-1.03647994995117,-0.454962939023972,0.366880536079407,-1.04114360809801,-0.45700972060238,0.368296002155962,0
2.09999942779541,-1.09817790985107,2.48429131507874,2.32751250267029,-1.09646757473797,2.48504287804213,2.32664145685347,2149.788,2150.288,2151.216,2151.161,-0.02804788,-8.574307E-05,0.01093775,-1.04220342636108,-0.457475394010544,0.36889523267746,-1.04677395439956,-0.459481159672025,0.370287690927313,0
2.11999893188477,-1.11913108825684,2.47509384155273,2.3349289894104,-1.11745666470604,2.47582972236658,2.33406617508062,2149.225,2149.371,2149.563,2149.938,-0.02671257,-8.558369E-05,0.01041938,-1.0476667881012,-0.459872871637344,0.370818674564362,-1.05214348420582,-0.461838113407742,0.372187118005116,0
2.13999938964844,-1.14018845558167,2.46585083007813,2.34238195419312,-1.13855152782581,2.46657013759314,2.34152830969165,2147.975,2148.304,2148.614,2148.823,-0.0253746,-8.569239E-05,0.009896792,-1.0528678894043,-0.462154656648636,0.372650057077408,-1.0572505961299,-0.464079878881168,0.373993716911909,0
2.15999889373779,-1.16134464740753,2.45656442642212,2.34986972808838,-1.15974487896899,2.457267321527,2.34902528363224,2146.843,2147.295,2147.527,2147.664,-0.02403183,-8.583468E-05,0.009370341,-1.05780589580536,-0.464321315288544,0.374388515949249,-1.0620927981636,-0.466205362225932,0.375706606120247,0
2.17999935150146,-1.18259406089783,2.44723701477051,2.35739040374756,-1.18103342657644,2.44792271899721,2.35655593254037,2145.149,2146.099,2147.033,2146.642,-0.02268374,-8.597386E-05,0.008841151,-1.06247985363007,-0.466372698545456,0.376033514738083,-1.06666865539517,-0.468213933587895,0.377325278041888,0
2.19999885559082,-1.20393180847168,2.4378707408905,2.36494207382202,-1.20240979118555,2.43853956921699,2.36411764599174,2144.092,2145.104,2145.868,2145.448,-0.02132127,-8.59483E-05,0.008307927,-1.06688892841339,-0.468308538198471,0.377584189176559,-1.07097594323214,-0.47010461648276,0.378848945745511,0
2.21999931335449,-1.22535252571106,2.42846822738647,2.37252283096313,-1.22387062715806,2.42911934075339,2.37170924049429,2142.733,2143.853,2145.029,2144.473,-0.01994495,-8.585519E-05,0.007772128,-1.07103073596954,-0.470127463340759,0.379040032625198,-1.07501339251443,-0.47187685381303,0.380277160276155,0
2.23999977111816,-1.24685049057007,2.41903162002563,2.38013076782227,-1.24540950021152,2.41966485793307,2.37932843997343,2142.116,2142.8,2143.413,2143.335,-0.01855105,-8.579665E-05,0.00723171,-1.0749032497406,-0.471828073263168,0.380400449037552,-1.0787792198128,-0.473529862742903,0.381609290760377,0
2.25999927520752,-1.26842069625854,2.40956354141235,2.38776397705078,-1.26701993083367,2.41017896493627,2.38697295235492,2141.313,2141.746,2141.995,2142.181,-0.01714703,-8.570864E-05,0.006687313,-1.0785037279129,-0.473408639431,0.381665050983429,-1.082271801882,-0.475062930749285,0.382844762988495,0
2.27999973297119,-1.29005718231201,2.40006613731384,2.39542055130005,-1.28869850466631,2.40066316049464,2.39464156983756,2140.193,2140.534,2140.896,2141.178,-0.01573822,-8.56877E-05,0.006139683,-1.08183038234711,-0.474868565797806,0.382833421230316,-1.08549011701563,-0.47647560935442,0.383983215540262,0
2.29999923706055,-1.31175494194031,2.39054203033447,2.40309858322144,-1.310437653324,2.39112076674904,2.40233161516716,2139.367,2139.66,2139.484,2139.859,-0.01432355,-8.573322E-05,0.005587245,-1.08488237857819,-0.476207554340363,0.383904844522476,-1.08843261196745,-0.477767216761258,0.38502409896757,0
2.31999969482422,-1.33350813388824,2.38099360466003,2.41079616546631,-1.332233924868,2.3815532989271,2.41004186724874,2137.895,2138.453,2138.74,2138.85,-0.01290781,-8.547533E-05,0.005033316,-1.08765864372253,-0.477425634860992,0.384879022836685,-1.09109842933565,-0.478937376613504,0.385967109971576,0
2.34000015258789,-1.35531115531921,2.37142324447632,2.41851115226746,-1.3540807370003,2.37196364632684,2.41776999764843,2136.88,2137.484,2137.53,2137.62,-0.01148621,-8.549311E-05,0.004476422,-1.09015893936157,-0.478523075580597,0.38575541973114,-1.09348639254077,-0.4799855724519,0.386811832346953,0
2.35999870300293,-1.37715888023376,2.36183333396912,2.42624187469482,-1.37597043343409,2.36235516967341,2.42551329801762,2135.647,2136.388,2136.556,2136.506,-0.01005929,-8.539383E-05,0.003918518,-1.09238243103027,-0.479499459266663,0.386533886194229,-1.09559539246311,-0.480911317428638,0.387557873751716,0
2.3799991607666,-1.39904546737671,2.35222625732422,2.4339861869812,-1.39790160609811,2.35272848703933,2.43327127026269,2134.093,2135.054,2135.908,2135.62,-0.008624913,-8.547914E-05,0.003359738,-1.0943284034729,-0.480354368686676,0.387214034795761,-1.09742501854645,-0.481714431330172,0.388205088954974,0
2.39999961853027,-1.42096531391144,2.342604637146,2.44174218177795,-1.41986657021294,2.34308697165655,2.441041195956,2133.648,2134.183,2134.136,2134.308,-0.007177219,-8.53773E-05,0.002796726,-1.09599614143372,-0.4810870885849,0.387795329093933,-1.09897435181488,-0.482394510772254,0.38875315287654,0
2.42000007629395,-1.44291305541992,2.33297061920166,2.44950771331787,-1.44185971365183,2.33343308696668,2.44882108985381,2132.762,2133.077,2132.826,2133.221,-0.005725796,-8.536854E-05,0.002232779,-1.09738326072693,-0.481696367263794,0.388277858495712,-1.1002427961335,-0.48295129408163,0.389201854638595,0
2.43999862670898,-1.46488285064697,2.32332706451416,2.45728087425232,-1.46387331301979,2.32377022315197,2.45660821986856,2131.74,2132.006,2131.659,2132.109,-0.004273308,-8.528167E-05,0.001667747,-1.09848952293396,-0.482181876897812,0.388661354780197,-1.10122978305395,-0.483384531738035,0.389550993157196,0
2.45999908447266,-1.48686897754669,2.31367611885071,2.46505975723267,-1.48590593619294,2.31409900884284,2.46440207939818,2130.276,2130.739,2130.939,2131.192,-0.002821886,-8.523979E-05,0.001101949,-1.09931492805481,-0.482543885707855,0.388945758342743,-1.10193512151287,-0.483694139874255,0.389800500845248,0
2.47999954223633,-1.50886631011963,2.30402040481567,2.47284245491028,-1.50794984648496,2.30442284005576,2.47219993165342,2129.622,2129.931,2129.416,2129.837,-0.001365136,-8.52407E-05,0.000532773,-1.09985983371735,-0.482782751321793,0.389130681753159,-1.10235843297826,-0.483879952333767,0.389950243800166,0
2.5,-1.53086876869202,2.29436254501343,2.48062682151794,-1.52999940142036,2.29474419355392,2.47999978065491,2128.383,2128.803,2128.492,2128.805,8.993701E-05,-8.505744E-05,-3.570758E-05,-1.10012328624725,-0.48289829492569,0.389216333627701,-1.10249955486506,-0.483941897749901,0.390000164508819,0
2.51999855041504,-1.55287075042725,2.28470468521118,2.48841094970703,-1.55204685377387,2.28506646997986,2.48779888588531,2127.282,2127.73,2127.444,2127.727,0.001545902,-8.510565E-05,-0.0006040049,-1.10010588169098,-0.48289081454277,0.389202564954758,-1.10235845989236,-0.483879964147706,0.389950253320809,0
2.53999900817871,-1.57486701011658,2.27504944801331,2.49619269371033,-1.57409076487327,2.27539030083839,2.49559673842616,2125.785,2126.535,2126.794,2126.779,0.003003128,-8.51479E-05,-0.001172856,-1.09980773925781,-0.48276025056839,0.389089435338974,-1.10193517533202,-0.483694163498159,0.389800519883332,0
2.55999946594238,-1.59685158729553,2.26539921760559,2.5039701461792,-1.59612338939172,2.26571908593874,2.50339059843167,2125.292,2125.638,2125.162,2125.548,0.004468124,-8.495659E-05,-0.001742773,-1.09922897815704,-0.482506603002548,0.388876765966415,-1.10122986375748,-0.48338456716283,0.389551021705408,0
2.57999992370605,-1.61881899833679,2.25575637817383,2.51174139976501,-1.61813908918888,2.25605530014117,2.511178471456,2124.375,2124.615,2123.969,2124.455,0.00593213,-8.494213E-05,-0.002312689,-1.09836864471436,-0.48212918639183,0.388564854860306,-1.1002427961335,-0.482951294081631,0.389201854638595,0
2.59999847412109,-1.64076352119446,2.24612379074097,2.51950454711914,-1.64013013650041,2.24640233554586,2.51895762386597,2123.388,2123.575,2122.86,2123.393,0.00739304,-8.47992E-05,-0.002881008,-1.09722721576691,-0.481628090143204,0.388153821229935,-1.09897448618125,-0.482394569752336,0.388753200407539,0
2.61999893188477,-1.66267967224121,2.23650407791138,2.52725744247437,-1.66209510357034,2.23676081886595,2.52672755060462,2122.005,2122.333,2122.151,2122.545,0.008849907,-8.469907E-05,-0.003448261,-1.09580552577972,-0.481003731489182,0.387643814086914,-1.09742517967316,-0.481714502056701,0.388205145952225,0
2.63999938964844,-1.68456172943115,2.22689867019653,2.53499817848206,-1.68402627972406,2.22713413470006,2.53448552408414,2121.476,2121.444,2120.62,2121.352,0.01030793,-8.448212E-05,-0.004017112,-1.09410452842712,-0.480256676673889,0.387034803628922,-1.09559558028815,-0.480911399874391,0.387557940193281,0
2.65999984741211,-1.70640408992767,2.21731114387512,2.542724609375,-1.70591806584041,2.217524740781,2.54222956366138,2120.286,2120.563,2119.755,2120.181,0.0117594,-8.453909E-05,-0.004585431,-1.09212422370911,-0.479387074708939,0.386327296495438,-1.09348639254077,-0.4799855724519,0.386811832346953,0
2.67999839782715,-1.72820138931274,2.2077431678772,2.55043506622314,-1.72776279686738,2.2079360016814,2.54995695788715,2119.287,2119.49,2118.72,2119.214,0.01320682,-8.449752E-05,-0.005150553,-1.08986592292786,-0.478395879268646,0.385521501302719,-1.09109867032741,-0.478937482396777,0.385967195220433,0
2.69999885559082,-1.74994802474976,2.19819760322571,2.55812740325928,-1.749559073496,2.19836853162757,2.55766721176737,2117.781,2118.356,2118.189,2118.334,0.01464991,-8.447206E-05,-0.005713546,-1.08733069896698,-0.477283269166946,0.384617745876312,-1.08843287940947,-0.477767334154866,0.385024193572989,0
2.71999931335449,-1.77163851261139,2.18867659568787,2.56579971313477,-1.77129926297029,2.18882568101579,2.5653576252773,2117.374,2117.505,2116.615,2117.163,0.01609616,-8.425484E-05,-0.006276538,-1.08451974391937,-0.476049810647964,0.383616179227829,-1.08549026390978,-0.476475673833569,0.383983267502861,0
2.73999977111816,-1.79326713085175,2.17918300628662,2.57345008850098,-1.79297783987214,2.17930987522693,2.57302624384565,2116.462,2116.522,2115.548,2116.158,0.01753661,-8.421393E-05,-0.0068374,-1.08143293857574,-0.474695116281509,0.382517367601395,-1.08227196189274,-0.475063000985962,0.382844819590982,0
2.7599983215332,-1.8148285150528,2.16971826553345,2.58107662200928,-1.81458724502079,2.16982443236146,2.5806703934743,2115.639,2115.511,2114.42,2115.193,0.01897008,-8.403487E-05,-0.007395066,-1.07807159423828,-0.473219752311707,0.381321758031845,-1.07877956594159,-0.473530014676047,0.381609413200595,0
2.77999877929688,-1.83631730079651,2.16028547286987,2.58867716789246,-1.83612612525697,2.16036994638828,2.58828959549428,2114.2,2114.5,2113.899,2114.266,0.02039418,-8.399817E-05,-0.007950601,-1.07443737983704,-0.471624433994293,0.380029797554016,-1.07501376461802,-0.471877017147806,0.380277291904744,0
2.79999923706055,-1.85772800445557,2.15088748931885,2.59625005722046,-1.85758696893028,2.15094971454442,2.59588119272092,2113.726,2113.68,2112.478,2113.136,0.02181599,-8.388949E-05,-0.008504539,-1.07053220272064,-0.469910174608231,0.378641754388809,-1.07097634116582,-0.470104791155647,0.378849086511282,0
2.81999969482422,-1.87905502319336,2.14152598381042,2.60379314422607,-1.87896435900967,2.14156611463429,2.60344326892398,2112.827,2112.632,2111.48,2112.277,0.02322827,-8.388194E-05,-0.009054215,-1.06635677814484,-0.468077182769775,0.377158373594284,-1.06666886719923,-0.468214026559231,0.377325352965834,0
2.83999824523926,-1.90029311180115,2.13220310211182,2.61130475997925,-1.90025088519889,2.13222239940551,2.61097320277201,2111.849,2111.755,2110.585,2111.27,0.02463021,-8.373402E-05,-0.009601228,-1.06191313266754,-0.466126412153244,0.375580281019211,-1.06209347183844,-0.466205657935332,0.375706844427192,0
2.85999870300293,-1.92143726348877,2.12292218208313,2.61878299713135,-1.92144525846897,2.12291913467703,2.6184705382816,2110.461,2110.76,2110.096,2110.418,0.02602248,-8.372097E-05,-0.01014505,-1.05720341205597,-0.464058935642242,0.373908072710037,-1.05725107057982,-0.464080087140836,0.37399388474467,0
2.8799991607666,-1.94248199462891,2.11368465423584,2.62622594833374,-1.94254013132975,2.11365954562777,2.62593267633843,2110.099,2109.885,2108.661,2109.422,0.02741196,-8.352069E-05,-0.01068567,-1.05222964286804,-0.461875706911087,0.372142225503922,-1.05214398380363,-0.461838332706076,0.372187294733741,0
2.89999961853027,-1.96342170238495,2.10449314117432,2.63363170623779,-1.96353022982118,2.10444594726115,2.63335775132244,2109.202,2109.047,2107.749,2108.446,0.02879042,-8.342444E-05,-0.01122363,-1.04699265956879,-0.459576934576035,0.370283603668213,-1.04677421667392,-0.459481274797291,0.370287783704716,0
2.91999816894531,-1.98425161838531,2.09534978866577,2.64099836349487,-1.9844083353464,2.09528150817842,2.64074320971427,2108.43,2108.211,2106.749,2107.48,0.03015774,-8.334033E-05,-0.01175626,-1.0414947271347,-0.457163661718369,0.368332833051682,-1.04114443203653,-0.457010082269983,0.368296293617448,0
2.93999862670898,-2.00496649742126,2.08625674247742,2.64832425117493,-2.00517324137097,2.08616675798756,2.64808862471227,2107.175,2107.187,2106.226,2106.752,0.03151222,-8.334393E-05,-0.0122841,-1.03573822975159,-0.45463690161705,0.366290748119354,-1.03525577777979,-0.454425258989445,0.366213230528008,0
2.95999908447266,-2.02556085586548,2.07721710205078,2.65560746192932,-2.02581780743442,2.07710483099187,2.65539147043718,2106.757,2106.485,2104.948,2105.677,0.03285942,-8.324731E-05,-0.01280874,-1.02972590923309,-0.451997846364975,0.364158064126968,-1.02911110877449,-0.451728058100472,0.364039604323491,0
2.97999954223633,-2.04603028297424,2.06823205947876,2.66284608840942,-2.04633693733163,2.06809796416928,2.66264994414828,2106.045,2105.55,2103.963,2104.888,0.03419277,-8.318543E-05,-0.01332699,-1.02345931529999,-0.449247062206268,0.361935675144196,-1.02271286373447,-0.448919550075892,0.361776277678902,0
2.99999809265137,-2.06636905670166,2.05930423736572,2.67003846168518,-2.06672364672868,2.05914922329139,2.66986157519481,2105.056,2104.714,2103.268,2104.04,0.03551013,-8.313976E-05,-0.01384045,-1.01694130897522,-0.446385771036148,0.359624564647675,-1.01606423575835,-0.446001136525519,0.35942438012665,0
3.01999855041504,-2.08657240867615,2.05043601989746,2.67718291282654,-2.08697683043936,2.05025909347939,2.6770259726262,2103.913,2103.815,2102.741,2103.289,0.03681379,-8.304341E-05,-0.01434911,-1.01017498970032,-0.443415492773056,0.357225626707077,-1.00916661190678,-0.44297342629928,0.356984402328057,0
3.03999900817871,-2.1066358089447,2.04162931442261,2.68427777290344,-2.10708959766421,2.04143059944794,2.68414069887875,2103.6,2103.145,2101.474,2102.279,0.03810848,-8.293246E-05,-0.01485405,-1.00316309928894,-0.4403375685215,0.354739725589752,-1.00202337823358,-0.439837905704621,0.35445754207185,0
3.05999946594238,-2.12655401229858,2.03288626670837,2.69132113456726,-2.12705706463699,2.032665884925,2.69120402636024,2102.779,2102.331,2100.694,2101.489,0.03938683,-8.29243E-05,-0.01535206,-0.995907545089722,-0.437152802944183,0.352167993783951,-0.994637407002414,-0.436595835520951,0.35184481539772,0
3.07999992370605,-2.14632201194763,2.02420926094055,2.69831132888794,-2.14687440612201,2.02396706794652,2.69821424818317,2102.046,2101.578,2099.865,2100.653,0.04064919,-8.282228E-05,-0.01584368,-0.988411605358124,-0.43386247754097,0.349511295557022,-0.987011678866999,-0.433248524105457,0.349147276687444,0
3.09999847412109,-2.165935754776,2.01559948921204,2.70524668693542,-2.16653499000215,2.01533705967864,2.70516901829056,2101.348,2100.787,2099.038,2099.877,0.04189481,-8.288155E-05,-0.01632891,-0.980678498744965,-0.430468201637268,0.346770882606506,-0.979150043853549,-0.42979766142616,0.346366287856179,0
3.11999893188477,-2.18538975715637,2.00706028938293,2.71212553977966,-2.18603786520742,2.00677627759327,2.71206800024923,2100.101,2099.948,2098.737,2099.223,0.04312271,-8.271381E-05,-0.01680721,-0.972711563110352,-0.426971256732941,0.343947857618332,-0.971054199540027,-0.426243992634471,0.343502449408192,0
3.13999938964844,-2.2046799659729,1.99859285354614,2.71894645690918,-2.20537651251839,1.99828758330012,2.71890888793882,2100.023,2099.287,2097.4,2098.323,0.04434012,-8.238657E-05,-0.01728019,-0.964514315128326,-0.423373192548752,0.341043144464493,-0.96272819030322,-0.42258929300855,0.34055719200856,0
3.15999984741211,-2.22380208969116,1.99019908905029,2.72570753097534,-2.22454636249338,1.98987298255444,2.72569006495687,2099.288,2098.571,2096.675,2097.58,0.04553741,-8.253158E-05,-0.01774624,-0.956088960170746,-0.419674813747406,0.338058114051819,-0.954175430346663,-0.418835061212165,0.33753172340375,0
3.17999839782715,-2.24275088310242,1.98188161849976,2.73240733146667,-2.24354111185315,1.98153524217904,2.73240930157009,2098.527,2097.856,2096.014,2096.86,0.04671463,-8.24618E-05,-0.0182043,-0.947439432144165,-0.415877848863602,0.334993869066238,-0.945400289716769,-0.41498321547607,0.334427589461795,0
3.19999885559082,-2.26152205467224,1.97364223003387,2.7390444278717,-2.26235995563499,1.97327471551211,2.73906631302955,2097.658,2097.056,2095.482,2096.26,0.04787259,-8.233666E-05,-0.01865544,-0.93856954574585,-0.411984235048294,0.331851869821548,-0.936404725256859,-0.411034614756142,0.331245482399952,0
3.21999931335449,-2.28011178970337,1.96548223495483,2.74561715126038,-2.28099671905633,1.96509411297287,2.74565891505661,2097.434,2096.531,2094.401,2095.354,0.04901383,-8.225062E-05,-0.01910072,-0.92948305606842,-0.407995581626892,0.328633189201355,-0.927193302666276,-0.406991263164941,0.327987017296874,0
3.23999977111816,-2.29851579666138,1.95740389823914,2.75212383270264,-2.29944712315351,1.95699531281133,2.75218559400301,2096.636,2095.9,2093.854,2094.657,0.05013181,-8.216596E-05,-0.01953695,-0.920183062553406,-0.403913378715515,0.325339257717133,-0.917769869698376,-0.402854849672816,0.324653555263713,0
3.2599983215332,-2.3167290687561,1.94940912723541,2.75856328010559,-2.31770523486623,1.94898091934279,2.75864425109739,2095.957,2095.203,2093.243,2094.035,0.05122841,-8.205891E-05,-0.01996412,-0.910674095153809,-0.399739652872086,0.321971505880356,-0.908139310797032,-0.39862751830516,0.321246824132384,0
3.27999877929688,-2.33474850654602,1.94149959087372,2.76493382453918,-2.33577041651462,1.94105121247666,2.76503466076573,2095.146,2094.512,2092.775,2093.452,0.05230418,-8.192089E-05,-0.02038277,-0.900960385799408,-0.395476102828979,0.318531394004822,-0.898303853151023,-0.394310246685916,0.317767611752627,0
3.29999923706055,-2.35256910324097,1.93367695808411,2.77123427391052,-2.3536368792449,1.93320873322883,2.77135477524855,2094.888,2093.928,2091.844,2092.744,0.05336175,-8.201198E-05,-0.0207929,-0.891045987606049,-0.39112451672554,0.315020203590393,-0.888268578324885,-0.389905265366537,0.314217715686171,0
3.31999969482422,-2.37018799781799,1.92594337463379,2.77746295928955,-2.37130066925535,1.92545521711956,2.77760319592094,2094.422,2093.418,2091.117,2092.03,0.05439596,-8.1871E-05,-0.02119503,-0.880934536457062,-0.386686205863953,0.311439514160156,-0.878037767621794,-0.385414453623961,0.310598650408858,0
3.33999824523926,-2.38760042190552,1.91830027103424,2.78361868858337,-2.38875626460942,1.91779308800147,2.78377796944321,2093.838,2092.688,2090.537,2091.574,0.05540481,-8.188389E-05,-0.02158652,-0.870630502700806,-0.382163196802139,0.307790875434875,-0.867616813598857,-0.380840178519748,0.306912323493487,0
3.35999870300293,-2.40480327606201,1.91074895858765,2.7897002696991,-2.40600321702502,1.9102225426479,2.78987893723922,2093.058,2092.098,2090.167,2091.025,0.05638833,-8.183873E-05,-0.02196948,-0.860138773918152,-0.377557545900345,0.304075926542282,-0.857008226193386,-0.376183541790242,0.30315962280977,0
3.3799991607666,-2.42179250717163,1.90329170227051,2.79570627212524,-2.42303616460595,1.90274593466178,2.79590420258225,2092.753,2091.685,2089.41,2090.281,0.05734965,-8.181225E-05,-0.02234445,-0.849463939666748,-0.37287163734436,0.300296097993851,-0.846217596716265,-0.371446997739924,0.29934252623802,0
3.39999961853027,-2.43856525421143,1.89592945575714,2.80163526535034,-2.43985151339641,1.89536484160912,2.80185249413994,2092.301,2091.142,2088.804,2089.731,0.0582853,-8.178951E-05,-0.02270931,-0.838610053062439,-0.368107348680496,0.29645311832428,-0.835249640020491,-0.366632615952312,0.29546270161877,0
3.41999816894531,-2.45511651039124,1.88866424560547,2.80748629570007,-2.45644419295921,1.88808148915701,2.80772201828675,2091.68,2090.612,2088.383,2089.223,0.05919411,-8.178572E-05,-0.02306351,-0.827582180500031,-0.36326676607132,0.292548596858978,-0.824110249830672,-0.361742983476318,0.291522233808704,0
3.43999862670898,-2.47144436836243,1.8814971446991,2.81325793266296,-2.47281396757006,1.88089598077656,2.81351269163717,2091.165,2090.122,2087.904,2088.689,0.06007764,-8.179533E-05,-0.02340759,-0.816385328769684,-0.358352243900299,0.288584470748901,-0.812802232558737,-0.356779332185739,0.287522115552999,0
3.45999908447266,-2.48754477500916,1.87442970275879,2.8189492225647,-2.4889559428033,1.87381046487469,2.8192227828283,2090.932,2089.672,2087.207,2088.126,0.06093613,-8.17843E-05,-0.02374048,-0.805024385452271,-0.35336571931839,0.284562259912491,-0.801331682481559,-0.351744337161851,0.283464502652055,0
3.47999954223633,-2.50341463088989,1.8674635887146,2.82455897331238,-2.50486691923294,1.8668263458386,2.82485116008947,2090.548,2089.217,2086.671,2087.628,0.06176602,-8.183601E-05,-0.02406272,-0.793504118919373,-0.348309069871902,0.280483841896057,-0.789703748001958,-0.346640258294755,0.279351216311094,0
3.49999809265137,-2.51905155181885,1.86059975624084,2.83008599281311,-2.52054231771463,1.85994563368254,2.83039620358597,2090.176,2088.708,2086.166,2087.211,0.06256615,-8.178019E-05,-0.02437218,-0.781830012798309,-0.34318470954895,0.276351153850555,-0.77792481640483,-0.341469899281523,0.275184515979699,0
3.51999855041504,-2.53445148468018,1.85383999347687,2.83552932739258,-2.53598213939304,1.85316832790405,2.83585791372272,2089.387,2088.145,2086.061,2086.934,0.06333547,-8.165684E-05,-0.02467099,-0.77000766992569,-0.337995052337646,0.272165983915329,-0.765998005625777,-0.33623462873919,0.270965504601988,0
3.53999900817871,-2.54961252212524,1.84718489646912,2.84088802337646,-2.55118199725693,1.84649635418059,2.84123473863051,2089.428,2087.879,2085.269,2086.291,0.06407932,-8.169402E-05,-0.02496074,-0.758042752742767,-0.332742750644684,0.267930239439011,-0.753929905465823,-0.330937339259234,0.266696513265963,0
3.55999946594238,-2.56453108787537,1.84063649177551,2.84616088867188,-2.56613912109414,1.8399309284961,2.84652569836954,2088.919,2087.534,2084.966,2085.862,0.06479122,-8.169619E-05,-0.02523878,-0.745939970016479,-0.327430009841919,0.263645857572556,-0.741726097877611,-0.325580481038338,0.262379516541534,0
3.57999801635742,-2.57920551300049,1.83419513702393,2.85134720802307,-2.58084946221158,1.83347382802335,2.85172936074788,2088.732,2087.173,2084.436,2085.43,0.06547274,-8.163747E-05,-0.02550456,-0.733705163002014,-0.322059571743011,0.259314864873886,-0.729393455437592,-0.320167070792177,0.258016945546188,0
3.59999847412109,-2.59363222122192,1.82786273956299,2.85644602775574,-2.5953132841908,1.8271249370633,2.85684581900533,2088.038,2086.741,2084.375,2085.176,0.0661213,-8.168039E-05,-0.02575703,-0.72134405374527,-0.316633760929108,0.254939287900925,-0.716935423977122,-0.314698621067545,0.253610019214473,0
3.61999893188477,-2.60780954360962,1.82163953781128,2.86145639419556,-2.60952674675718,1.82088594130351,2.86187371467628,2088.19,2086.474,2083.627,2084.676,0.06674178,-8.172968E-05,-0.02599778,-0.708862900733948,-0.311155378818512,0.250521183013916,-0.704359080718031,-0.309178238409157,0.249161241055497,0
3.63999938964844,-2.62173509597778,1.81552696228027,2.86637759208679,-2.62348754359633,1.8147578531001,2.86681223192095,2087.783,2086.174,2083.378,2084.346,0.06732716,-8.173307E-05,-0.02622521,-0.696266949176788,-0.305626511573792,0.246062636375427,-0.691670441162776,-0.303608563320276,0.244672739003858,0
3.65999794006348,-2.63540625572205,1.80952572822571,2.87120890617371,-2.63719219493691,1.80874219989779,2.8716601397988,2087.51,2085.823,2083.063,2084.076,0.06787878,-8.167526E-05,-0.02643933,-0.683562755584717,-0.300050109624863,0.241565898060799,-0.678876854249149,-0.297992821615267,0.240147112685956,0
3.67999839782715,-2.64882111549377,1.80363726615906,2.87594962120056,-2.65064125372798,1.80283873897976,2.87641763391103,2087.081,2085.539,2082.917,2083.798,0.06839622,-8.173066E-05,-0.02664013,-0.670756638050079,-0.294428825378418,0.237033098936081,-0.665982111399319,-0.292332677537924,0.235585703286251,0
3.69999885559082,-2.66197824478149,1.79786205291748,2.88059902191162,-2.66383146507896,1.79704889907937,2.88108356286682,2087.178,2085.294,2082.354,2083.452,0.06888177,-8.185094E-05,-0.02682815,-0.657854914665222,-0.288765579462051,0.232466399669647,-0.652993768491075,-0.286631447738869,0.230991183634466,0
3.71999931335449,-2.67487573623657,1.79220056533813,2.88515639305115,-2.67676102125718,1.79137347370043,2.88565728719558,2086.887,2085.027,2082.147,2083.239,0.06933028,-8.192118E-05,-0.02700232,-0.644863545894623,-0.283062785863876,0.22786808013916,-0.639918274576701,-0.280891963027952,0.22636583502989,0
3.73999786376953,-2.6875114440918,1.7866542339325,2.88962125778198,-2.6894270491427,1.7858137239982,2.89013779055472,2086.617,2084.852,2081.974,2082.959,0.06974239,-8.194564E-05,-0.02716318,-0.63178938627243,-0.277323633432388,0.223240405321121,-0.626763445363602,-0.275117654107944,0.221712422214843,0
3.7599983215332,-2.69988417625427,1.78122329711914,2.89399290084839,-2.70183041945117,1.78036926777226,2.89452538095276,2086.388,2084.603,2081.802,2082.789,0.07011881,-8.176989E-05,-0.02731018,-0.61863899230957,-0.271551162004471,0.218585789203644,-0.613533436882819,-0.269310345267605,0.217032415351176,0
3.77999877929688,-2.71199250221252,1.77590823173523,2.89827108383179,-2.71396850059591,1.77504126015692,2.89881912748751,2086.444,2084.519,2081.422,2082.462,0.07046004,-8.18822E-05,-0.02744334,-0.605418980121613,-0.265748262405396,0.213906511664391,-0.60023627424177,-0.263473559125785,0.212328653254741,0
3.79999923706055,-2.72383499145508,1.77070999145508,2.90245509147644,-2.72584001810989,1.76983026057916,2.90301857932674,2086.289,2084.398,2081.25,2082.256,0.07076276,-8.192095E-05,-0.02756105,-0.592135906219482,-0.259917765855789,0.209205031394958,-0.58687884004255,-0.257610316798915,0.207603570589516,0
3.81999969482422,-2.73541116714478,1.7656284570694,2.90654468536377,-2.73744383626524,1.76473676756643,2.90712333471602,2086.238,2084.222,2081.035,2082.128,0.07102676,-8.202634E-05,-0.02766332,-0.578796863555908,-0.254062831401825,0.204483792185783,-0.573468125277292,-0.251723686981204,0.20285964036156,0
3.83999824523926,-2.74671936035156,1.76066470146179,2.9105396270752,-2.74877789210316,1.75976168665397,2.91113266390063,2085.98,2084.072,2081.038,2082.048,0.07125083,-8.200222E-05,-0.02774961,-0.565409183502197,-0.248186349868774,0.199745312333107,-0.560012514622002,-0.245817350124041,0.198099828581163,0
3.85999870300293,-2.75775861740112,1.75581908226013,2.91443943977356,-2.75984349589463,1.75490444269866,2.91504703037817,2085.877,2083.894,2080.95,2082.012,0.07143695,-8.2064E-05,-0.02782098,-0.551980316638947,-0.242291614413261,0.194992154836655,-0.546516648630839,-0.23989334319749,0.193325776806252,0
