t,x_s1,x_s2,x_s3,x_s_d1,x_s_d2,x_s_d3,propellers_rpms1,propellers_rpms2,propellers_rpms3,propellers_rpms4,rollRad,pitchRad,yawRad,v_s1,v_s2,v_s3,v_s_d1,v_s_d2,v_s_d3,insideCount
2.679999,-0.0599999576807022,2.94000005722046,1.95981585979462,-0.0599999986588955,2.94000005722046,1.95999991893768,2127.827,2127.827,2127.828,2127.827,5.74939713260392E-06,45.0000228881836,8.3199820437585E-06,-9.27646155446382E-08,-3.36285751245669E-07,0.00128727767150849,0,0,0,7
2.699999,-0.0599999614059925,2.94000005722046,1.95983982086182,-0.0599999986588955,2.94000005722046,1.95999991893768,2127.845,2127.844,2127.845,2127.845,6.36190497971256E-06,45.0000228881836,8.91434228833532E-06,-9.86092345556244E-08,-3.65508867616882E-07,0.00120039226021618,0,0,0,7
2.719999,-0.0599999651312828,2.94000005722046,1.95986211299896,-0.0599999986588955,2.94000005722046,1.95999991893768,2127.866,2127.867,2127.869,2127.867,6.88018326400197E-06,45.0000228881836,9.14293377718423E-06,-1.04453896199175E-07,-3.9473223978348E-07,0.00111512851435691,0,0,0,7
2.739999,-0.0599999688565731,2.94000005722046,1.95988273620605,-0.0599999986588955,2.94000005722046,1.95999991893768,2127.893,2127.894,2127.894,2127.894,8.81190590007463E-06,45.0000228881836,9.55440918914974E-06,-1.10298579159007E-07,-4.23955839323753E-07,0.00103191717062145,0,0,0,7
2.759999,-0.0599999725818634,2.94000005722046,1.95990180969238,-0.0599999986588955,2.94000005722046,1.95999991893768,2127.924,2127.923,2127.923,2127.923,1.11205481516663E-05,45.0000228881836,1.01487703432213E-05,-1.1029857205358E-07,-4.38567838045856E-07,0.00095112738199532,0,0,0,7
2.779999,-0.0599999763071537,2.94000005722046,1.95991921424866,-0.0599999986588955,2.94000005722046,1.95999991893768,2127.957,2127.954,2127.953,2127.956,1.29580384964356E-05,45.0000228881836,1.06516872619977E-05,-1.10298586264435E-07,-4.53180064141634E-07,0.000873093144036829,0,0,0,7
2.799999,-0.059999980032444,2.94000005722046,1.95993518829346,-0.0599999986588955,2.94000005722046,1.95999991893768,2127.991,2127.989,2127.987,2127.99,1.32407458295347E-05,45.0000228881836,1.06516754385666E-05,-1.16143603179353E-07,-4.67792574454506E-07,0.000797994609456509,0,0,0,7
2.819999,-0.0599999837577343,2.94000005722046,1.95994973182678,-0.0599999986588955,2.94000005722046,1.95999991893768,2128.025,2128.025,2128.025,2128.025,1.16859700938221E-05,45.0000228881836,1.00572888186434E-05,-1.21988719570254E-07,-4.82405368984473E-07,0.000726077938452363,0,0,0,7
2.839999,-0.0599999874830246,2.94000005722046,1.95996284484863,-0.0599999986588955,2.94000005722046,1.95999991893768,2128.061,2128.063,2128.063,2128.062,9.61293426371412E-06,45.0000228881836,9.50862340687308E-06,-1.21988747991963E-07,-4.97018334044697E-07,0.000657479336950928,0,0,0,7
2.859999,-0.0599999912083149,2.94000005722046,1.9599746465683,-0.0599999986588955,2.94000005722046,1.95999991893768,2128.098,2128.1,2128.102,2128.1,8.52930770633975E-06,45.0000228881836,9.18856312637217E-06,-1.21988719570254E-07,-5.11631469635176E-07,0.0005922163836658,0,0,0,7
2.879999,-0.0599999949336052,2.94000005722046,1.95998525619507,-0.0599999986588955,2.94000005722046,1.95999991893768,2128.137,2128.139,2128.139,2128.138,8.85912595549598E-06,45.0000228881836,9.05138494999846E-06,-1.2198867693769E-07,-5.26244832599332E-07,0.000530451710801572,0,0,0,7
2.899999,-0.0599999986588955,2.94000005722046,1.95999467372894,-0.0599999986588955,2.94000005722046,1.95999991893768,2128.177,2128.177,2128.177,2128.176,1.00841261883033E-05,45.0000228881836,9.23425523069454E-06,-1.2198864851598E-07,-5.40858479780582E-07,0.000472220475785434,0,0,0,7
2.919999,-0.0600000023841858,2.94000005722046,1.96000301837921,-0.0599999986588955,2.94000005722046,1.95999991893768,2128.215,2128.215,2128.214,2128.215,1.12620136860642E-05,45.0000228881836,9.46284853853285E-06,-1.2198864851598E-07,-5.55472411178926E-07,0.000417522649513558,0,0,0,7
2.939999,-0.0600000061094761,2.94000005722046,1.96001029014587,-0.0599999986588955,2.94000005722046,1.95999991893768,2128.253,2128.252,2128.251,2128.252,1.17331765068229E-05,45.0000228881836,9.82860365184024E-06,-1.2198867693769E-07,-5.70086626794364E-07,0.000366349471732974,0,0,0,7
2.959999,-0.0600000098347664,2.94000005722046,1.96001660823822,-0.0599999986588955,2.94000005722046,1.95999991893768,2128.288,2128.289,2128.29,2128.289,1.16389619506663E-05,45.0000228881836,1.01029145298526E-05,-1.21988691148545E-07,-5.84701126626896E-07,0.000318639416946098,0,0,0,7
2.979999,-0.0600000135600567,2.94000005722046,1.96002209186554,-0.0599999986588955,2.94000005722046,1.95999991893768,2128.325,2128.325,2128.325,2128.325,1.22985838970635E-05,45.0000228881836,1.02857829915592E-05,-1.21988662726835E-07,-5.99315853833104E-07,0.000274335325229913,0,0,0,7
2.999999,-0.060000017285347,2.94000005722046,1.96002674102783,-0.0599999986588955,2.94000005722046,1.95999991893768,2128.36,2128.36,2128.36,2128.36,1.25812885016785E-05,45.0000228881836,1.01943305708119E-05,-1.27834653085301E-07,-6.13930865256407E-07,0.000233358106925152,0,0,0,7
3.019999,-0.0600000210106373,2.94000005722046,1.96003067493439,-0.0599999986588955,2.94000005722046,1.95999991893768,2128.393,2128.394,2128.394,2128.393,1.24870739455218E-05,45.0000228881836,1.001143209578E-05,-1.27834667296156E-07,-6.28546104053385E-07,0.000195589105715044,0,0,0,7
3.039999,-0.0600000247359276,2.94000005722046,1.96003389358521,-0.0599999986588955,2.94000005722046,1.95999991893768,2128.425,2128.426,2128.426,2128.426,1.25813148770249E-05,45.0000228881836,1.00114193628542E-05,-1.27834667296156E-07,-6.43161513380619E-07,0.000160905256052501,0,0,0,7
3.059999,-0.0600000284612179,2.94000005722046,1.96003651618958,-0.0599999986588955,2.94000005722046,1.95999991893768,2128.456,2128.457,2128.457,2128.457,1.29111358546652E-05,45.0000228881836,1.02400099422084E-05,-1.27834667296156E-07,-6.57777150081529E-07,0.000129183506942354,0,0,0,7
3.079999,-0.0600000321865082,2.94000005722046,1.9600385427475,-0.0599999986588955,2.94000005722046,1.95999991893768,2128.486,2128.486,2128.486,2128.486,1.34294132294599E-05,45.0000228881836,1.06514853541739E-05,-1.27834667296156E-07,-6.72393014156114E-07,0.000100335964816622,0,0,0,7
3.099999,-0.0600000359117985,2.94000005722046,1.96003997325897,-0.0599999986588955,2.94000005722046,1.95999991893768,2128.514,2128.514,2128.514,2128.515,1.41361497298931E-05,45.0000228881836,1.10629607661394E-05,-1.33681098191119E-07,-6.87009105604375E-07,7.41956318961456E-05,0,0,0,7
3.119999,-0.0600000396370888,2.94000005722046,1.96004092693329,-0.0599999986588955,2.94000005722046,1.95999991893768,2128.541,2128.541,2128.541,2128.541,1.49371162478928E-05,45.0000228881836,1.10172259155661E-05,-1.4537410208959E-07,-6.43160262825404E-07,5.06086798850447E-05,0,0,0,7
3.139999,-0.0600000433623791,2.94000005722046,1.96004152297974,-0.0599999986588955,2.94000005722046,1.95999991893768,2128.568,2128.563,2128.565,2128.569,1.55967391037848E-05,45.0000228881836,1.06514444269123E-05,-1.57067262307464E-07,-5.99310908455664E-07,2.94828259939095E-05,0,0,0,7
3.159999,-0.0600000470876694,2.94000005722046,1.96004176139832,-0.0599999986588955,2.94000005722046,1.95999991893768,2128.591,2128.589,2128.59,2128.591,1.51256072058459E-05,45.0000228881836,7.90817193774274E-06,-1.68760522001321E-07,-5.55461156181991E-07,1.0695010132622E-05,0,0,0,7
3.179999,-0.0600000508129597,2.94000005722046,1.96004164218903,-0.0599999986588955,2.94000005722046,1.95999991893768,2128.612,2128.613,2128.612,2128.611,1.42775552376406E-05,45.0000228881836,4.15903559769504E-06,-1.62913778467555E-07,-5.4669112614647E-07,-5.92176911595743E-06,0,0,0,7
3.199999,-0.06000005453825,2.94000005722046,1.96004128456116,-0.0599999986588955,2.94000005722046,1.95999991893768,2128.631,2128.637,2128.634,2128.628,1.37593096951605E-05,45.0000228881836,1.09571601569769E-06,-1.39526676434798E-07,-5.26227381669742E-07,-2.05169362743618E-05,0,0,0,7
3.219999,-0.06000005453825,2.94000005722046,1.96004056930542,-0.0599999986588955,2.94000005722046,1.95999991893768,2128.651,2128.654,2128.652,2128.649,1.46545080497162E-05,45.0000228881836,1.69007557815348E-06,-8.69052456664576E-08,-4.94069581691292E-07,-3.321794065414E-05,0,0,0,7
3.239999,-0.06000005453825,2.94000005722046,1.96003973484039,-0.0599999986588955,2.94000005722046,1.95999991893768,2128.673,2128.67,2128.665,2128.669,1.6067964679678E-05,45.0000228881836,4.43332191935042E-06,-3.42833210709159E-08,-4.61911582760877E-07,-4.41654156020377E-05,0,0,0,7
3.259999,-0.06000005453825,2.94000005722046,1.96003866195679,-0.0599999986588955,2.94000005722046,1.95999991893768,2128.688,2128.684,2128.683,2128.687,1.37593524414115E-05,45.0000228881836,7.77094101067632E-06,-1.08957447508828E-08,-4.41447440380216E-07,-5.34604405402206E-05,0,0,0,7
3.279999,-0.06000005453825,2.94000005722046,1.96003746986389,-0.0599999986588955,2.94000005722046,1.95999991893768,2128.698,2128.698,2128.703,2128.704,9.23634615901392E-06,45.0000228881836,9.78265143203316E-06,-5.04879826834781E-09,-4.32677097705891E-07,-6.12524381722324E-05,0,0,0,7
3.299999,-0.06000005453825,2.94000005722046,1.96003615856171,-0.0599999986588955,2.94000005722046,1.95999991893768,2128.71,2128.712,2128.719,2128.716,6.73927706884569E-06,45.0000228881836,9.27970631892094E-06,-5.04861796812861E-09,-4.47294667083042E-07,-6.76556810503826E-05,0,0,0,7
3.319999,-0.06000005453825,2.94000005722046,1.96003472805023,-0.0599999986588955,2.94000005722046,1.95999991893768,2128.725,2128.727,2128.729,2128.726,8.10562414699234E-06,45.0000228881836,7.49657374399249E-06,-1.08954729682864E-08,-4.76529862680763E-07,-7.28020022506826E-05,0,0,0,7
3.339999,-0.06000005453825,2.94000005722046,1.96003317832947,-0.0599999986588955,2.94000005722046,1.95999991893768,2128.739,2128.739,2128.737,2128.737,1.1450792044343E-05,45.0000228881836,6.07920856054989E-06,-5.04831465519828E-09,-4.91147488901333E-07,-7.68144673202187E-05,0,0,0,7
3.359999,-0.06000005453825,2.94000005722046,1.9600316286087,-0.0599999986588955,2.94000005722046,1.95999991893768,2128.75,2128.75,2128.746,2128.746,1.42776971188141E-05,45.0000228881836,5.8048694882018E-06,3.00343678816262E-08,-4.58988267837412E-07,-7.97985412646085E-05,0,0,0,7
3.379999,-0.06000005453825,2.94000005722046,1.96002995967865,-0.0599999986588955,2.94000005722046,1.95999991893768,2128.762,2128.757,2128.752,2128.757,1.54555837070802E-05,45.0000228881836,7.1307667894871E-06,5.34228519200042E-08,-4.38523244383759E-07,-8.18465196061879E-05,0,0,0,7
3.399999,-0.06000005453825,2.94000005722046,1.9600282907486,-0.0599999986588955,2.94000005722046,1.95999991893768,2128.766,2128.765,2128.764,2128.766,1.20162176244776E-05,45.0000228881836,8.27377698442433E-06,5.92698548018689E-08,-4.29752674335759E-07,-8.30682765808888E-05,0,0,0,7
3.419999,-0.06000005453825,2.94000005722046,1.96002662181854,-0.0599999986588955,2.94000005722046,1.95999991893768,2128.77,2128.772,2128.775,2128.774,7.54032589611597E-06,45.0000228881836,8.86813450051704E-06,8.26586372681959E-08,-4.09287537195269E-07,-8.35253376862966E-05,0,0,0,7
3.439999,-0.06000005453825,2.94000005722046,1.96002495288849,-0.0599999986588955,2.94000005722046,1.95999991893768,2128.777,2128.779,2128.781,2128.779,5.60863418286317E-06,45.0000228881836,8.54807240102673E-06,8.85059989741421E-08,-4.23905532898061E-07,-8.32924124551937E-05,0,0,0,7
3.459999,-0.06000005453825,2.94000005722046,1.96002328395844,-0.0599999986588955,2.94000005722046,1.95999991893768,2128.781,2128.786,2128.788,2128.783,5.18461911269696E-06,45.0000228881836,8.04512728791451E-06,8.26588291147345E-08,-4.53141666412193E-07,-8.2479375123512E-05,0,0,0,7
3.479999,-0.06000005453825,2.94000005722046,1.96002161502838,-0.0599999986588955,2.94000005722046,1.95999991893768,2128.787,2128.79,2128.791,2128.788,7.49326090954128E-06,45.0000228881836,8.54804511618568E-06,7.68116450444722E-08,-4.82377799926326E-07,-8.11609352240339E-05,0,0,0,7
3.499999,-0.06000005453825,2.94000005722046,1.96002006530762,-0.0599999986588955,2.94000005722046,1.95999991893768,2128.794,2128.793,2128.793,2128.793,1.15451484816731E-05,45.0000228881836,9.64533683145419E-06,7.09644254470732E-08,-5.11614018705586E-07,-7.93942235759459E-05,0,0,0,7
3.519999,-0.06000005453825,2.94000005722046,1.96001851558685,-0.0599999986588955,2.94000005722046,1.95999991893768,2128.801,2128.795,2128.793,2128.798,1.48432036439772E-05,45.0000228881836,1.07426249087439E-05,7.09643970253637E-08,-5.26232270203764E-07,-7.72143976064399E-05,0,0,0,7
3.539999,-0.06000005453825,2.94000005722046,1.96001696586609,-0.0599999986588955,2.94000005722046,1.95999991893768,2128.802,2128.799,2128.797,2128.801,1.47489899973152E-05,45.0000228881836,1.07426121758181E-05,5.92697304568901E-08,-4.82377799926326E-07,-7.47445155866444E-05,0,0,0,7
3.559999,-0.06000005453825,2.94000005722046,1.96001553535461,-0.0599999986588955,2.94000005722046,1.95999991893768,2128.803,2128.8,2128.801,2128.804,1.26759550767019E-05,45.0000228881836,1.01025043477421E-05,4.75750887574122E-08,-4.38523187540341E-07,-7.20285243005492E-05,0,0,0,7
3.579999,-0.06000005453825,2.94000005722046,1.96001410484314,-0.0599999986588955,2.94000005722046,1.95999991893768,2128.802,2128.803,2128.804,2128.804,9.47216267377371E-06,45.0000228881836,7.35922913008835E-06,4.75751278372627E-08,-4.53141581147065E-07,-6.90532397129573E-05,0,0,0,7
3.599999,-0.06000005453825,2.94000005722046,1.96001279354095,-0.0599999986588955,2.94000005722046,1.95999991893768,2128.801,2128.809,2128.809,2128.801,6.92797993906424E-06,45.0000228881836,4.34162848250708E-06,7.0964382814509E-08,-4.67759832645243E-07,-6.59812649246305E-05,0,0,0,7
3.619999,-0.0600000508129597,2.94000005722046,1.96001148223877,-0.0599999986588955,2.94000005722046,1.95999991893768,2128.804,2128.809,2128.807,2128.802,7.82317783887265E-06,45.0000228881836,4.84454494653619E-06,1.06048233305955E-07,-4.70683204412126E-07,-6.2737897678744E-05,0,0,0,7
3.639999,-0.0600000470876694,2.94000005722046,1.96001029014587,-0.0599999986588955,2.94000005722046,1.95999991893768,2128.808,2128.807,2128.804,2128.805,1.00375900728977E-05,45.0000228881836,8.2736050899257E-06,1.4113203405941E-07,-4.73606689865846E-07,-5.94198136241175E-05,0,0,0,7
3.659999,-0.0600000433623791,2.94000005722046,1.96000921726227,-0.0599999986588955,2.94000005722046,1.95999991893768,2128.809,2128.805,2128.804,2128.808,1.03674074125593E-05,45.0000228881836,1.26170853036456E-05,1.41131920372572E-07,-4.88224998207443E-07,-5.60709668206982E-05,0,0,0,7
3.679999,-0.0600000396370888,2.94000005722046,1.96000814437866,-0.0599999986588955,2.94000005722046,1.95999991893768,2128.805,2128.802,2128.807,2128.811,8.38860160001786E-06,45.0000228881836,1.59089850058081E-05,1.35284551561199E-07,-4.79454172364058E-07,-5.26869625900872E-05,0,0,0,7
3.699999,-0.0600000359117985,2.94000005722046,1.96000719070435,-0.0599999986588955,2.94000005722046,1.95999991893768,2128.804,2128.803,2128.807,2128.808,7.44632097848807E-06,45.0000228881836,1.53603159560589E-05,1.17742807503873E-07,-4.35599446291235E-07,-4.93952502438333E-05,0,0,0,7
3.719999,-0.0600000359117985,2.94000005722046,1.96000623703003,-0.0599999986588955,2.94000005722046,1.95999991893768,2128.806,2128.803,2128.804,2128.807,7.96460062701954E-06,45.0000228881836,1.2662761946558E-05,8.26590849101194E-08,-3.91744634953284E-07,-4.61386953247711E-05,0,0,0,7
3.739999,-0.0600000321865082,2.94000005722046,1.960005402565,-0.0599999986588955,2.94000005722046,1.95999991893768,2128.804,2128.804,2128.805,2128.805,7.7761587817804E-06,45.0000228881836,8.1820899140439E-06,1.06048361203648E-07,-3.7127915675228E-07,-4.29480642196722E-05,0,0,0,7
3.759999,-0.0600000284612179,2.94000005722046,1.96000456809998,-0.0599999986588955,2.94000005722046,1.95999991893768,2128.803,2128.808,2128.804,2128.798,7.91752245277166E-06,45.0000228881836,3.47281206813932E-06,1.11895687382457E-07,-3.85897408250457E-07,-3.97925905417651E-05,0,0,0,7
3.779999,-0.0600000247359276,2.94000005722046,1.96000385284424,-0.0599999986588955,2.94000005722046,1.95999991893768,2128.802,2128.806,2128.802,2128.799,8.34157162898919E-06,45.0000228881836,3.24419261232833E-06,1.17742828820155E-07,-3.3034783086805E-07,-3.67689608538058E-05,0,0,0,7
3.799999,-0.0600000210106373,2.94000005722046,1.9600031375885,-0.0599999986588955,2.94000005722046,1.95999991893768,2128.805,2128.8,2128.798,2128.802,8.67139078764012E-06,45.0000228881836,6.03315947955707E-06,1.35284608404618E-07,-2.7479833875077E-07,-3.38156460202299E-05,0,0,0,7
3.819999,-0.060000017285347,2.94000005722046,1.96000254154205,-0.0599999986588955,2.94000005722046,1.95999991893768,2128.802,2128.798,2128.798,2128.802,5.93874892729218E-06,45.0000228881836,7.77054356149165E-06,1.70368323892944E-07,-2.77722165265004E-07,-3.09106762870215E-05,0,0,0,7
3.839999,-0.0600000135600567,2.94000005722046,1.96000194549561,-0.0599999986588955,2.94000005722046,1.95999991893768,2128.794,2128.798,2128.803,2128.799,1.0859382655326E-06,45.0000228881836,7.9076908150455E-06,1.6452101192499E-07,-3.06958781948197E-07,-2.81507345789578E-05,0,0,0,7
3.859999,-0.0600000098347664,2.94000005722046,1.96000146865845,-0.0599999986588955,2.94000005722046,1.95999991893768,2128.794,2128.797,2128.801,2128.797,-4.21719363430384E-07,45.0000228881836,8.09056018624688E-06,1.58673856276437E-07,-3.36195114414295E-07,-2.5513847504044E-05,0,0,0,7
3.879999,-0.0600000061094761,2.94000005722046,1.96000099182129,-0.0599999986588955,2.94000005722046,1.95999991893768,2128.794,2128.796,2128.797,2128.796,1.32154605125834E-06,45.0000228881836,8.22770743980072E-06,1.52826700627884E-07,-3.65431418458684E-07,-2.3004409740679E-05,0,0,0,7
3.899999,-0.0600000023841858,2.94000005722046,1.96000063419342,-0.0599999986588955,2.94000005722046,1.95999991893768,2128.795,2128.794,2128.793,2128.794,4.10133725381456E-06,45.0000228881836,8.45630074763903E-06,1.46979459714203E-07,-3.94667779346491E-07,-2.06268177862512E-05,0,0,0,7
3.919999,-0.0599999986588955,2.94000005722046,1.96000027656555,-0.0599999986588955,2.94000005722046,1.95999991893768,2128.795,2128.793,2128.791,2128.793,6.12729081694852E-06,45.0000228881836,8.59344891068758E-06,1.41132147746248E-07,-4.23904225499427E-07,-1.83678857865743E-05,0,0,0,7
3.939999,-0.0599999949336052,2.94000005722046,1.95999991893768,-0.0599999986588955,2.94000005722046,1.95999991893768,2128.793,2128.791,2128.79,2128.791,6.4571104303468E-06,45.0000228881836,8.73059707373613E-06,1.35284807356584E-07,-4.53140671652363E-07,-1.62891410582233E-05,0,0,0,7
3.959999,-0.0599999912083149,2.94000005722046,1.9599996805191,-0.0599999986588955,2.94000005722046,1.95999991893768,2128.79,2128.79,2128.79,2128.79,5.65617483516689E-06,45.0000228881836,9.05062915990129E-06,1.29437481177774E-07,-4.8237706096188E-07,-1.43510296766181E-05,0,0,0,7
3.979999,-0.0599999874830246,2.94000005722046,1.95999944210052,-0.0599999986588955,2.94000005722046,1.95999991893768,2128.788,2128.788,2128.789,2128.788,4.66677965960116E-06,45.0000228881836,9.37066033657175E-06,1.23590211842384E-07,-5.11613393427979E-07,-1.25315782497637E-05,0,0,0,7
3.999999,-0.0599999837577343,2.94000005722046,1.95999920368195,-0.0599999986588955,2.94000005722046,1.95999991893768,2128.786,2128.787,2128.788,2128.787,4.2427614062035E-06,45.0000228881836,9.78213302005315E-06,1.11895701593312E-07,-4.8237706096188E-07,-1.08483654912561E-05,0,0,0,7
0,-0.059999980032444,2.94000005722046,1.95999896526337,-0.059999980032444,2.94000005722046,1.95999896526337,2128.785,2128.786,2128.786,2128.786,4.57258192909649E-06,45.0000228881836,1.0193607522524E-05,1.00201212660522E-07,-4.53140728495782E-07,-9.31018166738795E-06,7.105427357601E-16,3.5527136788005E-16,3.5527136788005E-16,7
0.0199999809265137,-0.059999980032444,2.94000005722046,1.95999884605408,-0.0600018503560348,2.93999923255295,1.95999965543973,2128.781,2128.778,2128.782,2128.785,5.4677798289049E-06,45.0000228881836,1.05136396086891E-05,8.85067237277326E-08,-4.23904424451393E-07,-7.88186844147276E-06,-0.000279986133969949,-0.000123452149924591,0.000103318918745163,7
0.0399999618530273,-0.059999980032444,2.94000005722046,1.95999872684479,-0.0600148527382107,2.93999349951178,1.96000445350615,2461.547,2262.448,1799.646,2000.923,7.30527472114773E-06,45.0000228881836,7.63320349506103E-06,7.0965157306091E-08,-3.94668290937261E-07,-6.83150847180514E-06,-0.00111096706935004,-0.000489850233874199,0.000409962860441257,7
0.059999942779541,-0.059999980032444,2.94000005722046,1.96000301837921,-0.0600498730348359,2.93997805827957,1.96001737650033,2300.956,2200.8,1963.577,2069.502,359.708679199219,44.9998779296875,0.111713565886021,4.91114349188138E-08,-4.3106794578307E-07,0.000211713631870225,-0.00247955789117188,-0.00109329254341067,0.000914992598555028,7
0.0799999237060547,-0.0600195415318012,2.93999123573303,1.96001625061035,-0.060117530487527,2.93994822659514,1.96004234307549,2105.443,2128.25,2163.27,2148.259,359.268829345703,44.998893737793,0.279511660337448,-0.00097815238405019,-0.000436388800153509,0.000663952669128776,-0.00437248206424148,-0.00192792515716293,0.00161350890025137,7
0.0999999046325684,-0.0600882209837437,2.93996047973633,1.9600430727005,-0.0602281798912465,2.93989943879775,1.9600831743002,1940.453,2066,2334.581,2214.33,358.854431152344,44.9973106384277,0.438782215118408,-0.00343397771939635,-0.00153394287917763,0.00134013360366225,-0.0067765714331385,-0.00298794194082665,0.00250065252639371,7
0.119999885559082,-0.0602339804172516,2.93989539146423,1.9600875377655,-0.0603919137618968,2.93982724487135,1.96014359445829,1901.779,2049.89,2380.846,2232.448,358.613525390625,44.9966087341309,0.534689366817474,-0.00728804571554065,-0.0032533707562834,0.00222317851148546,-0.00967876622221625,-0.00426758454716421,0.00357160423154394,6
0.139999866485596,-0.0604733116924763,2.93978881835938,1.9601536989212,-0.0606185645039127,2.93972730948888,1.96022723184871,1996.354,2083.613,2293.038,2201.184,358.583465576172,44.9976425170898,0.552581012248993,-0.0119665181264281,-0.0053277974948287,0.00330616114661098,-0.0130661150356017,-0.00576114241600473,0.00482158476396252,6
0.159999847412109,-0.0608086511492729,2.93964004516602,1.96024572849274,-0.0609177065778556,2.9395954110565,1.96033761958539,2158.375,2144.603,2135.305,2145.003,358.684020996094,44.9995994567871,0.520232617855072,-0.0167668964713812,-0.00743399653583765,0.00459858309477568,-0.0169257748571956,-0.00746295277424406,0.00624585486560837,6
0.179999828338623,-0.0612336173653603,2.93945240974426,1.96036791801453,-0.0612986586680064,2.93942744075782,1.96047819639714,2292.483,2198.265,2003.228,2098.146,358.7744140625,45.0011367797852,0.487724602222443,-0.0212482437491417,-0.00937589164823294,0.00610985327512026,-0.0212450110506722,-0.00936740063584479,0.00783971527213894,6
0.199999809265137,-0.0617422983050346,2.93922877311707,1.960524559021,-0.0617704858499592,2.93921940159824,1.9606523074275,2329.634,2218.05,1967.597,2085.231,358.737457275391,45.0015983581543,0.498004734516144,-0.0254340432584286,-0.0111783752217889,0.0078326053917408,-0.0260111973594796,-0.0114689188018362,0.0095985067129102,6
0.21999979019165,-0.0623370856046677,2.93896770477295,1.96071946620941,-0.0623420017582144,2.93896740744914,1.96086320503464,2261.805,2198.788,2038.319,2109.64,358.541198730469,45.0009689331055,0.565042912960052,-0.0297393910586834,-0.0130477380007505,0.00974553916603327,-0.0312118159068393,-0.0137619878603144,0.0115176099109766,6
0.239999771118164,-0.0630309507250786,2.93866300582886,1.96095597743988,-0.0630217707537726,2.93866768209216,1.9611140495912,2139.427,2156.633,2165.86,2154.492,358.246551513672,44.9995307922363,0.670187771320343,-0.034693144261837,-0.0152350552380085,0.0118253966793418,-0.0368344571957466,-0.0162411361864421,0.0135924455830912,6
0.259999752044678,-0.0638435631990433,2.93830513954163,1.96123707294464,-0.0638181100917274,2.93831655826347,1.96140791028417,2037.11,2117.696,2274.999,2194.226,357.963531494141,44.9980812072754,0.77626097202301,-0.0406305082142353,-0.0178884267807007,0.0140536352992058,-0.0428668201089707,-0.0189009399424488,0.0158184744397053,6
0.279999732971191,-0.0647940933704376,2.93788552284241,1.96156549453735,-0.0647390920888593,2.93791047669801,1.9617477659148,2009.747,2103.207,2309.028,2209.318,357.785217285156,44.9976425170898,0.849619686603546,-0.0475266464054585,-0.020977720618248,0.0164202637970448,-0.0492967119090542,-0.0217360230776307,0.0181911971849691,6
0.299999713897705,-0.0658950060606003,2.93739891052246,1.96194410324097,-0.0657925462912288,2.93744598517379,1.96213650569842,2064.778,2118.815,2258.563,2196.12,357.738616943359,44.9986190795898,0.877603709697723,-0.0550457984209061,-0.024326853454113,0.0189277417957783,-0.0561120482383133,-0.0247410573283508,0.020706154516731,6
0.319999694824219,-0.0671500861644745,2.93684434890747,1.96237587928772,-0.06698606164177,2.93691973755608,1.96257693006435,2163.473,2153.564,2161.631,2166.39,357.77734375,45.0003280639648,0.872539877891541,-0.0627541020512581,-0.0277241468429565,0.0215879958122969,-0.063300853118838,-0.0279107622180388,0.0233589271265381,6
0.339999675750732,-0.0685573071241379,2.93622350692749,1.96286404132843,-0.0683269886478839,2.93632849284175,1.96307175145576,2247.632,2187.534,2077.468,2138.979,357.815246582031,45.0016708374023,0.86201274394989,-0.0703610181808472,-0.0310412012040615,0.0244099125266075,-0.0708512589524921,-0.0312399050571911,0.0261451356996359,6
0.360000133514404,-0.070114403963089,2.93553757667542,1.96341180801392,-0.0698224791007223,2.93566909764608,1.96362360898666,2273.705,2203.593,2051.672,2128.899,357.778259277344,45.0019721984863,0.872264564037323,-0.077854759991169,-0.0342933796346188,0.0273883771151304,-0.078751698955403,-0.0347233857920425,0.0290605119260687,6
0.380000114440918,-0.0718238055706024,2.93478536605835,1.96402192115784,-0.0714793419644148,2.93493854974446,1.96423501526296,2234.938,2196.287,2092.714,2139.924,357.6435546875,45.001220703125,0.914463818073273,-0.0854701697826385,-0.0376136042177677,0.0305053703486919,-0.0869901453450775,-0.0383559011042229,0.0321006173807458,6
0.400000095367432,-0.0736943334341049,2.93396210670471,1.96469676494598,-0.0733042592243766,2.93413390290005,1.96490843603356,2160.873,2173.122,2171.448,2164.224,357.446228027344,44.9998664855957,0.980768322944641,-0.0935262739658356,-0.0411637462675571,0.0337393209338188,-0.0955552398982123,-0.0421324428989878,0.0352612607155674,6
0.420000076293945,-0.0757390707731247,2.93306136131287,1.96543824672699,-0.0753036493163584,2.93325232708095,1.96564623979378,2097.052,2149.158,2241.252,2187.797,357.253570556641,44.9986877441406,1.05087351799011,-0.102236986160278,-0.045038964599371,0.037073627114296,-0.10443554853835,-0.0460479696362398,0.0385382225915267,6
0.440000057220459,-0.0779710859060287,2.93207693099976,1.96624827384949,-0.0774837030785962,2.93229109260807,1.96645071105215,2078.115,2137.893,2265.616,2198.979,357.124359130859,44.9983978271484,1.10443902015686,-0.111600644886494,-0.0492183864116669,0.0405012145638466,-0.113619745568806,-0.0500974875629484,0.0419273236633153,6
0.460000038146973,-0.0803994983434677,2.93100523948669,1.96712875366211,-0.0798503859194055,2.93124756919945,1.9673240511303,2110.065,2144.477,2236.967,2194.207,357.077697753906,44.9991722106934,1.13186252117157,-0.121420584619045,-0.0535866431891918,0.0440261512994766,-0.12309661367267,-0.0542760507131495,0.0454244245793233,6
0.480000019073486,-0.0830280780792236,2.92984509468079,1.96808195114136,-0.0824094399847739,2.93011922501445,1.96826837896288,2170.274,2163.898,2177.6,2178.868,357.086883544922,45.0004844665527,1.13801801204681,-0.13142916560173,-0.0580046810209751,0.0476586371660233,-0.132855043912806,-0.0585787609079463,0.0490254259816393,6
0.5,-0.0858567953109741,2.92859745025635,1.96911001205444,-0.0851663863259549,2.92890362569809,1.96928573189735,2223.135,2184.942,2124.195,2163.091,357.099304199219,45.0015144348145,1.13779330253601,-0.141436040401459,-0.062387116253376,0.0514055863022804,-0.142884035731851,-0.0630007677555081,0.0527262685060505,6
0.519999980926514,-0.088885135948658,2.92726254463196,1.97021532058716,-0.0881265270670613,2.92759843342522,1.97037806649395,2241.215,2196.784,2105.942,2155.923,357.068176269531,45.0017318725586,1.14694368839264,-0.15141724050045,-0.0667416676878929,0.0552634745836258,-0.153172696952214,-0.0675372686510713,0.0565229327820424,6
0.539999961853027,-0.092115193605423,2.9258394241333,1.97139966487885,-0.0912949475726587,2.92620140594484,1.97154725932548,2219.151,2194.927,2129.583,2160.496,356.977508544922,45.0011024475098,1.17359149456024,-0.161503106355667,-0.0711526051163673,0.0592187084257603,-0.163710243776082,-0.0721835087769391,0.0604114394327994,6
0.559999942779541,-0.0955528765916824,2.92432498931885,1.97266471385956,-0.0946765186153586,2.92471039562434,1.97279510777725,2174.305,2182.565,2177.963,2173.435,356.847412109375,45.0000305175781,1.21497189998627,-0.17188386619091,-0.0757238566875458,0.0632542595267296,-0.17448600078541,-0.0769347811024811,0.0643878490752039,6
0.579999923706055,-0.099206730723381,2.9227147102356,1.97401189804077,-0.098275898543412,2.92312334849378,1.97412333084688,2134.456,2168.113,2222.353,2187.274,356.718933105469,44.999153137207,1.26024699211121,-0.182693317532539,-0.0805165320634842,0.0673568397760391,-0.185489400941932,-0.0817864263841339,0.0684482623198372,6
0.599999904632568,-0.103085473179817,2.92100429534912,1.97544229030609,-0.102097535448303,2.92143830329011,1.97553356994426,2121.448,2160.048,2239.395,2195.032,356.629119873047,44.998950958252,1.29730224609375,-0.193937331438065,-0.085516944527626,0.0715211406350136,-0.196709985587152,-0.0867338331654006,0.072588819770979,6
0.619999885559082,-0.107195481657982,2.91919136047363,1.97695732116699,-0.106145669332341,2.91965339050147,1.97702738969134,2139.869,2162.349,2223.321,2193.921,356.591247558594,44.9994964599609,1.31937158107758,-0.205499991774559,-0.0906498059630394,0.0757500529289246,-0.208137404442349,-0.0917724377768514,0.0768057020266075,6
0.639999866485596,-0.111539788544178,2.91727495193481,1.97855830192566,-0.110424334276258,2.9177668314114,1.97860627872205,2176.568,2172.967,2187.07,2186.215,356.590087890625,45.0004272460938,1.32793283462524,-0.217215746641159,-0.0958236381411552,0.0800506547093391,-0.219761415608576,-0.0968977243361228,0.0810951296783994,6
0.659999847412109,-0.116118989884853,2.91525530815125,1.98024690151215,-0.114937360606794,2.91577693714317,1.98027165048216,2209.772,2185.713,2153.265,2177.253,356.593566894531,45.0011749267578,1.33084630966187,-0.228960186243057,-0.100980803370476,0.0844275429844856,-0.23157188556666,-0.102105224747918,0.0854533633117298,6
0.679999828338623,-0.120933145284653,2.91313290596008,1.98202443122864,-0.119688377064301,2.91368210770397,1.98202484402916,2222.123,2193.941,2140.582,2172.354,356.572174072266,45.0013198852539,1.33740866184235,-0.240707576274872,-0.10612390935421,0.0888781324028969,-0.2435587891772,-0.107390518704008,0.0898767035056726,6
0.699999809265137,-0.125983700156212,2.91090679168701,1.98389232158661,-0.124680812970328,2.91148083102923,1.98386712483214,2209.678,2194.218,2153.964,2173.959,356.514892578125,45.0008659362793,1.35322761535645,-0.252528220415115,-0.111305423080921,0.0933926403522491,-0.255712209680569,-0.112749233683229,0.0943614908329999,6
0.71999979019165,-0.131274372339249,2.9085750579834,1.98585152626038,-0.129917900395216,2.90917168202682,1.98579968557162,2182.461,2187.796,2183.55,2180.661,356.43310546875,45.0001106262207,1.37771999835968,-0.264533817768097,-0.116591267287731,0.0979585126042366,-0.268022338696916,-0.118177044951485,0.0989041058601825,6
0.739999771118164,-0.136810496449471,2.90613460540771,1.98790287971497,-0.135402676325697,2.90675332162135,1.98782364693949,2157.495,2179.22,2211.606,2188.628,356.351776123047,44.9994888305664,1.40525305271149,-0.276806473731995,-0.122020699083805,0.102565571665764,-0.28047947622616,-0.123669675561746,0.10350096914739,6
0.759999752044678,-0.142597541213036,2.90358281135559,1.99004709720612,-0.141137984832479,2.90422449579843,1.98994005843882,2148.535,2173.703,2223.293,2193.728,356.294250488281,44.9993438720703,1.42873978614807,-0.289352416992188,-0.12758494913578,0.107209384441376,-0.293074030647998,-0.129222896354049,0.108148541248489,6
0.779999732971191,-0.148639589548111,2.90091800689697,1.99228489398956,-0.147126479237846,2.9015840346489,1.99214989918378,2159.039,2174.071,2214.302,2193.985,356.269653320313,44.9996948242188,1.44364082813263,-0.302102476358414,-0.133234858512878,0.111891321837902,-0.305796518721896,-0.134832525955498,0.112843322711047,7
0.799999713897705,-0.154938668012619,2.8981397151947,1.99461722373962,-0.153370624283247,2.89883085141313,1.99445407869948,2181.335,2179.691,2192.165,2190.181,356.269378662109,45.0003242492676,1.45001876354218,-0.314953714609146,-0.138909995555878,0.116615459322929,-0.318637565587097,-0.140494430780263,0.117581854076329,7
0.819999694824219,-0.16149514913559,2.89524817466736,1.99704492092133,-0.159872698296894,2.89596394152522,1.99685343772188,2202.137,2187.178,2170.753,2185.118,356.273864746094,45.0008201599121,1.45192384719849,-0.32782444357872,-0.144571140408516,0.121384389698505,-0.331587904762617,-0.146204525029583,0.122360715879297,7
0.839999675750732,-0.168308973312378,2.8922438621521,1.99956881999969,-0.16663479536135,2.89298238165735,1.99934874899762,2210.462,2192.574,2161.955,2181.843,356.264526367188,45.0009307861328,1.45473456382751,-0.340691477060318,-0.150217413902283,0.126195833086967,-0.344638378147245,-0.15195877069176,0.127176528648614,7
0.859999656677246,-0.175380811095238,2.88912630081177,2.00218963623047,-0.173658827481128,2.88988532876394,2.00194071808391,2203.43,2193.449,2169.352,2182.089,356.233856201172,45.0006217956543,1.46215510368347,-0.353591024875641,-0.155880853533745,0.131042778491974,-0.357779936019544,-0.157753177542166,0.132025952906639,7
0.87999963760376,-0.182712540030479,2.88589429855347,2.00490784645081,-0.180946526750278,2.88667201912598,2.00462998414844,2186.819,2190.145,2187.292,2185.393,356.188201904297,45.0001106262207,1.47444272041321,-0.366587281227112,-0.161602944135666,0.135916158556938,-0.37100363703785,-0.163583803143237,0.136905689169432,7
0.899999618530273,-0.190307140350342,2.88254618644714,2.00772404670715,-0.188499447519986,2.88334176739526,2.00741712076919,2171.046,2185.109,2204.889,2189.782,356.142730712891,44.9996871948242,1.48875391483307,-0.379729300737381,-0.167408794164658,0.140808403491974,-0.384300648240273,-0.169446752844479,0.14181247794675,7
0.919999599456787,-0.19816754758358,2.87908029556274,2.01063847541809,-0.196318968566167,2.87989396563864,2.01030263673434,2164.829,2181.384,2212.684,2192.943,356.112182617188,44.999568939209,1.50104868412018,-0.393021404743195,-0.17329266667366,0.145715609192848,-0.397662245044699,-0.175338179782462,0.146743099742049,7
0.939999580383301,-0.206295967102051,2.87549591064453,2.01365113258362,-0.204406295257054,2.87632808238229,2.01328697684215,2170.651,2180.95,2207.625,2193.474,356.102661132813,44.9997863769531,1.50838458538055,-0.406421482563019,-0.179222464561462,0.150637850165367,-0.411079811248784,-0.181254284880824,0.151694375052483,7
0.959999561309814,-0.214693278074265,2.87179279327393,2.01676273345947,-0.212762461720796,2.87264366165599,2.0163705227008,2184.097,2183.696,2194.014,2191.603,356.109436035156,45.0001831054688,1.51035940647125,-0.41986471414566,-0.185158103704453,0.155576840043068,-0.424544839029959,-0.187191316850269,0.156663164368905,7
0.979999542236328,-0.22335921227932,2.86797142028809,2.01997351646423,-0.221388333013048,2.86884032203733,2.01955359352831,2197.017,2187.905,2180.381,2188.665,356.120574951172,45.0005035400391,1.50896060466766,-0.43329718708992,-0.191072419285774,0.160533607006073,-0.43804892894543,-0.193145572188568,0.161646368175866,7
0.999999523162842,-0.23229318857193,2.86403226852417,2.02328372001648,-0.230284607284568,2.86491775569604,2.02283644695235,2202.495,2191.212,2174.233,2186.435,356.124389648438,45.0005798339844,1.5072546005249,-0.446699440479279,-0.19696281850338,0.165505960583687,-0.451583789932175,-0.199113395180559,0.166640926951617,7
1.01999950408936,-0.241494953632355,2.85997533798218,2.02669358253479,-0.239451817948806,2.86087572743819,2.02621927981019,2198.426,2192.024,2178.143,2186.039,356.115783691406,45.0003890991211,1.50760698318481,-0.460088551044464,-0.202848255634308,0.170488685369492,-0.465141239306947,-0.205091177898146,0.171643821168105,7
1.03999948501587,-0.250964969396591,2.85580015182495,2.03020310401917,-0.248890335849503,2.85671407375049,2.0297022289485,2188.162,2190.281,2188.856,2187.446,356.098236083984,45.0000610351563,1.51052522659302,-0.473500341176987,-0.208754405379295,0.175475269556046,-0.478713202766271,-0.211075360200302,0.176652071290978,7
1.05999946594238,-0.260704219341278,2.85150623321533,2.0338122844696,-0.258600371428277,2.8524327018445,2.03328537202329,2178.061,2187.236,2199.726,2189.694,356.080993652344,44.9997787475586,1.51465094089508,-0.486963093280792,-0.214697077870369,0.180460095405579,-0.492291714386447,-0.217062429733064,0.18166273777958,7
1.0799994468689,-0.270713806152344,2.84709286689758,2.03752112388611,-0.268581976892225,2.84803158870096,2.03696872829971,2173.687,2184.656,2204.703,2191.498,356.073272705078,44.999698638916,1.51771378517151,-0.500478804111481,-0.220672309398651,0.185439705848694,-0.505868916623548,-0.223048921929536,0.186672921086957,7
1.09999942779541,-0.280994236469269,2.84255957603455,2.0413293838501,-0.27883504838151,2.843510780114,2.040752259452,2176.746,2183.853,2201.719,2191.91,356.079223632813,44.999828338623,1.51784002780914,-0.514020979404449,-0.226658910512924,0.190413132309914,-0.519437060313422,-0.22903142000989,0.19167976165985,7
1.11999940872192,-0.291545212268829,2.83790707588196,2.04523706436157,-0.289359328136955,2.83887038973539,2.04463587036329,2184.671,2185.019,2193.266,2190.818,356.096160888672,45.0000877380371,1.51451706886292,-0.52754819393158,-0.232630223035812,0.195380762219429,-0.532988504671688,-0.235006554981365,0.196680439938701,7
1.13999938964844,-0.302365660667419,2.83313584327698,2.04924392700195,-0.300154406667641,2.83411059811885,2.04861940992555,2192.587,2187.161,2184.43,2189.005,356.116882324219,45.0002937316895,1.50872075557709,-0.541024506092072,-0.238567367196083,0.2003423422575,-0.546515717293742,-0.240971005638265,0.201672176357648,7
1.15999984741211,-0.313454359769821,2.82824659347534,2.05334973335266,-0.311219991952756,2.82923153402288,2.05270277037888,2196.016,2189.006,2180.071,2187.36,356.134033203125,45.0003356933594,1.50214672088623,-0.554434061050415,-0.244467109441757,0.205295786261559,-0.560011595478474,-0.24692164024078,0.206652349917615,7
1.17999982833862,-0.324810028076172,2.82323980331421,2.0575544834137,-0.322554849888747,2.82423374159135,2.05688549632128,2193.566,2189.52,2181.873,2186.637,356.144134521484,45.0002174377441,1.49628734588623,-0.567783653736115,-0.250340193510056,0.210237205028534,-0.573468179917878,-0.252854949351955,0.211618023519233,7
1.19999980926514,-0.336431860923767,2.81811571121216,2.0618577003479,-0.334158389390659,2.81911748144684,2.06116736963389,2186.982,2188.421,2188.188,2187.011,356.149108886719,45.0000152587891,1.49166452884674,-0.581092238426208,-0.256202161312103,0.215161815285683,-0.586878585515351,-0.258767897178675,0.216566656462625,7
1.21999979019165,-0.348319351673126,2.81287455558777,2.06625890731812,-0.346029615713141,2.81388319219482,2.06554802324134,2180.38,2186.443,2194.689,2187.967,356.154602050781,44.9998359680176,1.48764216899872,-0.594375431537628,-0.262062728404999,0.22006519138813,-0.600235713387966,-0.26465735366465,0.221495629157677,7
1.23999977111816,-0.360471993684769,2.80751609802246,2.07075786590576,-0.358167393217114,2.80853137456398,2.07002703807644,2177.194,2184.554,2197.674,2188.804,356.166412353516,44.9997787475586,1.4829603433609,-0.607633292675018,-0.267918944358826,0.22494438290596,-0.613532573032571,-0.270520236540659,0.226402362007975,7
1.25999975204468,-0.37288898229599,2.80204105377197,2.0753538608551,-0.370570447537367,2.80306259045044,2.07460394388005,2178.581,2183.643,2195.758,2188.864,356.187225341797,44.9998626708984,1.47645485401154,-0.62084835767746,-0.273756712675095,0.229798033833504,-0.626762282325784,-0.276353511324546,0.231284315410804,7
1.27999973297119,-0.385568857192993,2.79644989967346,2.08004641532898,-0.383237367750148,2.79747746196204,2.07927822000098,2183.15,2183.815,2190.259,2188.118,356.215606689453,45.0000076293945,1.4677152633667,-0.633993566036224,-0.279558092355728,0.234625428915024,-0.639918067524,-0.282154191321222,0.236138989757144,7
1.29999971389771,-0.398509740829468,2.79074358940125,2.08483481407166,-0.396166608540759,2.79177667046261,2.08404929619584,2187.788,2184.73,2184.43,2186.767,356.247100830078,45.000129699707,1.45713877677917,-0.64704442024231,-0.285309851169586,0.239425644278526,-0.652993263263387,-0.287919337622667,0.240963925431679,7
1.31999969482422,-0.411709487438202,2.78492331504822,2.08971881866455,-0.409356492371151,2.7859609556162,2.0889165534289,2189.749,2185.564,2181.241,2185.418,356.277130126953,45.0001564025879,1.4456981420517,-0.659988462924957,-0.291008621454239,0.24419666826725,-0.665981312559885,-0.293646059107923,0.245756702812786,7
1.33999967575073,-0.425166070461273,2.7789900302887,2.09469747543335,-0.422805211647513,2.78003111443136,2.093879324672,2188.058,2185.636,2181.849,2184.565,356.303436279297,45.0000839233398,1.43432700634003,-0.672827124595642,-0.296660304069519,0.248935550451279,-0.678875766809211,-0.299331512443104,0.250514942272545,7
1.35999965667725,-0.438877463340759,2.77294445037842,2.09977030754089,-0.43651083088787,2.77398800030539,2.09893689570439,2183.768,2184.773,2185.256,2184.333,356.326995849609,44.9999618530273,1.42341661453247,-0.685569643974304,-0.302273899316788,0.253638535737991,-0.691670285786852,-0.304972902081388,0.255236304176732,7
1.37999963760376,-0.452841877937317,2.76678729057312,2.10493636131287,-0.450471288889674,2.76783252206859,2.10408850591263,2179.298,2183.323,2188.943,2184.472,356.351196289063,44.9998550415039,1.41269338130951,-0.698223829269409,-0.307855010032654,0.258302360773087,-0.70435863764807,-0.310567480263019,0.259918488884822,8
1.39999961853027,-0.467057645320892,2.76051926612854,2.11019492149353,-0.464684400897397,2.76156564302857,2.10933334909044,2176.833,2181.838,2190.559,2184.604,356.379638671875,44.9998207092285,1.40147495269775,-0.710788369178772,-0.313401490449905,0.262924432754517,-0.716934698927902,-0.316112547015309,0.264559236749988,8
1.41999959945679,-0.481522709131241,2.75414109230042,2.11554503440857,-0.479147860770126,2.75518838001444,2.11467057423858,2177.194,2180.816,2189.141,2184.37,356.414154052734,44.999870300293,1.38907015323639,-0.723251402378082,-0.31890395283699,0.267503142356873,-0.729392454541157,-0.321605450152637,0.269156328119104,8
1.4399995803833,-0.496234595775604,2.74765419960022,2.12098574638367,-0.493859243149155,2.7487018024211,2.12009928636473,2179.554,2180.476,2185.478,2183.594,356.453887939453,44.9999542236328,1.37514412403107,-0.735594928264618,-0.324350416660309,0.272037416696548,-0.741725997782418,-0.327043585276448,0.273707583332738,8
1.45999956130981,-0.511190593242645,2.74105954170227,2.12651634216309,-0.508816005625579,2.74210703125353,2.12561854728338,2182.125,2180.557,2181.419,2182.48,356.496276855469,45.0000228881836,1.3598884344101,-0.747802078723907,-0.329731494188309,0.276525914669037,-0.753929530326043,-0.332424395775254,0.278210862725161,8
1.47999954223633,-0.526387929916382,2.73435854911804,2.13213562965393,-0.524015490907889,2.73540523817098,2.13122737641565,2183.063,2180.69,2178.95,2181.252,356.538330078125,45.0000381469727,1.34381449222565,-0.759863018989563,-0.335043996572495,0.280966848134995,-0.765997362226162,-0.337745372824633,0.28266406662434,8
1.49999952316284,-0.541823387145996,2.72755265235901,2.13784289360046,-0.539454928989562,2.72859764453131,2.13692475158921,2181.717,2180.394,2178.832,2180.29,356.578552246094,45,1.32750391960144,-0.771776437759399,-0.340290695428848,0.285357654094696,-0.777923911916679,-0.343004055387231,0.287065135351942,8
1.51999950408936,-0.557494282722473,2.72064304351807,2.14363670349121,-0.555131439316657,2.72168552043518,2.14270960983814,2178.77,2179.58,2180.407,2179.656,356.617523193359,44.9999313354492,1.31123960018158,-0.783546209335327,-0.345476627349854,0.289695709943771,-0.789703706211271,-0.348198030212761,0.29141204922333,8
1.53999948501587,-0.573397815227509,2.71363091468811,2.14951634407043,-0.571042032955407,2.71467018377036,2.14858084820281,2175.573,2178.328,2182.292,2179.307,356.6572265625,44.9998626708984,1.29494285583496,-0.795175433158875,-0.350604832172394,0.293978303670883,-0.801331380303392,-0.353324931838001,0.295702828547569,8
1.55999946594238,-0.589531004428864,2.70651745796204,2.15548038482666,-0.587183614759814,2.70755299925596,2.15453732452973,2173.557,2177.014,2182.944,2178.979,356.699890136719,44.9998359680176,1.27822637557983,-0.806662261486053,-0.355673551559448,0.298203408718109,-0.812801677766265,-0.358382442586796,0.299935533627419,8
1.5799994468689,-0.605891048908234,2.69930386543274,2.16152787208557,-0.603552985539241,2.70033537748669,2.16057785827145,2173.293,2175.958,2181.715,2178.434,356.746673583984,44.9998550415039,1.26066756248474,-0.817998290061951,-0.360676556825638,0.302369326353073,-0.824109450552891,-0.363368292570059,0.304108264759341,8
1.59999942779541,-0.622474431991577,2.69199180603027,2.16765737533569,-0.620146844226007,2.69301877397715,2.16670123128641,2174.269,2175.265,2179.097,2177.586,356.797180175781,44.9999046325684,1.24205076694489,-0.829171240329742,-0.365605682134628,0.306474834680557,-0.835249658996041,-0.368280259685769,0.308219162233495,8
1.61999940872192,-0.639277875423431,2.68458271026611,2.17386770248413,-0.636961790042976,2.68560468820606,2.17290618863885,2175.47,2174.862,2176.129,2176.491,356.849792480469,44.9999351501465,1.22244274616241,-0.840169310569763,-0.370454341173172,0.310518503189087,-0.846217371808261,-0.373116169618972,0.312266406333735,8
1.63999938964844,-0.656297504901886,2.67707824707031,2.18015766143799,-0.653994324671158,2.67809466266051,2.17919143939863,2175.685,2174.482,2174.113,2175.327,356.902709960938,44.9999504089355,1.2021416425705,-0.850984811782837,-0.375219702720642,0.314498722553253,-0.857007766081872,-0.377873895841781,0.31624821733762,8
1.65999937057495,-0.673529803752899,2.66948008537292,2.18652582168579,-0.671240854417296,2.67049028188025,2.18555565744115,2174.533,2173.925,2173.478,2174.245,356.954925537109,44.999927520752,1.18148183822632,-0.861615300178528,-0.379902839660645,0.318413555622101,-0.867616127288967,-0.382551359613374,0.320162855516403,7
1.67999935150146,-0.690971076488495,2.661789894104,2.19297099113464,-0.68869769238146,2.66279317150194,2.19199748224719,2172.29,2173.014,2173.983,2173.393,357.006652832031,44.999885559082,1.16068685054779,-0.872061669826508,-0.384506404399872,0.32226088643074,-0.878037849281413,-0.387146529979998,0.324008621135036,7
1.69999933242798,-0.708617508411407,2.6540093421936,2.19949173927307,-0.706361060624644,2.65500499730341,2.19851551970282,2169.872,2171.84,2174.684,2172.71,357.059173583984,44.9998435974121,1.13973033428192,-0.882324814796448,-0.389031887054443,0.326038777828217,-0.888268434290852,-0.391657423774964,0.327783854452172,7
1.71999931335449,-0.726465582847595,2.6461398601532,2.2060866355896,-0.724227092336357,2.6471274642479,2.20510834289923,2168.16,2170.604,2174.639,2172.055,357.11376953125,44.9998359680176,1.1184014081955,-0.892402470111847,-0.393477737903595,0.329745322465897,-0.898303492928698,-0.396082105618654,0.331486935720159,7
1.73999929428101,-0.744511306285858,2.63818311691284,2.21275424957275,-0.742291834002216,2.63916231552835,2.21177449293263,2167.472,2169.481,2173.502,2171.288,357.171264648438,44.9998435974121,1.09645187854767,-0.902288675308228,-0.397839784622192,0.333379179239273,-0.908138744186139,-0.400418687918513,0.335116285185046,7
1.75999927520752,-0.762750864028931,2.63014078140259,2.21949291229248,-0.760551247571541,2.63111133161163,2.21851247970413,2167.612,2168.599,2171.44,2170.31,357.231384277344,44.999870300293,1.07373023033142,-0.911974787712097,-0.402112573385239,0.336939036846161,-0.917770015434137,-0.404665330869053,0.33867036308658,7
1.77999925613403,-0.781179904937744,2.62201499938965,2.22630143165588,-0.779001212624948,2.62297632928283,2.22532078271958,2167.862,2167.879,2169.197,2169.179,357.293182373047,44.9998970031738,1.05027902126312,-0.921452462673187,-0.406291395425797,0.340423554182053,-0.927193242423428,-0.408820242451855,0.342147669658206,7
1.79999923706055,-0.79979419708252,2.61380743980408,2.23317813873291,-0.797637528541939,2.6147591606895,2.23219785188948,2167.647,2167.173,2167.375,2168.016,357.355590820313,44.9999122619629,1.02627396583557,-0.930715918540955,-0.410373955965042,0.343831479549408,-0.93640446928452,-0.412881678435565,0.345546745127067,7
1.81999921798706,-0.818589389324188,2.60552024841309,2.24012136459351,-0.816455916668501,2.6064617123859,2.23914210832884,2166.518,2166.375,2166.475,2166.877,357.417877197266,44.9999046325684,1.00191080570221,-0.939762473106384,-0.414360255002975,0.347161144018173,-0.945399848527698,-0.416847942375895,0.348866169714007,7
1.83999919891357,-0.837561249732971,2.59715533256531,2.2471296787262,-0.835452022484697,2.59808590437729,2.24615194515703,2164.733,2165.36,2166.245,2165.887,357.480133056641,44.999885559082,0.977333903312683,-0.948591589927673,-0.418251574039459,0.350410968065262,-0.954175641043017,-0.420717385615626,0.352104563633567,7
1.85999917984009,-0.856705367565155,2.5887143611908,2.25420117378235,-0.854621417772258,2.58963368916417,2.2532257282977,2162.767,2164.187,2166.203,2164.995,357.543060302734,44.9998779296875,0.95253199338913,-0.957202911376953,-0.422048419713974,0.35357940196991,-0.962728216100307,-0.424488407284605,0.355260587093984,7
1.8799991607666,-0.876017153263092,2.58019948005676,2.26133441925049,-0.873959602782177,2.58110705078653,2.26036179727861,2161.171,2163.001,2165.773,2164.085,357.607482910156,44.999870300293,0.927384614944458,-0.965594410896301,-0.425749868154526,0.356665074825287,-0.971054051349174,-0.428159454299744,0.358332940297198,6
1.89999914169312,-0.895492434501648,2.57161235809326,2.26852774620056,-0.893462008402304,2.57250800386814,2.26755846603151,2160.284,2161.873,2164.581,2163.122,357.673950195313,44.9998741149902,0.901774525642395,-0.973761677742004,-0.429353028535843,0.359666794538498,-0.979149732818993,-0.431729021365024,0.361320363438844,6
1.91999912261963,-0.915126383304596,2.56295537948608,2.27577948570251,-0.913123998324939,2.56383859266077,2.27481402369206,2159.844,2160.841,2162.898,2162.06,357.742309570313,44.9998931884766,0.875630736351013,-0.981698751449585,-0.432854145765305,0.36258339881897,-0.987011954918917,-0.435195650971491,0.364221636708258,6
1.93999910354614,-0.934914290904999,2.55423045158386,2.28308773040771,-0.932940871214423,2.5551008900885,2.28212673539963,2159.611,2159.888,2160.955,2160.929,357.81201171875,44.9999046325684,0.848967432975769,-0.989399790763855,-0.436250001192093,0.365413844585419,-0.99463752043787,-0.438557933397258,0.367035580288472,6
1.95999956130981,-0.954851567745209,2.54543972015381,2.29045081138611,-0.952908340676738,2.54629678611833,2.28949501941305,2159.026,2158.989,2159.346,2159.724,357.882293701172,44.9999046325684,0.821860373020172,-0.996860504150391,-0.439538568258286,0.368157058954239,-1.00202351375443,-0.441814583079618,0.369761118273162,5
1.97999954223633,-0.974933087825775,2.53658533096313,2.29786705970764,-0.973020629625177,2.53742882799704,2.29691674390407,2157.967,2158.032,2158.201,2158.551,357.952728271484,44.9999008178711,0.794440448284149,-1.00407838821411,-0.442719608545303,0.370811849832535,-1.0091666021756,-0.444964130559672,0.372397020850577,5
1.99999952316284,-0.995154142379761,2.52766942977905,2.30533456802368,-0.993273328924571,2.52849895981094,2.30439028183826,2156.288,2156.933,2157.693,2157.465,358.023284912109,44.9998817443848,0.766799867153168,-1.01105272769928,-0.445793598890305,0.373377054929733,-1.01606409259403,-0.448005388386145,0.374942294225293,4
2.01999950408936,-1.01550984382629,2.51869416236877,2.31285166740417,-1.01366149880205,2.5195093596164,2.31191381036824,2154.589,2155.762,2157.196,2156.427,358.094421386719,44.9998779296875,0.738932549953461,-1.01778268814087,-0.448761016130447,0.375851601362228,-1.02271322132033,-0.450937137986557,0.37739591855609,4
2.03999948501587,-1.03599512577057,2.50966167449951,2.32041645050049,-1.0341801452948,2.51046222936335,2.31948548664975,2153.149,2154.58,2156.427,2155.382,358.166748046875,44.999870300293,0.710782587528229,-1.02426660060883,-0.451620876789093,0.378234326839447,-1.02911133304488,-0.453758208575493,0.379756913995448,3
2.05999946594238,-1.05660510063171,2.50057435035706,2.32802700996399,-1.05482422241768,2.50135979393953,2.32710344864155,2152.15,2153.429,2155.19,2154.302,358.240478515625,44.9998779296875,0.682289719581604,-1.03050100803375,-0.454371213912964,0.380524277687073,-1.03525588083781,-0.456467477154608,0.382024340689544,0
2.0799994468689,-1.07733488082886,2.49143409729004,2.33568143844604,-1.07558863433077,2.49220430021473,2.33476581590527,2151.5,2152.305,2153.581,2153.195,358.315582275391,44.9998817443848,0.653424382209778,-1.03648197650909,-0.457009255886078,0.382720500230789,-1.04114442614907,-0.459063868512621,0.384197298778256,0
2.09999942779541,-1.09817886352539,2.48224353790283,2.34337782859802,-1.09646823750701,2.48299801608511,2.34247069040529,2150.839,2151.239,2151.968,2152.024,358.391571044922,44.9998893737793,0.624179303646088,-1.04220533370972,-0.459532916545868,0.384822368621826,-1.04677463880834,-0.461546355225319,0.386274928395158,0
2.11999940872192,-1.11913228034973,2.47300481796265,2.35111451148987,-1.11745784289978,2.47374322951742,2.35021615730862,2150.082,2150.234,2150.429,2150.793,358.468078613281,44.9998970031738,0.594599723815918,-1.04766821861267,-0.461940944194794,0.386829018592834,-1.0521442970251,-0.463913957655555,0.388256409667523,0
2.13999938964844,-1.14018964767456,2.46372008323669,2.35888934135437,-1.13855221811046,2.46444224759324,2.35800028578476,2148.882,2149.149,2149.335,2149.619,358.544738769531,44.9998931884766,0.564781844615936,-1.0528689622879,-0.464233070611954,0.388739675283432,-1.0572512873886,-0.466165743953249,0.390140962716324,0
2.15999937057495,-1.16134572029114,2.45439195632935,2.3667004108429,-1.15974608955609,2.45509739555328,2.36582112980558,2147.42,2148.068,2148.506,2148.425,358.62158203125,44.999885559082,0.534764289855957,-1.05780673027039,-0.46640956401825,0.390553385019302,-1.06209360486785,-0.468300830055387,0.391927847656232,0
2.17999935150146,-1.18259537220001,2.44502258300781,2.37454581260681,-1.18103414463689,2.44571101584163,2.37367672894522,2145.947,2146.881,2147.685,2147.325,358.698913574219,44.9998779296875,0.504594147205353,-1.06248080730438,-0.468470513820648,0.392269432544708,-1.06666935281164,-0.470318379686025,0.393616364595614,0
2.19999933242798,-1.20393300056458,2.43561434745789,2.38242363929749,-1.20241103390392,2.43628546715,2.38156510917989,2144.589,2145.675,2146.752,2146.232,358.777008056641,44.999885559082,0.474234014749527,-1.066890001297,-0.470415264368057,0.393887162208557,-1.07097674294855,-0.472217604356282,0.395205853636539,0
2.21999931335449,-1.22535371780396,2.42616939544678,2.39033174514771,-1.22387137322662,2.426823123462,2.38948428368783,2143.539,2144.516,2145.498,2145.092,358.856048583984,44.9998931884766,0.443635940551758,-1.07103216648102,-0.472242534160614,0.395406037569046,-1.07501409538691,-0.473997763364344,0.396695694874773,0
2.23999929428101,-1.24685180187225,2.41669034957886,2.39826822280884,-1.24540974596044,2.41732637309738,2.39743225364914,2142.608,2143.359,2144.119,2143.952,358.935974121094,44.9998970031738,0.412791758775711,-1.07490468025208,-0.473950684070587,0.39682537317276,-1.07877983861484,-0.475658163795466,0.398085308399781,0
2.25999927520752,-1.26842188835144,2.40717959403992,2.40623116493225,-1.2670207051144,2.40779761775631,2.40540700904563,2141.823,2142.256,2142.583,2142.763,359.016571044922,44.9999008178711,0.381694793701172,-1.07850515842438,-0.475538313388824,0.398144632577896,-1.08227250950022,-0.477198160521968,0.399374154294725,0
2.27999925613403,-1.2900584936142,2.39763927459717,2.41421842575073,-1.28869877551872,2.39823927156365,2.41340652946074,2140.899,2141.159,2141.186,2141.566,359.097473144531,44.9999008178711,0.350381642580032,-1.08183157444,-0.477004528045654,0.399363368749619,-1.08549075329072,-0.478617156203238,0.400561732636466,0
2.29999923706055,-1.3117561340332,2.38807249069214,2.42222809791565,-1.31043845599239,2.38865376011315,2.42142878487941,2139.733,2140.096,2140.034,2140.331,359.178497314453,44.9998931884766,0.31889471411705,-1.08488285541534,-0.478349208831787,0.400481015443802,-1.08843332361377,-0.479914601285728,0.401647583495566,0
2.31999921798706,-1.33350920677185,2.37848091125488,2.43025803565979,-1.33223422151078,2.37904351951179,2.4294717364879,2138.479,2138.906,2138.969,2139.224,359.259674072266,44.9998970031738,0.287307620048523,-1.08765876293182,-0.479572534561157,0.401497185230255,-1.09109908247658,-0.481089994002961,0.402631286936282,0
2.33999919891357,-1.35531234741211,2.36886739730835,2.43830633163452,-1.35408052537319,2.36941099542396,2.43753333747372,2137.061,2137.809,2138.082,2138.018,359.341064453125,44.9998970031738,0.255584388971329,-1.09015882015228,-0.480674564838409,0.402411371469498,-1.09348700026613,-0.482142880375524,0.403512463016573,0
2.35999917984009,-1.37715995311737,2.35923457145691,2.44637084007263,-1.37597180137052,2.35975864211581,2.44561153382549,2135.792,2136.611,2137.048,2136.914,359.422912597656,44.9999008178711,0.223771721124649,-1.09238243103027,-0.481655299663544,0.40322333574295,-1.09559615574918,-0.483072854211069,0.404290771788092,0
2.3799991607666,-1.39904654026031,2.34958434104919,2.45444941520691,-1.39790246595278,2.35008892149941,2.45370426513279,2134.718,2135.423,2135.821,2135.805,359.505310058594,44.9999046325684,0.191830337047577,-1.09432864189148,-0.482513934373856,0.403932690620422,-1.09742573607226,-0.483879557104319,0.404965913296195,0
2.39999914169312,-1.42096650600433,2.339919090271,2.46254014968872,-1.41986692039674,2.34040430217708,2.46180946538606,2133.701,2134.326,2134.543,2134.611,359.588195800781,44.9999046325684,0.15972512960434,-1.09599614143372,-0.483249574899673,0.404539167881012,-1.09897503676166,-0.484562678437061,0.405537627579935,0
2.41999912261963,-1.44291424751282,2.33024215698242,2.47064089775085,-1.44185955297352,2.33070725848563,2.46992506377645,2132.743,2133.255,2133.207,2133.401,359.671447753906,44.9999160766602,0.127497971057892,-1.0973836183548,-0.483861535787582,0.40504252910614,-1.10024346172348,-0.485121955378149,0.406005694672061,0
2.43999910354614,-1.46488404273987,2.32055521011353,2.47874975204468,-1.46387474111615,2.32100026954062,2.47804898549572,2131.866,2132.063,2131.8,2132.317,359.754913330078,44.9999160766602,0.0952083393931389,-1.09849011898041,-0.484349370002747,0.405442655086517,-1.10123052324355,-0.485557172883505,0.406369934599024,0
2.45999908447266,-1.48687028884888,2.31086087226868,2.48686456680298,-1.48590685358719,2.31128581828061,2.4861791525361,2130.749,2131.024,2130.639,2131.087,359.838317871094,44.9999198913574,0.0628102719783783,-1.09931540489197,-0.484712898731232,0.405739367008209,-1.1019358419875,-0.485868163696115,0.406630207380973,0
2.47999906539917,-1.50886750221252,2.30116176605225,2.49498319625854,-1.5079502526463,2.30156639051142,2.49431348449015,2129.529,2129.928,2129.593,2129.92,359.921722412109,44.9999160766602,0.030384810641408,-1.09985947608948,-0.484952598810196,0.405932486057281,-1.10235914700073,-0.486054808346035,0.406786413031753,0
