t,x_s1,x_s2,x_s3,x_s_d1,x_s_d2,x_s_d3,propellers_rpms1,propellers_rpms2,propellers_rpms3,propellers_rpms4,rollRad,pitchRad,yawRad,v_s1,v_s2,v_s3,v_s_d1,v_s_d2,v_s_d3,insideCount
0,-0.0599999874830246,2.94000005722046,1.95999944210052,-0.0599999874830246,2.94000005722046,1.95999944210052,2128.788,2128.788,2128.789,2128.788,4.66677965960116E-06,45.0000228881836,9.37066033657175E-06,1.23590211842384E-07,-5.11613393427979E-07,-1.25315782497637E-05,-7.105427357601E-16,0,0,7
0.0199999809265137,-0.0599999837577343,2.94000005722046,1.95999920368195,-0.0600018578066106,2.93999923259951,1.96000013216116,2128.784,2128.786,2128.786,2128.785,4.2427614062035E-06,45.0000228881836,9.78213302005315E-06,1.11895701593312E-07,-4.8237706096188E-07,-1.08483654912561E-05,-0.000279986133261855,-0.000123445179366777,0.00010330159452369,7
0.0399999618530273,-0.059999980032444,2.94000005722046,1.95999896526337,-0.0600148601887537,2.93999349988205,1.96000492942305,2461.543,2262.456,1799.657,2000.923,4.66681194666307E-06,45.0000228881836,1.0193607522524E-05,1.00201226871377E-07,-4.53140756917492E-07,-9.4639999588253E-06,-0.00111096706653609,-0.000489822575145633,0.000409894119039708,7
0.059999942779541,-0.059999980032444,2.94000005722046,1.9600031375885,-0.0600498804852902,2.93997805952171,1.96001785025035,2300.955,2200.804,1963.584,2069.505,359.708679199219,44.9998779296875,0.1117227897048,7.24938828966515E-08,-4.31002689538218E-07,0.000209371195524,-0.00247955788488967,-0.00109323081213073,0.000914839175209839,7
0.0799999237060547,-0.0600195415318012,2.93999123573303,1.96001636981964,-0.0601175379378098,2.93994822952168,1.96004281263918,2105.448,2128.247,2163.27,2148.267,359.268829345703,44.998893737793,0.279528200626373,-0.000978147960267961,-0.000436395202996209,0.000661961850710213,-0.00437248205316222,-0.00192781629948473,0.00161323835168835,7
0.0999999046325684,-0.0600882209837437,2.93996047973633,1.96004319190979,-0.060228187341249,2.93989944447903,1.96008363701743,1940.455,2066.002,2334.582,2214.333,358.854461669922,44.9973106384277,0.438801825046539,-0.00343397632241249,-0.00153389200568199,0.0013384020421654,-0.0067765714159668,-0.00298777323073878,0.00250023322412198,7
0.119999885559082,-0.0602339841425419,2.93989539146423,1.96008765697479,-0.0603919212114843,2.93982725462897,1.96014404704444,1901.784,2049.889,2380.843,2232.45,358.613555908203,44.9966087341309,0.534711420536041,-0.00728807132691145,-0.00325323338620365,0.00222161831334233,-0.0096787661976898,-0.00426734358379254,0.00357100535514996,6
0.139999866485596,-0.0604733154177666,2.93978881835938,1.9601536989212,-0.0606185719529259,2.93972732488921,1.96022767041078,1996.356,2083.611,2293.037,2201.186,358.58349609375,44.9976425170898,0.5526043176651,-0.0119665516540408,-0.00532755488529801,0.00330471526831388,-0.0130661150024911,-0.00576081712091418,0.00482077629440399,6
0.159999847412109,-0.0608086548745632,2.93964004516602,1.96024560928345,-0.0609177140261107,2.93959543390429,1.96033803963796,2158.375,2144.604,2135.304,2145.002,358.684051513672,44.9995994567871,0.520255506038666,-0.0167669598013163,-0.00743363704532385,0.00459715910255909,-0.0169257748143038,-0.00746253138874032,0.00624480757850827,6
0.179999828338623,-0.0612336210906506,2.93945264816284,1.96036779880524,-0.0612986661152962,2.93942747308983,1.96047859287819,2292.48,2198.266,2003.23,2098.145,358.7744140625,45.0011367797852,0.48774841427803,-0.0212482996284962,-0.00937542319297791,0.00610839389264584,-0.0212450109968346,-0.00936687171827614,0.00783840073107947,6
0.199999809265137,-0.0617423020303249,2.93922901153564,1.96052443981171,-0.0617704932960533,2.9392194456769,1.96065267471412,2329.661,2218.023,1967.567,2085.257,358.737487792969,45.0015983581543,0.498030066490173,-0.0254340805113316,-0.0111777354031801,0.00783107150346041,-0.0260111972935634,-0.0114682712248953,0.00959689726272672,6
0.21999979019165,-0.062337089329958,2.93896818161011,1.96071934700012,-0.0623420092028602,2.93896746575631,1.96086353695855,2261.789,2198.804,2038.332,2109.621,358.541198730469,45.0009651184082,0.565047442913055,-0.0297394078224897,-0.0130469044670463,0.00974387768656015,-0.0312118158277436,-0.0137612108083398,0.0115156786710517,6
0.239999771118164,-0.0630309507250786,2.93866348266602,1.96095585823059,-0.0630217781966957,2.93866775732291,1.9611143394542,2139.437,2156.618,2165.844,2154.503,358.246520996094,44.9995231628418,0.670186281204224,-0.0346931628882885,-0.0152341881766915,0.0118235200643539,-0.0368344571024021,-0.0162402191527205,0.0135901664406484,6
0.259999752044678,-0.0638435631990433,2.93830561637878,1.96123683452606,-0.0638181175326325,2.93831665331995,1.96140815087345,2037.075,2117.723,2275.03,2194.191,357.963500976563,44.9980735778809,0.776242017745972,-0.0406305007636547,-0.0178876370191574,0.014051609672606,-0.0428668200003389,-0.0188998727265164,0.0158158220431036,6
0.279999732971191,-0.0647940933704376,2.93788599967957,1.96156513690948,-0.0647390995274304,2.93791059468334,1.96174794951806,2009.719,2103.227,2309.05,2209.29,357.785186767578,44.9976387023926,0.849609911441803,-0.0475266650319099,-0.0209770184010267,0.0164180360734463,-0.0492967117841277,-0.0217347957825752,0.0181881469369962,6
0.299999713897705,-0.0658950060606003,2.93739938735962,1.96194362640381,-0.0657925537271303,2.937446129386,1.9621366241189,2064.77,2118.813,2258.563,2196.117,357.738647460938,44.9986152648926,0.877624332904816,-0.0550458431243896,-0.0243262350559235,0.018925191834569,-0.0561120480961153,-0.024739660358113,0.0207026825678979,6
0.319999694824219,-0.0671500861644745,2.93684482574463,1.96237528324127,-0.0669860690746469,2.93691991148215,1.96257697463573,2163.481,2153.547,2161.613,2166.401,357.777374267578,45.0003204345703,0.872590839862823,-0.0627541989088058,-0.0277234502136707,0.0215851552784443,-0.0633008529584222,-0.0279091862747145,0.0233550103683726,6
0.339999675750732,-0.0685573071241379,2.93622398376465,1.96286344528198,-0.0683269960773626,2.93632870015165,1.96307171305691,2247.65,2187.507,2077.439,2138.999,357.815307617188,45.0016632080078,0.862081348896027,-0.0703611299395561,-0.0310402940958738,0.0244067255407572,-0.070851258772942,-0.0312381411383328,0.0261407517579769,6
0.359999656677246,-0.070114403963089,2.93553805351257,1.96341109275818,-0.0698224489747208,2.93566935874428,1.96362346419912,2273.719,2203.576,2051.647,2128.908,357.7783203125,45.0019721984863,0.872331738471985,-0.0778548419475555,-0.0342921614646912,0.0273848418146372,-0.0787515063213418,-0.0347213403392894,0.0290555681432598,6
0.37999963760376,-0.0718238055706024,2.93478584289551,1.96402108669281,-0.0714793079058191,2.93493885382408,1.96423476650717,2234.918,2196.272,2092.727,2139.926,357.643615722656,45.0012130737305,0.914518177509308,-0.0854702368378639,-0.037612047046423,0.0305014401674271,-0.0869899447650622,-0.0383536470522746,0.0320951609177627,6
0.400000095367432,-0.0736943334341049,2.93396258354187,1.96469581127167,-0.073304266641242,2.9341342341245,1.96490808966469,2160.869,2173.13,2171.44,2164.204,357.4462890625,44.9998626708984,0.980802357196808,-0.0935263112187386,-0.0411619767546654,0.0337349586188793,-0.0955552396560571,-0.0421300639477571,0.0352553482081101,6
0.420000076293945,-0.0757390707731247,2.93306183815002,1.96543717384338,-0.0753036567281569,2.93325270808237,1.96564576971208,2097.063,2149.187,2241.227,2187.76,357.253631591797,44.9986839294434,1.05089950561523,-0.102236911654472,-0.0450368374586105,0.0370687022805214,-0.10443554827369,-0.0460453696001037,0.0385317606124642,6
0.440000057220459,-0.0779710784554482,2.93207740783691,1.96624708175659,-0.0774837104848702,2.9322915278843,1.966450106079,2078.1,2137.89,2265.619,2198.97,357.124420166016,44.9983978271484,1.10448503494263,-0.11160047352314,-0.049216091632843,0.0404957644641399,-0.113619745280872,-0.0500946588762761,0.0419202934094676,6
0.460000038146973,-0.0803994834423065,2.93100571632385,1.96712744235992,-0.0798503933196818,2.93124806339681,1.96732329971799,2110.039,2144.469,2236.982,2194.2,357.077728271484,44.9991683959961,1.13193130493164,-0.121420405805111,-0.0535841435194016,0.0440201610326767,-0.12309661336072,-0.0542729860895777,0.045416807941585,6
0.480000019073486,-0.0830280631780624,2.92984557151794,1.96808052062988,-0.082409447378565,2.93011978292224,1.96826746920837,2170.255,2163.877,2177.607,2178.874,357.0869140625,45.00048828125,1.13810861110687,-0.131429046392441,-0.0580018982291222,0.0476520769298077,-0.132855043576126,-0.0585754533376804,0.0490172055382738,6
0.5,-0.0858567804098129,2.92859792709351,1.96910846233368,-0.0851663937127594,2.92890425224304,1.96928465155602,2223.129,2184.917,2124.188,2163.102,357.099365234375,45.0015144348145,1.13789367675781,-0.141435995697975,-0.0623839609324932,0.0513983815908432,-0.142884035369755,-0.0629972105026245,0.0527174275159836,6
0.519999980926514,-0.0888851284980774,2.9272632598877,1.97021353244781,-0.0881265344463643,2.92759913366608,1.97037680299307,2241.22,2196.768,2105.921,2155.926,357.068237304688,45.0017318725586,1.14703941345215,-0.151417285203934,-0.0667380467057228,0.0552555620670319,-0.153172696564045,-0.067533455250819,0.0565134551781567,6
0.539999961853027,-0.092115193605423,2.92584037780762,1.97139775753021,-0.0912949549439322,2.92620218506696,1.97154579977769,2219.183,2194.89,2129.532,2160.522,356.977600097656,45.0010986328125,1.17367434501648,-0.161503210663795,-0.0711485370993614,0.0592101402580738,-0.163710243361207,-0.0721794330330411,0.0604013098152277,6
0.559999942779541,-0.0955528765916824,2.92432594299316,1.97266268730164,-0.0946765259780626,2.92471125893434,1.97279343899379,2174.316,2182.556,2177.938,2173.428,356.847473144531,45.0000343322754,1.21501469612122,-0.171883895993233,-0.0757194012403488,0.0632450953125954,-0.174486000343228,-0.0769304370844369,0.0643770527046238,6
0.579999923706055,-0.0992067456245422,2.92271566390991,1.97400963306427,-0.0982759058969944,2.92312430141425,1.97412143935077,2134.417,2168.158,2222.383,2187.206,356.718933105469,44.999153137207,1.26024913787842,-0.182693347334862,-0.0805118232965469,0.0673470422625542,-0.185489400471865,-0.0817818084245206,0.0684367851107647,6
0.599999904632568,-0.103085480630398,2.92100548744202,1.97543978691101,-0.102097542792201,2.92143935135437,1.97553144198329,2121.398,2160.074,2239.435,2194.985,356.629119873047,44.9989471435547,1.29731202125549,-0.193937331438065,-0.0855122283101082,0.0715106278657913,-0.196709985088649,-0.0867289358571752,0.0725766482850625,6
0.619999885559082,-0.107195481657982,2.91919255256653,1.97695457935333,-0.10614567666598,2.9196545393484,1.97702501125094,2139.864,2162.33,2223.307,2193.926,356.591278076172,44.9995002746582,1.31942057609558,-0.205499976873398,-0.0906450375914574,0.0757387578487396,-0.208137403914887,-0.0917672559706519,0.0767928234659218,6
0.639999866485596,-0.111539795994759,2.91727614402771,1.97855532169342,-0.110424341599053,2.91776808678033,1.97860363553804,2176.552,2172.958,2187.07,2186.207,356.590148925781,45.0004272460938,1.32801079750061,-0.217215731739998,-0.0958186239004135,0.0800385847687721,-0.219761415051657,-0.0968922531375708,0.0810815318787397,6
0.659999847412109,-0.116118997335434,2.91525673866272,1.98024356365204,-0.114937367918153,2.91577830486878,1.98026872805338,2209.775,2185.684,2153.244,2177.265,356.593658447266,45.0011749267578,1.33095288276672,-0.22896021604538,-0.100975476205349,0.0844147056341171,-0.23157188497981,-0.10209945951492,0.0854390347359058,6
0.679999828338623,-0.120933145284653,2.91313433647156,1.98202085494995,-0.11968838436362,2.91368359371129,1.9820216276299,2222.157,2193.886,2140.527,2172.396,356.572265625,45.0013236999512,1.33752632141113,-0.240707635879517,-0.106118053197861,0.0888645127415657,-0.243558788559972,-0.107384455044057,0.0898616332368021,6
0.699999809265137,-0.125983715057373,2.91090846061707,1.98388838768005,-0.124680820256995,2.91148244132865,1.98386359952449,2209.672,2194.215,2153.953,2173.944,356.514984130859,45.0008697509766,1.35331547260284,-0.252528339624405,-0.11129904538393,0.0933782458305359,-0.255712209032543,-0.112742867450706,0.0943456685678032,6
0.71999979019165,-0.13127438724041,2.90857672691345,1.98584723472595,-0.129917907668612,2.9091734227092,1.98579583621771,2182.458,2187.779,2183.532,2180.664,356.433135986328,45.000114440918,1.37778329849243,-0.264533966779709,-0.116584472358227,0.0979433432221413,-0.268022338017693,-0.118170372244962,0.0988875219022761,6
0.739999771118164,-0.136810511350632,2.90613651275635,1.98789823055267,-0.135402683585193,2.90675519885317,1.98781945821352,2157.449,2179.255,2211.639,2188.573,356.351806640625,44.9994964599609,1.40528321266174,-0.276806592941284,-0.12201365083456,0.102549634873867,-0.280479475515369,-0.123662692721287,0.10348361440058,6
0.759999752044678,-0.142597556114197,2.9035849571228,1.99004209041595,-0.14113799207744,2.90422651581697,1.98993551483901,2148.523,2173.705,2223.288,2193.709,356.294281005859,44.999340057373,1.42877447605133,-0.289352476596832,-0.127577781677246,0.107192710042,-0.293074029905289,-0.129215599958511,0.108130407210068,6
0.779999732971191,-0.148639604449272,2.90092039108276,1.99227952957153,-0.147126486467631,2.9015862037575,1.99214498504419,2159.032,2174.066,2214.291,2193.973,356.269683837891,44.9996948242188,1.44369006156921,-0.302102506160736,-0.133227452635765,0.111873805522919,-0.305796517946946,-0.134824912819835,0.112824401465083,7
0.799999713897705,-0.154938668012619,2.89814233779907,1.99461150169373,-0.153370631497209,2.89883317597648,1.99444877820166,2181.336,2179.667,2192.146,2190.188,356.269409179688,45.0003242492676,1.45008432865143,-0.314953684806824,-0.138902321457863,0.116597145795822,-0.318637564779605,-0.140486497952826,0.117562138286963,7
0.819999694824219,-0.161495164036751,2.89525103569031,1.99703884124756,-0.159872705494378,2.89596642796476,1.99684773490639,2202.14,2187.158,2170.731,2185.12,356.273895263672,45.0008163452148,1.45199382305145,-0.327824413776398,-0.144563108682632,0.121365249156952,-0.331587903922306,-0.146196269789419,0.122340198784037,7
0.839999675750732,-0.168308973312378,2.89224696159363,1.99956238269806,-0.166634802541698,2.89298503644661,1.99934262777546,2210.453,2192.551,2161.945,2181.847,356.264556884766,45.0009269714355,1.45479941368103,-0.340691447257996,-0.150209084153175,0.12617589533329,-0.344638377273861,-0.151950190545922,0.127155204051627,7
0.859999656677246,-0.175380811095238,2.8891294002533,2.00218272209167,-0.173658834643674,2.8898881584241,2.00193416224778,2203.415,2193.446,2169.347,2182.075,356.23388671875,45.0006217956543,1.46220278739929,-0.353591084480286,-0.155872255563736,0.131021991372108,-0.357779935112856,-0.157744270223005,0.132003815172047,7
0.87999963760376,-0.182712525129318,2.88589763641357,2.00490069389343,-0.180946533894356,2.88667503022131,2.00462297738386,2186.769,2190.168,2187.33,2185.345,356.188201904297,45.0001068115234,1.47447800636292,-0.366587340831757,-0.161594152450562,0.135894536972046,-0.371003636097651,-0.163574566605712,0.136882733214605,7
0.899999618530273,-0.190307140350342,2.88254952430725,2.00771641731262,-0.188499454644924,2.88334496652873,2.00740964666551,2171.048,2185.099,2204.864,2189.774,356.142761230469,44.9996871948242,1.48880767822266,-0.379729390144348,-0.167399853467941,0.140785947442055,-0.384300647266377,-0.169437185263453,0.141788699235599,7
0.919999599456787,-0.198167562484741,2.87908387184143,2.0106303691864,-0.196318975671289,2.87989735944756,2.01029467879558,2164.805,2181.387,2212.692,2192.916,356.112213134766,44.999568939209,1.50112080574036,-0.393021494150162,-0.17328342795372,0.145692229270935,-0.397662244036941,-0.175328279550006,0.146718494278322,7
0.939999580383301,-0.206295982003212,2.8754997253418,2.01364254951477,-0.204406302341681,2.87633167753397,2.01327851849777,2170.673,2180.907,2207.578,2193.501,356.102752685547,44.9997978210449,1.50848650932312,-0.406421571969986,-0.179212883114815,0.150613516569138,-0.411079810207023,-0.181244050603519,0.151668939373058,7
0.959999561309814,-0.214693278074265,2.87179684638977,2.01675367355347,-0.212762468784246,2.87264746484348,2.01636154731626,2184.115,2183.662,2193.976,2191.617,356.109527587891,45.0001907348633,1.51046109199524,-0.419864743947983,-0.185148030519485,0.155551612377167,-0.424544837954075,-0.187180747346508,0.156636895537082,7
0.979999542236328,-0.223359227180481,2.86797571182251,2.01996374130249,-0.221388340054639,2.86884433997524,2.01954408441554,2197.022,2187.89,2180.355,2188.659,356.120635986328,45.0005149841309,1.5090423822403,-0.43329718708992,-0.191061854362488,0.160507440567017,-0.438048927835324,-0.193134666485857,0.161619263774666,7
0.999999523162842,-0.232293218374252,2.86403656005859,2.023273229599,-0.230284614303613,2.86492199511634,2.0228263873801,2202.47,2191.208,2174.242,2186.417,356.124420166016,45.0005836486816,1.5073117017746,-0.446699410676956,-0.196951881051064,0.165478840470314,-0.451583788787769,-0.199102152512819,0.166612985077071,7
1.01999950408936,-0.241494983434677,2.85997986793518,2.02668237686157,-0.23945182494462,2.86088019508613,2.02620865301419,2198.364,2192.06,2178.196,2185.978,356.115783691406,45.0003890991211,1.50764548778534,-0.460088551044464,-0.20283716917038,0.170460805296898,-0.465141238128183,-0.205079597703015,0.17161504042255,7
1.03999948501587,-0.250964969396591,2.85580492019653,2.03019142150879,-0.248890342821397,2.85671877638056,2.02969101814155,2188.144,2190.28,2188.856,2187.433,356.098266601563,45.0000648498535,1.51058626174927,-0.473500311374664,-0.208743199706078,0.175446644425392,-0.478713201553113,-0.211063442116435,0.17662245077635,7
1.05999946594238,-0.2607042491436,2.85151124000549,2.03380012512207,-0.258600378375565,2.85243764621643,2.03327356040514,2178.073,2187.226,2199.691,2189.691,356.0810546875,44.9997863769531,1.5147397518158,-0.48696306347847,-0.214685514569283,0.180430635809898,-0.492291713138878,-0.217050173597438,0.181632277090712,7
1.0799994468689,-0.270713776350021,2.84709811210632,2.03750824928284,-0.268581983814217,2.84803678157577,2.0369562990669,2173.704,2184.616,2204.666,2191.521,356.073364257813,44.9997100830078,1.51782655715942,-0.500478744506836,-0.220660254359245,0.185409396886826,-0.505868915341572,-0.223036327774749,0.186641620304865,7
1.09999942779541,-0.280994176864624,2.84256529808044,2.04131579399109,-0.278835055277519,2.84351622825013,2.04073919580749,2176.765,2183.83,2201.683,2191.915,356.079315185547,44.9998435974121,1.51794946193695,-0.514020919799805,-0.226646333932877,0.19038200378418,-0.519437058997061,-0.229018488061466,0.191647621345035,7
1.11999940872192,-0.291545152664185,2.83791303634644,2.04522275924683,-0.289359335006293,2.83887609988487,2.04462215552601,2184.689,2184.979,2193.228,2190.843,356.096221923828,45.0000915527344,1.51461136341095,-0.527548134326935,-0.232617110013962,0.195348829030991,-0.532988503320985,-0.23499328565505,0.196647461124439,7
1.13999938964844,-0.302365630865097,2.83314204216003,2.04922890663147,-0.300154413509622,2.8341165770235,2.04860502713973,2192.542,2187.175,2184.459,2188.972,356.116882324219,45.0002899169922,1.50877141952515,-0.541024386882782,-0.23855385184288,0.200309574604034,-0.546515715908758,-0.240957399537335,0.201638360543284,7
1.15999937057495,-0.313454300165176,2.82825303077698,2.05333423614502,-0.311219731732434,2.829237906152,2.05268760438388,2195.964,2189.032,2180.108,2187.318,356.134002685547,45.0003356933594,1.50217413902283,-0.55443400144577,-0.244453430175781,0.205262273550034,-0.560011272735567,-0.246907556474522,0.206617580488774,7
1.17999935150146,-0.324809968471527,2.82324647903442,2.05753827095032,-0.3225545832231,2.8242403987431,2.05686962661133,2193.473,2189.513,2181.956,2186.616,356.144134521484,45.0002174377441,1.49632096290588,-0.56778359413147,-0.250326424837112,0.210202917456627,-0.57346785815637,-0.252840531017179,0.211582421835101,7
1.19999980926514,-0.3364317715168,2.81812262535095,2.06184077262878,-0.334158396146467,2.81912430691749,2.06115088284204,2187.004,2188.434,2188.139,2186.986,356.149200439453,45.0000152587891,1.49171054363251,-0.581092178821564,-0.256188303232193,0.215126663446426,-0.586878584028079,-0.258753286200408,0.21653034318439,7
1.21999979019165,-0.348319292068481,2.81288170814514,2.06624126434326,-0.346029622438865,2.81389031321251,2.06553080191401,2180.495,2186.468,2194.544,2187.935,356.15478515625,44.9998435974121,1.48771667480469,-0.594375252723694,-0.26204851269722,0.220029205083847,-0.600235711866845,-0.264642410146212,0.221458489403383,7
1.23999977111816,-0.360471904277802,2.80752372741699,2.07073950767517,-0.358167399912079,2.80853879776479,2.07000906572069,2177.203,2184.501,2197.654,2188.832,356.166534423828,44.9997825622559,1.48308885097504,-0.607632875442505,-0.267904102802277,0.224907606840134,-0.613532571477752,-0.270504961982493,0.226364399506735,7
1.25999975204468,-0.372888892889023,2.80204892158508,2.07533478736877,-0.370570454200899,2.80307032243873,2.07458520408181,2178.588,2183.572,2195.73,2188.92,356.187286376953,44.9998588562012,1.476602435112,-0.620847880840302,-0.273741245269775,0.229760408401489,-0.626762280737439,-0.276337907398433,0.231245534317564,7
1.27999973297119,-0.385568767786026,2.79645800590515,2.08002662658691,-0.383237374381579,2.79748550930703,2.07925869643348,2183.077,2183.798,2190.317,2188.113,356.215576171875,45,1.46782660484314,-0.633993268013,-0.279542088508606,0.234586954116821,-0.639918065902315,-0.282138259867582,0.23609939464598,7
1.29999971389771,-0.398509621620178,2.79075217247009,2.08481431007385,-0.396166615139425,2.79178503969506,2.08402897262791,2187.71,2184.737,2184.492,2186.739,356.2470703125,45.000129699707,1.45720982551575,-0.647044479846954,-0.285293638706207,0.239386335015297,-0.652993261608567,-0.287903080647862,0.240923521289085,7
1.31999969482422,-0.411709427833557,2.78493237495422,2.08969736099243,-0.409356498936391,2.7859696532251,2.08889541373318,2189.728,2185.561,2181.244,2185.401,356.277130126953,45.0001640319824,1.44574320316315,-0.659988760948181,-0.290992379188538,0.244156509637833,-0.665981310872151,-0.293629478781559,0.245715495030974,7
1.33999967575073,-0.425165981054306,2.77899956703186,2.09467530250549,-0.422805218178672,2.7800401468607,2.09385735283298,2188.06,2185.637,2181.83,2184.545,356.303466796875,45.0000915527344,1.43435227870941,-0.672827482223511,-0.296643853187561,0.248894453048706,-0.678875765088799,-0.29931461109533,0.250472936642735,7
1.35999965667725,-0.43887734413147,2.77295446395874,2.09974718093872,-0.436510837384296,2.77399737395096,2.09891407582631,2183.816,2184.783,2185.188,2184.307,356.327056884766,44.9999694824219,1.42343080043793,-0.685569941997528,-0.30225732922554,0.253596693277359,-0.691670284034016,-0.304955682200201,0.255193506882446,7
1.37999963760376,-0.452841848134995,2.7667977809906,2.10491228103638,-0.450471295350721,2.7678422432749,2.10406482222727,2179.325,2183.328,2188.899,2184.45,356.351257324219,44.999870300293,1.41271185874939,-0.698223888874054,-0.30783823132515,0.258259683847427,-0.704358635863079,-0.310549944491564,0.259874906495181,8
1.39999961853027,-0.467057585716248,2.7605299949646,2.11016988754272,-0.464684407322425,2.7615757180857,2.10930878596476,2176.823,2181.815,2190.555,2184.609,356.379669189453,44.999828338623,1.40150964260101,-0.710788249969482,-0.313384503126144,0.262880980968475,-0.716934697111041,-0.316094698149183,0.264514876213004,8
1.41999959945679,-0.481522619724274,2.75415229797363,2.11551904678345,-0.4791478671585,2.75519881515508,2.11464511618223,2177.146,2180.832,2189.177,2184.334,356.414123535156,44.999870300293,1.38910889625549,-0.723251283168793,-0.318886816501617,0.267458945512772,-0.729392452692725,-0.321587291137187,0.269111196754972,8
1.4399995803833,-0.496234565973282,2.74766564369202,2.12095880508423,-0.493859249500248,2.74871260381754,2.12007291803745,2179.531,2180.445,2185.482,2183.613,356.453887939453,44.9999504089355,1.37520933151245,-0.735594928264618,-0.324333161115646,0.271992444992065,-0.741725995902731,-0.327025119204076,0.273661688827135,8
1.45999956130981,-0.511190533638,2.74107146263123,2.12648844718933,-0.508816011938769,2.74211820501477,2.12559125350219,2182.073,2180.542,2181.458,2182.478,356.496246337891,45.0000228881836,1.35995829105377,-0.747802257537842,-0.329714000225067,0.276480168104172,-0.753929528415429,-0.332405625882716,0.278164213122535,8
1.47999954223633,-0.526387810707092,2.73437094688416,2.13210678100586,-0.52401549718256,2.73541679033988,2.13119914216202,2183.087,2180.658,2178.908,2181.273,356.538360595703,45.0000343322754,1.34388375282288,-0.759863376617432,-0.335026293992996,0.280920416116714,-0.765997360284965,-0.337726302490345,0.282616670321207,8
1.49999952316284,-0.541823327541351,2.72756552696228,2.13781309127808,-0.539454935225106,2.72860958108175,2.13689556201598,2181.749,2180.387,2178.782,2180.286,356.57861328125,45,1.3275500535965,-0.771776795387268,-0.340272665023804,0.285310596227646,-0.777923909945258,-0.342984688128566,0.287017001090178,8
1.51999950408936,-0.557494282722473,2.7206563949585,2.14360594749451,-0.555131445512473,2.72169784726933,2.14267945027641,2178.781,2179.573,2180.382,2179.648,356.617584228516,44.9999351501465,1.3112621307373,-0.783546447753906,-0.345458328723907,0.289647996425629,-0.789703704209998,-0.348178369683354,0.291363186083467,8
1.53999948501587,-0.573397815227509,2.7136447429657,2.14948463439941,-0.571042039110903,2.71468290671598,2.14854970416861,2175.561,2178.338,2182.289,2179.283,356.657257080078,44.9998626708984,1.29494166374207,-0.795175552368164,-0.350586324930191,0.293929904699326,-0.801331378272652,-0.353304981825048,0.295653245942087,8
1.55999946594238,-0.589531004428864,2.70653176307678,2.15544772148132,-0.587183620874403,2.70756612406374,2.15450518173059,2173.535,2177.03,2182.95,2178.949,356.699890136719,44.9998359680176,1.27821612358093,-0.806662261486053,-0.355654984712601,0.298154324293137,-0.812801675706457,-0.35836220700836,0.299885241294042,8
1.5799994468689,-0.605890989303589,2.69931864738464,2.16149401664734,-0.603552991612347,2.7003489098277,2.16054470261287,2173.265,2175.964,2181.729,2178.413,356.746643066406,44.9998550415039,1.26066792011261,-0.817998290061951,-0.360658079385757,0.30231961607933,-0.824109448464426,-0.363347775472368,0.30405727275433,8
1.59999942779541,-0.622474431991577,2.69200682640076,2.16762256622314,-0.620146850257061,2.69303271944026,2.16666704887814,2174.247,2175.261,2179.107,2177.575,356.797149658203,44.9999046325684,1.24207258224487,-0.829171299934387,-0.365587204694748,0.3064244389534,-0.835249656879344,-0.368259465240518,0.308167480924939,8
1.61999940872192,-0.639277875423431,2.68459820747375,2.17383193969727,-0.636961796031418,2.68561905229545,2.17287096580106,2175.427,2174.852,2176.165,2176.481,356.849792480469,44.999942779541,1.22249007225037,-0.840169429779053,-0.370435833930969,0.310467511415482,-0.84621736966377,-0.373095102120628,0.312214046394852,8
1.63999938964844,-0.656297564506531,2.67709422111511,2.18012094497681,-0.653994330616436,2.67810945079331,2.17915516266795,2175.71,2174.443,2174.072,2175.353,356.902740478516,44.9999580383301,1.20221376419067,-0.850985050201416,-0.37520107626915,0.314447104930878,-0.857007763910036,-0.377852559704879,0.316195189740044,8
1.65999937057495,-0.673529803752899,2.66949653625488,2.18648815155029,-0.671240860318867,2.67050549938409,2.18551831357657,2174.557,2173.884,2173.441,2174.27,356.954986572266,44.9999313354492,1.1815505027771,-0.861615598201752,-0.379883944988251,0.318361312150955,-0.867616125090247,-0.382529759369826,0.320109171523481,7
1.67999935150146,-0.690971076488495,2.66180682182312,2.19293236732483,-0.688697698238791,2.66280882361268,2.19195905823583,2172.32,2173.013,2173.937,2173.379,357.006744384766,44.9998970031738,1.16072475910187,-0.872061967849731,-0.384487122297287,0.322207987308502,-0.878037847056283,-0.387124670276389,0.323954292295122,7
1.69999933242798,-0.708617508411407,2.6540265083313,2.19945216178894,-0.706361066437213,2.65502108916284,2.19847600276556,2169.869,2171.844,2174.669,2172.692,357.059204101563,44.9998550415039,1.13974213600159,-0.882324934005737,-0.389012217521667,0.325985163450241,-0.888268432039795,-0.391635309369857,0.327728892591921,7
1.71999931335449,-0.72646552324295,2.64615726470947,2.20604586601257,-0.72422709810365,2.64714400090155,2.20506772049621,2168.112,2170.647,2174.674,2171.993,357.11376953125,44.9998397827148,1.11839723587036,-0.892402470111847,-0.39345794916153,0.329691022634506,-0.89830349065221,-0.396059741379889,0.33143135293782,7
1.73999929428101,-0.744511306285858,2.6382007598877,2.21271228790283,-0.742291839723729,2.63917930192332,2.21173275276862,2167.421,2169.512,2173.538,2171.24,357.171234130859,44.9998550415039,1.09647619724274,-0.902288556098938,-0.397819966077805,0.333324074745178,-0.908138741884726,-0.400396078820511,0.335060093843758,7
1.75999927520752,-0.762750864028931,2.6301589012146,2.21944999694824,-0.760551253246781,2.63112877259448,2.21846960973375,2167.573,2168.579,2171.466,2170.314,357.231414794922,44.9998741149902,1.07381641864777,-0.911974668502808,-0.402092635631561,0.336883217096329,-0.917770013108317,-0.404642481990118,0.338613575807663,7
1.77999925613403,-0.781179904937744,2.62203359603882,2.22625732421875,-0.779001218253432,2.62299422959755,2.2252767711524,2167.897,2167.811,2169.143,2169.236,357.293273925781,44.9999046325684,1.05041611194611,-0.921452522277832,-0.406271159648895,0.34036710858345,-0.927193240073727,-0.408797158971474,0.342090299314458,7
1.79999923706055,-0.79979419708252,2.61382651329041,2.23313283920288,-0.797637534123194,2.6147775249755,2.23215268719499,2167.682,2167.112,2167.325,2168.064,357.355682373047,44.9999122619629,1.02640926837921,-0.930716037750244,-0.41035321354866,0.343774348497391,-0.936404466911477,-0.412858365631711,0.345488804836056,7
1.81999921798706,-0.818589389324188,2.60553979873657,2.24007487297058,-0.816455922202068,2.60648054517606,2.23909577924127,2166.542,2166.357,2166.437,2166.882,357.41796875,44.9999046325684,1.00199735164642,-0.939762592315674,-0.414338916540146,0.347103387117386,-0.945399846131858,-0.416824405622329,0.348807672831365,7
1.83999919891357,-0.837561249732971,2.59717512130737,2.24708199501038,-0.835452027970123,2.59810521009609,2.24610444068005,2164.729,2165.379,2166.235,2165.857,357.480194091797,44.999885559082,0.977361857891083,-0.948591649532318,-0.418229728937149,0.350352555513382,-0.954175638624937,-0.420693630379197,0.352045523746283,7
1.85999917984009,-0.856705248355865,2.58873462677002,2.25415229797363,-0.854621423209104,2.58965347212583,2.25317703770897,2162.709,2164.251,2166.251,2164.917,357.543060302734,44.999870300293,0.952522158622742,-0.957202911376953,-0.422026395797729,0.353520423173904,-0.962728213660554,-0.424464439122552,0.355201018013703,7
1.8799991607666,-0.876017153263092,2.58021998405457,2.26128435134888,-0.873959608170016,2.58112731519326,2.26031191013422,2161.154,2163.033,2165.774,2164.045,357.607513427734,44.999870300293,0.927398204803467,-0.965594351291656,-0.425727784633636,0.356605499982834,-0.97105404888832,-0.428135278857002,0.35827285605351,6
1.89999914169312,-0.895492374897003,2.57163333892822,2.26847648620605,-0.893462013740721,2.57252875380839,2.26750737217027,2160.224,2161.863,2164.635,2163.116,357.673980712891,44.9998626708984,0.901842713356018,-0.97376161813736,-0.429330885410309,0.35960665345192,-0.979149730337624,-0.43170464437152,0.361259778272578,6
1.91999912261963,-0.915126383304596,2.56297659873962,2.27572703361511,-0.913124003613528,2.56385983210757,2.27476171323963,2159.872,2160.798,2162.856,2162.095,357.742401123047,44.9998779296875,0.875751614570618,-0.981698751449585,-0.432831734418869,0.362522780895233,-0.987011952417623,-0.435171078239449,0.364160565064779,6
1.93999910354614,-0.934914290904999,2.55425214767456,2.28303408622742,-0.932940876452792,2.55512262289782,2.2820731987726,2159.612,2159.852,2160.943,2160.954,357.812133789063,44.9999046325684,0.849106729030609,-0.989399909973145,-0.436227053403854,0.365352749824524,-0.994637517917252,-0.438533170818501,0.366974036810973,6
1.95999908447266,-0.954851627349854,2.54546189308167,2.29039597511292,-0.952907868062503,2.54631922670113,2.28944007100695,2159.073,2158.939,2159.285,2159.766,357.882446289063,44.9999046325684,0.821991920471191,-0.99686062335968,-0.439514994621277,0.368095487356186,-1.00202333800522,-0.441789560250755,0.369699053879016,5
1.97999906539917,-0.974933087825775,2.53660798072815,2.29781103134155,-0.973020153553881,2.53745177079879,2.29686054978772,2157.899,2157.976,2158.264,2158.589,357.952850341797,44.9998970031738,0.79452508687973,-1.0040785074234,-0.44269534945488,0.370749801397324,-1.00916643222999,-0.444938932462661,0.372334516623752,5
1.99999952316284,-0.995154142379761,2.52769255638123,2.3052773475647,-0.993273334010044,2.52852219466215,2.30433301212337,2156.338,2156.986,2157.624,2157.407,358.0234375,44.999885559082,0.766796350479126,-1.01105272769928,-0.4457688331604,0.373314499855042,-1.01606409001912,-0.447980092369658,0.37487942497259,4
2.01999950408936,-1.015509724617,2.51871776580811,2.31279301643372,-1.01366150383586,2.5195331020532,2.31185527912958,2154.698,2155.863,2157.067,2156.326,358.094573974609,44.9998779296875,0.738888084888458,-1.017782330513,-0.448735773563385,0.375788390636444,-1.02271321872857,-0.450911676432806,0.377332637886669,4
2.03999948501587,-1.03599500656128,2.509685754776,2.32035636901855,-1.03418015027661,2.51048648263409,2.31942568581404,2153.112,2154.608,2156.458,2155.341,358.166748046875,44.999870300293,0.710782051086426,-1.0242657661438,-0.451595395803452,0.378170639276505,-1.02911133043689,-0.453732587733819,0.379693237441057,3
2.05999946594238,-1.05660510063171,2.50059866905212,2.32796549797058,-1.05482422734717,2.50138456116693,2.32704237044774,2152.06,2153.403,2155.28,2154.315,358.240417480469,44.9998893737793,0.682362854480743,-1.03050017356873,-0.454345613718033,0.380460172891617,-1.03525587821426,-0.456441703337759,0.381960283939524,0
2.0799994468689,-1.07733476161957,2.49145913124084,2.33561873435974,-1.07558863920764,2.49222958439466,2.33470345290761,2151.371,2152.253,2153.714,2153.233,358.315460205078,44.9998893737793,0.653554618358612,-1.03648149967194,-0.456983685493469,0.382656127214432,-1.04114442351059,-0.459037948094056,0.384132877672831,0
2.09999942779541,-1.09817886352539,2.4822690486908,2.34331393241882,-1.09646824233097,2.48302382008539,2.34240703547628,2150.868,2151.163,2151.933,2152.095,358.391571044922,44.9998970031738,0.62432736158371,-1.04220545291901,-0.459507286548615,0.38475775718689,-1.0467746361556,-0.461520294636509,0.386210158918734,0
2.11999940872192,-1.11913228034973,2.47303080558777,2.35104918479919,-1.11745784767054,2.47376955607667,2.35015120364185,2150.093,2150.19,2150.415,2150.827,358.468139648438,44.9999046325684,0.59470272064209,-1.04766869544983,-0.461914956569672,0.386764109134674,-1.05214429435875,-0.463887763383286,0.388191307941981,0
2.13999938964844,-1.14018964767456,2.46374678611755,2.35882258415222,-1.13855222282777,2.46446909931981,2.35793402689756,2148.95,2149.175,2149.26,2149.59,358.544860839844,44.9999008178711,0.564807176589966,-1.05286943912506,-0.464206576347351,0.388674408197403,-1.0572512847093,-0.466139422536921,0.390075544994311,0
2.15999937057495,-1.16134572029114,2.45441913604736,2.36663222312927,-1.15974609421968,2.45512477492425,2.36575355954161,2147.511,2148.094,2148.407,2148.4,358.621704101563,44.9998970031738,0.534734487533569,-1.05780696868896,-0.466382682323456,0.390487939119339,-1.06209360217628,-0.46827438808432,0.391862130314456,0
2.17999935150146,-1.1825954914093,2.44505023956299,2.37447619438171,-1.18103414924654,2.44573892520179,2.37360784147682,2145.941,2146.95,2147.688,2147.254,358.698974609375,44.9998931884766,0.504531621932983,-1.0624805688858,-0.468443363904953,0.392203837633133,-1.06666935010848,-0.470291823796754,0.393550364128143,0
2.19999933242798,-1.20393300056458,2.43564224243164,2.38235259056091,-1.2024110384594,2.43631390871098,2.38149489901043,2144.525,2145.703,2146.813,2146.203,358.776977539063,44.9998970031738,0.474199563264847,-1.06688940525055,-0.470388144254684,0.393821477890015,-1.07097674023447,-0.472190941229866,0.395139586648087,0
2.21999931335449,-1.22535371780396,2.42619800567627,2.39025950431824,-1.22387137772771,2.42685209930138,2.38941274565382,2143.463,2144.568,2145.573,2145.039,358.856018066406,44.9998970031738,0.443653434514999,-1.07103157043457,-0.472215563058853,0.395340234041214,-1.0750140926626,-0.473970999723665,0.396629178073998,0
2.23999929428101,-1.24685180187225,2.41671943664551,2.39819478988647,-1.24540975040695,2.41735588515789,2.39735938292222,2142.603,2143.265,2144.122,2144.042,358.935943603516,44.9999046325684,0.412906169891357,-1.07490432262421,-0.473923772573471,0.396759450435638,-1.07877983588099,-0.475631306402529,0.39801855859258,0
2.25999927520752,-1.26842176914215,2.4072093963623,2.40615630149841,-1.26702070950614,2.40782766784507,2.40533280113451,2141.818,2142.192,2142.587,2142.821,359.016571044922,44.9999046325684,0.381827682256699,-1.07850515842438,-0.475511133670807,0.398078590631485,-1.08227250675752,-0.477171216175205,0.399307188377526,0
2.27999925613403,-1.29005837440491,2.39766979217529,2.41414213180542,-1.28869877985553,2.39826986135145,2.4133309802129,2140.971,2141.106,2141.111,2141.616,359.097534179688,44.9999046325684,0.350480288267136,-1.08183181285858,-0.476976990699768,0.399297177791595,-1.08549075053986,-0.478590131734809,0.400494567589524,0
2.29999923706055,-1.31175601482391,2.38810348510742,2.42215037345886,-1.31043846027411,2.38868489113386,2.4213518904827,2139.773,2140.09,2139.99,2140.337,359.178558349609,44.9999046325684,0.318916082382202,-1.08488321304321,-0.478321224451065,0.400414735078812,-1.08843332085546,-0.479887503558823,0.401580236376254,0
2.31999921798706,-1.33350920677185,2.3785126209259,2.43017888069153,-1.33223422573725,2.37907519316169,2.42939349347204,2138.459,2138.972,2138.989,2139.157,359.259674072266,44.9999084472656,0.287246078252792,-1.0876590013504,-0.479544401168823,0.401430815458298,-1.09109907971151,-0.481062829909101,0.402563774872388,0
2.33999919891357,-1.35531234741211,2.36889958381653,2.43822574615479,-1.35408052954431,2.36944321296127,2.43745374271164,2137.038,2137.842,2138.106,2137.984,359.341033935547,44.9999122619629,0.255496978759766,-1.09015882015228,-0.480646640062332,0.402345031499863,-1.09348699749501,-0.482115656831862,0.403444803199591,0
2.35999917984009,-1.37716007232666,2.35926699638367,2.44628882408142,-1.37597180548615,2.35979140466015,2.44553058453453,2135.746,2136.685,2137.093,2136.841,359.4228515625,44.9999122619629,0.223686888813972,-1.09238231182098,-0.481627702713013,0.403156965970993,-1.09559615297271,-0.483045578157697,0.404222981466519,0
2.3799991607666,-1.3990466594696,2.34961724281311,2.4543662071228,-1.39790247001284,2.35012223003141,2.45362195887576,2134.647,2135.452,2135.893,2135.778,359.505279541016,44.9999198913574,0.191809996962547,-1.09432852268219,-0.482486605644226,0.403866291046143,-1.09742573329115,-0.483852235501562,0.404898009768823,0
2.39999914169312,-1.42096650600433,2.33995246887207,2.46245574951172,-1.41986692440114,2.34043815753797,2.4617258000722,2133.733,2134.276,2134.512,2134.661,359.588256835938,44.9999198913574,0.159794420003891,-1.09599602222443,-0.483222395181656,0.404472857713699,-1.09897503397663,-0.484535318262785,0.405469628189144,0
2.41999912261963,-1.44291412830353,2.33027601242065,2.47055530548096,-1.44185955692219,2.33074166137694,2.46984003766224,2132.818,2133.206,2133.134,2133.447,359.671569824219,44.999927520752,0.127614632248878,-1.09738349914551,-0.483834058046341,0.40497624874115,-1.10024345893523,-0.485094563625059,0.405937616797118,0
2.43999910354614,-1.46488404273987,2.32058954238892,2.47866272926331,-1.46387474500902,2.32103522052389,2.47796259718553,2131.931,2132.017,2131.734,2132.36,359.755004882813,44.9999237060547,0.0953320860862732,-1.09848999977112,-0.484321296215057,0.40537628531456,-1.1012305204528,-0.485529756556449,0.406301795649371,0
2.45999908447266,-1.48687028884888,2.3108959197998,2.48677611351013,-1.48590685742422,2.31132131777719,2.48609140098273,2130.74,2130.975,2130.648,2131.135,359.83837890625,44.9999313354492,0.0629025101661682,-1.09931528568268,-0.484684199094772,0.405672878026962,-1.10193583919496,-0.485840729809385,0.406562024789523,0
2.47999906539917,-1.50886750221252,2.30119752883911,2.49489331245422,-1.50795025642748,2.30160243880231,2.49422436899524,2129.532,2129.918,2129.588,2129.932,359.921691894531,44.999927520752,0.0304043106734753,-1.09985947608948,-0.484923601150513,0.40586593747139,-1.10235914420712,-0.486027363920668,0.406718204248186,0
2.49999904632568,-1.53086996078491,2.29149675369263,2.50301241874695,-1.52999929994319,2.29188107117614,2.50235941956494,2128.23,2128.823,2128.632,2128.776,0.00505124730989337,44.9999351501465,-0.0021001158747822,-1.1001228094101,-0.485039621591568,0.405955344438553,-1.10250027291445,-0.486089587211467,0.406770274042965,0
2.5199990272522,-1.55287194252014,2.28179621696472,2.51113128662109,-1.55204834372805,2.28215970343129,2.51049447023395,2127.033,2127.708,2127.585,2127.647,0.0885810479521751,44.9999351501465,359.965423583984,-1.10010552406311,-0.48503252863884,0.405941128730774,-1.10235917112188,-0.486027375787319,0.406718214178456,0
2.53999900817871,-1.57486820220947,2.27209806442261,2.51924777030945,-1.57409174353867,2.27244082410044,2.51862743854433,2125.995,2126.569,2126.391,2126.552,0.172354459762573,44.9999351501465,359.932952880859,-1.09980750083923,-0.484901875257492,0.405823230743408,-1.10193589301415,-0.48584075353813,0.406562044646249,0
2.55999898910522,-1.59685277938843,2.26240539550781,2.5273597240448,-1.59612385729914,2.26272692076062,2.52675624283787,2124.975,2125.424,2125.192,2125.473,0.256303399801254,44.9999351501465,359.900512695313,-1.09922850131989,-0.484647154808044,0.405601620674133,-1.10123060115574,-0.485529792138173,0.406301825424927,0
2.57999897003174,-1.61882019042969,2.25271987915039,2.53546524047852,-1.61813904726862,2.25302047907752,2.53487880305576,2124.141,2124.273,2123.824,2124.413,0.340348541736603,44.9999504089355,359.868041992188,-1.09836840629578,-0.48426815867424,0.405276417732239,-1.10024356649092,-0.485094611046091,0.405937656480063,0
2.59999895095825,-1.64076471328735,2.24304461479187,2.54356217384338,-1.64013168220897,2.24332398184982,2.54299304153841,2123.101,2123.273,2122.673,2123.216,0.424254924058914,44.9999504089355,359.835510253906,-1.09722721576691,-0.483764708042145,0.404847770929337,-1.09897516834372,-0.484535377504897,0.405469677764224,0
2.61999893188477,-1.66268086433411,2.23338198661804,2.55164837837219,-1.66209613955231,2.23363990805352,2.55109688382512,2122.095,2122.204,2121.501,2122.105,0.507973849773407,44.9999542236328,359.803009033203,-1.09580552577972,-0.483137428760529,0.404315859079361,-1.09742589441797,-0.483852306541969,0.404898069216971,0
2.63999891281128,-1.68456292152405,2.22373390197754,2.55972194671631,-1.68402680756861,2.22397073188621,2.55918825945386,2120.958,2121.141,2120.475,2121.005,0.591433763504028,44.9999542236328,359.770538330078,-1.09410393238068,-0.482386916875839,0.403680860996246,-1.09559634079724,-0.483045660969056,0.404223050764854,0
2.65999889373779,-1.70640540122986,2.21410393714905,2.56778073310852,-1.70591808753333,2.21431892181142,2.56726510276099,2119.754,2120.18,2119.531,2119.82,0.674682915210724,44.9999580383301,359.738128662109,-1.09212362766266,-0.481513768434525,0.402943044900894,-1.09348721194489,-0.482115751382274,0.403444882321419,0
2.67999887466431,-1.72820270061493,2.20449352264404,2.5758228302002,-1.72776439589494,2.2046869396029,2.57532535368101,2118.75,2118.998,2118.411,2118.867,0.757833898067474,44.9999618530273,359.705871582031,-1.0898654460907,-0.480518490076065,0.402102708816528,-1.09109932070406,-0.481062936162108,0.402563863787202,0
2.69999885559082,-1.74994921684265,2.19490551948547,2.58384609222412,-1.7495601664426,2.19507723938899,2.5833669585463,2117.671,2118.001,2117.379,2117.748,0.840837895870209,44.9999618530273,359.673675537109,-1.08733022212982,-0.479401081800461,0.401160150766373,-1.08843358829765,-0.479887621473413,0.401580335049731,0
2.71999883651733,-1.771639585495,2.18534231185913,2.59184837341309,-1.77129985247366,2.18549226669687,2.59138787088683,2116.753,2116.945,2116.209,2116.703,0.923714339733124,44.9999694824219,359.641571044922,-1.08451879024506,-0.478161871433258,0.400115668773651,-1.08549104432835,-0.47859026126541,0.400494675983531,0
2.73999881744385,-1.79326820373535,2.17580628395081,2.59982776641846,-1.79297792896133,2.1759344574969,2.59938605222996,2115.826,2115.896,2115.07,2115.668,1.00635254383087,44.9999809265137,359.609588623047,-1.08143210411072,-0.476801097393036,0.398969709873199,-1.0822728267786,-0.47717135727169,0.399307306450115,0
2.75999879837036,-1.8148295879364,2.16629981994629,2.60778212547302,-1.81458889472224,2.16640623724694,2.60735947290011,2114.888,2114.89,2113.961,2114.612,1.0886595249176,44.9999885559082,359.577667236328,-1.07807111740112,-0.475319147109985,0.397722691297531,-1.07878018201063,-0.475631459010213,0.398018686297989,0
2.77999877929688,-1.8363184928894,2.15682554244995,2.61570954322815,-1.83612727458404,2.15691001993668,2.61530611281854,2113.918,2113.913,2112.904,2113.55,1.17056047916412,44.9999847412109,359.5458984375,-1.07443714141846,-0.473716676235199,0.396375089883804,-1.07501446476643,-0.473971163783305,0.396629315362652,0
2.79999923706055,-1.85772907733917,2.147385597229,2.62360811233521,-1.85758813223464,2.14744798197363,2.62322415072038,2112.916,2112.884,2111.9,2112.559,1.25201725959778,44.9999961853027,359.514282226563,-1.07053160667419,-0.471994578838348,0.394927501678467,-1.07097703868469,-0.472191072815816,0.395139696762054,0
2.81999921798706,-1.87905621528625,2.13798236846924,2.63147568702698,-1.87896502760925,2.13802296276612,2.63111121052739,2112.013,2112.006,2110.823,2111.437,1.33302795886993,45,359.482788085938,-1.06635630130768,-0.470153570175171,0.393380433320999,-1.06666966781454,-0.470291963872554,0.3935504813466,0
2.83999919891357,-1.90029442310333,2.1286187171936,2.63931035995483,-1.90025308918175,2.1286371101577,2.63896549487763,2110.872,2110.981,2109.994,2110.496,1.4135148525238,45,359.451538085938,-1.06191277503967,-0.468194544315338,0.391734510660172,-1.06209393901415,-0.468274536595285,0.391862254591643,0
2.85999917984009,-1.92143833637238,2.11929631233215,2.64711022377014,-1.92144696750065,2.11929278270805,2.6467850300774,2109.998,2109.954,2108.937,2109.563,1.493616938591,45.0000038146973,359.420501708984,-1.05720317363739,-0.466118335723877,0.389990448951721,-1.0572516405472,-0.46613957942495,0.390075676281605,0
2.8799991607666,-1.94248306751251,2.11001753807068,2.65487313270569,-1.94254134996347,2.10999232273018,2.65456785602854,2109.063,2109.055,2107.956,2108.534,1.5732524394989,45.0000228881836,359.389617919922,-1.05222916603088,-0.463925451040268,0.388148814439774,-1.05214466905713,-0.463887928586857,0.3881914461879,0
2.89999914169312,-1.96342301368713,2.10078525543213,2.66259741783142,-1.96353096298439,2.10073805533477,2.66231202702815,2108.148,2108.098,2106.981,2107.586,1.65240228176117,45.0000228881836,359.358947753906,-1.04699242115021,-0.461616724729538,0.386210352182388,-1.04677502956718,-0.461520468090683,0.386210304068937,0
2.91999912261963,-1.98425269126892,2.09160161018372,2.67028093338013,-1.98441057416179,2.09153228747448,2.6700156125684,2107.402,2107.142,2105.873,2106.651,1.73104012012482,45.0000267028809,359.328521728516,-1.04149496555328,-0.459192872047424,0.384175807237625,-1.04114483548034,-0.459038129730478,0.384133029670116,0
2.93999910354614,-2.00496768951416,2.08246850967407,2.67792177200317,-2.00517499444587,2.08237730698826,2.67767669813618,2106.629,2106.268,2104.816,2105.661,1.80900597572327,45.0000305175781,359.298309326172,-1.03573870658875,-0.456654697656631,0.382045924663544,-1.03525630857938,-0.456441893084654,0.381960442723828,0
2.95999908447266,-2.02556228637695,2.07338809967041,2.68551826477051,-2.02581908030627,2.07327538164569,2.68529338601291,2105.635,2105.359,2103.993,2104.747,1.88617515563965,45.0000343322754,359.268310546875,-1.02972590923309,-0.4540034532547,0.379821628332138,-1.02911177902685,-0.453732785515996,0.379693402949459,0
2.97999906539917,-2.04603123664856,2.06436347961426,2.69306826591492,-2.04633773589958,2.06422875819123,2.69286379607424,2104.709,2104.563,2103.134,2103.739,1.9626237154007,45.0000381469727,359.238616943359,-1.02345931529999,-0.451240479946136,0.37750381231308,-1.02271368536505,-0.450911882171656,0.377332810053386,0
2.99999904632568,-2.06637001037598,2.05539608001709,2.70057010650635,-2.06672591523703,2.05523966138862,2.70038606658979,2103.952,2103.633,2102.143,2102.884,2.03837943077087,45.0000419616699,359.209259033203,-1.01694142818451,-0.448366969823837,0.375093311071396,-1.01606457451609,-0.447980305983153,0.37487960372898,0
3.0199990272522,-2.08657383918762,2.0464882850647,2.70802187919617,-2.08697862435203,2.04631029306511,2.70785835502292,2103.021,2102.762,2101.337,2102.011,2.11334109306335,45.0000534057617,359.180206298828,-1.01017498970032,-0.445383787155151,0.372591137886047,-1.00916710178183,-0.444939227666376,0.372334763656603,0
3.03999900817871,-2.1066370010376,2.03764247894287,2.71542191505432,-2.10709092346776,2.03744283115583,2.71527883883043,2102.164,2101.839,2100.496,2101.212,2.18756222724915,45.0000610351563,359.151489257813,-1.00316286087036,-0.442292243242264,0.36999836564064,-1.0020240308439,-0.441789865721584,0.369699309503609,0
3.05999898910522,-2.1265549659729,2.02886080741882,2.72276830673218,-2.12705792916478,2.02863942874809,2.72264571626233,2101.503,2101.047,2099.498,2100.296,2.26105165481567,45.0000648498535,359.123016357422,-0.995907723903656,-0.439093381166458,0.367315977811813,-0.994638233763722,-0.438533486433403,0.366974300924346,0
3.07999897003174,-2.14632320404053,2.02014470100403,2.7300591468811,-2.14687481654864,2.01990221312567,2.72995720716156,2100.794,2100.233,2098.568,2099.44,2.33366107940674,45.0000610351563,359.094879150391,-0.988412082195282,-0.43578839302063,0.364544987678528,-0.98701269098247,-0.435171403870825,0.364160837560154,0
3.09999895095825,-2.1659369468689,2.01149725914001,2.73729276657104,-2.16653682141742,2.01123328481316,2.73721155376373,2099.934,2099.51,2097.81,2098.535,2.40529203414917,45.0000686645508,359.067077636719,-0.980678975582123,-0.432378739118576,0.361686527729034,-0.979150491321104,-0.431704979887215,0.361260059039365,0
3.11999893188477,-2.18539094924927,2.00291991233826,2.74446749687195,-2.18603924242939,2.00263471662027,2.74440702149687,2099.231,2098.628,2096.942,2097.801,2.47598838806152,45.0000762939453,359.039672851563,-0.972711682319641,-0.428865969181061,0.358741849660873,-0.971054831980356,-0.428135624120304,0.358273144977304,0
3.13999891281128,-2.2046811580658,1.99441480636597,2.75158166885376,-2.20537744327055,1.99410855268614,2.75154189978118,2098.501,2097.945,2096.126,2096.905,2.54568219184875,45.0000839233398,359.012634277344,-0.964513599872589,-0.425251364707947,0.355712115764618,-0.962729018540735,-0.424464793992192,0.355201314976289,0
3.15999889373779,-2.22380304336548,1.98598432540894,2.75863361358643,-2.22454685482225,1.98565680752364,2.75861450282872,2097.714,2097.143,2095.389,2096.165,2.61433076858521,45.0000801086426,358.986053466797,-0.956088066101074,-0.421536564826965,0.352598607540131,-0.95417646496251,-0.420693994709347,0.352045828625628,0
3.17999887466431,-2.24275159835815,1.97762989997864,2.76562166213989,-2.24354297732879,1.97728146506372,2.7656231704432,2097.014,2096.314,2094.603,2095.477,2.68195819854736,45.0000877380371,358.959869384766,-0.947438716888428,-0.417723029851913,0.349402487277985,-0.945400693585739,-0.416824779262605,0.348807985501625,0
3.19999885559082,-2.26152324676514,1.96935343742371,2.77254414558411,-2.26236138256496,1.96898447769967,2.77256626881971,2096.344,2095.68,2093.821,2094.623,2.7485249042511,45.0000877380371,358.934051513672,-0.938569009304047,-0.413812339305878,0.346125215291977,-0.936405335130245,-0.412858748427174,0.345489125167574,0
3.21999883651733,-2.28011274337769,1.96115732192993,2.77939939498901,-2.28099771600373,1.96076776533148,2.77944219134443,2095.582,2094.95,2093.15,2093.91,2.81398296356201,45.0000991821289,358.90869140625,-0.929482519626617,-0.409806102514267,0.342767983675003,-0.927194128695626,-0.408797550762625,0.342090627173762,0
3.23999881744385,-2.29851651191711,1.95304322242737,2.78618597984314,-2.29944769898374,1.95263321441015,2.7862493593944,2095.083,2094.285,2092.278,2093.137,2.87837100028992,45.0000991821289,358.883758544922,-0.920183002948761,-0.40570604801178,0.339332342147827,-0.917770921761251,-0.404642882612903,0.33861391105747,0
3.25999879837036,-2.31673002243042,1.94501292705536,2.79290246963501,-2.31770713087696,1.94458267698195,2.79298622313725,2094.426,2093.567,2091.576,2092.469,2.94152569770813,45.0001068115234,358.859313964844,-0.910674273967743,-0.401513636112213,0.335819661617279,-0.90813967018627,-0.400396488106318,0.335060436342969,0
3.27999877929688,-2.33474922180176,1.93706846237183,2.79954719543457,-2.33577189125628,1.93661796973281,2.79965126233092,2093.816,2092.917,2090.865,2091.759,3.0034282207489,45.0001068115234,358.835327148438,-0.900960385799408,-0.3972307741642,0.332231432199478,-0.898304438209597,-0.396060159155548,0.331431702541523,0
3.29999876022339,-2.35257005691528,1.92921113967896,2.80611848831177,-2.35363794206305,1.9287408730326,2.80624298712345,2093.218,2092.252,2090.177,2091.097,3.06403350830078,45.0001068115234,358.811859130859,-0.89104551076889,-0.392859220504761,0.328569084405899,-0.888269398449923,-0.391635735457643,0.327729249151391,0
3.3199987411499,-2.37018895149231,1.92144322395325,2.81261515617371,-2.37130132977475,1.9209531299794,2.81275993885265,2092.566,2091.679,2089.569,2090.388,3.12330055236816,45.000114440918,358.788848876953,-0.880934000015259,-0.388401031494141,0.324834257364273,-0.878038831905716,-0.387125104494018,0.323954655657821,0
3.33999872207642,-2.38760137557983,1.91376578807831,2.81903576850891,-2.38875818757251,1.9132564454439,2.81920069084589,2091.963,2090.984,2088.951,2089.829,3.18125081062317,45.0001182556152,358.766418457031,-0.870630204677582,-0.383858203887939,0.321028530597687,-0.867617127955215,-0.382530201530459,0.320109541533056,0
3.35999870300293,-2.40480422973633,1.90618133544922,2.82537889480591,-2.40600473750877,1.90565248511365,2.82556384921983,2091.419,2090.512,2088.31,2089.081,3.23787617683411,45.0001182556152,358.744476318359,-0.860138654708862,-0.379232585430145,0.317153573036194,-0.857008784356427,-0.377853009617118,0.31619556623633,0
3.37999868392944,-2.42179346084595,1.8986908197403,2.83164310455322,-2.42303729267481,1.89814287453738,2.83184805368015,2090.939,2089.801,2087.642,2088.602,3.29313659667969,45.0001182556152,358.72314453125,-0.849463641643524,-0.374526143074036,0.313211023807526,-0.846218407247141,-0.373095559588517,0.312214429213871,0
3.39999866485596,-2.43856596946716,1.89129614830017,2.83782720565796,-2.43985225936841,1.89072919816934,2.83805197832127,2090.439,2089.302,2087.028,2087.951,3.34694957733154,45.0001182556152,358.702301025391,-0.838609933853149,-0.369740724563599,0.309202581644058,-0.835250711144914,-0.368259930063547,0.308167869898897,0
3.41999864578247,-2.45511746406555,1.88399863243103,2.84392976760864,-2.45644613926137,1.88341299841359,2.84417433242613,2089.919,2088.697,2086.466,2087.445,3.39926242828369,45.0001220703125,358.682037353516,-0.827582120895386,-0.364878505468369,0.305130004882813,-0.824110518947081,-0.363348247445468,0.304057667711623,0
3.43999862670898,-2.47144532203674,1.87679958343506,2.84994959831238,-2.47281553156716,1.87619577466834,2.85021386126592,2089.503,2088.285,2085.851,2086.768,3.4500572681427,45.000114440918,358.662322998047,-0.816385209560394,-0.359941720962524,0.300995141267776,-0.812802761930744,-0.358362685921907,0.29988564205925,0
3.4599986076355,-2.48754549026489,1.86970090866089,2.85588550567627,-2.4889571352085,1.86907898237022,2.8561693468998,2088.927,2087.781,2085.406,2086.246,3.49924683570862,45.0001220703125,358.643249511719,-0.805023968219757,-0.354932695627213,0.296799778938293,-0.801332479752782,-0.353305467464857,0.295653652335977,0
3.47999858856201,-2.50341558456421,1.86270380020142,2.861736536026,-2.50486775098495,1.86206403203864,2.86203960897462,2088.583,2087.31,2084.799,2085.697,3.5468864440918,45.0001258850098,358.624847412109,-0.793503820896149,-0.349853724241257,0.292545855045319,-0.789704820449847,-0.348178861830686,0.291363597922993,0
3.49999856948853,-2.51905250549316,1.85580945014954,2.8675012588501,-2.52054428374047,1.85515228832006,2.86782350552474,2088.067,2086.75,2084.37,2085.299,3.59286141395569,45.000129699707,358.607116699219,-0.78182989358902,-0.344706922769547,0.288235306739807,-0.777925040438366,-0.342985186560125,0.28701741818848,0
3.51999855041504,-2.53445243835449,1.84902000427246,2.87317872047424,-2.5359837445311,1.84834506903236,2.87351993377167,2087.601,2086.265,2083.938,2084.859,3.63721060752869,45.000129699707,358.589996337891,-0.770007789134979,-0.339494556188583,0.283869981765747,-0.76599850451454,-0.337726806978276,0.282617092487613,0
3.53999853134155,-2.54961347579956,1.8423353433609,2.87876772880554,-2.55118325279244,1.84164364420909,2.87912783092387,2087.427,2085.813,2083.282,2084.391,3.67994976043701,45.000129699707,358.573486328125,-0.758042812347412,-0.334218978881836,0.279451936483383,-0.753930685854336,-0.332406136194608,0.278164640162557,0
3.55999851226807,-2.56453227996826,1.83575773239136,2.88426733016968,-2.56614003850734,1.83504923514382,2.8846461749765,2086.875,2085.505,2082.985,2083.876,3.72086644172668,45.000129699707,358.557556152344,-0.745940089225769,-0.328882664442062,0.274983197450638,-0.7417271660135,-0.32702563510296,0.273662120542474,0
3.57999897003174,-2.57920622825623,1.82928800582886,2.88967657089233,-2.58085179217536,1.82856286008947,2.89007411383349,2086.635,2085.122,2082.465,2083.427,3.76007175445557,45.000129699707,358.542358398438,-0.733705341815948,-0.323488354682922,0.270465850830078,-0.729393339368953,-0.321587682070498,0.269111523896417,0
3.59999895095825,-2.59363317489624,1.82292723655701,2.89499449729919,-2.59531526983239,1.82218594930163,2.89541045062605,2086.364,2084.802,2082.001,2082.967,3.797443151474,45.000129699707,358.527862548828,-0.721344232559204,-0.318038493394852,0.265902012586594,-0.716935592461706,-0.31609509290703,0.264515206554905,0
3.61999893188477,-2.60781049728394,1.81667649745941,2.90022039413452,-2.60952839979429,1.8159194161806,2.90065442100106,2085.916,2084.386,2081.731,2082.665,3.8328971862793,45.000129699707,358.51416015625,-0.708862721920013,-0.312535613775253,0.261293858289719,-0.704359539461825,-0.31055034288597,0.259875239880232,0
3.63999891281128,-2.6217360496521,1.81053698062897,2.905353307724,-2.62348887591154,1.80976427750189,2.90580517409881,2085.606,2084.026,2081.379,2082.328,3.86650824546814,45.000129699707,358.501190185547,-0.696267127990723,-0.30698236823082,0.256643563508987,-0.691671195446732,-0.304956084039767,0.255193843150482,0
3.65999889373779,-2.63540697097778,1.80450916290283,2.91039228439331,-2.63719451341986,1.80372149652254,2.91086190384497,2085.344,2083.652,2081.02,2082.044,3.89826059341431,45.000129699707,358.488922119141,-0.683563470840454,-0.301381409168243,0.251953423023224,-0.678876683873625,-0.299315016185242,0.250473275630729,0
3.67999887466431,-2.64882230758667,1.79859459400177,2.9153368473053,-2.65064325110781,1.79779198202549,2.91582384975034,2085.158,2083.501,2080.631,2081.575,3.92810750007629,45.000129699707,358.477386474609,-0.67075777053833,-0.295735359191895,0.247225612401962,-0.665982236579475,-0.293629886923582,0.245715836573042,0
