t,x_s1,x_s2,x_s3,x_s_d1,x_s_d2,x_s_d3,propellers_rpms1,propellers_rpms2,propellers_rpms3,propellers_rpms4,rollRad,pitchRad,yawRad,v_s1,v_s2,v_s3,v_s_d1,v_s_d2,v_s_d3,insideCount
19.87999,11.879994392395,3.69603538513184,12.2723112106323,11.8799962997437,3.70030529547395,12.2786874776166,1957.928,1961.625,1960.767,1959.172,353.396453857422,44.9998626708984,353.440093994141,1.00000047683716,0.967233955860138,-3.47470283508301,1,0.954494378600988,-3.48745557969011,0
19.89999,11.8999948501587,3.71479606628418,12.2024583816528,11.8999967575073,3.71910294359783,12.208758681607,1964.161,1967.669,1966.883,1965.416,353.383483886719,44.999870300293,353.427490234375,1.00000011920929,0.938049852848053,-3.49264240264893,1,0.925202673025236,-3.50517194566534,0
19.91999,11.919994354248,3.7329695224762,12.1322574615479,11.9199953079224,3.73731156683121,12.1384877993495,1970.225,1974.035,1973.115,1971.473,353.371734619141,44.999870300293,353.415863037109,0.999999463558197,0.908717811107635,-3.51003122329712,1,0.895767674697035,-3.52233316875993,0
19.93999,11.9399938583374,3.75055456161499,12.0617198944092,11.939995765686,3.75493176291507,12.0678725240367,1976.494,1980.61,1979.326,1977.326,353.361236572266,44.9998741149902,353.405395507813,0.999999046325684,0.87924200296402,-3.52686643600464,1,0.86618841734318,-3.53893981233149,0
19.95999,11.9599943161011,3.7675473690033,11.9908571243286,11.9599962234497,3.77195898460209,11.996930692733,1982.745,1986.279,1985.528,1984.095,353.352020263672,44.9998817443848,353.396362304688,0.999999046325684,0.84962671995163,-3.54314279556274,1,0.836472372535716,-3.55498759070039,0
19.97999,11.9799938201904,3.78394484519958,11.9196796417236,11.9799966812134,3.7883905429735,11.9256735084887,1989.289,1992.631,1991.602,1990.075,353.343994140625,44.9998817443848,353.388305664063,0.999998927116394,0.819877743721008,-3.55886006355286,1,0.806624232997404,-3.57047396962038,0
19.99999,11.9999933242798,3.79974460601807,11.848198890686,11.9999952316284,3.80422236183438,11.8541190627541,1995.265,1998.904,1997.985,1996.468,353.337005615234,44.9998931884766,353.381378173828,0.999999284744263,0.789999425411224,-3.57401585578918,1,0.77665157685723,-3.58539510736827,0
20.01999,12.0199937820435,3.81494474411011,11.7764263153076,12.0199956893921,3.8194549609015,11.782265006586,2001.797,2005.587,2004.196,2002.236,353.331237792969,44.9999046325684,353.375518798828,0.99999988079071,0.759996175765991,-3.58860802650452,1,0.746553420192103,-3.59975149376558,0
20.03999,12.0399942398071,3.82954216003418,11.7043733596802,12.0399961471558,3.83408439614443,11.7101294972294,2008.036,2011.453,2010.507,2008.98,353.326507568359,44.9999198913574,353.371154785156,1.00000083446503,0.729872226715088,-3.60263156890869,1,0.716337368691068,-3.61353941165118,0
20.05999,12.0599946975708,3.84353446960449,11.6320514678955,12.0599966049194,3.84810835730001,11.6377239262388,2014.212,2017.727,2016.881,2015.36,353.322845458984,44.9999389648438,353.367889404297,1.0000011920929,0.699633300304413,-3.61608672142029,1,0.686008194037346,-3.62675668365336,0
20.07999,12.0799951553345,3.85692071914673,11.5594720840454,12.0799951553345,3.8615233793162,11.5650666694226,2020.44,2024.022,2023.251,2021.725,353.320404052734,44.999942779541,353.365631103516,1.00000095367432,0.669283926486969,-3.62897133827209,1,0.65557359347149,-3.6394000440375,0
20.09999,12.0999956130981,3.86969757080078,11.4866466522217,12.0999956130981,3.87432990257271,11.4921553416349,2027.171,2030.542,2029.401,2027.73,353.319183349609,44.9999465942383,353.364440917969,1.00000023841858,0.638828933238983,-3.64128375053406,1,0.625032567906002,-3.6514699078517,0
20.11999,12.1199960708618,3.88186240196228,11.4135866165161,12.1199960708618,3.88652459621894,11.419008374435,2033.193,2036.534,2035.865,2034.605,353.318939208984,44.9999542236328,353.364471435547,0.999999582767487,0.608272671699524,-3.65301942825317,1,0.594392837934317,-3.66296313584324,0
20.13999,12.1399946212769,3.89341473579407,11.3403034210205,12.1399965286255,3.89810553448325,11.3456373191056,2039.442,2043.097,2042.285,2040.756,353.319885253906,44.9999618530273,353.365356445313,0.999998331069946,0.577620565891266,-3.6641788482666,1,0.563659242146471,-3.67387791301509,0
20.15999,12.1599941253662,3.90435218811035,11.2668085098267,12.1599950790405,3.90906987220949,11.2720607893942,2045.711,2049.198,2048.692,2047.4,353.322082519531,44.9999580383301,353.367279052734,0.999997138977051,0.546877026557922,-3.67476058006287,1,0.532839577450717,-3.68421155787076,0
20.17999,12.1799936294556,3.9146728515625,11.1931133270264,12.1799955368042,3.91941796932789,11.1982763699776,2052.67,2056.224,2054.78,2052.886,353.325592041016,44.9999618530273,353.369995117188,0.999996483325958,0.516047239303589,-3.68476295471191,1,0.501932832118915,-3.6939644096365,0
20.19999,12.1999940872192,3.92437648773193,11.1192293167114,12.1999959945679,3.92914711658167,11.1243027201695,2058.977,2062.163,2061.14,2059.776,353.330017089844,44.9999618530273,353.374206542969,0.999997496604919,0.485135525465012,-3.6941819190979,1,0.470946822146057,-3.70313391489794,0
20.21999,12.2199926376343,3.93345832824707,11.0451688766479,12.2199964523315,3.93825577755536,11.0501515218014,2065.791,2068.381,2067.325,2066.082,353.335418701172,44.9999694824219,353.379455566406,0.999998867511749,0.454147845506668,-3.70301795005798,1,0.439886440806304,-3.71171862561764,0
20.23999,12.2399930953979,3.94192051887512,10.9709434509277,12.2399950027466,3.94674173417579,10.9758415795399,2071.246,2074.904,2074.207,2072.758,353.341491699219,44.9999961853027,353.3857421875,1.00000035762787,0.423088818788528,-3.71126985549927,1,0.408759564979986,-3.71971645131087,0
20.25999,12.2599935531616,3.94976019859314,10.8965644836426,12.2599954605103,3.95460526501451,10.901370453986,2078.408,2081.556,2080.338,2078.472,353.348876953125,45.0000152587891,353.392944335938,1.00000107288361,0.391962468624115,-3.71893644332886,1,0.377565172854033,-3.72712765452513,0
20.27999,12.2799940109253,3.95697522163391,10.8220443725586,12.2799959182739,3.96184428925236,10.8267569850727,2084.455,2087.396,2086.854,2085.647,353.357086181641,45.0000305175781,353.401550292969,1.00000178813934,0.360773801803589,-3.72601413726807,1,0.346311156081142,-3.73395027413457,0
20.29999,12.299994468689,3.96356678009033,10.7473945617676,12.2999963760376,3.96845766371116,10.7520129556712,2090.65,2093.921,2093.358,2091.996,353.366363525391,45.0000343322754,353.410919189453,1.0000011920929,0.329528361558914,-3.73250365257263,1,0.315002450258795,-3.74018323271913,0
20.31999,12.3199968338013,3.96953082084656,10.6726264953613,12.3199949264526,3.97444380300378,10.6771573138651,2097.353,2100.074,2099.592,2098.487,353.376861572266,45.0000343322754,353.421142578125,0.99999988079071,0.298230856657028,-3.73840475082397,1,0.283646992341745,-3.74582503608664,0
20.33999,12.3399953842163,3.97486877441406,10.597752571106,12.3399953842163,3.97980290363934,10.6021876023415,2103.868,2107.594,2105.922,2103.806,353.388305664063,45.0000228881836,353.432037353516,0.99999874830246,0.266886293888092,-3.7437162399292,1,0.252243753013185,-3.7508758694426,0
20.35999,12.35999584198,3.97957801818848,10.5227842330933,12.35999584198,3.98453351849264,10.5271227940617,2109.729,2112.788,2112.589,2111.668,353.400665283203,45.0000305175781,353.444641113281,0.999998390674591,0.235498607158661,-3.74843502044678,1,0.220800679648548,-3.75533436890363,0
20.37999,12.379994392395,3.98366022109985,10.447732925415,12.3799962997437,3.98863490051057,10.4519747431719,2116.548,2119.555,2118.815,2117.424,353.414276123047,45.0000228881836,353.457733154297,0.999996900558472,0.204074442386627,-3.75256252288818,1,0.189322737700911,-3.75919983038876,0
20.39999,12.3999938964844,3.98711204528809,10.3726110458374,12.3999948501587,3.99210610099682,10.3767624933083,2122.995,2125.516,2125.153,2124.248,353.428894042969,45.0000267028809,353.471801757813,0.999995946884155,0.172618463635445,-3.75609827041626,1,0.157817904150065,-3.76247135977278,0
20.41999,12.4199934005737,3.98993515968323,10.2974300384521,12.4199953079224,3.99494723390173,10.3014835754517,2129.529,2132.928,2131.507,2129.602,353.444427490234,45.0000267028809,353.486389160156,0.999995648860931,0.141135707497597,-3.75904130935669,1,0.126285144775587,-3.76514906445136,0
20.43999,12.4399938583374,3.99212789535522,10.2222023010254,12.439995765686,3.9971574894496,10.2261570476642,2136.146,2138.505,2137.787,2136.676,353.460876464844,45.0000343322754,353.502502441406,0.999996960163116,0.109629854559898,-3.76138925552368,1,0.094732442599939,-3.76723218122888,0
20.45999,12.4599924087524,3.99368977546692,10.1469392776489,12.4599962234497,3.99873651859949,10.1507948054225,2142.549,2145.048,2144.165,2142.865,353.477996826172,45.0000495910645,353.519378662109,0.999998331069946,0.0781073197722435,-3.76314353942871,1,0.0631647803886477,-3.76872038114201,0
20.47999,12.4799909591675,3.99462080001831,10.0716533660889,12.4799947738647,3.99968401174241,10.0754159398099,2148.315,2151.254,2150.891,2149.659,353.495849609375,45.0000648498535,353.537231445313,0.999999463558197,0.04657232016325,-3.76430439949036,1,0.0315901549960316,-3.76961337239115,0
20.49999,12.4999933242798,3.99492120742798,9.99635601043701,12.4999952316284,3.99999999998205,10.0000179763374,2154.672,2158.193,2157.352,2155.459,353.514862060547,45.0000915527344,353.555816650391,0.999999761581421,0.0150295980274677,-3.76487159729004,1,7.52991058479409E-06,-3.76991118429083,0
20.51999,12.5199937820435,3.99459195137024,9.92105960845947,12.5199956893921,3.99968431293779,9.92462001002605,2161.87,2164.135,2163.247,2161.86,353.535003662109,45.0000801086426,353.575592041016,1.00000011920929,-0.016516201198101,-3.76484274864197,1,-0.0315750963639766,-3.76961365626111,0
20.53999,12.5399942398071,3.99362993240356,9.84577560424805,12.5399961471558,3.99873700046257,9.84923394763389,2167.977,2170.004,2169.632,2168.887,353.555786132813,45.0000686645508,353.596374511719,1.00000059604645,-0.0480583384633064,-3.76421976089478,1,-0.0631527363365459,-3.76872083528727,0
20.55999,12.5599946975708,3.99203872680664,9.77051544189453,12.5599946975708,3.99715839281681,9.77387887946557,2173.919,2176.711,2176.211,2175.007,353.577270507813,45.0000686645508,353.617645263672,1.00000011920929,-0.0795921683311462,-3.76300311088562,1,-0.0947173934789939,-3.76723303263243,0
20.57999,12.5799942016602,3.98981595039368,9.69529151916504,12.5799951553345,3.994948438179,9.69855233181336,2180.457,2183.395,2182.526,2180.881,353.599761962891,45.0000762939453,353.639678955078,0.999999105930328,-0.111113913357258,-3.76119303703308,1,-0.126270103975589,-3.76515019945595,0
20.59999,12.5999937057495,3.98696422576904,9.62011623382568,12.5999956130981,3.99210760599397,9.6232733884215,2186.498,2189.2,2188.983,2187.848,353.623168945313,45.0000877380371,353.662841796875,0.999998152256012,-0.14261893928051,-3.75878739356995,1,-0.157802874046237,-3.76247277819918,0
20.61999,12.6199913024902,3.98348164558411,9.54500007629395,12.6199960708618,3.98863634488261,9.54805393725197,2193.228,2195.357,2195.065,2194.086,353.647674560547,45.0000762939453,353.686584472656,0.999996840953827,-0.17410109937191,-3.75578856468201,1,-0.189310724073072,-3.75920119167733,0
20.63999,12.6399927139282,3.97937059402466,9.46995639801025,12.6399946212769,3.98453562414048,9.47291301960709,2199.132,2201.881,2201.522,2200.365,353.672973632813,45.0000762939453,353.710876464844,0.999996185302734,-0.205555275082588,-3.75219750404358,1,-0.220785678054024,-3.75533635342997,0
20.65999,12.6599922180176,3.97463083267212,9.39499568939209,12.6599950790405,3.97980530915178,9.39784816880913,2206.41,2209.094,2207.325,2205.263,353.699310302734,45.000072479248,353.735870361328,0.999996840953827,-0.236977383494377,-3.74801445007324,1,-0.252228769228649,-3.75087813658466,0
20.67999,12.6799926757813,3.96926379203796,9.32013130187988,12.6799955368042,3.97444650800094,9.3228784091184,2212.277,2214.407,2213.756,2212.702,353.726043701172,45.0000801086426,353.762542724609,0.999999821186066,-0.268362581729889,-3.74323797225952,1,-0.283632028733423,-3.74582758548641,0
20.69999,12.6999931335449,3.96326947212219,9.24537372589111,12.6999959945679,3.96846006694354,9.24801557967096,2218.684,2220.455,2219.99,2218.981,353.753448486328,45.0000953674316,353.789947509766,1.00000178813934,-0.299704253673553,-3.73787069320679,1,-0.314990497402628,-3.74018549771228,0
20.71999,12.7199935913086,3.95664954185486,9.17073535919189,12.7199964523315,3.96184693135128,9.17327150271656,2224.527,2226.626,2226.461,2225.402,353.781402587891,45.000114440918,353.818023681641,1.00000250339508,-0.330998003482819,-3.73191380500793,1,-0.346299223143865,-3.73395276425413,0
20.73999,12.7399940490723,3.94940567016602,9.09622764587402,12.7399950027466,3.9546088656856,9.09866509068939,2230.613,2232.818,2232.778,2231.646,353.810241699219,45.0001182556152,353.846649169922,1.00000166893005,-0.362239748239517,-3.72536826133728,1,-0.377550283935233,-3.72713104807768,0
20.75999,12.7599935531616,3.94153642654419,9.02186298370361,12.7599954605103,3.94674563233993,9.0241938944581,2236.778,2239.665,2239.005,2237.265,353.839996337891,45.000114440918,353.875762939453,1,-0.393424957990646,-3.71823477745056,1,-0.408744705666468,-3.71972012524401,0
20.77999,12.7799940109253,3.93304443359375,8.94765281677246,12.7799959182739,3.93825913357731,8.9498767963765,2242.808,2245.351,2245.213,2244.023,353.870758056641,45.0001106262207,353.905975341797,0.99999874830246,-0.424549162387848,-3.71051263809204,1,-0.439874578915704,-3.71172178859381,0
20.79999,12.7999935150146,3.92393231391907,8.87360858917236,12.7999963760376,3.92915070957563,8.87572553251309,2249.445,2251.651,2251.071,2249.819,353.902557373047,45.0000991821289,353.936737060547,0.999997556209564,-0.455605864524841,-3.70220494270325,1,-0.470934987690062,-3.70313730121498,0
20.81999,12.819993019104,3.91420125961304,8.79974269866943,12.8199949264526,3.91942275606203,8.80175885843375,2255.838,2257.481,2257.013,2256.164,353.93505859375,45.0000762939453,353.968322753906,0.999997615814209,-0.486589670181274,-3.69331312179565,1,-0.501918075676475,-3.69396892102714,0
20.83999,12.839991569519,3.9038507938385,8.72606563568115,12.8399953842163,3.90907495369351,8.72797434600806,2262.045,2264.138,2263.113,2261.706,353.968078613281,45.0000801086426,354.000518798828,0.99999862909317,-0.517495632171631,-3.68383836746216,1,-0.532824859967845,-3.68421634705662,0
20.85999,12.8599920272827,3.89288473129272,8.65258979797363,12.85999584198,3.89810983481721,8.65439071037389,2267.852,2269.544,2269.409,2268.532,354.001556396484,45.0001029968262,354.033752441406,1.00000035762787,-0.548319935798645,-3.67378044128418,1,-0.563647501185543,-3.67388196598436,0
20.87999,12.879994392395,3.88130378723145,8.57932662963867,12.8799962997437,3.88652913103176,8.58101957177223,2274.264,2275.649,2275.348,2274.305,354.035736083984,45.0001258850098,354.067474365234,1.00000131130219,-0.579057276248932,-3.66314268112183,1,-0.594381131854409,-3.66296740980363,0
20.89999,12.8999929428101,3.86910939216614,8.50628852844238,12.8999948501587,3.87433586327822,8.50787948152256,2280.254,2281.969,2281.4,2280.076,354.070373535156,45.0001411437988,354.101745605469,1.00000202655792,-0.609703421592712,-3.65192699432373,1,-0.62501798121591,-3.6514755256843,0
20.91999,12.9199934005737,3.85630512237549,8.43348598480225,12.9199953079224,3.86152963128386,8.43496803862902,2285.104,2288.384,2288.089,2286.227,354.105529785156,45.0001564025879,354.136901855469,1.0000022649765,-0.640254318714142,-3.64013528823853,1,-0.65555905499684,-3.6394059363782,0
20.93999,12.9399938583374,3.84289002418518,8.36093044281006,12.939995765686,3.84811359108296,8.36230374373762,2291.971,2293.454,2293.64,2292.661,354.141967773438,45.0001564025879,354.173004150391,1.00000107288361,-0.670705616474152,-3.62776756286621,1,-0.685996603664721,-3.62676161637758,0
20.95999,12.9599943161011,3.82886934280396,8.28863430023193,12.9599962234497,3.83408986132079,8.28989807190811,2297.707,2299.769,2299.599,2298.458,354.179138183594,45.0001411437988,354.209442138672,0.999999284744263,-0.70104968547821,-3.61482739448547,1,-0.716325820557763,-3.61354456245855,0
20.97999,12.9799928665161,3.81424427032471,8.21660804748535,12.9799947738647,3.81946208052116,8.21776932335144,2304.178,2305.435,2305.194,2304.417,354.217163085938,45.0001106262207,354.246459960938,0.999997913837433,-0.731282591819763,-3.60131669044495,1,-0.746539040101531,-3.59975820384902,0
20.99999,12.9999933242798,3.79901671409607,8.14486312866211,12.9999952316284,3.8042297684927,8.14591513027142,2309.723,2311.968,2311.297,2309.897,354.255615234375,45.0001068115234,354.283935546875,0.999997675418854,-0.761399209499359,-3.58723783493042,1,-0.776637254116172,-3.58540208797928,0
21.01999,13.0199928283691,3.7831883430481,8.073410987854,13.0199956893921,3.78839669698449,8.07435373208802,2316.258,2317.255,2316.853,2315.986,354.294769287109,45.0001068115234,354.322326660156,0.999998450279236,-0.791395902633667,-3.57259130477905,1,-0.806612822491318,-3.57047976963909,0
21.03999,13.0399932861328,3.76676297187805,8.00226306915283,13.0399961471558,3.7719653663365,8.00309642969286,2321.624,2323.209,2322.961,2321.895,354.334167480469,45.0001258850098,354.361297607422,0.999999701976776,-0.821267127990723,-3.55738067626953,1,-0.836461011520553,-3.55499360534336,0
21.05999,13.0599946975708,3.74974274635315,7.93143081665039,13.0599946975708,3.75494002346413,7.9321612259605,2327.536,2329.02,2328.776,2327.569,354.374176025391,45.0001449584961,354.400848388672,1.00000059604645,-0.851009011268616,-3.54160904884338,1,-0.866174280177414,-3.53894759771556,0
21.07999,13.0799942016602,3.73213052749634,7.86092519760132,13.0799951553345,3.73732010947037,7.86154579227568,2333.039,2335.562,2334.741,2332.72,354.414703369141,45.0001564025879,354.441009521484,1.0000011920929,-0.880617082118988,-3.52527856826782,1,-0.895753603869989,-3.52234122000765,0
21.09999,13.0999937057495,3.71392798423767,7.79075765609741,13.0999956130981,3.71911000229132,7.79126806075804,2338.716,2340.037,2340.525,2339.735,354.455993652344,45.0001487731934,354.482452392578,1.0000011920929,-0.910086989402771,-3.50839018821716,1,-0.925191471209556,-3.50517859832722,0
21.11999,13.1199941635132,3.69514036178589,7.72093868255615,13.1199960708618,3.70031257764563,7.7213391295841,2344.392,2345.844,2346.221,2345.358,354.498077392578,45.0001373291016,354.524047851563,0.999999284744263,-0.939411699771881,-3.49094796180725,1,-0.954483233402815,-3.48746244297522,0
21.13999,13.1399927139282,3.67576861381531,7.65147972106934,13.1399946212769,3.68093268011219,7.65177665881529,2350.667,2351.456,2351.51,2350.855,354.540954589844,45.000114440918,354.565856933594,0.999997079372406,-0.968587279319763,-3.47295498847961,1,-0.983621493020528,-3.46919731985972,0
21.15999,13.1599931716919,3.65581679344177,7.58239126205444,13.1599950790405,3.66096967350019,7.58257836489955,2355.762,2358.03,2357.437,2355.864,354.584167480469,45.0001029968262,354.60791015625,0.999996244907379,-0.997609496116638,-3.4544141292572,1,-1.01260720659475,-3.45038262938497,0
21.17999,13.1799917221069,3.6352870464325,7.51368474960327,13.1799955368042,3.64042853087374,7.51376182735822,2362.2,2363.001,2362.608,2361.676,354.628143310547,45.0001106262207,354.650939941406,0.999996960163116,-1.02647531032562,-3.43532657623291,1,-1.04143301043279,-3.43102305855348,0
21.19999,13.1999921798706,3.61418271064758,7.4453706741333,13.1999959945679,3.61931249606584,7.44533791361779,2367.226,2368.576,2368.466,2367.45,354.672271728516,45.000114440918,354.694549560547,0.999998688697815,-1.05517852306366,-3.41569685935974,1,-1.0700943523977,-3.41112166460586,0
21.21999,13.2199926376343,3.5925087928772,7.37746000289917,13.2199945449829,3.5976269990811,7.37732389631579,2372.917,2374.315,2373.964,2372.607,354.716949462891,45.000129699707,354.738677978516,1.00000023841858,-1.08371543884277,-3.3955283164978,1,-1.09858399734397,-3.39068356520084,0
21.23999,13.2399930953979,3.57026767730713,7.30996370315552,13.2399950027466,3.57537132804195,7.30971754273181,2378.15,2380.219,2379.638,2377.803,354.762084960938,45.0001487731934,354.783538818359,1.00000178813934,-1.11208176612854,-3.37482404708862,1,-1.12690288051136,-3.36970808940965,0
21.25999,13.2599935531616,3.54746174812317,7.24289178848267,13.2599954605103,3.55255103857814,7.24253603538157,2383.848,2384.532,2384.948,2384.258,354.807861328125,45.0001525878906,354.829498291016,1.00000250339508,-1.14027273654938,-3.35358572006226,1,-1.15504380450451,-3.34820047328996,0
21.27999,13.2799940109253,3.52409672737122,7.17625522613525,13.2799959182739,3.52916973444286,7.1757899834895,2389.022,2390.033,2390.462,2389.683,354.854125976563,45.0001487731934,354.875549316406,1.00000131130219,-1.16828215122223,-3.3318178653717,1,-1.18300232534188,-3.32616411329914,0
21.29999,13.299994468689,3.50017356872559,7.11006498336792,13.299994468689,3.50523341734977,7.1094962286372,2394.61,2395.304,2395.693,2395.047,354.901031494141,45.0001411437988,354.921752929688,0.999999105930328,-1.1961065530777,-3.30952429771423,1,-1.21077138843826,-3.30360466591904,0
21.31999,13.319993019104,3.47569918632507,7.04433059692383,13.3199949264526,3.48074130153283,7.04365259457589,2399.465,2401.886,2401.305,2399.349,354.948394775391,45.0001449584961,354.968109130859,0.999997198581696,-1.2237423658371,-3.28670859336853,1,-1.23835190537862,-3.28052139058264,0
21.33999,13.339991569519,3.45067429542542,6.97906303405762,13.3399953842163,3.45569951115345,6.97827582341122,2405.247,2405.934,2406.312,2405.636,354.996551513672,45.000129699707,355.015563964844,0.999996602535248,-1.25118637084961,-3.26337289810181,1,-1.26573686324613,-3.25692005917605,0
21.35999,13.3599920272827,3.42510747909546,6.91427278518677,13.35999584198,3.43011200078162,6.91337623936584,2410.423,2411.591,2411.555,2410.5,355.045166015625,45.000129699707,355.063140869141,0.999996423721313,-1.27843153476715,-3.23952198028564,1,-1.29292193744053,-3.23280439879371,0
21.37999,13.3799915313721,3.39899682998657,6.84996938705444,13.379994392395,3.40398532867923,6.84897021042212,2416.5,2416.533,2416.223,2415.583,355.094299316406,45.000129699707,355.111236572266,0.999997556209564,-1.30547451972961,-3.21516013145447,1,-1.31990027175739,-3.20818059045184,0
21.39999,13.3999910354614,3.3723509311676,6.78616380691528,13.3999948501587,3.37731863717671,6.78505562230037,2420.517,2422.917,2422.08,2419.987,355.143280029297,45.0001411437988,355.159729003906,1.00000011920929,-1.33231115341187,-3.19029092788696,1,-1.34667275182413,-3.18304782581587,0
21.41999,13.4199914932251,3.34517240524292,6.72286558151245,13.4199953079224,3.35011860349694,6.72164873440424,2426.167,2426.612,2426.966,2426.171,355.192962646484,45.0001525878906,355.209503173828,1.00000262260437,-1.3589391708374,-3.1649169921875,1,-1.37323256691766,-3.15741239802015,0
21.43999,13.4399929046631,3.31746482849121,6.66008472442627,13.439995765686,3.32238952303719,6.65875955987472,2431.116,2431.708,2432.072,2431.246,355.242980957031,45.0001640319824,355.259490966797,1.00000333786011,-1.38535118103027,-3.13904356956482,1,-1.39957552274329,-3.1312783553812,0
21.45999,13.4599933624268,3.28923392295837,6.59783124923706,13.4599943161011,3.29413849404088,6.59640395174813,2436.016,2436.868,2437.148,2436.154,355.293395996094,45.0001678466797,355.309661865234,1.00000274181366,-1.41154396533966,-3.11267495155334,1,-1.42569497879671,-3.10465238783585,0
21.47999,13.4799938201904,3.26048398017883,6.53611516952515,13.4799947738647,3.26536458910138,6.53457986305467,2440.588,2442.465,2442.383,2440.672,355.344329833984,45.0001640319824,355.360168457031,1.00000143051147,-1.43751442432404,-3.08581519126892,1,-1.45159179251061,-3.07753362132395,0
21.49999,13.4999933242798,3.23121929168701,6.47494602203369,13.4999952316284,3.23607502163593,6.47330302942341,2446.063,2446.424,2446.957,2446.333,355.396026611328,45.0001487731934,355.411468505859,0.999999821186066,-1.46325850486755,-3.0584671497345,1,-1.47725937256011,-3.04992885433106,0
21.51999,13.5199937820435,3.2014434337616,6.41433334350586,13.5199956893921,3.20627441701847,6.41258312761968,2450.916,2451.344,2451.786,2451.2,355.448120117188,45.0001411437988,355.462829589844,0.999997913837433,-1.48877012729645,-3.03063631057739,1,-1.50269366555121,-3.02184244616943,0
21.53999,13.5399923324585,3.17116260528564,6.35428667068481,13.5399961471558,3.17596748132535,6.35242974645878,2455.865,2456.599,2456.529,2455.531,355.500579833984,45.0001373291016,355.514251708984,0.999996721744537,-1.51404643058777,-3.00232720375061,1,-1.52789065493037,-2.99327883221154,0
21.55999,13.5599927902222,3.140380859375,6.29481601715088,13.5599946975708,3.14516196240927,6.29285803913833,2460.466,2461.318,2461.429,2460.395,355.553344726563,45.0001411437988,355.566131591797,0.999997019767761,-1.53908443450928,-2.97354459762573,1,-1.552843993341,-2.9642453146365,0
21.57999,13.5799913406372,3.10910296440125,6.2359299659729,13.5799951553345,3.11385684900643,6.23386605007662,2465.173,2467.108,2466.221,2464.043,355.606506347656,45.0001449584961,355.618438720703,0.999998390674591,-1.56388032436371,-2.94429278373718,1,-1.57755449993525,-2.93474094035065,0
21.59999,13.5999937057495,3.07733488082886,6.1776385307312,13.5999956130981,3.08205999900131,6.17546880444791,2469.915,2470.444,2470.865,2470.004,355.660095214844,45.0001564025879,355.672119140625,1.00000083446503,-1.5884302854538,-2.91457509994507,1,-1.60201588098286,-2.90477311523564,0
21.61999,13.6199922561646,3.04507946968079,6.11995077133179,13.6199960708618,3.04977643371497,6.11767552427637,2475.188,2475.081,2475.059,2474.37,355.714111328125,45.0001525878906,355.725982666016,1.00000178813934,-1.61272752285004,-2.88439726829529,1,-1.62622427357136,-2.87434657177507,0
21.63999,13.6399946212769,3.01234483718872,6.06287574768066,13.6399946212769,3.01701439878849,6.06050075969272,2478.775,2479.31,2480.239,2479.633,355.768096923828,45.0001564025879,355.780151367188,1.00000202655792,-1.63676857948303,-2.85376405715942,1,-1.65017358295626,-2.84346908130256,0
21.65999,13.6599931716919,2.97913384437561,6.00642204284668,13.6599950790405,2.98377281873083,6.00394263380054,2483.779,2484.79,2484.52,2482.974,355.822692871094,45.0001602172852,355.834197998047,1.00000035762787,-1.66055119037628,-2.82268047332764,1,-1.67386459533008,-2.8121396301917,0
21.67999,13.6799936294556,2.94545221328735,5.950599193573,13.6799955368042,2.95006004478758,5.94801556057617,2487.842,2488.158,2489.216,2488.69,355.877624511719,45.0001449584961,355.889038085938,0.999999046325684,-1.68407225608826,-2.79115033149719,1,-1.69729127298054,-2.78036608930603,0
21.69999,13.6999931335449,2.91130614280701,5.89541578292847,13.6999959945679,2.91588140084025,5.89272837195709,2492.644,2493.059,2493.364,2492.459,355.933135986328,45.0001411437988,355.943634033203,0.999996781349182,-1.70732688903809,-2.75917959213257,1,-1.72044991639432,-2.74815347628566,0
21.71999,13.7199926376343,2.87670016288757,5.84088039398193,13.7199945449829,2.88124560948913,5.83809497825225,2497.019,2497.468,2497.664,2496.778,355.988983154297,45.0001220703125,355.998504638672,0.99999588727951,-1.7303124666214,-2.7267735004425,1,-1.74333469883483,-2.71551001198767,0
21.73999,13.7399921417236,2.84163999557495,5.78700160980225,13.7399950027466,2.84615153373271,5.78411358599172,2501.048,2502.785,2502.162,2500.168,356.045074462891,45.000114440918,356.053680419922,0.999996602535248,-1.7530255317688,-2.69393730163574,1,-1.76594637154899,-2.6824346248134,0
21.75999,13.7599925994873,2.80613017082214,5.73378801345825,13.7599954605103,2.81060799708178,5.73079796154306,2505.798,2505.941,2506.096,2505.296,356.101684570313,45.0001182556152,356.110015869141,0.99999874830246,-1.77546298503876,-2.66067504882813,1,-1.78827916809425,-2.64893563072585,0
21.77999,13.7799921035767,2.77017760276794,5.6812481880188,13.7799959182739,2.77462061252972,5.67815652444681,2509.93,2510.182,2510.312,2509.446,356.158416748047,45.0001258850098,356.166656494141,1.00000059604645,-1.79761862754822,-2.62699246406555,1,-1.81032956170172,-2.61501831984665,0
21.79999,13.7999925613403,2.73378825187683,5.62939023971558,13.799994468689,2.73819855760204,5.62620251005162,2513.888,2513.955,2514.585,2513.952,356.215301513672,45.000129699707,356.223602294922,1.00000166893005,-1.81948947906494,-2.59289526939392,1,-1.83209200836151,-2.58069134178982,0
21.81999,13.819993019104,2.69696617126465,5.57822227478027,13.8199949264526,2.70134063665892,5.5749342128445,2517.755,2518.794,2518.847,2517.315,356.272491455078,45.0001411437988,356.280578613281,1.00000131130219,-1.8410724401474,-2.55838871002197,1,-1.85356722247724,-2.54595356969137,0
21.83999,13.8399934768677,2.65971946716309,5.52775287628174,13.8399953842163,2.66405612318741,5.52436471680922,2521.974,2521.982,2522.73,2522.079,356.330139160156,45.0001373291016,356.338195800781,1.00000059604645,-1.86236524581909,-2.52347755432129,1,-1.87474972344259,-2.51081374360694,0
21.85999,13.8599920272827,2.62205147743225,5.4779896736145,13.85999584198,2.62635090511392,5.47450200782097,2526.088,2525.909,2526.551,2526.032,356.388092041016,45.000129699707,356.395782470703,0.999998927116394,-1.88336312770844,-2.48816776275635,1,-1.895636166142,-2.47527741277644,0
21.87999,13.8799924850464,2.58396983146667,5.4289402961731,13.879994392395,2.58823459170597,5.4253586128345,2529.533,2530.057,2530.744,2529.824,356.446258544922,45.0001220703125,356.453308105469,0.99999737739563,-1.90406346321106,-2.45246553421021,1,-1.91622130329693,-2.43935363372113,0
21.89999,13.8999910354614,2.54548025131226,5.38061285018921,13.8999948501587,2.54970593170572,5.37693291860204,2533.509,2535.042,2534.522,2532.472,356.504943847656,45.000114440918,356.510955810547,0.999996662139893,-1.92446446418762,-2.41637635231018,1,-1.93650581066302,-2.40304122715831,0
21.91999,13.9199905395508,2.50658941268921,5.33301496505737,13.9199953079224,2.51077462515092,5.32923729367236,2537.587,2537.641,2538.076,2537.347,356.564086914063,45.0001068115234,356.569732666016,0.999998033046722,-1.94456279277802,-2.37990474700928,1,-1.95648450731468,-2.36634933515813,0
21.93999,13.9399919509888,2.46730351448059,5.28615379333496,13.939995765686,2.47144682002758,5.28227927008231,2541.646,2541.314,2541.535,2541.015,356.623443603516,45.0001029968262,356.628662109375,0.999999463558197,-1.96435225009918,-2.34305739402771,1,-1.97615423823969,-2.32928375206095,0
21.95999,13.9599924087524,2.42762756347656,5.2400369644165,13.9599943161011,2.43173253307145,5.23607063474864,2545.528,2545.001,2545.032,2544.569,356.682708740234,45.000114440918,356.687713623047,1.0000011920929,-1.98383033275604,-2.30584025382996,1,-1.99551006614592,-2.29185391841777,0
21.97999,13.9799919128418,2.38756608963013,5.19467163085938,13.9799947738647,2.39163046056747,5.19060987076396,2548.222,2549.361,2549.322,2547.639,356.741790771484,45.000114440918,356.746948242188,1.00000274181366,-2.00299525260925,-2.26825928688049,1,-2.01455262643403,-2.2540586055061,0
21.99999,13.9999933242798,2.34712934494019,5.15006542205811,13.9999952316284,2.35115070460095,5.14590859999809,2551.573,2552.041,2553.061,2551.997,356.801330566406,45.0001258850098,356.806945800781,1.00000298023224,-2.02184581756592,-2.23031949996948,1,-2.03327705094659,-2.21590733431705,0
22.01999,14.0199937820435,2.30632162094116,5.10622501373291,14.0199956893921,2.31029965768723,5.10197388162302,2555.552,2555.433,2556.153,2555.407,356.861511230469,45.0001220703125,356.867004394531,1.00000107288361,-2.04037666320801,-2.19202780723572,1,-2.05168038274454,-2.17740612965437,0
22.03999,14.0399923324585,2.26514959335327,5.063157081604,14.0399942398071,2.26908771872721,5.05881673274275,2558.845,2558.858,2559.582,2558.885,356.921966552734,45.0001029968262,356.927032470703,0.999998807907104,-2.05858469009399,-2.15339016914368,1,-2.06975800699416,-2.13856479225127,0
22.05999,14.0599937438965,2.2236213684082,5.02086877822876,14.0599946975708,2.22751353484184,5.01643573662214,2561.789,2562.983,2563.224,2561.584,356.982727050781,45.0000991821289,356.987091064453,0.999996900558472,-2.07646751403809,-2.11441254615784,1,-2.08751051713607,-2.09938204704928,0
22.07999,14.0799922943115,2.18173980712891,4.97936677932739,14.0799951553345,2.18558758464534,4.97484173909425,2566.338,2565.487,2565.581,2565.298,357.044097900391,45.0000801086426,357.047760009766,0.999996364116669,-2.09402275085449,-2.07510042190552,1,-2.10493337007834,-2.05986776990966,0
22.09999,14.0999917984009,2.13951516151428,4.93865776062012,14.0999956130981,2.14331648903434,4.93404130863413,2568.815,2568.84,2569.306,2568.604,357.105163574219,45.0000915527344,357.108520507813,0.999997138977051,-2.11124563217163,-2.03546071052551,1,-2.12202381442458,-2.02002820088045,0
22.11999,14.1199922561646,2.09695339202881,4.89874792098999,14.1199941635132,2.1007110028064,4.89404466470296,2572.286,2571.959,2572.285,2571.638,357.166381835938,45.0000991821289,357.169372558594,0.999998092651367,-2.12813544273376,-1.99549973011017,1,-2.13877756945691,-1.97987347611955,0
22.13999,14.1399908065796,2.05405902862549,4.85964345932007,14.1399946212769,2.057769727336,4.85485049431662,2575.002,2575.936,2575.679,2573.925,357.227630615234,45.0001029968262,357.230377197266,0.999999463558197,-2.1446897983551,-1.95522391796112,1,-2.15519518515681,-1.93940227745348,0
22.15999,14.1599912643433,2.01084089279175,4.82135057449341,14.1599950790405,2.01450349129643,4.81646883987396,2577.858,2577.914,2578.855,2578,357.289154052734,45.000114440918,357.292266845703,1.00000095367432,-2.16090703010559,-1.91463887691498,1,-2.1712724549741,-1.89862481066635,0
22.17999,14.1799907684326,1.96730518341064,4.78387546539307,14.1799955368042,1.97091912724066,4.77890576256059,2581.148,2580.936,2581.558,2580.809,357.351135253906,45.0001106262207,357.354156494141,1.00000071525574,-2.17678236961365,-1.87375164031982,1,-2.18700684000529,-1.85754751528766,0
22.19999,14.1999921798706,1.92345881462097,4.7472243309021,14.1999940872192,1.92702771869543,4.74217065837965,2583.916,2583.722,2584.507,2583.865,357.413269042969,45.0001029968262,357.416076660156,1.00000011920929,-2.1923131942749,-1.83256864547729,1,-2.20239440446178,-1.81618083729523,0
22.21999,14.2199926376343,1.8793089389801,4.71140241622925,14.2199945449829,1.88282782482178,4.70626232141476,2586.726,2587.585,2587.345,2585.668,357.475646972656,45.0000915527344,357.477966308594,0.999999523162842,-2.2074978351593,-1.79109632968903,1,-2.21743565347665,-1.77452341873036,0
22.23999,14.2399940490723,1.83486199378967,4.67641544342041,14.2399950027466,1.83833059699793,4.67118996526262,2589.834,2589.204,2589.832,2589.481,357.538299560547,45.0000839233398,357.540710449219,0.99999988079071,-2.22233438491821,-1.74934077262878,1,-2.23212672766753,-1.73258576951941,0
22.25999,14.2599935531616,1.79012513160706,4.64226913452148,14.2599954605103,1.79354306217365,4.63695912850837,2592.548,2592.066,2592.499,2591.995,357.600952148438,45.0000877380371,357.603302001953,0.999999463558197,-2.23681807518005,-1.70730900764465,1,-2.24646530703732,-1.69037451240651,0
22.27999,14.2799940109253,1.74510741233826,4.60896921157837,14.2799959182739,1.74847229314362,4.60357521684538,2594.792,2594.545,2595.438,2594.821,357.66357421875,45.0000877380371,357.665954589844,0.99999862909317,-2.25094842910767,-1.66500771045685,1,-2.26044912725446,-1.64789631334359,0
22.29999,14.2999925613403,1.69981288909912,4.57652044296265,14.299994468689,1.70312974488505,4.57104656382121,2597.609,2597.209,2597.81,2597.181,357.726440429688,45.0000915527344,357.728485107422,0.99999725818634,-2.26472425460815,-1.62244355678558,1,-2.27407469757071,-1.60516196839234,0
22.31999,14.319993019104,1.65425062179565,4.54492807388306,14.3199949264526,1.6575139289219,4.53937210160615,2599.259,2600.694,2600.962,2598.856,357.789428710938,45.0000801086426,357.791046142578,0.999996483325958,-2.27814364433289,-1.57962346076965,1,-2.28734246527755,-1.56217007469713,0
22.33999,14.339991569519,1.60842537879944,4.51419687271118,14.3399953842163,1.61163636031334,4.50855997531058,2602.637,2602.274,2602.63,2601.898,357.853149414063,45.000072479248,357.854431152344,0.999996483325958,-2.29120540618896,-1.53655362129211,1,-2.3002490185591,-1.51893148494557,0
22.35999,14.3599901199341,1.5623471736908,4.48433208465576,14.35999584198,1.56550428399092,4.47861505074916,2604.613,2604.589,2605.235,2604.396,357.916839599609,45.0000648498535,357.91796875,0.999997079372406,-2.30390381813049,-1.49324119091034,1,-2.31279231922769,-1.47545302732477,0
22.37999,14.3799905776978,1.5160231590271,4.45533800125122,14.379994392395,1.51912941960574,4.44954478762338,2607.255,2606.614,2607.236,2606.844,357.980804443359,45.0000648498535,357.981597900391,0.999997675418854,-2.316237449646,-1.44969296455383,1,-2.32496924257087,-1.43174574734565,0
22.39999,14.3999891281128,1.46945762634277,4.4272198677063,14.3999948501587,1.47251024479356,4.42134823163334,2609.483,2609.698,2609.436,2608.19,358.044738769531,45.0000648498535,358.045166015625,0.999998927116394,-2.32820415496826,-1.40591585636139,1,-2.33678018832486,-1.38780821021375,0
22.41999,14.4199895858765,1.42266201972961,4.39998149871826,14.4199953079224,1.42565853289966,4.39403264975318,2611.442,2610.896,2611.742,2611.285,358.108642578125,45.0000648498535,358.109375,1.00000107288361,-2.33980298042297,-1.36191630363464,1,-2.34822211250662,-1.34365151204555,0
22.43999,14.4399900436401,1.37564158439636,4.37362766265869,14.439995765686,1.37858168269113,4.36760235562739,2613.902,2612.956,2613.513,2613.275,358.172698974609,45.0000686645508,358.173461914063,1.00000202655792,-2.35103130340576,-1.31770169734955,1,-2.35929320822099,-1.29928262601477,0
22.45999,14.4599905014038,1.32840490341187,4.34816217422485,14.4599943161011,1.33129164888817,4.34206391626758,2615.59,2615.116,2615.762,2615.174,358.236572265625,45.0000686645508,358.237365722656,1.00000250339508,-2.36188817024231,-1.27327907085419,1,-2.36999072468458,-1.25471281917976,0
22.47999,14.4799919128418,1.28095626831055,4.32358884811401,14.4799947738647,1.28378687908397,4.31741649331427,2617.072,2617.862,2618.082,2616.354,358.300506591797,45.0000686645508,358.301300048828,1.00000250339508,-2.37237358093262,-1.22865557670593,1,-2.38031501306859,-1.20994062843155,0
22.49999,14.4999933242798,1.23330736160278,4.2999119758606,14.4999952316284,1.23607937516943,4.29366645724843,2619.111,2619.167,2619.801,2618.727,358.364868164063,45.0000648498535,358.365905761719,1.00000238418579,-2.38248682022095,-1.183837890625,1,-2.39026340491218,-1.16497736528584,0
22.51999,14.5199937820435,1.18546319007874,4.27713537216187,14.5199956893921,1.18817667105734,4.27081755864775,2621.195,2620.621,2621.319,2620.823,358.429534912109,45.000057220459,358.430694580078,1.00000131130219,-2.3922233581543,-1.13883328437805,1,-2.39983432917705,-1.11983013028815,0
22.53999,14.5399942398071,1.13743090629578,4.25526237487793,14.5399942398071,1.1400909263384,4.24887545524513,2622.807,2622.252,2623.109,2622.653,358.494262695313,45.0000495910645,358.495391845703,0.999999642372131,-2.40158081054688,-1.09364867210388,1,-2.40902541595758,-1.07451038358273,0
22.55999,14.5599927902222,1.08921885490417,4.2342963218689,14.5599946975708,1.0918205624847,4.22783942673932,2624.137,2624.808,2625.033,2623.427,358.559112548828,45.0000457763672,358.559936523438,0.999997794628143,-2.41055870056152,-1.04829156398773,1,-2.41783696697285,-1.02901663744206,0
22.57999,14.5799922943115,1.04083657264709,4.21424102783203,14.5799951553345,1.04337777961505,4.20771493102571,2626.054,2625.27,2626.329,2626.046,358.624328613281,45.0000457763672,358.625122070313,0.999996662139893,-2.4191563129425,-1.00276875495911,1,-2.426266696025,-0.983360390207239,0
22.59999,14.5999898910522,0.992289066314697,4.19509935379028,14.5999956130981,0.99477022775661,4.18850514614094,2628.03,2626.832,2627.411,2627.431,358.689666748047,45.0000419616699,358.68994140625,0.999995529651642,-2.42736983299255,-0.957087457180023,1,-2.43431327190114,-0.937548851859003,0
22.61999,14.6199922561646,0.943584203720093,4.1768741607666,14.6199941635132,0.94601024065447,4.17021480624732,2629.085,2628.439,2629.159,2628.734,358.754730224609,45.000057220459,358.754547119141,0.999995708465576,-2.43519926071167,-0.91125500202179,1,-2.44197471156,-0.891593646678239,0
22.63999,14.6399908065796,0.894732236862183,4.15956878662109,14.6399946212769,0.897096217647121,4.15284331092134,2630.505,2631.386,2630.476,2628.478,358.81982421875,45.0000610351563,358.819000244141,0.999997138977051,-2.44264554977417,-0.865278720855713,1,-2.44925126650639,-0.845493266077016,0
22.65999,14.6599903106689,0.845737934112549,4.14318561553955,14.6599950790405,0.848040526262781,4.13639519168576,2631.715,2630.954,2631.835,2631.476,358.884857177734,45.0000648498535,358.884765625,1.00000023841858,-2.44970846176147,-0.819165885448456,1,-2.45614103858051,-0.799259366176073,0
22.67999,14.6799917221069,0.796612024307251,4.12772703170776,14.6799955368042,0.798850913318395,4.12087304600816,2632.759,2632.317,2633.209,2632.54,358.949951171875,45.0000648498535,358.950317382813,1.0000011920929,-2.456383228302,-0.772923707962036,1,-2.46264293975767,-0.75289924817837,0
22.69999,14.6999921798706,0.747356176376343,4.11319589614868,14.6999940872192,0.749539855557383,4.1062806725214,2634.265,2633.306,2634.018,2633.795,359.015258789063,45.0000648498535,359.015777587891,1.00000071525574,-2.46267008781433,-0.726559400558472,1,-2.46875537887026,-0.706424671137549,0
22.71999,14.7199926376343,0.697986364364624,4.09959411621094,14.7199945449829,0.700105734228033,4.09261759219641,2634.299,2635.552,2636,2633.79,359.080444335938,45.000057220459,359.081024169922,0.999999582767487,-2.46856808662415,-0.680080354213715,1,-2.47447855657351,-0.659834109416063,0
22.73999,14.7399911880493,0.64850378036499,4.08692407608032,14.7399950027466,0.650561053026576,4.07988739873631,2636.383,2635.035,2636.016,2636.182,359.146362304688,45.0000495910645,359.147094726563,0.999998211860657,-2.4740777015686,-0.633494019508362,1,-2.47981096754058,-0.613139347469979,0
22.75999,14.759991645813,0.598921060562134,4.07518815994263,14.7599954605103,0.600913635990653,4.06809210247823,2636.865,2636.205,2637.316,2636.912,359.212127685547,45.0000457763672,359.212646484375,0.999996364116669,-2.47919392585754,-0.586807429790497,1,-2.48475176968342,-0.56634775928105,0
22.77999,14.779990196228,0.549242496490479,4.06438779830933,14.7799940109253,0.55117607134473,4.05723455692989,2638.384,2637.196,2637.545,2637.556,359.278045654297,45.0000381469727,359.277893066406,0.999995052814484,-2.48391819000244,-0.540028095245361,1,-2.48929976772751,-0.519471208971326,0
22.79999,14.799991607666,0.499476909637451,4.05452442169189,14.799994468689,0.50134672633602,4.04731440566677,2638.366,2638.959,2639.037,2637.398,359.343627929688,45.0000381469727,359.342987060547,0.999995708465576,-2.4882504940033,-0.49316343665123,1,-2.49345511097161,-0.47250815770756,0
22.81999,14.8199901580811,0.44963264465332,4.04559993743896,14.8199949264526,0.451438209243381,4.03833429549433,2639.739,2639.16,2639.127,2638.533,359.409484863281,45.0000419616699,359.408813476563,0.999997735023499,-2.492192029953,-0.446221113204956,1,-2.49721669072443,-0.425470488512621,0
22.83999,14.839991569519,0.399718523025513,4.03761577606201,14.8399953842163,0.401458401560995,4.030295644541,2639.875,2639.315,2640.215,2639.659,359.475067138672,45.0000381469727,359.474914550781,0.99999988079071,-2.49573922157288,-0.399208337068558,1,-2.50058391296173,-0.378365629519777,0
22.85999,14.8599910736084,0.349740505218506,4.03057336807251,14.8599939346313,0.351419971195494,4.02320035398114,2640.83,2639.913,2640.399,2640.132,359.540802001953,45.0000457763672,359.540863037109,1.00000047683716,-2.49889206886292,-0.352132350206375,1,-2.50355598132146,-0.33120551994975,0
22.87999,14.8799905776978,0.299707889556885,4.02447319030762,14.879994392395,0.301321275517457,4.01704819089513,2640.5,2640.924,2641.633,2640.114,359.606353759766,45.0000381469727,359.606750488281,1.00000035762787,-2.50164985656738,-0.305000692605972,1,-2.50613299336875,-0.283988611660784,0
22.89999,14.8999910354614,0.249628305435181,4.01931667327881,14.8999948501587,0.251174995538855,4.01184084850477,2641.444,2640.339,2641.532,2641.476,359.67236328125,45.0000457763672,359.672973632813,0.999999165534973,-2.5040135383606,-0.25782111287117,1,-2.50831423984852,-0.236726856225095,0
22.91999,14.9199895858765,0.199508190155029,4.0151047706604,14.9199953079224,0.2009890503011,4.00757914914741,2641.97,2640.931,2641.664,2641.55,359.738433837891,45.0000343322754,359.738708496094,0.99999737739563,-2.5059802532196,-0.210600733757019,1,-2.51009937630091,-0.189427717163377,0
22.93999,14.9399900436401,0.149357080459595,4.01183795928955,14.9399938583374,0.150776155392823,4.0042640368616,2641.926,2641.373,2642.205,2641.639,359.804351806641,45.0000305175781,359.80419921875,0.999996542930603,-2.5075511932373,-0.163346946239471,1,-2.51148800728796,-0.142103178635582,0
22.95999,14.9599905014038,0.0991823673248291,4.00951671600342,14.9599943161011,0.100534662457381,4.00189540282096,2642.147,2642.681,2642.339,2640.687,359.870361328125,45.0000267028809,359.869598388672,0.999996900558472,-2.50872755050659,-0.116067230701447,1,-2.51248017839478,-0.0947516871021709,0
22.97999,14.9799890518188,0.0489921569824219,4.00814151763916,14.9799947738647,0.0502772932065759,4.00047398238639,2642.608,2641.835,2642.1,2641.745,359.936462402344,45.0000305175781,359.935852050781,0.999999225139618,-2.50950908660889,-0.0687695816159248,1,-2.5130755815941,-0.0473852324940477,0
22.99999,14.9999904632568,-0.00120639801025391,4.00771236419678,14.9999952316284,1.19842249063446E-05,4.00000000002693,2642.383,2641.48,2642.4,2642.162,0.00232695299200714,45.0000228881836,0.00216762977652252,1.00000107288361,-2.50989294052124,-0.0214609540998936,1,-2.51327412286055,-1.1294865877422E-05,0
23.01999,15.0199899673462,-0.0514039993286133,4.00822925567627,15.0199937820435,-0.0502485333376278,4.00047344026054,2642.527,2641.721,2642.184,2641.839,0.0681869685649872,45.0000267028809,0.0681872740387917,1.00000154972076,-2.50987935066223,0.0258511155843735,1,-2.51307580867924,0.0473581269561459,0
23.03999,15.0399904251099,-0.101593017578125,4.00969266891479,15.0399942398071,-0.100505909400975,4.00189431862902,2641.852,2641.944,2642.623,2641.38,0.133888885378838,45.0000228881836,0.13416787981987,1.00000154972076,-2.50946950912476,0.0731593370437622,1,-2.51248063254004,0.0947245879849392,0
23.05999,15.0599908828735,-0.1517653465271,4.01210165023804,15.0599946975708,-0.150747413689616,4.00426241077478,2642.182,2640.978,2641.914,2641.972,0.199919983744621,45.0000228881836,0.200401574373245,1.00000071525574,-2.50866413116455,0.120455652475357,1,-2.51148868842162,0.142076090218487,0
23.07999,15.0799903869629,-0.20191478729248,4.015456199646,15.0799951553345,-0.200965112124421,4.0075773427315,2641.939,2640.821,2641.634,2641.612,0.265827506780624,45.0000152587891,0.266207337379456,0.999999284744263,-2.50746130943298,0.167732983827591,1,-2.51010013297063,0.189405155963379,0
23.09999,15.0999898910522,-0.252032041549683,4.01975584030151,15.0999956130981,-0.251151074385664,4.01183859100904,2641.348,2640.762,2641.556,2641.003,0.331598728895187,45.0000190734863,0.331667870283127,0.999998152256012,-2.50586271286011,0.214984089136124,1,-2.50831518546612,0.236704311069355,0
23.11999,15.1199884414673,-0.302109003067017,4.02500009536743,15.1199941635132,-0.301292595093635,4.01704494105806,2640.991,2640.617,2641.09,2640.338,0.397454828023911,45.0000114440918,0.397039949893951,0.999997913837433,-2.50387024879456,0.262201488018036,1,-2.50613435465732,0.283961580998151,0
23.13999,15.139988899231,-0.352139234542847,4.03118753433228,15.1399946212769,-0.35139132026194,4.02319656378928,2640.209,2640.798,2640.897,2639.171,0.463348418474197,45.0000114440918,0.462548673152924,0.999999165534973,-2.50148391723633,0.309377700090408,1,-2.50355756895331,0.331178517081039,0
23.15999,15.1599893569946,-0.402113199234009,4.03831768035889,15.1599950790405,-0.401434554127248,4.03029203627234,2640.26,2639.532,2639.713,2639.344,0.529534697532654,45.0000076293945,0.528788447380066,1.00000143051147,-2.49870347976685,0.356504559516907,1,-2.50058542438977,0.378343153842977,0
23.17999,15.179988861084,-0.452023506164551,4.04638910293579,15.1799955368042,-0.45141439392107,4.03833023799859,2639.733,2638.497,2638.987,2639.113,0.595476090908051,45.0000152587891,0.595126271247864,1.00000357627869,-2.49552607536316,0.403575241565704,1,-2.49721839032427,0.425448043100137,0
23.19999,15.199990272522,-0.501862287521362,4.05540084838867,15.1999940872192,-0.501318190993871,4.04730899839393,2638.859,2637.463,2638.467,2638.728,0.661085724830627,45.0000152587891,0.661200106143951,1.000004529953,-2.49195241928101,0.450582385063171,1,-2.49345737596476,0.472481263781181,0
23.21999,15.2199897766113,-0.55162239074707,4.0653510093689,15.2199945449829,-0.551147583555429,4.05722861220733,2637.843,2637.638,2637.914,2636.979,0.726516008377075,45.0000114440918,0.726720035076141,1.00000405311584,-2.48798441886902,0.497518599033356,1,-2.48930225784708,0.519444359862451,0
23.23999,15.2399911880493,-0.601295709609985,4.07623863220215,15.2399950027466,-0.600889939540409,4.0680867014716,2636.899,2635.874,2637.156,2637.045,0.791974246501923,45.0000114440918,0.792536973953247,1.00000333786011,-2.48362493515015,0.544375658035278,1,-2.48475403205179,0.56632542590285,0
23.25999,15.259991645813,-0.650872468948364,4.08806133270264,15.2599954605103,-0.650537403694602,4.07988155149011,2636.122,2635.478,2636.073,2635.605,0.857542455196381,45.0000076293945,0.857845902442932,1.00000143051147,-2.47887325286865,0.591147005558014,1,-2.47981341682934,0.613117058499702,0
23.27999,15.2799921035767,-0.700347185134888,4.10081768035889,15.2799940109253,-0.700077416050183,4.09261004114701,2635.205,2634.353,2634.99,2634.747,0.923083424568176,45.0000038146973,0.923112869262695,1.00000023841858,-2.47373080253601,0.63782525062561,1,-2.47448171954969,0.659807420162214,0
23.29999,15.2999935150146,-0.749711513519287,4.11450576782227,15.299994468689,-0.749511602874819,4.10627258828498,2633.82,2634.198,2634.242,2632.719,0.988525152206421,44.9999961853027,0.988217175006866,0.999999821186066,-2.46819829940796,0.68440306186676,1,-2.46875876518729,0.706398043611553,0
23.31999,15.319993019104,-0.798956394195557,4.12912321090698,15.3199949264526,-0.79882742771083,4.12086586590695,2633.166,2632.231,2632.56,2632.449,1.05414307117462,44.9999961853027,1.05398833751678,1.00000035762787,-2.46227717399597,0.730872273445129,1,-2.46264594735143,0.752877113514713,0
23.33999,15.3399934768677,-0.848076581954956,4.14466762542725,15.3399953842163,-0.848017102661295,4.13638756945973,2631.853,2630.524,2631.466,2631.699,1.11949336528778,44.9999961853027,1.11967825889587,1.00000023841858,-2.45596551895142,0.777226209640503,1,-2.45614423137108,0.799237289951768,0
23.35999,15.359992980957,-0.897061347961426,4.16113662719727,15.3599939346313,-0.897068188167602,4.15283363516995,2630.475,2629.508,2630.272,2630.137,1.18467211723328,44.9999885559082,1.18486523628235,0.999999046325684,-2.44926452636719,0.823457658290863,1,-2.44925531947565,0.845466848914933,0
23.37999,15.3799924850464,-0.945904731750488,4.17852783203125,15.379994392395,-0.945982294447249,4.17020460291849,2628.871,2628.625,2629.148,2628.263,1.24976146221161,44.9999885559082,1.24978470802307,0.999997675418854,-2.44217729568481,0.869559407234192,1,-2.44197898552038,0.891567307998448,0
23.39999,15.3999910354614,-0.994598627090454,4.19683837890625,15.3999948501587,-0.994747012318294,4.18849620508266,2627.716,2626.576,2627.393,2627.488,1.3149721622467,44.9999885559082,1.31486392021179,0.999996721744537,-2.43470501899719,0.915523171424866,1,-2.43431701712287,0.937526971823865,0
23.41999,15.4199914932251,-1.04313564300537,4.21606540679932,15.4199953079224,-1.04335464091399,4.20770555307421,2626.163,2625.159,2625.951,2625.878,1.38004088401794,44.9999923706055,1.37955665588379,0.999995946884155,-2.42684769630432,0.961342453956604,1,-2.42627062425213,0.983338582495259,0
23.43999,15.4399900436401,-1.09150838851929,4.23620557785034,15.4399938583374,-1.09179289250826,4.22782765072768,2624.792,2624.044,2624.13,2623.875,1.44501221179962,44.9999885559082,1.44394016265869,0.999996185302734,-2.41860771179199,1.00701022148132,1,-2.41784189969708,1.02899055910365,0
23.45999,15.4599895477295,-1.13970756530762,4.25725603103638,15.4599943161011,-1.14006335720092,4.24886315859834,2622.59,2622.929,2623.088,2621.595,1.50968241691589,44.9999885559082,1.50841319561005,0.999997973442078,-2.40998673439026,1.05251932144165,1,-2.40903056676494,1.0744844002828,0
23.47999,15.4799909591675,-1.18772840499878,4.27921342849731,15.4799947738647,-1.18815378443237,4.27080687921826,2621.433,2620.244,2620.701,2620.939,1.57456624507904,44.9999847412109,1.57349288463593,1.00000023841858,-2.40098643302917,1.09786140918732,1,-2.39983880256601,1.1198085601523,0
23.49999,15.4999923706055,-1.23555994033813,4.30207395553589,15.4999952316284,-1.23605657981905,4.29365534726095,2619.603,2618.666,2618.974,2618.908,1.63911426067352,44.9999809265137,1.63827931880951,1.00000166893005,-2.39160490036011,1.14303016662598,1,-2.39026805865285,1.16495588117426,0
23.51999,15.5199918746948,-1.28319597244263,4.32583427429199,15.5199937820435,-1.28375963850726,4.31740264678956,2617.8,2616.394,2617.033,2617.477,1.70338213443756,44.9999771118164,1.70297086238861,1.00000214576721,-2.38184475898743,1.18801867961884,1,-2.3803208130873,1.20991495479285,0
23.53999,15.5399923324585,-1.33062982559204,4.35049057006836,15.5399942398071,-1.33126452646234,4.34204955736516,2615.262,2614.857,2615.773,2615.031,1.7673054933548,44.9999771118164,1.76720476150513,1.00000107288361,-2.37170815467834,1.23281991481781,1,-2.36999673932756,1.25468725689563,0
23.55999,15.5599908828735,-1.37785387039185,4.37603902816772,15.5599946975708,-1.378559182693,4.3675899648038,2613.529,2612.381,2613.427,2613.571,1.83145594596863,44.9999771118164,1.83137929439545,0.999998927116394,-2.36119818687439,1.27742576599121,1,-2.35929839847704,1.29926142026612,0
23.57999,15.5799913406372,-1.42486047744751,4.40247583389282,15.5799951553345,-1.42563613848288,4.39401983579445,2611.282,2610.388,2611.581,2611.363,1.89555680751801,44.9999694824219,1.89504051208496,0.999996364116669,-2.35031533241272,1.32183015346527,1,-2.3482274800051,1.34363040580498,0
23.59999,15.5999908447266,-1.4716420173645,4.42979621887207,15.5999937057495,-1.47248350242851,4.421332349573,2609.504,2608.839,2608.996,2608.7,1.95978617668152,44.9999732971191,1.9582850933075,0.999994814395905,-2.33906221389771,1.3660261631012,1,-2.33678684098673,1.38778300612847,0
23.61999,15.6199903488159,-1.51819086074829,4.4579963684082,15.6199941635132,-1.51910281240503,4.44952840273711,2607.092,2607.265,2607.001,2605.774,2.02378129959106,44.9999694824219,2.02160096168518,0.99999588727951,-2.3274405002594,1.41000688076019,1,-2.32497610585599,1.43172067064977,0
23.63999,15.6399908065796,-1.56450033187866,4.48707151412964,15.6399946212769,-1.56548222745647,4.47860097983171,2605.213,2604.026,2604.214,2604.546,2.08773374557495,44.9999771118164,2.08559560775757,0.999998569488525,-2.31545186042786,1.45376408100128,1,-2.31279821323981,1.47543223953079,0
23.65999,15.6599912643433,-1.61056089401245,4.51701736450195,15.6599950790405,-1.6116144234003,4.50854548974971,2602.859,2601.584,2601.876,2602.276,2.15124034881592,44.9999694824219,2.14938020706177,1.00000083446503,-2.30309534072876,1.49729192256927,1,-2.30025508625665,1.51891080989212,0
23.67999,15.6799898147583,-1.65636968612671,4.54782915115356,15.6799936294556,-1.6574877523219,4.53935422412957,2600.421,2598.779,2599.452,2600.259,2.21430945396423,44.9999580383301,2.21287107467651,1.00000190734863,-2.29037380218506,1.54058361053467,1,-2.28734995377742,1.56214540383286,0
23.69999,15.6999921798706,-1.70191526412964,4.57950162887573,15.6999940872192,-1.70310372012142,4.57102819434064,2596.99,2597.003,2598.068,2596.834,2.27695441246033,44.9999580383301,2.27571845054626,1.00000131130219,-2.27729058265686,1.58363246917725,1,-2.27408239216074,1.60513744063047,0
23.71999,15.7199926376343,-1.74719190597534,4.61203002929688,15.7199945449829,-1.74845073578947,4.60355950137835,2595.222,2594.113,2594.483,2594.846,2.34006810188293,44.9999618530273,2.33865451812744,0.999999642372131,-2.26384973526001,1.62643015384674,1,-2.26045571013389,1.64787599601596,0
23.73999,15.7399921417236,-1.7921929359436,4.64540958404541,15.7399950027466,-1.79352163817879,4.63694300793707,2592.401,2591.327,2592.167,2592.274,2.40285181999207,44.9999656677246,2.40128540992737,0.999998033046722,-2.25005102157593,1.66897141933441,1,-2.24647205960644,1.69035432076705,0
23.75999,15.759991645813,-1.83691024780273,4.67963457107544,15.7599935531616,-1.83830505228724,4.67117013752979,2589.662,2588.743,2589.533,2589.458,2.46552681922913,44.9999580383301,2.46351909637451,0.999996423721313,-2.23589730262756,1.71124958992004,1,-2.23213503308884,1.73256169419677,0
23.77999,15.779990196228,-1.88133764266968,4.71469974517822,15.7799940109253,-1.88280244823593,4.70624201374272,2586.857,2586.705,2586.784,2585.948,2.52814316749573,44.9999694824219,2.52544617652893,0.999995648860931,-2.22139120101929,1.75325798988342,1,-2.21744415993442,1.77449950186166,0
23.79999,15.7999906539917,-1.92546892166138,4.75059938430786,15.799994468689,-1.92700251424187,4.74214987397535,2584.278,2583.062,2583.639,2584.005,2.59072375297546,44.9999694824219,2.58771872520447,0.999996364116669,-2.20653510093689,1.79498851299286,1,-2.20240311061269,1.81615708265739,0
23.81999,15.8199911117554,-1.96929597854614,4.78732824325562,15.8199949264526,-1.97089827028274,4.77888804770075,2581.55,2580.541,2580.542,2580.781,2.65302491188049,44.9999694824219,2.64958548545837,0.999997437000275,-2.19132924079895,1.83643567562103,1,-2.18701426038843,1.85752785806793,0
23.83999,15.8399877548218,-2.01281118392944,4.82488012313843,15.8399934768677,-2.01447864300306,4.81644711197134,2578.545,2577.451,2577.627,2577.956,2.71488571166992,44.9999656677246,2.71135902404785,0.999999225139618,-2.17577695846558,1.87759339809418,1,-2.17128155633667,1.89860139170158,0
23.85999,15.8599891662598,-2.05600929260254,4.8632493019104,15.8599939346313,-2.05774506303126,4.85482829975194,2574.904,2574.396,2575.336,2574.778,2.77633309364319,44.9999580383301,2.77293181419373,1.00000059604645,-2.15988087654114,1.91845500469208,1,-2.15520448199432,1.93937903189391,0
23.87999,15.8799905776978,-2.09888219833374,4.90242958068848,15.879994392395,-2.10068652638525,4.89402200698115,2572.416,2571.29,2571.408,2571.935,2.83796143531799,44.9999580383301,2.83435726165771,1.00000095367432,-2.14364433288574,1.95901250839233,1,-2.13878706030122,1.97985040763609,0
23.89999,15.8999910354614,-2.14142274856567,4.9424147605896,15.8999948501587,-2.14329625179975,4.93402204423494,2569.217,2568.001,2568.358,2568.856,2.89914393424988,44.9999580383301,2.89550876617432,1.00000131130219,-2.12706828117371,1.99926102161407,1,-2.12203188387725,2.02000912773619,0
23.91999,15.9199905395508,-2.18362712860107,4.98319864273071,15.9199953079224,-2.18556751039717,4.97482209475459,2565.887,2564.608,2565.275,2565.783,2.95994138717651,44.9999504089355,2.95630621910095,1.00000107288361,-2.11015629768372,2.03919410705566,1,-2.1049415986801,2.05984885037649,0
23.93999,15.9399900436401,-2.2254843711853,5.0247745513916,15.9399938583374,-2.22748964512226,5.0164117112301,2562.195,2561.571,2562.51,2562.145,3.02046084403992,44.999942779541,3.01659893989563,1.00000011920929,-2.09291195869446,2.07880568504333,1,-2.08752058086875,2.09935953151903,0
23.95999,15.9599885940552,-2.26699018478394,5.06713628768921,15.9599943161011,-2.26906403216791,5.05879225893869,2558.943,2558.729,2558.968,2558.324,3.08111357688904,44.9999504089355,3.076655626297,0.999999105930328,-2.07533860206604,2.11808967590332,1,-2.06976825855723,2.13854246819506,0
