t,x_s1,x_s2,x_s3,x_s_d1,x_s_d2,x_s_d3,propellers_rpms1,propellers_rpms2,propellers_rpms3,propellers_rpms4,rollRad,pitchRad,yawRad,v_s1,v_s2,v_s3,v_s_d1,v_s_d2,v_s_d3,insideCount
0,-0.0599999986588955,2.94000005722046,1.97226226329803,-0.0599999986588955,2.94000005722046,1.97226226329803,2086.196,2086.196,2086.194,2086.194,6.13174E-08,-8.34465E-05,8.813095E-08,-7.10711178797396E-09,-2.62189331579066E-07,4.5530842385233E-07,-1.77635683940025E-16,0,0,11
0.0199999809265137,-0.0599999986588955,2.94000005722046,1.97226226329803,-0.0600018689823228,2.93999922986484,1.97226291710812,2128.771,2128.77,2128.769,2128.769,7.611918E-08,-8.34465E-05,9.371662E-08,2.74165756763978E-08,-2.59810661873416E-07,4.81677261632285E-07,-0.000279986109491598,-0.000123854557750461,9.78749128146436E-05,11
0.0399999618530273,-0.0599999986588955,2.94000005722046,1.97234070301056,-0.0600148713633619,2.9399934781361,1.97226746235829,2461.765,2261.986,1799.16,2001.114,7.529712E-08,-8.34465E-05,1.11272E-07,6.19514537447685E-08,-2.57538061987361E-07,0.00392445409670472,-0.00111096697221883,-0.000491446962384842,0.000388361393153969,11
0.059999942779541,-0.0599999986588955,2.94000005722046,1.97250020503998,-0.0600498916569253,2.93997798657125,1.97227970442339,2297.494,2195.995,1956.399,2063.707,-0.005090366,-8.583392E-05,0.001944941,3.88578840215814E-08,-2.39054941175709E-07,0.00797604396939278,-0.00247955767438444,-0.00109685626810365,0.000866780468645617,11
0.0799999237060547,-0.0600195154547691,2.93999123573303,1.97273421287537,-0.0601175491037011,2.93994805764669,1.97230335547778,2097.421,2118.704,2149.916,2136.567,-0.01280075,-0.0001033306,0.004876152,-0.000975804927293211,-0.000436574453487992,0.0117033533751965,-0.00437248168195521,-0.0019342094719421,0.00152849105329663,11
0.0999999046325684,-0.0600876174867153,2.93996071815491,1.97303593158722,-0.0602281984977466,2.93989911081933,1.97234203525305,1926.682,2051.496,2317.126,2197.832,-0.02010846,-0.0001310275,0.007674542,-0.00340502848848701,-0.00152561359573156,0.0150875160470605,-0.00677657084066208,-0.00299768151377008,0.00236888994749345,11
0.119999885559082,-0.0602312386035919,2.93989634513855,1.97339916229248,-0.0603919323540815,2.93982668156774,1.97239927179576,1883.095,2030.862,2359.44,2211.687,-0.02441639,-0.0001438107,0.009381902,-0.00718106050044298,-0.00321564124897122,0.018158869817853,-0.00967876537600021,-0.00428149527629217,0.00338341183800193,11
0.139999866485596,-0.0604654215276241,2.93979167938232,1.97381842136383,-0.0606185830762814,2.93972642043331,1.97247850222514,1974.611,2060.946,2266.749,2176.226,-0.02506461,-0.0001262338,0.009740551,-0.0117092076689005,-0.00522959511727095,0.0209616646170616,-0.0130661138932289,-0.00577992158504764,0.00456752929796729,10
0.159999847412109,-0.0607910677790642,2.93964695930481,1.97428953647614,-0.0609177251240702,2.93959409206138,1.97258307349083,2135.131,2119.052,2103.399,2116.024,-0.02346937,-9.215305E-05,0.009239405,-0.0162823442369699,-0.00724158715456724,0.0235536769032478,-0.0169257733773718,-0.00748727920841046,0.0059167527869142,10
0.179999828338623,-0.0612005069851875,2.93946576118469,1.97480928897858,-0.0612986771809143,2.93942557424237,1.97271624313063,2267.677,2170.07,1966.549,2065.766,-0.02211702,-6.49989E-05,0.008761027,-0.0204719193279743,-0.00906090158969164,0.0259888730943203,-0.0212450091932164,-0.00939793485758929,0.00742663065074668,11
0.199999809265137,-0.0616869740188122,2.93925142288208,1.97537529468536,-0.0617705043216151,2.93921685695296,1.97288118002819,2301.573,2187.033,1928.61,2050.388,-0.02307842,-5.681216E-05,0.00906065,-0.0243233758956194,-0.0107225030660629,0.0283006094396114,-0.0260111950853149,-0.0115063031866275,0.0090927491217482,11
0.21999979019165,-0.0622523836791515,2.9390025138855,1.97598540782928,-0.0623420201799026,2.9389640413972,1.97308096517076,2228.703,2164.569,1999.61,2073.351,-0.02690538,-6.888215E-05,0.01037946,-0.0282704941928387,-0.0124415289610624,0.0305047128349543,-0.0312118131779831,-0.013806846792403,0.0109107323185816,11
0.239999771118164,-0.062909334897995,2.93871307373047,1.97663760185242,-0.0630217891160284,2.93866333904768,1.97331859240691,2100.982,2119.296,2128.538,2117.201,-0.03249163,-9.614555E-05,0.01237888,-0.0328474342823029,-0.014471560716629,0.0326120369136333,-0.0368344539753016,-0.0162940762146287,0.0128762422462891,10
0.259999752044678,-0.0636769011616707,2.93837404251099,1.977330327034,-0.063818128384359,2.93831107068666,1.97359696920424,1995.27,2077.965,2237.849,2155.715,-0.03786642,-0.0001241033,0.01439421,-0.0383784808218479,-0.0169554185122252,0.0346354842185974,-0.0428668163611146,-0.0189625499358519,0.0149849787962923,10
0.279999732971191,-0.0645732656121254,2.93797707557678,1.97806227207184,-0.0647391103009693,2.93790366544722,1.97391891740716,1967.792,2062.309,2269.309,2168.962,-0.04137753,-0.0001326254,0.01582942,-0.0448181666433811,-0.0198528729379177,0.0365943126380444,-0.0492967075990309,-0.0218068743814547,0.0172326797463924,10
0.299999713897705,-0.0656095072627068,2.93751740455627,1.97883260250092,-0.065792564411235,2.93743765985439,1.97428717399454,2025.338,2077.975,2213.98,2153.419,-0.04257276,-0.0001139833,0.01646851,-0.0518122240900993,-0.0229789670556784,0.0385187640786171,-0.0561120433324234,-0.024821703919654,0.0196151207607697,10
0.319999694824219,-0.0667879357933998,2.93699502944946,1.97964155673981,-0.0669860796574269,2.93690969686632,1.97470439183752,2126.98,2113.333,2111.991,2121.537,-0.04231869,-8.124708E-05,0.01654458,-0.0589215792715549,-0.0261199548840523,0.0404468104243279,-0.0633008475844291,-0.0280017408615011,0.0221281153899841,10
0.339999675750732,-0.0681052803993225,2.93641185760498,1.98048973083496,-0.0683270065463032,2.9363165249154,1.97517314045715,2212.087,2147.49,2025.089,2092.978,-0.04217968,-5.519832E-05,0.01655977,-0.0658673048019409,-0.0291535463184118,0.0424101427197456,-0.0708512527579493,-0.0313417354608824,0.0247675150709749,10
0.359999656677246,-0.0695584937930107,2.93576979637146,1.98137819766998,-0.0698224593167033,2.93565499694942,1.97569590678219,2235.875,2162.819,2000.315,2082.975,-0.04347717,-4.925122E-05,0.0169822,-0.0726608112454414,-0.0321066416800022,0.0444228649139404,-0.0787514996356493,-0.0348364859145186,0.0275292091270607,10
0.37999963760376,-0.0711496919393539,2.93506741523743,1.98230791091919,-0.0714793181071407,2.93492206947271,1.9762750959068,2192.607,2153.848,2045.293,2095.093,-0.04658401,-6.49643E-05,0.01800084,-0.0795600265264511,-0.0351230800151825,0.0464830175042152,-0.0869899373799588,-0.0384808383619653,0.0304091247679395,10
0.399999618530273,-0.0728876069188118,2.9342999458313,1.98327958583832,-0.0733042311233964,2.93411480158727,1.97691303184828,2114.281,2128.953,2128.43,2120.559,-0.0508227,-9.281933E-05,0.01945824,-0.0868958383798599,-0.0383695997297764,0.0485829077661037,-0.0955550235330717,-0.0422696868856128,0.0334032270896888,10
0.419999599456787,-0.0747851580381393,2.93346118927002,1.98429393768311,-0.075303616806112,2.93323035403394,1.97761195830479,2048.885,2104.021,2200.458,2144.692,-0.05495326,-0.0001171791,0.02097828,-0.094877615571022,-0.0419377908110619,0.0507189780473709,-0.104435324016946,-0.0461979735106859,0.0365075190747654,10
0.439999580383301,-0.076854906976223,2.93254518508911,1.98535192012787,-0.077483665998383,2.93226598823353,1.97837403941307,2032.06,2093.112,2223.492,2155.572,-0.05791896,-0.0001225054,0.02219431,-0.103487372398376,-0.0457981564104557,0.0528976954519749,-0.113619513133304,-0.0502606882052445,0.0397180415920056,10
0.459999561309814,-0.0791051238775253,2.93154859542847,1.98645460605621,-0.0798503441133517,2.93121906532796,1.97920136050619,2068.558,2101.327,2190.931,2149.922,-0.05941406,-0.0001059938,0.02294351,-0.11251100897789,-0.0498263351619244,0.0551371239125729,-0.123096373563631,-0.0544528688801826,0.0430308733966251,10
0.479999542236328,-0.081538587808609,2.93047094345093,1.98760378360748,-0.0824093933018012,2.93008704522142,1.98009592887126,2133.177,2122.89,2127.606,2133.881,-0.05996959,-7.784004E-05,0.0233298,-0.121673405170441,-0.0538805052638054,0.0574608147144318,-0.132854796369179,-0.0587696013892294,0.0464421311302188,10
0.499999523162842,-0.0841544419527054,2.92931342124939,1.9888014793396,-0.0851663346197476,2.92886748562149,1.98105967450714,2187.969,2145.589,2072.779,2118.3,-0.06056721,-5.581954E-05,0.02363451,-0.130792245268822,-0.0578805468976498,0.0598865300416946,-0.142883780990963,-0.0632060195289486,0.0499479693207613,10
0.519999504089355,-0.0869517028331757,2.92807650566101,1.99004983901978,-0.0881264701960341,2.9275580410803,1.9820944508822,2204.666,2158.013,2056.861,2112.375,-0.06205006,-5.139609E-05,0.02414372,-0.139863535761833,-0.0618450120091438,0.0624180100858212,-0.15317243524976,-0.0677573050387385,0.0535445803826064,10
0.539999485015869,-0.08993249386549,2.9267590045929,1.99135076999664,-0.0912948853999237,2.92615646203568,1.98320203569205,2179.196,2155.704,2085.565,2118.91,-0.06466794,-6.573114E-05,0.0249944,-0.149039745330811,-0.0658693537116051,0.065046027302742,-0.163709975346116,-0.0724186876008322,0.0572281946164873,10
0.559999465942383,-0.0931029766798019,2.92535781860352,1.99270594120026,-0.0946764510086924,2.92466059385229,1.98438413161723,2131.35,2142.582,2139.287,2133.795,-0.06800541,-8.955518E-05,0.02612014,-0.158524349331856,-0.0700629055500031,0.067756325006485,-0.174485725860335,-0.0771854448402975,0.0609950802095166,10
0.579999923706055,-0.096471980214119,2.92386817932129,1.9941166639328,-0.0982759138233907,2.92306833673688,1.98564239799983,2091.18,2127.917,2186.679,2149.016,-0.07128217,-0.0001091896,0.02731128,-0.168450325727463,-0.0744843259453773,0.0705387443304062,-0.185489384724547,-0.0820530195379829,0.0648416358616275,10
0.599999904632568,-0.100048199295998,2.92228603363037,1.99558448791504,-0.102097550394155,2.92137779891622,1.98697832979606,2081.119,2120.836,2203.343,2157.368,-0.07382496,-0.000112918,0.02834421,-0.178810656070709,-0.0791120827198029,0.0733931139111519,-0.196709968388748,-0.0870165530145401,0.0687640220466348,10
0.619999885559082,-0.103837668895721,2.92060875892639,1.99711108207703,-0.106145683924264,2.91958706797962,1.98839343827069,2104.418,2125.237,2184.53,2156.427,-0.07542925,-9.921465E-05,0.02910361,-0.189473852515221,-0.0838623344898224,0.0763292983174324,-0.208137386244843,-0.0920715815920907,0.072758711384593,10
0.639999866485596,-0.107842996716499,2.91883587837219,1.9986983537674,-0.110424348494095,2.91769435941267,1.98988913361964,2145.64,2138.554,2145.48,2148.948,-0.07641781,-7.699303E-05,0.02962987,-0.200266167521477,-0.0886403620243073,0.0793613865971565,-0.21976139639478,-0.0972135746681844,0.0768221236090357,10
0.659999847412109,-0.112064339220524,2.91696810722351,2.00034832954407,-0.114937374430057,2.91569797883354,1.9914667548124,2181.054,2153.601,2111.113,2140.905,-0.07740797,-5.965814E-05,0.03007903,-0.211067467927933,-0.0933925583958626,0.0824989005923271,-0.231571865320271,-0.102438049583205,0.0809507163398757,10
0.679999828338623,-0.116501688957214,2.91500544548035,2.00206303596497,-0.119688390472181,2.91359632103405,1.99312757034981,2192.821,2163.142,2101.043,2137.73,-0.07893503,-5.64187E-05,0.03062393,-0.221867427229881,-0.0981306582689285,0.0857408717274666,-0.243558767882793,-0.107740571620372,0.0851409850834055,10
0.699999809265137,-0.12115678191185,2.91294717788696,2.00384449958801,-0.124680825941718,2.91138786902084,1.99487277902178,2178.072,2163.799,2119.46,2141.473,-0.08116676,-6.784881E-05,0.03135951,-0.232754722237587,-0.1029167547822,0.0890762805938721,-0.255712187323585,-0.113116754005739,0.0893894632322967,10
0.71999979019165,-0.126033842563629,2.91079068183899,2.00569438934326,-0.129917912908727,2.90907119305653,1.99670351066496,2149.067,2157.255,2154.189,2150.354,-0.08384909,-8.650842E-05,0.03226225,-0.24385304749012,-0.107822060585022,0.0924903005361557,-0.268022315263654,-0.118562257908195,0.0936927220656005,10
0.739999771118164,-0.131138741970062,2.90853309631348,2.00761389732361,-0.135402688359672,2.90664494970084,1.99862082692056,2124.48,2148.988,2185.491,2159.944,-0.08649202,-0.0001012001,0.03321625,-0.255245119333267,-0.11288395524025,0.0959715843200684,-0.280479451703768,-0.124072792439461,0.0980473707487474,10
0.759999752044678,-0.136477291584015,2.9061713218689,2.00960421562195,-0.141137996365015,2.90410788085177,2.00062572199199,2118.595,2144.625,2197.49,2166.187,-0.08866675,-0.0001038633,0.03408768,-0.266927540302277,-0.118086948990822,0.0995169207453728,-0.29307400502446,-0.129644114654097,0.102450056333547,10
0.779999732971191,-0.14205364882946,2.90370392799377,2.01166677474976,-0.147126490246806,2.90145881278669,2.00271912340264,2133.627,2147.188,2186.833,2167.191,-0.09023535,-9.359699E-05,0.03479729,-0.278818249702454,-0.123374372720718,0.103131160140038,-0.305796491986028,-0.135272029549493,0.10689746375819,10
0.799999713897705,-0.147869765758514,2.90113019943237,2.01380324363708,-0.15337063474628,2.89869665520352,2.00490189275358,2160.089,2155.481,2162.884,2164.267,-0.09139489,-7.684669E-05,0.03535726,-0.290806174278259,-0.128682419657707,0.106822535395622,-0.318637537728533,-0.140952390065879,0.111386315847243,10
0.819999694824219,-0.153925999999046,2.89845061302185,2.01601505279541,-0.159872708191449,2.89582040026189,2.00717482648132,2183.085,2165.482,2141.5,2160.46,-0.09253313,-6.372549E-05,0.03585209,-0.302811622619629,-0.133974656462669,0.110596008598804,-0.331587875771802,-0.146681097086314,0.115913373311656,10
0.839999675750732,-0.160222440958023,2.89566540718079,2.01830410957336,-0.166634804664693,2.89282912162425,2.00953865661548,2191.368,2172.582,2135.297,2159.004,-0.09399041,-6.134398E-05,0.03638535,-0.314822226762772,-0.13925763964653,0.114448770880699,-0.344638348015423,-0.152454099436697,0.120475434748756,10
0.859999656677246,-0.166760206222534,2.89277386665344,2.02067160606384,-0.173658836170357,2.88972197349701,2.01199405153658,2183.034,2174.334,2147.162,2161.351,-0.09587859,-7.003312E-05,0.03702094,-0.326888263225555,-0.144571200013161,0.118370711803436,-0.357779904738752,-0.158267393885757,0.125069336642249,10
0.87999963760376,-0.173541888594627,2.88977456092834,2.02311849594116,-0.180946534802342,2.88649818967172,2.01454161673373,2165.539,2171.43,2169.713,2166.734,-0.09804215,-8.368201E-05,0.03775392,-0.339083671569824,-0.149960964918137,0.122348733246326,-0.371003604600907,-0.164117025145061,0.129691953362222,10
0.899999618530273,-0.180571064352989,2.88666558265686,2.02564597129822,-0.188499454911697,2.8831570825662,2.01718189556235,2150.636,2166.94,2190.369,2172.906,-0.1001743,-9.461637E-05,0.03852175,-0.351458638906479,-0.155450612306595,0.126372635364532,-0.384300614640769,-0.169999085869009,0.134340197165141,10
0.919999599456787,-0.187851265072823,2.88344502449036,2.02825474739075,-0.196318975274215,2.87969804226567,2.01991537000194,2147.308,2164.454,2198.956,2177.453,-0.1020007,-9.649247E-05,0.03924431,-0.36401030421257,-0.161028891801834,0.130438402295113,-0.397662210276987,-0.175909716654837,0.139011018193852,10
0.939999580383301,-0.195384979248047,2.88011193275452,2.03094577789307,-0.204406301258025,2.8761205355639,2.02274246141375,2157.095,2166.07,2193.088,2179.117,-0.1034308,-8.890607E-05,0.03986909,-0.376686275005341,-0.166657269001007,0.134547978639603,-0.41107977530797,-0.181845106042615,0.143701404477577,10
0.959999561309814,-0.203173279762268,2.87666606903076,2.03372001647949,-0.212762466991185,2.87242410500436,2.02566353129855,2174.146,2171.358,2178.542,2178.4,-0.1045839,-7.692965E-05,0.04039619,-0.389414757490158,-0.172292932868004,0.138706088066101,-0.424544801911895,-0.187801490515246,0.148408381931923,10
0.979999542236328,-0.211216121912003,2.87310791015625,2.03657841682434,-0.221388337529275,2.86860836792137,2.02867888205434,2189.151,2178.012,2165.339,2176.892,-0.1057035,-6.753718E-05,0.04087108,-0.40214216709137,-0.177910447120667,0.14291487634182,-0.438048890646699,-0.193775154498471,0.153129014358871,10
0.999999523162842,-0.21951325237751,2.86943769454956,2.03952193260193,-0.230284611022991,2.86467301548123,2.03178875773408,2195.019,2183.166,2161.568,2176.455,-0.1070058,-6.569336E-05,0.04135516,-0.414856433868408,-0.183512836694717,0.147171124815941,-0.451583750450088,-0.199762430360864,0.157860403446784,10
1.01999950408936,-0.228064954280853,2.86565518379211,2.04255127906799,-0.239451820885738,2.86061781172338,2.03499334480342,2190.413,2185.134,2169.299,2178.036,-0.1085654,-7.184634E-05,0.0418902,-0.427584767341614,-0.189125046133995,0.151466488838196,-0.465141198639528,-0.205759698413832,0.162599688770405,10
1.03999948501587,-0.236872345209122,2.86175966262817,2.04566717147827,-0.248890337961222,2.85644259260152,2.0382927728984,2179.952,2184.114,2183.954,2181.4,-0.1102868,-8.163793E-05,0.04247861,-0.440370321273804,-0.194776087999344,0.155790627002716,-0.478713160912252,-0.211763386911621,0.167344047790856,10
1.05999946594238,-0.245937198400497,2.85774993896484,2.04886984825134,-0.258600372691046,2.85214726502478,2.04168711558324,2170.978,2181.854,2197.591,2185.387,-0.1119774,-8.9563E-05,0.04308712,-0.453242480754852,-0.200480535626411,0.160135179758072,-0.492291671345255,-0.217769972051306,0.172090695855636,10
1.0799994468689,-0.255261123180389,2.85362529754639,2.05215978622437,-0.2685819772823,2.84773180589884,2.045176391108,2169.142,2180.566,2203.717,2188.63,-0.1134634,-9.084559E-05,0.04366865,-0.466198027133942,-0.206230163574219,0.164496213197708,-0.505868872395298,-0.223775977972802,0.176836886198627,10
1.09999942779541,-0.264845162630081,2.84938526153564,2.05553722381592,-0.278835047875156,2.8431962611671,2.04876056316632,2175.579,2181.648,2200.568,2190.352,-0.1146842,-8.571482E-05,0.04418939,-0.479202717542648,-0.211998760700226,0.168874114751816,-0.519437014898905,-0.229777976758856,0.181579909940089,10
1.11999940872192,-0.274689346551895,2.8450300693512,2.05900263786316,-0.289359326710461,2.83854074485182,2.05243954165319,2186.607,2185.043,2191.797,2190.637,-0.1157133,-7.726793E-05,0.04464491,-0.492209434509277,-0.217756986618042,0.173271253705025,-0.532988458072366,-0.23577258843505,0.186317096086659,10
1.13999938964844,-0.284792959690094,2.84056043624878,2.06255650520325,-0.30015440429733,2.83376543809524,2.05621318342264,2196.449,2189.445,2183.666,2190.305,-0.1167018,-7.080157E-05,0.04505898,-0.505181610584259,-0.223486989736557,0.177688330411911,-0.546515669511732,-0.241756480969801,0.191045811531358,10
1.15999937057495,-0.295155107975006,2.83597660064697,2.06619906425476,-0.31121972158074,2.82887058820074,2.06008129304546,2200.599,2193.105,2181.391,2190.387,-0.1177889,-6.96203E-05,0.04546727,-0.518108248710632,-0.229189574718475,0.182122334837914,-0.56001122519282,-0.24772637027436,0.195763461053582,10
1.17999935150146,-0.305775165557861,2.83127903938293,2.0699303150177,-0.322554572109122,2.823856507674,2.06404362356696,2198.097,2194.92,2186.467,2191.455,-0.1190231,-7.399062E-05,0.0458965,-0.531003057956696,-0.234880030155182,0.186566755175591,-0.573467809471213,-0.253679020202814,0.20046748731911,10
1.19999933242798,-0.316652983427048,2.82646751403809,2.07375049591064,-0.334158104201955,2.8187235732641,2.06809987726465,2191.863,2194.792,2195.984,2193.596,-0.1203472,-8.068736E-05,0.04635194,-0.543890357017517,-0.240576550364494,0.191013649106026,-0.586878215082256,-0.259611242552083,0.205155370880098,10
1.21999931335449,-0.327788680791855,2.82154178619385,2.07765960693359,-0.346029323117358,2.81347222500473,2.07224970640603,2186.448,2193.756,2204.993,2196.168,-0.1216393,-8.610767E-05,0.04681616,-0.556786417961121,-0.246287912130356,0.195456504821777,-0.600235343141057,-0.265519897061923,0.209824630175082,10
1.23999929428101,-0.339182436466217,2.81650161743164,2.08165740966797,-0.358167093219685,2.80810296525527,2.07649271400626,2185.492,2193.146,2209.246,2198.444,-0.1227888,-8.714784E-05,0.04726192,-0.56968766450882,-0.252007901668549,0.199891895055771,-0.613532203142491,-0.271401891414924,0.214472821528977,10
1.25999927520752,-0.350833892822266,2.81134724617004,2.08574390411377,-0.370570140147119,2.80261635774197,2.0808284545859,2189.687,2193.887,2207.639,2199.908,-0.123756,-8.37182E-05,0.04766769,-0.582571029663086,-0.257718652486801,0.204319432377815,-0.626761912961196,-0.277254181236512,0.219097539153079,10
1.27999925613403,-0.362741976976395,2.80607914924622,2.08991861343384,-0.38323705297926,2.79701302659908,2.08525643492867,2196.821,2196.057,2202.336,2200.526,-0.1245853,-7.801246E-05,0.04802832,-0.595405101776123,-0.263399928808212,0.208739921450615,-0.639917698851574,-0.283073770094946,0.223696415145062,10
1.29999923706055,-0.374905228614807,2.80069828033447,2.09418177604675,-0.396166286404726,2.79129365541002,2.08977611483913,2203.244,2198.948,2197.335,2200.662,-0.125372,-7.379911E-05,0.04835581,-0.608164429664612,-0.269038885831833,0.213153213262558,-0.652992895447791,-0.28885770950132,0.22826711948898,10
1.31999921798706,-0.387322008609772,2.79520559310913,2.09853291511536,-0.409356162888738,2.78545898624847,2.09438690790045,2206.124,2201.475,2195.944,2200.921,-0.126204,-7.291315E-05,0.04867097,-0.620839536190033,-0.274635076522827,0.217556789517403,-0.665980945763778,-0.294603098909563,0.232807360055266,10
1.33999919891357,-0.399990767240524,2.78960156440735,2.10297179222107,-0.42280487484072,2.77950981871959,2.0990881822321,2204.811,2202.869,2199.184,2201.701,-0.1271143,-7.587162E-05,0.04899076,-0.633436381816864,-0.280197560787201,0.221945732831955,-0.67887540119323,-0.30030708571644,0.237314882600732,10
1.35999917984009,-0.412910103797913,2.78388690948486,2.10749816894531,-0.43651048678189,2.77344700900107,2.10387926124759,2201.038,2203.096,2205.349,2203.007,-0.1280672,-8.064029E-05,0.04931951,-0.645967841148376,-0.285737276077271,0.226314097642899,-0.691669921509606,-0.305966865261548,0.24178747076857,10
1.37999963760376,-0.426078975200653,2.77806162834167,2.11211133003235,-0.450471273377119,2.76727132031158,2.10875954182049,2197.766,2202.65,2211.176,2204.646,-0.1289875,-8.434041E-05,0.04964882,-0.658442318439484,-0.291259467601776,0.230656802654266,-0.704358576065812,-0.311579814065908,0.246223051378907,10
1.39999961853027,-0.439496099948883,2.77212643623352,2.11681079864502,-0.464684384142186,2.76098401359032,2.1137280275053,2197.231,2202.42,2214.053,2206.107,-0.1298046,-8.531113E-05,0.04996287,-0.670855939388275,-0.296759426593781,0.234970942139626,-0.716934636246116,-0.317142955661411,0.25061927230549,10
1.41999959945679,-0.453159928321838,2.76608204841614,2.12159585952759,-0.479147842750371,2.75458596308448,2.11878402743632,2199.835,2202.826,2213.311,2207.233,-0.1304928,-8.302455E-05,0.05024908,-0.683192729949951,-0.30222499370575,0.2392558157444,-0.729392390770186,-0.322653763608081,0.254974137052618,10
1.4399995803833,-0.467068612575531,2.75992918014526,2.1264660358429,-0.49385922384318,2.74807824167481,2.12392669377951,2204.393,2204.158,2210.044,2207.825,-0.1310771,-7.943452E-05,0.05050226,-0.695431470870972,-0.307642132043839,0.243511438369751,-0.741725932933123,-0.328109625017998,0.259285580809902,10
1.45999956130981,-0.481219708919525,2.75366926193237,2.13142085075378,-0.508815985011931,2.74146197402032,2.12915513778353,2208.515,2205.969,2206.908,2208.063,-0.1316182,-7.643701E-05,0.05072819,-0.707554340362549,-0.313001662492752,0.247737273573875,-0.753929464409789,-0.333507974946078,0.263551576653336,10
1.47999954223633,-0.49561071395874,2.74730324745178,2.13645958900452,-0.524015468965346,2.73473833559945,2.13446843053749,2210.462,2207.608,2205.941,2208.296,-0.1321711,-7.608913E-05,0.05093885,-0.719552993774414,-0.31830221414566,0.251931130886078,-0.765997295254814,-0.33884629639007,0.26777013554529,10
1.49999952316284,-0.51023930311203,2.74083232879639,2.14158129692078,-0.539454905697144,2.72790855175122,2.1398656037286,2209.729,2208.629,2207.912,2208.709,-0.1327591,-7.797991E-05,0.05114472,-0.731428980827332,-0.323548763990402,0.256089210510254,-0.77792384390259,-0.344122120290558,0.271939306334515,10
1.51999950408936,-0.525103092193604,2.7342574596405,2.14678549766541,-0.555131414653638,2.72097389671636,2.14534565039999,2207.394,2208.845,2211.763,2209.469,-0.1333605,-8.11545E-05,0.05135014,-0.743188500404358,-0.32874795794487,0.260207206010818,-0.789703637167272,-0.349333025530961,0.276057175756143,10
1.53999948501587,-0.540199875831604,2.72757935523987,2.15207123756409,-0.57104200690132,2.71393569267843,2.15090752570838,2205.276,2208.611,2215.487,2210.405,-0.1339288,-8.369095E-05,0.05155085,-0.754835367202759,-0.333902597427368,0.264281302690506,-0.801331310242782,-0.354476638937534,0.280121868431683,10
1.55999946594238,-0.555527150630951,2.72079920768738,2.15743732452393,-0.587183587294465,2.70679530880504,2.1565501476818,2204.808,2208.399,2217.406,2211.294,-0.1344183,-8.428832E-05,0.05173793,-0.766365826129913,-0.339009165763855,0.268309086561203,-0.812801606702804,-0.359550635279364,0.284131546869024,10
1.5799994468689,-0.571082532405853,2.71391797065735,2.16288304328918,-0.603552956642714,2.69955416028891,2.16227239797737,2206.424,2208.596,2216.855,2211.979,-0.1348113,-8.28405E-05,0.05190317,-0.777768671512604,-0.344059109687805,0.272289544343948,-0.824109378500788,-0.364552737268375,0.288084411462435,10
1.59999942779541,-0.586863100528717,2.70693707466125,2.16840744018555,-0.620146813878674,2.69221370738906,2.16807312263895,2209.199,2209.296,2214.772,2212.353,-0.135124,-8.052273E-05,0.05204306,-0.789028942584991,-0.34904271364212,0.276222378015518,-0.835249585969946,-0.369480715559324,0.291978700492564,10
1.61999940872192,-0.602865755558014,2.69985795021057,2.1740095615387,-0.636961758225509,2.68477545447195,2.17395113285495,2211.766,2210.308,2212.639,2212.49,-0.135394,-7.851682E-05,0.05216023,-0.800134003162384,-0.353953331708908,0.28010681271553,-0.846217297823256,-0.374332388749803,0.295812690126438,10
1.63999938964844,-0.619087278842926,2.69268226623535,2.17968845367432,-0.653994291364532,2.6772409490526,2.17990520571601,2212.913,2211.246,2211.899,2212.544,-0.1356566,-7.82621E-05,0.05226134,-0.811076998710632,-0.358789294958115,0.283940941095352,-0.857007691153461,-0.379105623380241,0.299584694417465,10
1.65999937057495,-0.635524451732635,2.68541121482849,2.18544292449951,-0.6712408196028,2.66961178083579,2.1859340849727,2212.383,2211.776,2212.955,2212.707,-0.1359272,-7.962235E-05,0.05235298,-0.821857392787933,-0.36355322599411,0.287722021341324,-0.867616051433064,-0.383798333933898,0.303293065305429,10
1.67999935150146,-0.652173936367035,2.67804622650146,2.19127178192139,-0.688697656040708,2.66188958075713,2.19203648179333,2210.766,2211.854,2215.263,2212.974,-0.1361935,-8.162209E-05,0.05243781,-0.832477629184723,-0.368248879909515,0.291446805000305,-0.878037772514337,-0.388408482836871,0.306936192616498,10
1.69999933242798,-0.669032752513885,2.67058873176575,2.19717407226563,-0.70636102273958,2.65407602002425,2.19821107552158,2209.264,2211.623,2217.482,2213.345,-0.1364252,-8.341736E-05,0.05251424,-0.842938661575317,-0.37287774682045,0.295112431049347,-0.888268356629313,-0.392934080458092,0.310512504063216,10
1.71999931335449,-0.686097502708435,2.66303992271423,2.20314836502075,-0.724227052889261,2.64617280915795,2.20445651443432,2208.789,2211.313,2218.537,2213.748,-0.1365935,-8.381109E-05,0.05257763,-0.853237092494965,-0.377437174320221,0.298717021942139,-0.898303414389791,-0.397373185109326,0.314020465244507,10
1.73999929428101,-0.703364789485931,2.65540146827698,2.20919346809387,-0.742291792975715,2.63818169703332,2.21077141649926,2209.577,2211.252,2218.067,2213.985,-0.1366873,-8.308148E-05,0.05262272,-0.863364696502686,-0.381921231746674,0.302259594202042,-0.908138664787333,-0.401723903045174,0.317458579645676,10
1.75999927520752,-0.720830976963043,2.64767503738403,2.21530818939209,-0.760551204948615,2.6301044699209,2.21715437013271,2211.147,2211.459,2216.523,2214.067,-0.1367155,-8.150526E-05,0.05264733,-0.873311042785645,-0.386323124170303,0.305739521980286,-0.917769935193267,-0.405984388463072,0.320825388638405,10
1.77999925613403,-0.738492250442505,2.63986229896545,2.22149133682251,-0.779001168388936,2.6219429505278,2.22360393495732,2212.576,2211.843,2214.927,2213.985,-0.1367022,-8.044164E-05,0.05265254,-0.883067071437836,-0.390637814998627,0.309156000614166,-0.927193161358682,-0.410152843503288,0.324119471480757,10
1.79999923706055,-0.756344795227051,2.63196492195129,2.22774147987366,-0.79763748267655,2.61369899703888,2.23011864255978,2213.097,2212.191,2214.187,2213.811,-0.1366713,-8.020415E-05,0.05264191,-0.892627239227295,-0.39486375451088,0.312507539987564,-0.936404387414435,-0.414227518248928,0.327339445317175,10
1.81999921798706,-0.774384677410126,2.62398481369019,2.23405742645264,-0.816455869157816,2.60537450215787,2.23669699724856,2212.496,2212.312,2214.623,2213.632,-0.1366314,-8.108175E-05,0.05261936,-0.901990056037903,-0.399002194404602,0.315791964530945,-0.945399765871144,-0.418206710725932,0.330483965178479,10
1.83999919891357,-0.792607724666595,2.61592364311218,2.24043750762939,-0.835451973313177,2.59697139214853,2.24333747681164,2211.231,2212.112,2215.78,2213.537,-0.1365754,-8.253425E-05,0.05258703,-0.911156058311462,-0.403055161237717,0.319007009267807,-0.954175557619193,-0.422088766903072,0.333551723981871,10
1.85999917984009,-0.811010241508484,2.60778307914734,2.24688053131104,-0.854621366924753,2.58849162587577,2.25003853327422,2210.014,2211.73,2216.881,2213.459,-0.1364843,-8.371418E-05,0.05254403,-0.92012482881546,-0.407023251056671,0.322150468826294,-0.96272813192873,-0.425872080691959,0.336541452530931,10
1.8799991607666,-0.829588115215302,2.59956502914429,2.2533848285675,-0.873959550243929,2.57993719384682,2.25679859365649,2209.396,2211.26,2217.276,2213.4,-0.1363405,-8.399688E-05,0.05248803,-0.928893327713013,-0.410904407501221,0.325220823287964,-0.971053966449666,-0.429555093947035,0.339451919515618,10
1.89999914169312,-0.848337233066559,2.59127116203308,2.25994920730591,-0.893461954158956,2.57131011725236,2.26361606073129,2209.596,2210.877,2216.648,2213.285,-0.136136,-8.357739E-05,0.05241596,-0.937455594539642,-0.414694488048553,0.32821723818779,-0.979149647211678,-0.433136296465578,0.342281931512271,10
1.91999912261963,-0.867253363132477,2.58290338516235,2.26657199859619,-0.913123942362538,2.56261244700768,2.27048931378189,2210.25,2210.682,2215.361,2213.014,-0.1358771,-8.273995E-05,0.05232591,-0.945804357528687,-0.418388783931732,0.33113905787468,-0.987011868624205,-0.436614225987702,0.34503033298361,10
1.93999910354614,-0.886332094669342,2.57446360588074,2.27325177192688,-0.932940813519428,2.55384626279378,2.2774167093597,2210.794,2210.576,2214.035,2212.629,-0.1355789,-8.210682E-05,0.05221847,-0.953933000564575,-0.421983897686005,0.333985537290573,-0.994637433476454,-0.439987468196354,0.347696006278731,10
1.95999908447266,-0.905568718910217,2.56595396995544,2.27998685836792,-0.95290780343402,2.54501367209858,2.284396582042,2210.765,2210.463,2213.212,2212.151,-0.1352561,-8.209734E-05,0.05209582,-0.961837291717529,-0.425478398799896,0.336755365133286,-1.00202325293739,-0.443254656717315,0.350277871633112,10
1.97999906539917,-0.924959063529968,2.55737662315369,2.28677582740784,-0.973020087217945,2.53611680925801,2.29142724518965,2210.082,2210.204,2213.03,2211.665,-0.1349141,-8.264429E-05,0.05196067,-0.96951550245285,-0.42887282371521,0.339447051286697,-1.00916634655575,-0.446414473119204,0.35277488716861,10
1.99999904632568,-0.944498360157013,2.54873323440552,2.29361701011658,-0.993272781457659,2.52715783449718,2.29850699170484,2208.914,2209.668,2213.359,2211.259,-0.1345498,-8.359223E-05,0.05181468,-0.976967215538025,-0.432168066501617,0.3420589864254,-1.01606384226003,-0.44946564691347,0.35518604889346,10
2.0199990272522,-0.964182138442993,2.54002594947815,2.30050873756409,-1.01366094638204,2.51813893297153,2.30563409478881,2207.726,2209.061,2213.679,2210.787,-0.1341509,-8.446524E-05,0.05165681,-0.984191656112671,-0.435364216566086,0.344589591026306,-1.02271297635848,-0.452406955554402,0.357510390702279,10
2.03999900817871,-0.98400604724884,2.53125667572021,2.30744957923889,-1.03417958802999,2.50906231380795,2.31280680869956,2206.922,2208.363,2213.512,2210.345,-0.1337067,-8.473175E-05,0.05148603,-0.991186201572418,-0.438459843397141,0.347037672996521,-1.02911109353915,-0.455237224439119,0.35974698437606,10
2.05999898910522,-1.00396490097046,2.52242755889893,2.31443762779236,-1.054823660418,2.49993020914594,2.32002336950962,2206.577,2207.696,2212.746,2209.848,-0.1332113,-8.439537E-05,0.05130039,-0.997946739196777,-0.441452145576477,0.349402517080307,-1.0352556468698,-0.457955326907577,0.361894939582179,10
2.07999897003174,-1.02405428886414,2.51354074478149,2.32147121429443,-1.07558806770777,2.49074487317875,2.32728199586371,2206.592,2207.177,2211.441,2209.222,-0.1326686,-8.396198E-05,0.05109868,-1.00446820259094,-0.444337874650955,0.351683497428894,-1.04114419779801,-0.460560184242567,0.363953403874389,10
2.09999895095825,-1.04426920413971,2.50459837913513,2.32854890823364,-1.09646766637381,2.48150858119453,2.33458088973654,2206.498,2206.631,2210.141,2208.566,-0.1320885,-8.365203E-05,0.05088175,-1.01074576377869,-0.447114497423172,0.353880017995834,-1.04677441615108,-0.463050765669714,0.365921562692822,10
2.11999893188477,-1.06460475921631,2.49560260772705,2.33566880226135,-1.11745726737099,2.47222362861746,2.34191823719047,2206.057,2206.101,2209.105,2207.819,-0.1314808,-8.378245E-05,0.05065044,-1.01677644252777,-0.449781000614166,0.355991214513779,-1.0521440801361,-0.465426088357477,0.367798639363992,10
2.13999891281128,-1.08505594730377,2.48655605316162,2.34282922744751,-1.13855163830219,2.46289233004893,2.34929220913329,2205.127,2205.46,2208.543,2207.041,-0.1308491,-8.417821E-05,0.05040636,-1.02255880832672,-0.452337354421616,0.358015924692154,-1.05725107633992,-0.46768521741715,0.36958389510079,10
2.15999937057495,-1.10561776161194,2.4774603843689,2.35002827644348,-1.15974601203145,2.45351679427751,2.35670113911443,2203.944,2204.639,2208.199,2206.325,-0.1301913,-8.479626E-05,0.05015053,-1.0280921459198,-0.454784125089645,0.359953016042709,-1.06209351200873,-0.469827315570821,0.371276668252128,10
2.17999935150146,-1.12628543376923,2.46831798553467,2.35726428031921,-1.18103406525104,2.44409981847943,2.36414281669138,2202.744,2203.847,2207.835,2205.472,-0.129501,-8.526432E-05,0.04988213,-1.03337562084198,-0.4571213722229,0.361801445484161,-1.06666925955246,-0.471851441658492,0.372876215075071,10
2.19999933242798,-1.14705348014832,2.45913100242615,2.36453557014465,-1.20241095264908,2.43464354602514,2.37161554808557,2201.576,2202.831,2207.412,2204.715,-0.1287713,-8.553702E-05,0.04960158,-1.03840744495392,-0.459348231554031,0.363560527563095,-1.07097664931278,-0.473756857090678,0.374381951906141,10
2.21999931335449,-1.16791725158691,2.44990181922913,2.37184023857117,-1.2238712900955,2.42515035863656,2.37911745116339,2200.874,2201.979,2206.343,2203.827,-0.1279968,-8.55578E-05,0.04930696,-1.04318511486053,-0.461462885141373,0.365229517221451,-1.07501400139815,-0.475542818751151,0.375793291504651,10
2.23999929428101,-1.18887138366699,2.44063258171082,2.37917637825012,-1.24540966094621,2.41562265241847,2.38664663242532,2200.336,2201.043,2205.01,2202.977,-0.1271798,-8.508925E-05,0.04899852,-1.04770493507385,-0.463463068008423,0.366807997226715,-1.07877974429684,-0.477208631466526,0.377109684516294,10
2.25999927520752,-1.20991063117981,2.43132567405701,2.38654232025146,-1.26702061821072,2.40606283689969,2.3942011877636,2199.795,2200.195,2203.575,2202.002,-0.1263276,-8.493754E-05,0.04867566,-1.05196380615234,-0.465346962213516,0.368295580148697,-1.08227241487686,-0.478753648006246,0.378330619473141,9
2.27999925613403,-1.23102986812592,2.42198348045349,2.39393615722656,-1.28869868671972,2.3964733340742,2.40177920322002,2199.021,2199.32,2202.303,2200.985,-0.1254455,-8.494849E-05,0.0483394,-1.05595934391022,-0.467113733291626,0.369691669940948,-1.08549065838599,-0.480177269082593,0.379455622793642,9
2.29999923706055,-1.25222373008728,2.41260814666748,2.40135598182678,-1.31043836529269,2.3868565774423,2.40937875574358,2197.909,2198.358,2201.333,2199.952,-0.124539,-8.525066E-05,0.04799077,-1.05969059467316,-0.468763381242752,0.370995670557022,-1.08843322845177,-0.481478943350681,0.380484258782629,9
2.31999921798706,-1.27348673343658,2.40320229530334,2.40880012512207,-1.33223412890546,2.37721501105175,2.41699791394826,2196.541,2197.336,2200.598,2198.867,-0.1236053,-8.576323E-05,0.0476303,-1.06315732002258,-0.470296323299408,0.372206777334213,-1.09109898708151,-0.482658167408459,0.38141612963131,9
2.33999919891357,-1.29481399059296,2.3937680721283,2.41626667976379,-1.35408043085785,2.36755108853891,2.42463473887074,2195.181,2196.219,2199.794,2197.805,-0.1226412,-8.613069E-05,0.04725846,-1.06635904312134,-0.471712797880173,0.373324364423752,-1.09348690466228,-0.483714485796713,0.382250875417276,9
2.35999917984009,-1.31619989871979,2.38430786132813,2.42375373840332,-1.37597170494121,2.3578672721699,2.43228728472812,2193.877,2195.019,2198.895,2196.734,-0.121641,-8.631762E-05,0.04687477,-1.06929492950439,-0.473012149333954,0.374347925186157,-1.09559605996093,-0.484647490999061,0.382988174104494,8
2.3799991607666,-1.33763921260834,2.37482404708862,2.43125939369202,-1.39790236760607,2.34816603188171,2.43995359967563,2192.819,2193.851,2197.643,2195.611,-0.1206023,-8.629358E-05,0.04647828,-1.0719633102417,-0.474193334579468,0.375277042388916,-1.09742564012404,-0.485456823441957,0.383627741543313,8
2.39999914169312,-1.359126329422,2.36531901359558,2.43878173828125,-1.41986682012968,2.33844984432339,2.44763172656441,2191.888,2192.687,2196.178,2194.446,-0.1195269,-8.611542E-05,0.04606868,-1.07436203956604,-0.475255012512207,0.376111567020416,-1.09897494067799,-0.486142171494689,0.384169331470459,8
2.41999912261963,-1.38065624237061,2.35579514503479,2.44631886482239,-1.44185945078363,2.32872119189716,2.45531970369917,2190.969,2191.574,2194.609,2193.2,-0.118418,-8.592487E-05,0.04564602,-1.07648932933807,-0.476196050643921,0.376851230859756,-1.1002433655289,-0.48670327146938,0.384612735509041,7
2.43999910354614,-1.40222311019897,2.34625482559204,2.4538688659668,-1.46387463700147,2.31898256179956,2.46301556559597,2189.833,2190.365,2193.219,2191.972,-0.1172814,-8.587509E-05,0.04521128,-1.07834386825562,-0.477016091346741,0.377495884895325,-1.10123042696268,-0.487139907620989,0.384957783168542,6
2.45999908447266,-1.42382144927979,2.33670043945313,2.46142983436584,-1.48590674754623,2.3092364450626,2.47071734373992,2188.531,2189.191,2191.937,2190.651,-0.1161191,-8.605513E-05,0.0447646,-1.0799252986908,-0.477715134620667,0.378045052289963,-1.10193574564496,-0.487451912147308,0.385204341844831,6
2.47999906539917,-1.44544625282288,2.32713460922241,2.4689998626709,-1.50795014467809,2.29948533559491,2.47842306734292,2187.069,2187.938,2190.785,2189.328,-0.1149298,-8.620614E-05,0.04430706,-1.08123373985291,-0.478293627500534,0.378498464822769,-1.10235905062118,-0.487639165188963,0.38535231682015,6
2.49999904632568,-1.46709167957306,2.31755948066711,2.47657704353333,-1.52999918632192,2.28973172922286,2.48613076410136,2185.529,2186.52,2189.68,2188.091,-0.1137127,-8.658172E-05,0.04383922,-1.08226931095123,-0.478751838207245,0.37885582447052,-1.10250017931653,-0.487701594829417,0.385401651263125,4
2.5199990272522,-1.48875224590302,2.3079776763916,2.48415946960449,-1.55204822823491,2.27997812273176,2.49383846095389,2184.083,2185.182,2188.421,2186.729,-0.1124632,-8.665236E-05,0.04335969,-1.0830317735672,-0.479089468717575,0.379116952419281,-1.10235907753594,-0.487639177094967,0.385352326228759,4
2.53999900817871,-1.510422706604,2.29839158058167,2.49174499511719,-1.57409162617413,2.27022701290692,2.50154418483912,2182.8,2183.809,2186.927,2185.371,-0.1111801,-8.66209E-05,0.04286863,-1.08352065086365,-0.479306101799011,0.37928181886673,-1.10193579946415,-0.487451935954743,0.385204360658435,4
2.55999898910522,-1.53209733963013,2.2888035774231,2.49933195114136,-1.59612373806416,2.26048089557487,2.50924596345334,2181.543,2182.406,2185.353,2184,-0.1098655,-8.650451E-05,0.04236596,-1.08373486995697,-0.479401111602783,0.379350423812866,-1.10123050766561,-0.487139943320712,0.384957811379917,3
2.57999897003174,-1.55377078056335,2.27921628952026,2.50691843032837,-1.61813892616464,2.25074226464446,2.51694182600826,2180.308,2181.068,2183.69,2182.536,-0.1085217,-8.632758E-05,0.04185143,-1.08367395401001,-0.479374170303345,0.37932288646698,-1.10024347308459,-0.486703319047674,0.384612773107345,2
2.59999895095825,-1.57543766498566,2.2696316242218,2.51450252532959,-1.6401315592379,2.24101361114803,2.52462980398873,2178.957,2179.658,2182.096,2181.094,-0.1071523,-8.649556E-05,0.04132603,-1.0833375453949,-0.479225128889084,0.379199236631393,-1.09897507504507,-0.486142230933264,0.384169378441241,2
2.61999940872192,-1.59709215164185,2.26005220413208,2.52208209037781,-1.66209653800993,2.23129719079864,2.53230811483849,2177.398,2178.261,2180.69,2179.57,-0.1057579,-8.668381E-05,0.04078998,-1.08272612094879,-0.478954315185547,0.378979295492172,-1.09742576096938,-0.48545687689906,0.383627783787292,1
2.63999891281128,-1.61872899532318,2.25048112869263,2.52965545654297,-1.68402668087102,2.22159618045067,2.53997424807788,2175.888,2176.866,2179.168,2178.03,-0.1043389,-8.690049E-05,0.04024423,-1.08184027671814,-0.478562325239182,0.378663152456284,-1.09559624778544,-0.484647574085045,0.382988239762421,0
2.65999937057495,-1.64034259319305,2.2409200668335,2.53722047805786,-1.70591848039253,2.21191213164902,2.54762697761299,2174.158,2175.15,2177.89,2176.696,-0.1028939,-8.706451E-05,0.03968985,-1.08068072795868,-0.478049427270889,0.378250986337662,-1.09348706549992,-0.483714556944793,0.382250931641385,0
2.67999887466431,-1.66192758083344,2.23137164115906,2.54477524757385,-1.7277642654842,2.20224843777451,2.55526362185616,2172.742,2173.76,2176.185,2175.078,-0.1014206,-8.724268E-05,0.039124,-1.07924830913544,-0.477415889501572,0.377742737531662,-1.09109922807404,-0.482658274013831,0.381416213875214,0
2.69999933242798,-1.68347835540771,2.22183847427368,2.55231809616089,-1.749560553187,2.19260663954768,2.5628829632673,2171.047,2172.116,2174.807,2173.585,-0.09992127,-8.737139E-05,0.03854834,-1.07754302024841,-0.476661562919617,0.377138763666153,-1.08843342903363,-0.481479032080005,0.380484328900153,0
2.71999883651733,-1.70498991012573,2.21232271194458,2.55984687805176,-1.77129971836693,2.18299011002014,2.57048233632375,2169.812,2170.694,2172.807,2171.965,-0.09839261,-8.727587E-05,0.03796176,-1.07556533813477,-0.475786715745926,0.376439273357391,-1.08549095217445,-0.480177399042753,0.379455725493451,0
2.73999929428101,-1.72645616531372,2.20282697677612,2.56735968589783,-1.79297830908206,2.17340037619173,2.57806053432808,2168.104,2169.026,2171.37,2170.426,-0.09684106,-8.724845E-05,0.03736576,-1.07331538200378,-0.474791288375854,0.375644683837891,-1.08227265489288,-0.47875375417965,0.378330703375686,0
2.75999879837036,-1.74787187576294,2.19335341453552,2.57485485076904,-1.81458875694044,2.16384078601366,2.58561491159296,2166.803,2167.634,2169.363,2168.718,-0.09526394,-8.730723E-05,0.03675938,-1.07079422473907,-0.473675847053528,0.374755173921585,-1.07878009042645,-0.477208784580299,0.37710980551303,0
2.77999925613403,-1.76923179626465,2.18390464782715,2.58233022689819,-1.83612764758049,2.15431284986174,2.59314427455796,2164.995,2165.983,2167.954,2167.107,-0.09366763,-8.741084E-05,0.03614498,-1.06800258159637,-0.472440868616104,0.373771280050278,-1.07501428047623,-0.475542942204035,0.375793389062144,0
2.79999876022339,-1.79053068161011,2.17448282241821,2.58978414535522,-1.85758748012075,2.14481988582328,2.60064600113543,2163.481,2164.434,2166.131,2165.466,-0.09204844,-8.746875E-05,0.03552226,-1.06494212150574,-0.47108718752861,0.372693032026291,-1.07097704724607,-0.473757033120309,0.374382091011921,0
2.81999921798706,-1.811763048172,2.16509056091309,2.59721446037292,-1.87896488436217,2.13536338473833,2.60811891320287,2161.558,2162.662,2164.798,2163.905,-0.09040899,-8.753125E-05,0.03489187,-1.06161439418793,-0.469615191221237,0.371521055698395,-1.0666695772585,-0.471851582198823,0.37287632613576,0
2.83999872207642,-1.832923412323,2.15573000907898,2.60461950302124,-1.90025243768157,2.12594663007593,2.61556041602941,2160.076,2161.065,2162.896,2162.253,-0.08874451,-8.749222E-05,0.03425227,-1.05802083015442,-0.468025624752045,0.370255559682846,-1.06209396112554,-0.469827514241979,0.371276825250165,0
2.85999917984009,-1.85400652885437,2.14640355110168,2.61199736595154,-1.92144682064702,2.11657109021879,2.62296934923925,2158.307,2159.364,2161.342,2160.595,-0.0870582,-8.753135E-05,0.03360387,-1.05416250228882,-0.466318905353546,0.368897378444672,-1.05725155079071,-0.467685427295034,0.369584060954836,0
2.87999868392944,-1.87500762939453,2.13711357116699,2.61934638023376,-1.94254069961735,2.10724000927389,2.63034314920701,2156.898,2157.852,2159.314,2158.822,-0.08534899,-8.764834E-05,0.03294635,-1.05004072189331,-0.464495539665222,0.367446839809418,-1.05214470463336,-0.465426364609863,0.367798857669872,0
2.89999914169312,-1.89592063426971,2.12786245346069,2.62666440010071,-1.96353081255799,2.0979548302337,2.63768067562133,2155.088,2156.053,2157.758,2157.219,-0.08362059,-8.751272E-05,0.03228166,-1.04565668106079,-0.462556093931198,0.365904778242111,-1.04677494070011,-0.463050997709041,0.365921746059743,0
2.91999864578247,-1.91674077510834,2.11865234375,2.63394975662231,-1.98440992550626,2.08871875311142,2.6449793997015,2153.683,2154.567,2155.676,2155.396,-0.08187196,-8.748848E-05,0.03160832,-1.04101228713989,-0.460501372814178,0.364271461963654,-1.0411448844142,-0.460560487973866,0.363953643895223,0
2.93999910354614,-1.93746304512024,2.1094856262207,2.64120078086853,-2.00517484048407,2.07953319256353,2.65223820352841,2151.796,2152.796,2154.167,2153.731,-0.08010788,-8.767999E-05,0.03092885,-1.03610908985138,-0.458332270383835,0.362547785043716,-1.03525622069021,-0.457955580742572,0.361895140172924,0
2.9599986076355,-1.9580819606781,2.10036468505859,2.64841556549072,-2.02581843387313,2.07040129979132,2.65945459689451,2150.197,2151.161,2152.278,2151.996,-0.07832623,-8.76872E-05,0.03024246,-1.03094971179962,-0.456049919128418,0.360734283924103,-1.02911184118901,-0.45523755516925,0.359747245732471,0
2.97999906539917,-1.97859263420105,2.09129166603088,2.65559220314026,-2.04633757844322,2.06132445815528,2.66662748661206,2148.314,2149.36,2150.729,2150.342,-0.07652806,-8.784764E-05,0.02954991,-1.02553617954254,-0.453655123710632,0.35883167386055,-1.0227135985407,-0.452407230782711,0.357510608198891,0
2.99999856948853,-1.9989902973175,2.08226847648621,2.66272902488708,-2.06672527155246,2.05230576534161,2.67375442476333,2146.754,2147.727,2148.786,2148.576,-0.07471126,-8.781898E-05,0.02885011,-1.01987087726593,-0.451149076223373,0.356840640306473,-1.01606464975492,-0.449466004116631,0.355186331169937,0
3.0199990272522,-2.01926922798157,2.07329797744751,2.66982436180115,-2.08697846344542,2.04334657043907,2.68083434524346,2144.832,2145.94,2147.275,2146.874,-0.072879,-8.783627E-05,0.02814403,-1.01395583152771,-0.448532521724701,0.354762196540833,-1.00916701610753,-0.446414769301896,0.352775121224229,0
3.03999853134155,-2.03942537307739,2.06438159942627,2.67687630653381,-2.1070902830514,2.03444991293209,2.68786484612815,2143.466,2144.363,2145.093,2145.068,-0.07102757,-8.780938E-05,0.02743107,-1.00779342651367,-0.445806562900543,0.352596968412399,-1.00202411898534,-0.443255039821982,0.350278174378013,0
3.05999898910522,-2.0594527721405,2.05552244186401,2.68388319015503,-2.12705776485559,2.02561710464478,2.69484489076059,2141.545,2142.565,2143.573,2143.362,-0.06916389,-8.785939E-05,0.02671291,-1.00138556957245,-0.442971974611282,0.350346028804779,-0.994638149322864,-0.439987784857922,0.347696256517592,0
3.07999849319458,-2.07934761047363,2.04672193527222,2.69084334373474,-2.14687417991274,2.016851122191,2.70177212689934,2140.193,2140.981,2141.365,2141.561,-0.06728476,-8.771322E-05,0.02598887,-0.99473512172699,-0.440030127763748,0.348010152578354,-0.98701279182985,-0.436614634376629,0.345030655709163,0
3.09999895095825,-2.09910440444946,2.03798222541809,2.6977550983429,-2.16653665375663,2.00815323711864,2.70864554971552,2138.214,2139.146,2139.9,2139.889,-0.06539658,-8.771895E-05,0.02526056,-0.987844467163086,-0.436981976032257,0.345590472221375,-0.979150408195094,-0.433136633093937,0.342282197529702,0
3.11999845504761,-2.11871862411499,2.02930569648743,2.70461678504944,-2.18603861007789,1.99952635852161,2.71546286032469,2136.639,2137.584,2137.948,2138.034,-0.06349562,-8.769128E-05,0.02452674,-0.980717182159424,-0.433829188346863,0.343087762594223,-0.971054945314303,-0.429555526957254,0.339452261697918,0
3.13999891281128,-2.13818573951721,2.02069425582886,2.71142673492432,-2.20537727231235,1.99097171463986,2.72222308812166,2134.753,2135.755,2136.374,2136.38,-0.061584,-8.770412E-05,0.02378965,-0.973355948925018,-0.43057307600975,0.340503245592117,-0.962728936808842,-0.425872436738444,0.336541733893356,0
3.15999841690063,-2.15750074386597,2.01215004920959,2.71818351745605,-2.22454622724984,1.98249214241882,2.72892399123669,2133.179,2134.102,2134.446,2134.606,-0.05966067,-8.770962E-05,0.02304792,-0.965764164924622,-0.427214950323105,0.337837785482407,-0.954176590540757,-0.422089223825894,0.333552085060883,0
3.17999887466431,-2.17665982246399,2.00367498397827,2.7248854637146,-2.24354280313048,1.97408882373725,2.73556463570106,2131.409,2132.343,2132.758,2132.9,-0.05772668,-8.761366E-05,0.02230247,-0.957944571971893,-0.423756033182144,0.335092663764954,-0.945400613324955,-0.418207085605303,0.330484261423417,0
3.19999837875366,-2.19565749168396,1.9952712059021,2.7315309047699,-2.26236076025618,1.96576451878582,2.74214284029975,2129.854,2130.666,2130.828,2131.158,-0.0557831,-8.747916E-05,0.02155291,-0.949900448322296,-0.420197665691376,0.332268863916397,-0.936405472687499,-0.414227998329942,0.327339824696732,0
3.21999883651733,-2.21449041366577,1.98694014549255,2.73811817169189,-2.28099753862566,1.9575203600058,2.74865771013159,2128.164,2128.991,2129.065,2129.398,-0.05383154,-8.755256E-05,0.02079975,-0.941634893417358,-0.416541248559952,0.329367578029633,-0.927194049980506,-0.410153236593728,0.324119782116822,0
3.23999834060669,-2.23315334320068,1.97868454456329,2.7446460723877,-2.29944708241205,1.94935902625067,2.75510712825752,2126.525,2127.363,2127.253,2127.621,-0.05187305,-8.745696E-05,0.02004358,-0.933151304721832,-0.412788391113281,0.326389998197556,-0.917771071009046,-0.405984890902144,0.32082578568621,0
3.25999879837036,-2.25164270401001,1.97050547599792,2.75111293792725,-2.31770695038241,1.94128159742337,2.76149024129428,2124.838,2125.622,2125.51,2125.955,-0.04990924,-8.742853E-05,0.01928553,-0.924453318119049,-0.408940762281418,0.323337554931641,-0.908139593088798,-0.401724313688287,0.317458904152577,0
3.27999830245972,-2.26995325088501,1.96240568161011,2.75751709938049,-2.33577128088314,1.93329066648293,2.76780500018009,2123.204,2124.019,2123.728,2124.171,-0.04794009,-8.735073E-05,0.01852501,-0.915544807910919,-0.405000030994415,0.320211380720139,-0.898304598836138,-0.3973737090606,0.31402087929213,0
3.29999876022339,-2.28808164596558,1.95438635349274,2.76385736465454,-2.35363775851812,1.9253872576672,2.77405059552053,2121.56,2122.312,2121.975,2122.505,-0.04596669,-8.733721E-05,0.0177634,-0.906429469585419,-0.400967836380005,0.317012846469879,-0.888269323039359,-0.392934507958904,0.310512841891758,0
3.31999826431274,-2.30602383613586,1.94644939899445,2.77013230323792,-2.3713007260487,1.91757387351027,2.78022504971129,2119.993,2120.7,2120.163,2120.765,-0.04399063,-8.727743E-05,0.01700039,-0.897111356258392,-0.396845906972885,0.313743323087692,-0.878039003575755,-0.38840902740877,0.306936622959378,0
3.33999872207642,-2.32377576828003,1.93859672546387,2.77634048461914,-2.38875800104601,1.90985147943062,2.78632759983939,2118.189,2118.955,2118.632,2119.152,-0.04201243,-8.703575E-05,0.01623692,-0.887594401836395,-0.392636030912399,0.310404270887375,-0.867617054297949,-0.383798777560858,0.30329341587751,0
3.35999917984009,-2.34133338928223,1.93082976341248,2.78248047828674,-2.40600495817164,1.90222212149134,2.79235662902249,2116.73,2117.365,2116.743,2117.442,-0.04003157,-8.693736E-05,0.01547204,-0.877883017063141,-0.38834011554718,0.306997001171112,-0.857008456488347,-0.379105961933514,0.299584961956041,0
3.37999868392944,-2.35869336128235,1.92315065860748,2.78855085372925,-2.42303710323815,1.89468778773962,2.79831056622481,2115.124,2115.786,2115.051,2115.721,-0.03805018,-8.679269E-05,0.01470661,-0.86798107624054,-0.383959829807281,0.303523123264313,-0.846218335406541,-0.374332847734783,0.295813052835051,0
3.39999914169312,-2.37585115432739,1.91556072235107,2.79455041885376,-2.4398524667827,1.88724934938635,2.80418872298,2113.443,2114.043,2113.459,2114.186,-0.03606932,-8.668647E-05,0.01394168,-0.85789281129837,-0.379497110843658,0.299984067678452,-0.835250376669205,-0.369481065332772,0.29197897689778,0
3.41999864578247,-2.39280366897583,1.90806150436401,2.80047798156738,-2.45644594698842,1.87990906326947,2.8099893158429,2112.106,2112.631,2111.524,2112.379,-0.03408846,-8.658632E-05,0.01317571,-0.847622692584991,-0.374953925609589,0.296381413936615,-0.824110448983354,-0.364553210806669,0.28808478567167,0
3.43999910354614,-2.40954685211182,1.90065503120422,2.80633234977722,-2.47281572547898,1.87266773376528,2.81571170916259,2110.426,2111.009,2109.997,2110.769,-0.03211186,-8.657089E-05,0.01241164,-0.837174892425537,-0.370332330465317,0.292716950178146,-0.812802421371089,-0.359550995655743,0.284131831653106,0
3.4599986076355,-2.4260778427124,1.8933424949646,2.8121120929718,-2.4889569401755,1.86552751166132,2.82135420329922,2109.111,2109.51,2108.101,2109.1,-0.03013846,-8.650262E-05,0.01164941,-0.826554298400879,-0.365634351968765,0.288992077112198,-0.801332411722821,-0.354477126187859,0.280122253476722,0
3.47999906539917,-2.44239330291748,1.88612508773804,2.81781625747681,-2.5048679311617,1.85848913123757,2.82691621799487,2107.393,2107.836,2106.68,2107.597,-0.02817305,-8.647373E-05,0.01089024,-0.815765738487244,-0.360862106084824,0.285208612680435,-0.789704474347218,-0.349333395865591,0.276057468409641,0
3.49999856948853,-2.45848965644836,1.87900459766388,2.82344365119934,-2.52054408602585,1.85155463283887,2.83239614088599,2105.892,2106.341,2105.054,2105.971,-0.02621296,-8.625939E-05,0.01013286,-0.804814577102661,-0.356017857789993,0.281368136405945,-0.777924974395603,-0.344122620375053,0.271939701521638,0
3.5199990272522,-2.47436380386353,1.87198269367218,2.82899308204651,-2.53598391076217,1.84472467735309,2.83779344971208,2104.319,2104.762,2103.545,2104.449,-0.02425927,-8.604354E-05,0.009378266,-0.793705701828003,-0.351103842258453,0.277472466230392,-0.765998153427044,-0.338846676010838,0.267770435537072,0
3.53999853134155,-2.49001240730286,1.86506032943726,2.83446359634399,-2.55118305247669,1.83800119032491,2.84310662282938,2103.067,2103.284,2101.737,2102.879,-0.02231196,-8.604189E-05,0.008626002,-0.782444059848785,-0.346122086048126,0.273523211479187,-0.753930621848598,-0.333508486950305,0.263551981259916,0
3.55999898910522,-2.50543308258057,1.858238697052,2.8398540019989,-2.56614019060479,1.83138475591881,2.84833519860731,2101.603,2101.842,2100.194,2101.293,-0.02037425,-8.578839E-05,0.007876782,-0.771034419536591,-0.341074794530869,0.269522398710251,-0.741726810516238,-0.328110013225358,0.25928588758716,0
3.57999849319458,-2.52062273025513,1.85151958465576,2.84516334533691,-2.58085124153898,1.82487718055799,2.85347774953675,2100.255,2100.437,2098.569,2099.717,-0.01844772,-8.563246E-05,0.007131679,-0.759482085704803,-0.335964500904083,0.265471816062927,-0.729393573004918,-0.322654286581024,0.254974550327124,0
3.59999895095825,-2.53557872772217,1.84490346908569,2.85039091110229,-2.59531506577001,1.81847896831536,2.85853387727876,2098.798,2098.91,2097.1,2098.295,-0.01653397,-8.544788E-05,0.006391939,-0.747792601585388,-0.330793529748917,0.261373370885849,-0.716935531596705,-0.317143351728385,0.250619585293735,0
3.61999845504761,-2.55029797554016,1.83839237689972,2.85553550720215,-2.60952785866042,1.81219180220902,2.86350225184395,2097.437,2097.568,2095.575,2096.731,-0.014633,-8.525925E-05,0.005656795,-0.735971629619598,-0.325564414262772,0.257229000329971,-0.704359780863911,-0.311580347019976,0.246223472540904,0
3.63999891281128,-2.56477880477905,1.83198666572571,2.86059641838074,-2.62348866945732,1.80601610281368,2.86838254087704,2096.095,2096.095,2094.073,2095.339,-0.01274642,-8.505275E-05,0.004927896,-0.724024772644043,-0.320279687643051,0.253040641546249,-0.691671136726582,-0.305967402824505,0.241787895572699,0
3.65999841690063,-2.57901763916016,1.82568788528442,2.86557269096375,-2.63719398208842,1.79995342549787,2.87317351526253,2094.746,2094.721,2092.63,2093.887,-0.01087582,-8.485407E-05,0.004204638,-0.711957812309265,-0.314941734075546,0.248810291290283,-0.678876932501147,-0.300307763105276,0.237315417900961,0
3.67999887466431,-2.59301328659058,1.81949687004089,2.87046337127686,-2.65064304234829,1.79400410389162,2.87787491135237,2093.496,2093.4,2091.128,2092.432,-0.009020659,-8.457484E-05,0.003487608,-0.699776589870453,-0.309553295373917,0.244540020823479,-0.665982180040217,-0.294603644903658,0.232807791522022,0
3.69999837875366,-2.60676312446594,1.81341445446014,2.87526798248291,-2.66383263223309,1.78816956151001,2.88248560422703,2092.253,2092.039,2089.672,2091.063,-0.007184143,-8.436535E-05,0.002777792,-0.687486886978149,-0.304116874933243,0.240231886506081,-0.652994449068426,-0.288858396760403,0.22826766258908,0
3.71999883651733,-2.62026500701904,1.8074414730072,2.87998580932617,-2.67676220196945,1.78245004155057,2.8870054017019,2090.922,2090.727,2088.354,2089.687,-0.005367335,-8.418821E-05,0.002075237,-0.675094902515411,-0.298635095357895,0.235888093709946,-0.639918949748196,-0.28307432344114,0.223696852421747,0
3.73999834060669,-2.63351726531982,1.80157935619354,2.8846161365509,-2.68942884103021,1.7768468315131,2.89143328634224,2089.801,2089.522,2086.871,2088.26,-0.003570234,-8.388437E-05,0.001380425,-0.662606716156006,-0.2931107878685,0.231510758399963,-0.626763485793776,-0.277254876994184,0.219098088969111,0
3.75999879837036,-2.64651727676392,1.79582870006561,2.88915824890137,-2.70183221205535,1.77136008063205,2.89576914021691,2088.583,2088.143,2085.543,2087.047,-0.001795503,-8.371293E-05,0.0006950137,-0.650028467178345,-0.287546664476395,0.227102071046829,-0.613533468137337,-0.271402450997603,0.214473263733986,0
3.77999830245972,-2.65926504135132,1.79018950462341,2.89361143112183,-2.71396972130423,1.76599093627363,2.90001205663044,2087.615,2087.025,2084.016,2085.627,-4.43957E-05,-8.34469E-05,1.777216E-05,-0.637366712093353,-0.281945526599884,0.222664222121239,-0.600236931981447,-0.265520599900803,0.209825185586972,0
3.79999876022339,-2.67175722122192,1.78466367721558,2.8979754447937,-2.72584125191152,1.76073945013434,2.90416199473014,2086.122,2085.712,2083.069,2084.455,0.001679311,-8.315704E-05,-0.0006492787,-0.624627768993378,-0.276310294866562,0.218199551105499,-0.586879491570673,-0.259611807219053,0.205155817102921,0
3.81999826431274,-2.68399381637573,1.77925062179565,2.90224957466125,-2.73744453613122,1.75560662537352,2.90821816177867,2085.31,2084.598,2081.496,2083.138,0.003379598,-8.297216E-05,-0.001306547,-0.611818850040436,-0.270644158124924,0.213710367679596,-0.573469411011921,-0.253679728659802,0.200468047170658,0
3.83999872207642,-2.69597244262695,1.77395176887512,2.90643358230591,-2.74877968577744,1.75059241252911,2.91218059686297,2083.957,2083.407,2080.52,2081.951,0.005050588,-8.277607E-05,-0.001953162,-0.598946154117584,-0.264949798583984,0.209199011325836,-0.56001251048747,-0.247726938836853,0.195763910354806,0
