t,x_s1,x_s2,x_s3,x_s_d1,x_s_d2,x_s_d3,propellers_rpms1,propellers_rpms2,propellers_rpms3,propellers_rpms4,rollRad,pitchRad,yawRad,v_s1,v_s2,v_s3,v_s_d1,v_s_d2,v_s_d3,insideCount
4.099998,-0.0599999986588955,2.94000005722046,1.95999848842621,-0.0599999986588955,2.94000005722046,1.95999991893768,2128.784,2128.781,2128.778,2128.781,9.70833025348838E-06,45.0000228881836,8.33585272630444E-06,5.22127550084406E-08,-3.9619720837436E-07,-4.03535250370624E-06,0,0,0,6
4.119998,-0.0599999986588955,2.94000005722046,1.95999836921692,-0.0599999986588955,2.94000005722046,1.95999991893768,2128.782,2128.78,2128.778,2128.781,9.44921612244798E-06,45.0000228881836,9.63148886512499E-06,5.22126342161755E-08,-4.10815431450828E-07,-3.03773049381562E-06,0,0,0,6
4.139998,-0.0599999986588955,2.94000005722046,1.95999836921692,-0.0599999986588955,2.94000005722046,1.95999991893768,2128.779,2128.779,2128.78,2128.78,7.49396895116661E-06,45.0000228881836,1.04559749161126E-05,5.2212584478184E-08,-4.25433626105587E-07,-2.12800455301476E-06,0,0,0,6
4.159998,-0.0599999986588955,2.94000005722046,1.95999836921692,-0.0599999986588955,2.94000005722046,1.95999991893768,2128.776,2128.778,2128.78,2128.778,5.63295134270447E-06,45.0000228881836,1.06208553916076E-05,6.97543356409369E-08,-4.28357282089564E-07,-1.31496449284896E-06,0,0,0,6
4.179998,-0.0599999986588955,2.94000005722046,1.95999836921692,-0.0599999986588955,2.94000005722046,1.95999991893768,2128.777,2128.778,2128.778,2128.777,5.46806768397801E-06,45.0000228881836,1.07857367765973E-05,5.2212694612308E-08,-3.99121034888594E-07,-5.72241447116539E-07,0,0,0,6
4.199998,-0.0599999986588955,2.94000005722046,1.95999836921692,-0.0599999986588955,2.94000005722046,1.95999991893768,2128.776,2128.773,2128.776,2128.779,5.77433183934772E-06,45.0000228881836,1.14217646114412E-05,3.46709967402603E-08,-3.69884844531043E-07,6.50060769658012E-08,0,0,0,6
4.219998,-0.0599999986588955,2.94000005722046,1.95999836921692,-0.0599999986588955,2.94000005722046,1.95999991893768,2128.775,2128.776,2128.776,2128.775,6.08059690421214E-06,45.0000228881836,9.60782472247956E-06,2.29766339288062E-08,-3.75732184920707E-07,6.36331492387399E-07,0,0,0,6
4.239998,-0.0599999986588955,2.94000005722046,1.95999836921692,-0.0599999986588955,2.94000005722046,1.95999991893768,2128.775,2128.776,2128.775,2128.773,6.66955020278692E-06,45.0000228881836,8.45349313749466E-06,1.71293912387682E-08,-4.0496829001313E-07,1.12855036604742E-06,0,0,0,6
4.259998,-0.0599999986588955,2.94000005722046,1.95999836921692,-0.0599999986588955,2.94000005722046,1.95999991893768,2128.774,2128.775,2128.774,2128.773,7.07004346622853E-06,45.0000228881836,8.71260272106156E-06,1.12821005870956E-08,-4.34204366683844E-07,1.55924180944567E-06,0,0,0,6
4.279998,-0.0599999986588955,2.94000005722046,1.95999836921692,-0.0599999986588955,2.94000005722046,1.95999991893768,2128.772,2128.774,2128.775,2128.773,7.14073439667118E-06,45.0000228881836,9.77266427071299E-06,5.43483125170496E-09,-4.63440471776266E-07,1.93719552044058E-06,0,0,0,6
4.299998,-0.0599999986588955,2.94000005722046,1.95999836921692,-0.0599999986588955,2.94000005722046,1.95999991893768,2128.774,2128.772,2128.773,2128.774,8.15371731732739E-06,45.0000228881836,1.17750250865356E-05,1.12820544018177E-08,-4.78058439057349E-07,2.27120108320378E-06,0,0,0,6
4.319998,-0.0599999986588955,2.94000005722046,1.95999836921692,-0.0599999986588955,2.94000005722046,1.95999991893768,2128.773,2128.772,2128.773,2128.773,8.50709693622775E-06,45.0000228881836,1.27408566186205E-05,3.46709612131235E-08,-4.5759321665173E-07,2.54367932939203E-06,0,0,0,6
4.339998,-0.0599999986588955,2.94000005722046,1.95999836921692,-0.0599999986588955,2.94000005722046,1.95999991893768,2128.775,2128.771,2128.77,2128.774,8.71913198352559E-06,45.0000228881836,1.31884271468152E-05,5.80598609190019E-08,-4.37127965824402E-07,2.77660433312121E-06,0,0,0,6
4.359998,-0.0599999986588955,2.94000005722046,1.95999848842621,-0.0599999986588955,2.94000005722046,1.95999991893768,2128.771,2128.772,2128.773,2128.773,6.81100027577486E-06,45.0000228881836,1.25523556562257E-05,8.14487037814615E-08,-4.16662828683911E-07,2.98755526273453E-06,0,0,0,6
4.379999,-0.0599999986588955,2.94000005722046,1.9599986076355,-0.0599999986588955,2.94000005722046,1.95999991893768,2128.77,2128.772,2128.773,2128.771,5.8451641962165E-06,45.0000228881836,1.14451358967926E-05,8.14487606248804E-08,-4.020447761377E-07,3.2116906822921E-06,0,0,0,6
4.399999,-0.0599999986588955,2.94000005722046,1.95999872684479,-0.0599999986588955,2.94000005722046,1.95999991893768,2128.77,2128.772,2128.772,2128.77,6.05719924351433E-06,45.0000228881836,1.06677225630847E-05,6.97543640626463E-08,-4.07891945997108E-07,3.34792980538623E-06,0,0,0,6
4.419999,-0.0599999986588955,2.94000005722046,1.95999884605408,-0.0599999986588955,2.94000005722046,1.95999991893768,2128.77,2128.771,2128.77,2128.77,6.83461212247494E-06,45.0000228881836,1.06441439129412E-05,5.22127052704491E-08,-3.78655812482975E-07,3.42703651767806E-06,0,0,0,6
4.439999,-0.0599999986588955,2.94000005722046,1.95999896526337,-0.0599999986588955,2.94000005722046,1.95999991893768,2128.77,2128.77,2128.769,2128.77,7.56490908315754E-06,45.0000228881836,1.11388308141613E-05,7.56015410274813E-08,-3.58190533233937E-07,3.44461568602128E-06,0,0,0,6
4.459999,-0.0599999949336052,2.94000005722046,1.95999908447266,-0.0599999986588955,2.94000005722046,1.95999991893768,2128.77,2128.769,2128.769,2128.77,7.91828824731056E-06,45.0000228881836,1.16335149868974E-05,9.89903767845135E-08,-3.37725310828318E-07,3.4050624435622E-06,0,0,0,6
4.479999,-0.0599999912083149,2.94000005722046,1.95999920368195,-0.0599999986588955,2.94000005722046,1.95999991893768,2128.769,2128.769,2128.769,2128.769,7.61206047172891E-06,45.0000228881836,1.17512818178511E-05,1.22379205436118E-07,-3.17260116844409E-07,3.31716614709876E-06,0,0,0,6
4.499999,-0.0599999874830246,2.94000005722046,1.95999932289124,-0.0599999986588955,2.94000005722046,1.95999991893768,2128.769,2128.769,2128.769,2128.769,7.0702585617255E-06,45.0000228881836,1.16334749691305E-05,1.45768041193151E-07,-2.9679489443879E-07,3.19850619234785E-06,0,0,0,6
4.519999,-0.0599999837577343,2.94000005722046,1.95999944210052,-0.0599999986588955,2.94000005722046,1.95999991893768,2128.771,2128.769,2128.766,2128.768,6.52845710646943E-06,45.0000228881836,1.15156653919257E-05,1.69156876950183E-07,-2.76329672033171E-07,3.06666197502636E-06,0,0,0,6
4.539999,-0.059999980032444,2.94000005722046,1.95999944210052,-0.0599999986588955,2.94000005722046,1.95999991893768,2128.767,2128.768,2128.77,2128.768,4.00783346776734E-06,45.0000228881836,1.18690049930592E-05,1.691567774742E-07,-2.61711704752088E-07,2.94360734187649E-06,0,0,0,6
4.559999,-0.0599999763071537,2.94000005722046,1.95999944210052,-0.0599999986588955,2.94000005722046,1.95999991893768,2128.767,2128.768,2128.77,2128.769,2.9006532713538E-06,45.0000228881836,1.17511981443386E-05,1.51615225263413E-07,-2.32475628081374E-07,2.76781497632328E-06,0,0,0,6
4.579998,-0.0599999725818634,2.94000005722046,1.95999944210052,-0.0599999986588955,2.94000005722046,1.95999991893768,2128.768,2128.769,2128.769,2128.768,3.34826404468913E-06,45.0000228881836,1.12093557618209E-05,1.34073673052626E-07,-2.03239537199806E-07,2.60081219494168E-06,0,0,0,6
4.599998,-0.0599999688565731,2.94000005722046,1.95999944210052,-0.0599999986588955,2.94000005722046,1.95999991893768,2128.769,2128.769,2128.768,2128.768,4.45548084826441E-06,45.0000228881836,1.05732879092102E-05,1.16532078209275E-07,-1.74003474739948E-07,2.46017816607491E-06,0,0,0,6
4.619998,-0.0599999651312828,2.94000005722046,1.95999944210052,-0.0599999986588955,2.94000005722046,1.95999991893768,2128.771,2128.768,2128.767,2128.77,5.32712329004426E-06,45.0000228881836,1.00785618997179E-05,9.89904336279324E-08,-1.44767426490944E-07,2.32833394875342E-06,0,0,0,6
4.639998,-0.0599999651312828,2.94000005722046,1.95999944210052,-0.0599999986588955,2.94000005722046,1.95999991893768,2128.77,2128.769,2128.768,2128.769,4.17282899434213E-06,45.0000228881836,8.59442570799729E-06,8.72959731168521E-08,-1.15531491928778E-07,2.20088440983091E-06,0,0,0,6
4.659998,-0.0599999651312828,2.94000005722046,1.95999944210052,-0.0599999986588955,2.94000005722046,1.95999991893768,2128.768,2128.771,2128.77,2128.767,1.98200996237574E-06,45.0000228881836,6.92182811690145E-06,8.14487322031709E-08,-1.447675970212E-07,2.09980385079689E-06,0,0,0,6
4.679998,-0.0599999651312828,2.94000005722046,1.95999944210052,-0.0599999986588955,2.94000005722046,1.95999991893768,2128.768,2128.771,2128.771,2128.768,6.39255858914112E-07,45.0000228881836,7.03959494785522E-06,8.14486966760342E-08,-1.59385521669719E-07,2.05585570256517E-06,0,0,0,6
4.699998,-0.0599999651312828,2.94000005722046,1.95999944210052,-0.0599999986588955,2.94000005722046,1.95999991893768,2128.768,2128.769,2128.77,2128.769,3.33027998067337E-07,45.0000228881836,8.38234791444847E-06,8.14486895706068E-08,-1.88621484653595E-07,1.96795940610173E-06,0,0,0,6
4.719998,-0.0599999651312828,2.94000005722046,1.95999944210052,-0.0599999986588955,2.94000005722046,1.95999991893768,2128.768,2128.77,2128.771,2128.769,6.39291897641669E-07,45.0000228881836,9.77221498033032E-06,7.56014983949171E-08,-2.17857518691744E-07,1.89324759958254E-06,0,0,0,6
4.739998,-0.0599999651312828,2.94000005722046,1.95999944210052,-0.0599999986588955,2.94000005722046,1.95999991893768,2128.769,2128.769,2128.77,2128.77,2.26477186515694E-06,45.0000228881836,1.16332303150557E-05,6.97543214300822E-08,-2.47093510097329E-07,1.82293058514915E-06,0,0,0,6
4.759998,-0.0599999651312828,2.94000005722046,1.95999944210052,-0.0599999986588955,2.94000005722046,1.95999991893768,2128.772,2128.768,2128.767,2128.772,4.36140089732362E-06,45.0000228881836,1.29288682728657E-05,5.80599390787029E-08,-2.76329586768043E-07,1.80095651103329E-06,0,0,0,6
4.779998,-0.0599999651312828,2.94000005722046,1.95999944210052,-0.0599999986588955,2.94000005722046,1.95999991893768,2128.771,2128.769,2128.768,2128.771,4.5734345803794E-06,45.0000228881836,1.24341422633734E-05,3.4671089110816E-08,-2.88024153860533E-07,1.75261357071577E-06,0,0,0,6
4.799998,-0.0599999651312828,2.94000005722046,1.95999944210052,-0.0599999986588955,2.94000005722046,1.95999991893768,2128.77,2128.77,2128.77,2128.77,3.13645227834058E-06,45.0000228881836,1.12326961243525E-05,1.71294143314071E-08,-2.58788190876658E-07,1.70427063039824E-06,0,0,0,6
4.819998,-0.0599999651312828,2.94000005722046,1.95999944210052,-0.0599999986588955,2.94000005722046,1.95999991893768,2128.769,2128.768,2128.77,2128.771,1.41678003728885E-06,45.0000228881836,1.03139354905579E-05,-4.12248013503813E-10,-2.29552128416799E-07,1.69548104622663E-06,0,0,0,6
4.839998,-0.0599999651312828,2.94000005722046,1.95999944210052,-0.0599999986588955,2.94000005722046,1.95999991893768,2128.769,2128.77,2128.771,2128.77,2.69116657847235E-08,45.0000228881836,8.31153556646314E-06,-1.21066179303853E-08,-2.58788219298367E-07,1.69548104622663E-06,0,0,0,6
4.859998,-0.0599999651312828,2.94000005722046,1.95999944210052,-0.0599999986588955,2.94000005722046,1.95999991893768,2128.767,2128.773,2128.773,2128.767,-4.20660484223845E-07,45.0000228881836,6.21490607954911E-06,-1.79537895661497E-08,-2.88024239125662E-07,1.66911218002497E-06,0,0,0,6
4.879998,-0.0599999651312828,2.94000005722046,1.95999944210052,-0.0599999986588955,2.94000005722046,1.95999991893768,2128.77,2128.771,2128.769,2128.769,1.7230822777492E-06,45.0000228881836,7.08651123204618E-06,-3.54954465819901E-08,-3.02642064298198E-07,1.62516403179325E-06,0,0,0,6
4.899998,-0.0599999651312828,2.94000005722046,1.95999944210052,-0.0599999986588955,2.94000005722046,1.95999991893768,2128.771,2128.769,2128.769,2128.771,3.34856144945661E-06,45.0000228881836,9.0417570390855E-06,-3.54955105308363E-08,-3.1726006000099E-07,1.63834840805066E-06,0,0,0,6
4.919998,-0.0599999651312828,2.94000005722046,1.95999944210052,-0.0599999986588955,2.94000005722046,1.95999991893768,2128.771,2128.769,2128.769,2128.771,3.74905425815086E-06,45.0000228881836,1.04316241049673E-05,-4.13427514445175E-08,-3.46496193515122E-07,1.611979541849E-06,0,0,0,6
4.939998,-0.0599999651312828,2.94000005722046,1.95999944210052,-0.0599999986588955,2.94000005722046,1.95999991893768,2128.77,2128.769,2128.77,2128.771,3.06590754917124E-06,45.0000228881836,1.07378509710543E-05,-5.88843924731464E-08,-3.17260202109537E-07,1.59440025981894E-06,0,0,0,6
4.959998,-0.0599999651312828,2.94000005722046,1.95999944210052,-0.0599999986588955,2.94000005722046,1.95999991893768,2128.77,2128.768,2128.77,2128.772,2.05295805244532E-06,45.0000228881836,1.03373540696339E-05,-7.64260192909205E-08,-2.88024182282243E-07,1.57682097778888E-06,0,0,0,6
4.979998,-0.0599999651312828,2.94000005722046,1.95999944210052,-0.0599999986588955,2.94000005722046,1.95999991893768,2128.769,2128.769,2128.771,2128.771,1.22846699923684E-06,45.0000228881836,7.86380769568495E-06,-8.81203590097357E-08,-3.17260315796375E-07,1.59879505190474E-06,0,0,0,6
4.999998,-0.0599999651312828,2.94000005722046,1.95999944210052,-0.0599999986588955,2.94000005722046,1.95999991893768,2128.769,2128.773,2128.771,2128.767,1.01646924122178E-06,45.0000228881836,5.06045716974768E-06,-8.81203234825989E-08,-3.31878339920877E-07,1.60758463607635E-06,0,0,0,6
5.019998,-0.0599999688565731,2.94000005722046,1.95999944210052,-0.0599999986588955,2.94000005722046,1.95999991893768,2128.769,2128.772,2128.77,2128.768,1.69965267104999E-06,45.0000228881836,4.84842075820779E-06,-1.05662032012788E-07,-3.46496221936832E-07,1.57682097778888E-06,0,0,0,6
5.039998,-0.0599999725818634,2.94000005722046,1.95999944210052,-0.0599999986588955,2.94000005722046,1.95999991893768,2128.77,2128.77,2128.77,2128.77,2.6655229703465E-06,45.0000228881836,6.70943609293317E-06,-1.11509315559033E-07,-3.55266934093379E-07,1.5900053540463E-06,0,0,0,6
5.059998,-0.0599999763071537,2.94000005722046,1.95999944210052,-0.0599999986588955,2.94000005722046,1.95999991893768,2128.77,2128.769,2128.77,2128.771,3.53716450263164E-06,45.0000228881836,8.85314057086362E-06,-1.11509329769888E-07,-3.64037759936764E-07,1.60758463607635E-06,0,0,0,6
5.079998,-0.059999980032444,2.94000005722046,1.95999944210052,-0.0599999986588955,2.94000005722046,1.95999991893768,2128.77,2128.768,2128.77,2128.771,4.07900233767577E-06,45.0000228881836,1.00074357760604E-05,-1.05662088856207E-07,-3.78655840904685E-07,1.59879505190474E-06,0,0,0,6
5.099998,-0.0599999837577343,2.94000005722046,1.95999944210052,-0.0599999986588955,2.94000005722046,1.95999991893768,2128.77,2128.769,2128.77,2128.771,4.29103738497361E-06,45.0000228881836,9.79539981926791E-06,-1.17356471207586E-07,-3.494198494991E-07,1.55924180944567E-06,0,0,0,6
5.119998,-0.0599999874830246,2.94000005722046,1.95999944210052,-0.0599999986588955,2.94000005722046,1.95999991893768,2128.77,2128.768,2128.77,2128.772,4.50307197752409E-06,45.0000228881836,8.64106823428301E-06,-1.29050860664393E-07,-3.20183829671805E-07,1.5284781511582E-06,0,0,0,6
5.139998,-0.0599999912083149,2.94000005722046,1.95999944210052,-0.0599999986588955,2.94000005722046,1.95999991893768,2128.77,2128.77,2128.77,2128.77,4.57376427220879E-06,45.0000228881836,5.46079809282674E-06,-1.34898002102091E-07,-3.49419991607647E-07,1.52408335907239E-06,0,0,0,6
5.159998,-0.0599999949336052,2.94000005722046,1.95999944210052,-0.0599999986588955,2.94000005722046,1.95999991893768,2128.77,2128.774,2128.771,2128.767,4.73868476547068E-06,45.0000228881836,2.18629907067225E-06,-9.98147129394056E-08,-3.52343590748205E-07,1.55484701735986E-06,0,0,0,6
5.179998,-0.0599999949336052,2.94000005722046,1.95999944210052,-0.0599999986588955,2.94000005722046,1.95999991893768,2128.77,2128.773,2128.77,2128.767,5.23340850122622E-06,45.0000228881836,2.06849267669895E-06,-5.88843356297275E-08,-3.55267047780217E-07,1.55484701735986E-06,0,0,0,6
5.199998,-0.0599999949336052,2.94000005722046,1.95999944210052,-0.0599999986588955,2.94000005722046,1.95999991893768,2128.77,2128.77,2128.77,2128.77,5.91658999837819E-06,45.0000228881836,4.30642694482231E-06,-1.79539334510537E-08,-3.58190561655647E-07,1.532872943244E-06,0,0,0,6
5.219998,-0.0599999949336052,2.94000005722046,1.95999944210052,-0.0599999986588955,2.94000005722046,1.95999991893768,2128.771,2128.769,2128.77,2128.771,6.55265876048361E-06,45.0000228881836,6.7799355747411E-06,-4.12303080565835E-10,-3.37725310828318E-07,1.532872943244E-06,0,0,0,6
5.239998,-0.0599999949336052,2.94000005722046,1.95999944210052,-0.0599999986588955,2.94000005722046,1.95999991893768,2128.772,2128.768,2128.768,2128.772,6.76469244353939E-06,45.0000228881836,8.16980355011765E-06,-1.2106704083692E-08,-2.93871266876522E-07,1.48453000292648E-06,0,0,0,6
5.259998,-0.0599999949336052,2.94000005722046,1.95999944210052,-0.0599999986588955,2.94000005722046,1.95999991893768,2128.771,2128.767,2128.77,2128.773,5.23347853231826E-06,45.0000228881836,8.19334127299953E-06,-1.79539334510537E-08,-3.23107457234073E-07,1.47574041875487E-06,0,0,0,6
5.279998,-0.0599999949336052,2.94000005722046,1.95999944210052,-0.0599999986588955,2.94000005722046,1.95999991893768,2128.768,2128.771,2128.772,2128.769,3.32534773406223E-06,45.0000228881836,5.3899884733255E-06,-2.38010500197561E-08,-3.52343647591624E-07,1.45816113672481E-06,0,0,0,6
5.299998,-0.0599999949336052,2.94000005722046,1.95999944210052,-0.0599999986588955,2.94000005722046,1.95999991893768,2128.767,2128.773,2128.773,2128.767,3.1133497486735E-06,45.0000228881836,3.90585182685754E-06,-2.38010358089014E-08,-3.61114359748171E-07,1.50210928495653E-06,0,0,0,6
5.319998,-0.0599999949336052,2.94000005722046,1.95999944210052,-0.0599999986588955,2.94000005722046,1.95999991893768,2128.771,2128.771,2128.77,2128.769,5.58689498575404E-06,45.0000228881836,5.2014897846675E-06,1.71294516349008E-08,-3.64037759936764E-07,1.48892490869912E-06,0,0,0,6
5.339998,-0.0599999949336052,2.94000005722046,1.95999944210052,-0.0599999986588955,2.94000005722046,1.95999991893768,2128.772,2128.769,2128.768,2128.771,7.73063675296726E-06,45.0000228881836,7.10961967342882E-06,2.88238410917074E-08,-3.08489234157605E-07,1.45376645832584E-06,0,0,0,6
5.359998,-0.0599999949336052,2.94000005722046,1.95999944210052,-0.0599999986588955,2.94000005722046,1.95999991893768,2128.774,2128.767,2128.766,2128.773,8.50804826768581E-06,45.0000228881836,8.31102897791425E-06,2.29766019543831E-08,-3.37725396093447E-07,1.45376645832584E-06,0,0,0,6
5.379998,-0.0599999949336052,2.94000005722046,1.95999944210052,-0.0599999986588955,2.94000005722046,1.95999991893768,2128.769,2128.771,2128.771,2128.77,5.23358858117717E-06,45.0000228881836,6.87400506649283E-06,2.88237593792928E-08,-3.52343704435043E-07,1.45376645832584E-06,0,0,0,6
5.399998,-0.0599999949336052,2.94000005722046,1.95999944210052,-0.0599999986588955,2.94000005722046,1.95999991893768,2128.768,2128.771,2128.773,2128.769,2.94853725790745E-06,45.0000228881836,5.76678621655446E-06,-4.12279987926922E-10,-3.93274149246281E-07,1.48013532452751E-06,0,0,0,6
5.419998,-0.0599999949336052,2.94000005722046,1.95999944210052,-0.0599999986588955,2.94000005722046,1.95999991893768,2128.765,2128.771,2128.775,2128.769,2.7836533718073E-06,45.0000228881836,5.74320893065305E-06,-4.1223885416386E-10,-4.02044832981119E-07,1.51089898281498E-06,0,0,0,6
5.439998,-0.0599999949336052,2.94000005722046,1.95999944210052,-0.0599999986588955,2.94000005722046,1.95999991893768,2128.771,2128.77,2128.769,2128.77,6.85910163156223E-06,45.0000228881836,7.03884825270507E-06,-4.12122891368938E-10,-4.10815431450828E-07,1.54605743318825E-06,0,0,0,6
5.459998,-0.0599999949336052,2.94000005722046,1.95999944210052,-0.0599999986588955,2.94000005722046,1.95999991893768,2128.773,2128.769,2128.767,2128.771,9.61533714871621E-06,45.0000228881836,8.42871668282896E-06,-6.25939255982644E-09,-4.40051536543251E-07,1.53726784901664E-06,0,0,0,6
5.479998,-0.0599999949336052,2.94000005722046,1.95999944210052,-0.0599999986588955,2.94000005722046,1.95999991893768,2128.772,2128.769,2128.768,2128.771,1.00158313216525E-05,45.0000228881836,9.06474724615691E-06,-6.25945606458345E-09,-4.546697027763E-07,1.51089898281498E-06,0,0,0,6
5.499998,-0.0599999949336052,2.94000005722046,1.95999944210052,-0.0599999986588955,2.94000005722046,1.95999991893768,2128.77,2128.77,2128.77,2128.771,8.67307699081721E-06,45.0000228881836,8.80559491633903E-06,-6.25948981536339E-09,-4.6928784058764E-07,1.48453011661331E-06,0,0,0,6
5.519998,-0.0599999949336052,2.94000005722046,1.95999944210052,-0.0599999986588955,2.94000005722046,1.95999991893768,2128.769,2128.77,2128.771,2128.77,7.18897717888467E-06,45.0000228881836,8.12240887171356E-06,-6.25947871313315E-09,-4.83905921555561E-07,1.4757405324417E-06,0,0,0,6
5.539998,-0.0599999949336052,2.94000005722046,1.95999944210052,-0.0599999986588955,2.94000005722046,1.95999991893768,2128.769,2128.771,2128.771,2128.77,6.50583069727872E-06,45.0000228881836,7.67479923524661E-06,-1.21066694447336E-08,-5.13141969804565E-07,1.45816125041165E-06,0,0,0,6
5.559998,-0.0599999949336052,2.94000005722046,1.95999944210052,-0.0599999986588955,2.94000005722046,1.95999991893768,2128.768,2128.772,2128.772,2128.769,6.90632396072033E-06,45.0000228881836,7.65122058510315E-06,-1.79538570677096E-08,-5.4237796121015E-07,1.45816125041165E-06,0,0,0,6
5.579998,-0.0599999949336052,2.94000005722046,1.95999944210052,-0.0599999986588955,2.94000005722046,1.95999991893768,2128.771,2128.77,2128.769,2128.771,9.28563986235531E-06,45.0000228881836,8.94686036190251E-06,-2.38010446906856E-08,-5.71613895772316E-07,1.46255604249745E-06,0,0,0,6
5.599998,-0.0599999949336052,2.94000005722046,1.95999944210052,-0.0599999986588955,2.94000005722046,1.95999991893768,2128.77,2128.77,2128.77,2128.77,1.08168887891225E-05,45.0000228881836,9.86557915894082E-06,-2.38010642306108E-08,-5.86231976740237E-07,1.45376645832584E-06,0,0,0,6
5.619998,-0.0599999949336052,2.94000005722046,1.95999944210052,-0.0599999986588955,2.94000005722046,1.95999991893768,2128.772,2128.769,2128.768,2128.771,1.2253907698323E-05,45.0000228881836,1.10669870991842E-05,-2.38010784414655E-08,-6.00850000864739E-07,1.48013532452751E-06,0,0,0,6
5.639998,-0.0599999949336052,2.94000005722046,1.95999944210052,-0.0599999986588955,2.94000005722046,1.95999991893768,2128.77,2128.77,2128.77,2128.77,1.18534508146695E-05,45.0000228881836,1.1184753930138E-05,-2.96483229078603E-08,-6.15468138676079E-07,1.51529377490078E-06,0,0,0,6
5.659998,-0.0599999949336052,2.94000005722046,1.95999944210052,-0.0599999986588955,2.94000005722046,1.95999991893768,2128.77,2128.77,2128.77,2128.771,1.11231893242802E-05,45.0000228881836,1.13496362246224E-05,-3.54955531634005E-08,-6.3008616280058E-07,1.55045222527406E-06,0,0,0,6
5.679998,-0.0599999949336052,2.94000005722046,1.95999944210052,-0.0599999986588955,2.94000005722046,1.95999991893768,2128.769,2128.77,2128.771,2128.77,1.03929251054069E-05,45.0000228881836,1.12318275569123E-05,-4.13427549972312E-08,-6.44704186925082E-07,1.58561067564733E-06,0,0,0,6
5.699998,-0.0599999949336052,2.94000005722046,1.95999944210052,-0.0599999986588955,2.94000005722046,1.95999991893768,2128.769,2128.77,2128.771,2128.77,1.04165010270663E-05,45.0000228881836,1.11140216176864E-05,-4.71899355147798E-08,-6.59322211049584E-07,1.60318995767739E-06,0,0,0,6
5.719998,-0.0599999949336052,2.94000005722046,1.95999944210052,-0.0599999986588955,2.94000005722046,1.95999991893768,2128.77,2128.77,2128.77,2128.77,1.11939125417848E-05,45.0000228881836,1.11846729851095E-05,-5.30371266904694E-08,-6.73940178330668E-07,1.611979541849E-06,0,0,0,6
5.739998,-0.0599999949336052,2.94000005722046,1.95999944210052,-0.0599999986588955,2.94000005722046,1.95999991893768,2128.77,2128.77,2128.77,2128.77,1.21597840916365E-05,45.0000228881836,1.14437843876658E-05,-5.88843391824412E-08,-6.8855820245517E-07,1.62955882387905E-06,0,0,0,6
5.759998,-0.0599999949336052,2.94000005722046,1.95999944210052,-0.0599999986588955,2.94000005722046,1.95999991893768,2128.77,2128.77,2128.77,2128.77,1.27958483062685E-05,45.0000228881836,1.19384703793912E-05,-6.4731572990695E-08,-7.03176226579671E-07,1.65592769008072E-06,0,0,0,6
5.779998,-0.0599999949336052,2.94000005722046,1.95999944210052,-0.0599999986588955,2.94000005722046,1.95999991893768,2128.77,2128.77,2128.77,2128.77,1.30549988170969E-05,45.0000228881836,1.22446972454782E-05,-7.05787925880941E-08,-7.17794307547592E-07,1.66911206633813E-06,0,0,0,6
5.799998,-0.0599999949336052,2.94000005722046,1.95999944210052,-0.0599999986588955,2.94000005722046,1.95999991893768,2128.769,2128.77,2128.771,2128.77,1.30785711007775E-05,45.0000228881836,1.23153477034066E-05,-7.64260050800658E-08,-7.32412331672094E-07,1.67790165050974E-06,0,0,0,6
5.819998,-0.0599999949336052,2.94000005722046,1.95999944210052,-0.0599999986588955,2.94000005722046,1.95999991893768,2128.769,2128.77,2128.771,2128.77,1.40915581141599E-05,45.0000228881836,1.26215763884829E-05,-8.22731891503281E-08,-7.47030298953177E-07,1.69548093253979E-06,0,0,0,6
5.839998,-0.0599999986588955,2.94000005722046,1.95999944210052,-0.0599999986588955,2.94000005722046,1.95999991893768,2128.77,2128.77,2128.77,2128.77,1.5622807040927E-05,45.0000228881836,1.31633760247496E-05,-9.39675999234169E-08,-7.03176169736253E-07,1.66911206633813E-06,0,0,0,6
5.859998,-0.0600000023841858,2.94000005722046,1.95999944210052,-0.0599999986588955,2.94000005722046,1.95999991893768,2128.772,2128.767,2128.767,2128.773,1.69184804690303E-05,45.0000228881836,1.39407511596801E-05,-1.05662046223642E-07,-6.59322097362747E-07,1.66032248216652E-06,0,0,0,6
5.879998,-0.0600000061094761,2.94000005722046,1.95999944210052,-0.0599999986588955,2.94000005722046,1.95999991893768,2128.771,2128.768,2128.769,2128.772,1.60468753165333E-05,45.0000228881836,1.1891237591044E-05,-1.17356442785876E-07,-6.15468195519497E-07,1.63834840805066E-06,0,0,0,6
5.899998,-0.0600000098347664,2.94000005722046,1.95999944210052,-0.0599999986588955,2.94000005722046,1.95999991893768,2128.77,2128.77,2128.77,2128.77,1.40916281452519E-05,45.0000228881836,8.56962196849054E-06,-1.29050860664393E-07,-5.7161417998941E-07,1.62955882387905E-06,0,0,0,6
5.919998,-0.0600000135600567,2.94000005722046,1.95999944210052,-0.0599999986588955,2.94000005722046,1.95999991893768,2128.769,2128.771,2128.771,2128.769,1.24661855807062E-05,45.0000228881836,5.67204051549197E-06,-1.23203648172421E-07,-5.62843354146025E-07,1.58121588356153E-06,0,0,0,6
5.939998,-0.0600000135600567,2.94000005722046,1.95999944210052,-0.0599999986588955,2.94000005722046,1.95999991893768,2128.768,2128.773,2128.772,2128.767,1.17830386443529E-05,45.0000228881836,3.81098607249442E-06,-8.81203732205904E-08,-5.30683621491335E-07,1.55484701735986E-06,0,0,0,6
5.959998,-0.0600000135600567,2.94000005722046,1.95999944210052,-0.0599999986588955,2.94000005722046,1.95999991893768,2128.772,2128.772,2128.768,2128.768,1.24662201415049E-05,45.0000228881836,5.01239401273779E-06,-5.30371622176062E-08,-5.2775982339881E-07,1.57242629938992E-06,0,0,0,6
5.979998,-0.0600000135600567,2.94000005722046,1.95999944210052,-0.0599999986588955,2.94000005722046,1.95999991893768,2128.769,2128.769,2128.771,2128.771,1.13119249363081E-05,45.0000228881836,8.14551003713859E-06,-1.79540329270367E-08,-4.95600147587538E-07,1.53726784901664E-06,0,0,0,6
5.999998,-0.0600000135600567,2.94000005722046,1.95999944210052,-0.0599999986588955,2.94000005722046,1.95999991893768,2128.769,2128.768,2128.771,2128.772,1.12412699309061E-05,45.0000228881836,1.04776709122234E-05,5.43489342419434E-09,-4.7513489676021E-07,1.51089898281498E-06,0,0,0,6
6.019998,-0.0600000135600567,2.94000005722046,1.95999944210052,-0.0599999986588955,2.94000005722046,1.95999991893768,2128.77,2128.768,2128.77,2128.772,1.21600269267219E-05,45.0000228881836,1.08781277958769E-05,-4.12203604582828E-10,-4.89752949306421E-07,1.53726784901664E-06,0,0,0,6
6.039998,-0.0600000135600567,2.94000005722046,1.95999944210052,-0.0599999986588955,2.94000005722046,1.95999991893768,2128.771,2128.77,2128.769,2128.77,1.30787821035483E-05,45.0000228881836,9.86514078249456E-06,-6.25936102949254E-09,-5.04371030274342E-07,1.5592419231325E-06,0,0,0,6
6.059998,-0.0600000135600567,2.94000005722046,1.95999944210052,-0.0599999986588955,2.94000005722046,1.95999991893768,2128.771,2128.771,2128.769,2128.769,1.34321617224487E-05,45.0000228881836,8.66369373397902E-06,-6.25937612852567E-09,-5.18989111242263E-07,1.59000558141997E-06,0,0,0,6
6.079998,-0.0600000135600567,2.94000005722046,1.95999944210052,-0.0599999986588955,2.94000005722046,1.95999991893768,2128.77,2128.771,2128.77,2128.769,1.30788184833364E-05,45.0000228881836,8.26319774205331E-06,1.71294196604777E-08,-4.98523831993225E-07,1.5548471310467E-06,0,0,0,6
6.099998,-0.0600000135600567,2.94000005722046,1.95999944210052,-0.0599999986588955,2.94000005722046,1.95999991893768,2128.77,2128.771,2128.77,2128.77,1.23485579024418E-05,45.0000228881836,8.89922739588656E-06,4.05182127849457E-08,-4.78058552744187E-07,1.50650419072917E-06,0,0,0,6
6.119998,-0.0600000135600567,2.94000005722046,1.95999944210052,-0.0599999986588955,2.94000005722046,1.95999991893768,2128.77,2128.77,2128.771,2128.771,1.18067537187017E-05,45.0000228881836,9.91217530099675E-06,4.05182056795184E-08,-4.92676576868689E-07,1.53726784901664E-06,0,0,0,6
6.139998,-0.0600000135600567,2.94000005722046,1.95999944210052,-0.0599999986588955,2.94000005722046,1.95999991893768,2128.77,2128.769,2128.77,2128.771,1.16418686957331E-05,45.0000228881836,1.07366631709738E-05,4.05182269958004E-08,-5.07294600993191E-07,1.56363671521831E-06,0,0,0,6
6.159998,-0.0600000135600567,2.94000005722046,1.95999944210052,-0.0599999986588955,2.94000005722046,1.95999991893768,2128.769,2128.77,2128.771,2128.77,1.17596728159697E-05,45.0000228881836,1.11842336991685E-05,3.46710393728245E-08,-5.21912625117693E-07,1.58561078933417E-06,0,0,0,6
6.179998,-0.0600000135600567,2.94000005722046,1.95999944210052,-0.0599999986588955,2.94000005722046,1.95999991893768,2128.77,2128.77,2128.77,2128.77,1.25370852401829E-05,45.0000228881836,1.17260342449299E-05,2.88238481971348E-08,-5.36530649242195E-07,1.60319007136422E-06,0,0,0,6
6.199998,-0.0600000135600567,2.94000005722046,1.95999944210052,-0.0599999986588955,2.94000005722046,1.95999991893768,2128.77,2128.77,2128.77,2128.77,1.35971877170959E-05,45.0000228881836,1.21736047731247E-05,2.29766499160178E-08,-5.51148673366697E-07,1.62076935339428E-06,0,0,0,6
6.219998,-0.0600000135600567,2.94000005722046,1.95999944210052,-0.0599999986588955,2.94000005722046,1.95999991893768,2128.771,2128.769,2128.769,2128.77,1.44217137858504E-05,45.0000228881836,1.2479833458201E-05,1.12822213793606E-08,-5.07294600993191E-07,1.60319007136422E-06,0,0,0,6
6.239998,-0.0600000135600567,2.94000005722046,1.95999944210052,-0.0599999986588955,2.94000005722046,1.95999991893768,2128.771,2128.77,2128.769,2128.77,1.40212550832075E-05,45.0000228881836,1.23149111459497E-05,-4.12232914470678E-10,-4.63440585463104E-07,1.5592419231325E-06,0,0,0,6
6.259998,-0.0600000135600567,2.94000005722046,1.95999944210052,-0.0599999986588955,2.94000005722046,1.95999991893768,2128.771,2128.768,2128.769,2128.772,1.28198453239747E-05,45.0000228881836,1.21028733701678E-05,-1.21066880964804E-08,-4.19586513089598E-07,1.54605754687509E-06,0,0,0,6
6.279998,-0.0600000135600567,2.94000005722046,1.95999944210052,-0.0599999986588955,2.94000005722046,1.95999991893768,2128.77,2128.769,2128.77,2128.771,1.04405644378858E-05,45.0000228881836,9.95912978396518E-06,-1.79538712785643E-08,-4.34204679322647E-07,1.57242641307676E-06,0,0,0,6
6.299998,-0.0600000135600567,2.94000005722046,1.95999944210052,-0.0599999986588955,2.94000005722046,1.95999991893768,2128.767,2128.773,2128.773,2128.767,8.24974449642468E-06,45.0000228881836,6.77885964250891E-06,-2.38010358089014E-08,-4.48822731868859E-07,1.59440048719262E-06,0,0,0,6
6.319998,-0.0600000135600567,2.94000005722046,1.95999944210052,-0.0599999986588955,2.94000005722046,1.95999991893768,2128.767,2128.773,2128.772,2128.767,8.36754952615593E-06,45.0000228881836,6.18990452494472E-06,1.12822320375017E-08,-4.51746132057451E-07,1.61197976922267E-06,0,0,0,6
6.339998,-0.0600000135600567,2.94000005722046,1.95999944210052,-0.0599999986588955,2.94000005722046,1.95999991893768,2128.772,2128.772,2128.768,2128.768,1.05584058474051E-05,45.0000228881836,8.14515078673139E-06,4.63654927784773E-08,-4.54669560667753E-07,1.62076935339428E-06,0,0,0,6
6.359998,-0.0600000135600567,2.94000005722046,1.95999944210052,-0.0599999986588955,2.94000005722046,1.95999991893768,2128.771,2128.768,2128.769,2128.772,1.12887028080877E-05,45.0000228881836,1.15609527711058E-05,4.05181630469542E-08,-4.69287584792255E-07,1.62955893756589E-06,0,0,0,6
6.379998,-0.0600000135600567,2.94000005722046,1.95999944210052,-0.0599999986588955,2.94000005722046,1.95999991893768,2128.771,2128.767,2128.769,2128.772,1.11709323391551E-05,45.0000228881836,1.29979343910236E-05,3.46709967402603E-08,-4.83905751025304E-07,1.6383485217375E-06,0,0,0,6
6.399998,-0.0600000135600567,2.94000005722046,1.95999944210052,-0.0599999986588955,2.94000005722046,1.95999991893768,2128.77,2128.769,2128.77,2128.771,1.044067357725E-05,45.0000228881836,1.2126291039749E-05,2.29766392578767E-08,-4.40051763916927E-07,1.61197965553583E-06,0,0,0,6
6.419998,-0.0600000135600567,2.94000005722046,1.95999944210052,-0.0599999986588955,2.94000005722046,1.95999991893768,2128.771,2128.768,2128.769,2128.772,9.89887030300451E-06,45.0000228881836,1.02181220427155E-05,1.71294747275397E-08,-4.31280966495251E-07,1.63395372965169E-06,0,0,0,6
6.439998,-0.0600000135600567,2.94000005722046,1.95999944210052,-0.0599999986588955,2.94000005722046,1.95999991893768,2128.769,2128.773,2128.771,2128.767,8.50900414661737E-06,45.0000228881836,6.70804774927092E-06,1.71295049256059E-08,-4.45899104306591E-07,1.59879527927842E-06,0,0,0,6
6.459998,-0.0600000135600567,2.94000005722046,1.95999944210052,-0.0599999986588955,2.94000005722046,1.95999991893768,2128.769,2128.773,2128.771,2128.767,8.10854635346914E-06,45.0000228881836,5.6950602811412E-06,5.22127265867312E-08,-4.48822561338602E-07,1.61637456130848E-06,0,0,0,6
6.479998,-0.0600000135600567,2.94000005722046,1.95999944210052,-0.0599999986588955,2.94000005722046,1.95999991893768,2128.771,2128.773,2128.769,2128.767,8.65038600750268E-06,45.0000228881836,7.13204235580633E-06,8.72959446951427E-08,-4.51746046792323E-07,1.63395384333853E-06,0,0,0,6
6.499998,-0.0600000098347664,2.94000005722046,1.95999944210052,-0.0599999986588955,2.94000005722046,1.95999991893768,2128.771,2128.77,2128.769,2128.77,8.34415732242633E-06,45.0000228881836,1.09247648651944E-05,1.10684673870765E-07,-4.66364014073406E-07,1.62076946708112E-06,0,0,0,6
6.519998,-0.0600000061094761,2.94000005722046,1.95999944210052,-0.0599999986588955,2.94000005722046,1.95999991893768,2128.77,2128.768,2128.77,2128.771,7.09563209966291E-06,45.0000228881836,1.47174896483193E-05,1.34073488311515E-07,-4.45898820089496E-07,1.57242652676359E-06,0,0,0,6
6.539998,-0.0600000023841858,2.94000005722046,1.95999944210052,-0.0599999986588955,2.94000005722046,1.95999991893768,2128.771,2128.767,2128.769,2128.773,5.84710642215214E-06,45.0000228881836,1.72852269315626E-05,9.89902559922484E-08,-4.020447761377E-07,1.53287328430451E-06,0,0,0,6
6.559998,-0.0600000023841858,2.94000005722046,1.95999944210052,-0.0599999986588955,2.94000005722046,1.95999991893768,2128.768,2128.765,2128.772,2128.775,3.5149439554516E-06,45.0000228881836,1.69789618666982E-05,7.56014699732077E-08,-3.46496420888798E-07,1.50650441810285E-06,0,0,0,6
6.579998,-0.0600000023841858,2.94000005722046,1.95999944210052,-0.0599999986588955,2.94000005722046,1.95999991893768,2128.769,2128.768,2128.771,2128.772,2.5019960503414E-06,45.0000228881836,1.19612132039038E-05,5.22128544844236E-08,-3.58190987981288E-07,1.51529400227446E-06,0,0,0,6
6.599998,-0.0600000023841858,2.94000005722046,1.95999944210052,-0.0599999986588955,2.94000005722046,1.95999991893768,2128.768,2128.775,2128.772,2128.765,2.2899996565684E-06,45.0000228881836,5.67136521567591E-06,3.46712951682093E-08,-3.28954939732284E-07,1.50650441810285E-06,0,0,0,7
6.619998,-0.0600000023841858,2.94000005722046,1.95999944210052,-0.0599999986588955,2.94000005722046,1.95999991893768,2128.77,2128.774,2128.771,2128.766,3.44433283316903E-06,45.0000228881836,4.14011537941406E-06,3.46711601650895E-08,-3.37725509780284E-07,1.52408370013291E-06,0,0,0,7
6.639997,-0.0600000023841858,2.94000005722046,1.95999944210052,-0.0599999986588955,2.94000005722046,1.95999991893768,2128.77,2128.772,2128.77,2128.768,5.02269858770887E-06,45.0000228881836,6.51939399176626E-06,6.97543072192275E-08,-3.40648938390586E-07,1.55924215050618E-06,0,0,0,7
6.659997,-0.0600000023841858,2.94000005722046,1.95999944210052,-0.0599999986588955,2.94000005722046,1.95999991893768,2128.773,2128.77,2128.767,2128.77,6.45972068014089E-06,45.0000228881836,1.04534628917463E-05,5.80598111810104E-08,-2.96794780751952E-07,1.52408370013291E-06,0,0,0,6
6.679997,-0.0600000023841858,2.94000005722046,1.95999944210052,-0.0599999986588955,2.94000005722046,1.95999991893768,2128.772,2128.764,2128.768,2128.776,5.58811552764382E-06,45.0000228881836,1.41519567478099E-05,4.0518088439967E-08,-2.67558817768077E-07,1.50210962601705E-06,0,0,0,6
6.699997,-0.0600000023841858,2.94000005722046,1.95999944210052,-0.0599999986588955,2.94000005722046,1.95999991893768,2128.769,2128.767,2128.771,2128.773,3.16172258862935E-06,45.0000228881836,1.27149351101252E-05,2.29765895198852E-08,-2.17857774487129E-07,1.47574075981538E-06,0,0,0,6
6.719997,-0.0600000023841858,2.94000005722046,1.95999944210052,-0.0599999986588955,2.94000005722046,1.95999991893768,2128.769,2128.769,2128.771,2128.771,1.72474267401412E-06,45.0000228881836,8.4039083958487E-06,-1.21065397706843E-08,-1.94468995573516E-07,1.44937189361372E-06,0,0,0,7
6.739997,-0.0600000023841858,2.94000005722046,1.95999944210052,-0.0599999986588955,2.94000005722046,1.95999991893768,2128.768,2128.772,2128.773,2128.768,1.08871415704925E-06,45.0000228881836,3.19770265377883E-06,-1.7953686537453E-08,-2.23705058033374E-07,1.44058230944211E-06,0,0,0,7
6.759997,-0.0600000023841858,2.94000005722046,1.95999944210052,-0.0599999986588955,2.94000005722046,1.95999991893768,2128.768,2128.776,2128.772,2128.764,2.66708229901269E-06,45.0000228881836,-1.71024765904804E-07,-1.79536723265983E-08,-2.26628500854531E-07,1.41860823532625E-06,0,0,0,7
6.779998,-0.0600000023841858,2.94000005722046,1.95999944210052,-0.0599999986588955,2.94000005722046,1.95999991893768,2128.772,2128.772,2128.768,2128.768,5.70600741411909E-06,45.0000228881836,2.06691129278624E-06,-1.79538375277843E-08,-2.2955182998885E-07,1.40981865115464E-06,0,0,0,7
6.799998,-0.0600000023841858,2.94000005722046,1.95999944210052,-0.0599999986588955,2.94000005722046,1.95999991893768,2128.772,2128.769,2128.768,2128.772,7.33148863218958E-06,45.0000228881836,5.90674972045235E-06,2.29765397818937E-08,-2.32475429129408E-07,1.42739793318469E-06,0,0,0,6
6.819998,-0.0600000023841858,2.94000005722046,1.95999944210052,-0.0599999986588955,2.94000005722046,1.95999991893768,2128.773,2128.769,2128.767,2128.771,7.11949132892187E-06,45.0000228881836,8.56871884025168E-06,5.80597934174421E-08,-2.35399156167659E-07,1.46695128933061E-06,0,0,0,6
6.839998,-0.0600000023841858,2.94000005722046,1.95999944210052,-0.0599999986588955,2.94000005722046,1.95999991893768,2128.771,2128.769,2128.77,2128.772,4.50463858214789E-06,45.0000228881836,1.04297332654824E-05,5.22125169766241E-08,-2.64635360736065E-07,1.4625564972448E-06,0,0,0,6
6.859998,-0.0600000023841858,2.94000005722046,1.95999944210052,-0.0599999986588955,2.94000005722046,1.95999991893768,2128.767,2128.768,2128.773,2128.773,1.41863813496457E-06,45.0000228881836,1.10657611003262E-05,3.46709043697047E-08,-2.35399355119625E-07,1.4625564972448E-06,0,0,0,7
6.879998,-0.0600000023841858,2.94000005722046,1.95999944210052,-0.0599999986588955,2.94000005722046,1.95999991893768,2128.768,2128.767,2128.772,2128.773,7.82609049565508E-07,45.0000228881836,9.25182393984869E-06,2.29766712322999E-08,-2.64635417579484E-07,1.48892536344647E-06,0,0,0,7
6.899998,-0.0600000023841858,2.94000005722046,1.95999944210052,-0.0599999986588955,2.94000005722046,1.95999991893768,2128.767,2128.773,2128.773,2128.767,1.56002488438389E-06,45.0000228881836,5.08214316141675E-06,1.71296079543026E-08,-2.93871522671907E-07,1.48892536344647E-06,0,0,0,7
6.919998,-0.0600000023841858,2.94000005722046,1.95999944210052,-0.0599999986588955,2.94000005722046,1.95999991893768,2128.771,2128.773,2128.769,2128.767,4.9287555157207E-06,45.0000228881836,3.59800878868555E-06,-4.12034850683085E-10,-3.08489347844443E-07,1.458161705159E-06,0,0,0,7
6.939998,-0.0600000023841858,2.94000005722046,1.95999944210052,-0.0599999986588955,2.94000005722046,1.95999991893768,2128.772,2128.771,2128.768,2128.769,7.21384412827319E-06,45.0000228881836,4.51672940471326E-06,3.4671110427098E-08,-3.11412890141582E-07,1.49332015553227E-06,0,0,0,7
6.959998,-0.0600000023841858,2.94000005722046,1.95999944210052,-0.0599999986588955,2.94000005722046,1.95999991893768,2128.772,2128.77,2128.768,2128.771,7.52011055737967E-06,45.0000228881836,6.56620522931917E-06,6.97542645866633E-08,-3.1433651770385E-07,1.52408381381974E-06,0,0,0,6
6.979998,-0.0599999986588955,2.94000005722046,1.95999944210052,-0.0599999986588955,2.94000005722046,1.95999991893768,2128.77,2128.769,2128.77,2128.771,6.41293127046083E-06,45.0000228881836,8.23876143840607E-06,1.04837504011357E-07,-3.17260202109537E-07,1.5416630958498E-06,0,0,0,6
6.999998,-0.0599999949336052,2.94000005722046,1.95999944210052,-0.0599999986588955,2.94000005722046,1.95999991893768,2128.771,2128.771,2128.769,2128.769,5.16440923092887E-06,45.0000228881836,8.6392165030702E-06,9.89903341519494E-08,-3.46496335623669E-07,1.53726830376399E-06,0,0,0,6
7.019998,-0.0599999912083149,2.94000005722046,1.95999944210052,-0.0599999986588955,2.94000005722046,1.95999991893768,2128.768,2128.769,2128.772,2128.771,3.06781839753967E-06,45.0000228881836,9.88773899734952E-06,9.31430577111314E-08,-3.75732412294383E-07,1.52847871959239E-06,0,0,0,7
7.039998,-0.0599999912083149,2.94000005722046,1.95999944210052,-0.0599999986588955,2.94000005722046,1.95999991893768,2128.768,2128.769,2128.772,2128.771,2.85582245851401E-06,45.0000228881836,9.81704670266481E-06,8.72959731168521E-08,-4.04968460543387E-07,1.51968913542078E-06,0,0,0,7
7.059998,-0.0599999912083149,2.94000005722046,1.95999944210052,-0.0599999986588955,2.94000005722046,1.95999991893768,2128.768,2128.771,2128.772,2128.769,4.01015631723567E-06,45.0000228881836,8.85117333382368E-06,8.1448852995436E-08,-4.34204508792391E-07,1.51089955124917E-06,0,0,0,7
7.079998,-0.0599999912083149,2.94000005722046,1.95999944210052,-0.0599999986588955,2.94000005722046,1.95999991893768,2128.77,2128.771,2128.77,2128.769,6.57793498248793E-06,45.0000228881836,8.73336739459774E-06,7.56016618197464E-08,-4.63440471776266E-07,1.50210996707756E-06,0,0,0,7
7.099998,-0.0599999912083149,2.94000005722046,1.95999944210052,-0.0599999986588955,2.94000005722046,1.95999991893768,2128.773,2128.77,2128.767,2128.77,9.28705503611127E-06,45.0000228881836,9.60497345658951E-06,6.97544138006378E-08,-4.9267652002527E-07,1.49332038290595E-06,0,0,0,7
7.119998,-0.0599999912083149,2.94000005722046,1.95999944210052,-0.0599999986588955,2.94000005722046,1.95999991893768,2128.772,2128.77,2128.768,2128.771,9.68755193753168E-06,45.0000228881836,1.02410022009281E-05,6.97543285355096E-08,-5.0729465783661E-07,1.47134630879009E-06,0,0,0,6
7.139997,-0.0599999912083149,2.94000005722046,1.95999944210052,-0.0599999986588955,2.94000005722046,1.95999991893768,2128.77,2128.77,2128.77,2128.77,8.72171676746802E-06,45.0000228881836,1.04529981399537E-05,6.97542930083728E-08,-5.21912738804531E-07,1.47134630879009E-06,0,0,0,6
7.159997,-0.0599999912083149,2.94000005722046,1.95999944210052,-0.0599999986588955,2.94000005722046,1.95999991893768,2128.769,2128.77,2128.771,2128.77,7.61453975428594E-06,45.0000228881836,1.04294203993049E-05,8.72959375897153E-08,-5.24836366366799E-07,1.45376702676003E-06,0,0,0,6
7.179997,-0.0599999912083149,2.94000005722046,1.95999944210052,-0.0599999986588955,2.94000005722046,1.95999991893768,2128.769,2128.77,2128.771,2128.77,7.02562465448864E-06,45.0000228881836,1.04529563031974E-05,8.14487464140257E-08,-5.39454390491301E-07,1.47134630879009E-06,0,0,0,6
7.199997,-0.0599999874830246,2.94000005722046,1.95999944210052,-0.0599999986588955,2.94000005722046,1.95999991893768,2128.77,2128.77,2128.771,2128.77,7.52034884499153E-06,45.0000228881836,1.05236076706205E-05,1.04837639014477E-07,-5.18989111242263E-07,1.45816193253268E-06,0,0,0,7
7.219997,-0.0599999837577343,2.94000005722046,1.95999944210052,-0.0599999986588955,2.94000005722046,1.95999991893768,2128.771,2128.77,2128.77,2128.77,8.62756769492989E-06,45.0000228881836,1.06413763205637E-05,1.28226517404073E-07,-4.98523831993225E-07,1.43618785841682E-06,0,0,0,7
7.239997,-0.059999980032444,2.94000005722046,1.95999944210052,-0.0599999986588955,2.94000005722046,1.95999991893768,2128.771,2128.77,2128.769,2128.77,9.54632650973508E-06,45.0000228881836,1.0947602277156E-05,1.45768140669134E-07,-5.01447459555493E-07,1.43618785841682E-06,0,0,0,6
7.259997,-0.0599999763071537,2.94000005722046,1.95999944210052,-0.0599999986588955,2.94000005722046,1.95999991893768,2128.771,2128.77,2128.769,2128.77,9.66413335845573E-06,45.0000228881836,1.13951737148454E-05,1.69156962215311E-07,-5.04371087117761E-07,1.43618785841682E-06,0,0,0,6
7.279997,-0.0599999725818634,2.94000005722046,1.95999944210052,-0.0599999986588955,2.94000005722046,1.95999991893768,2128.771,2128.77,2128.77,2128.77,8.9338745965506E-06,45.0000228881836,1.19369751701015E-05,1.92545783761489E-07,-5.07294714680029E-07,1.42739827424521E-06,0,0,0,6
7.299997,-0.0599999688565731,2.94000005722046,1.95999944210052,-0.0599999986588955,2.94000005722046,1.95999991893768,2128.771,2128.772,2128.769,2128.769,8.20361583464546E-06,45.0000228881836,1.23845447888016E-05,2.1593464794023E-07,-4.8682949227441E-07,1.4186086900736E-06,0,0,0,6
7.319997,-0.0599999651312828,2.94000005722046,1.95999944210052,-0.0599999986588955,2.94000005722046,1.95999991893768,2128.771,2128.77,2128.769,2128.771,6.53105689707445E-06,45.0000228881836,1.39628700708272E-05,2.39323412642989E-07,-4.66364241447081E-07,1.40102940804354E-06,0,0,0,7
7.339997,-0.0599999614059925,2.94000005722046,1.95999944210052,-0.0599999986588955,2.94000005722046,1.95999991893768,2128.768,2128.769,2128.773,2128.771,3.72774570678303E-06,45.0000228881836,1.54469671542756E-05,2.2178173253451E-07,-4.16662970792459E-07,1.37466054184188E-06,0,0,0,7
7.359997,-0.0599999576807022,2.94000005722046,1.95999944210052,-0.0599999986588955,2.94000005722046,1.95999991893768,2128.77,2128.767,2128.77,2128.773,3.18594447890064E-06,45.0000228881836,1.57060785568319E-05,1.9839302467517E-07,-4.28357367354693E-07,1.38345012601349E-06,0,0,0,7
7.379997,-0.0599999539554119,2.94000005722046,1.95999944210052,-0.0599999986588955,2.94000005722046,1.95999991893768,2128.769,2128.771,2128.772,2128.769,2.78549009635753E-06,45.0000228881836,1.30911848827964E-05,1.63309863410177E-07,-4.04968631073643E-07,1.37466054184188E-06,0,0,0,7
7.399997,-0.0599999502301216,2.94000005722046,1.95999944210052,-0.0599999986588955,2.94000005722046,1.95999991893768,2128.77,2128.772,2128.771,2128.768,3.51578955815057E-06,45.0000228881836,1.17012787086423E-05,1.28226574247492E-07,-3.81579695840628E-07,1.36147616558446E-06,0,0,0,7
7.419997,-0.0599999465048313,2.94000005722046,1.95999944210052,-0.0599999986588955,2.94000005722046,1.95999991893768,2128.771,2128.769,2128.77,2128.771,4.4816629269917E-06,45.0000228881836,1.18661619126215E-05,1.10684879928158E-07,-3.52343562326496E-07,1.38784503178613E-06,0,0,0,7
7.439997,-0.059999942779541,2.94000005722046,1.95999944210052,-0.0599999986588955,2.94000005722046,1.95999991893768,2128.772,2128.77,2128.768,2128.771,5.02350530950935E-06,45.0000228881836,1.1230093150516E-05,9.31432566630974E-08,-3.23107542499201E-07,1.38784503178613E-06,0,0,0,7
7.459997,-0.059999942779541,2.94000005722046,1.95999944210052,-0.0599999986588955,2.94000005722046,1.95999991893768,2128.771,2128.77,2128.769,2128.77,4.05767059419304E-06,45.0000228881836,1.0499794370844E-05,7.56015623437634E-08,-2.93871551093616E-07,1.40542431381618E-06,0,0,0,7
7.479997,-0.059999942779541,2.94000005722046,1.95999944210052,-0.0599999986588955,2.94000005722046,1.95999991893768,2128.77,2128.77,2128.771,2128.771,2.24377072299831E-06,45.0000228881836,9.8637256087386E-06,5.8059882235284E-08,-2.64635502844612E-07,1.40981910590199E-06,0,0,0,7
7.499997,-0.059999942779541,2.94000005722046,1.95999944210052,-0.0599999986588955,2.94000005722046,1.95999991893768,2128.769,2128.772,2128.772,2128.768,9.01019063803687E-07,45.0000228881836,8.94496679393342E-06,5.22126981650217E-08,-2.93871551093616E-07,1.40981910590199E-06,0,0,0,7
7.519997,-0.059999942779541,2.94000005722046,1.95999944210052,-0.0599999986588955,2.94000005722046,1.95999991893768,2128.769,2128.771,2128.771,2128.769,7.83252062319661E-07,45.0000228881836,9.43965369515354E-06,4.63654785676226E-08,-3.23107514077492E-07,1.4186086900736E-06,0,0,0,7
7.539997,-0.059999942779541,2.94000005722046,1.95999944210052,-0.0599999986588955,2.94000005722046,1.95999991893768,2128.768,2128.771,2128.772,2128.769,1.56066619183548E-06,45.0000228881836,1.06410616353969E-05,4.05182731810783E-08,-3.52343533904786E-07,1.40542431381618E-06,0,0,0,7
7.559998,-0.059999942779541,2.94000005722046,1.95999944210052,-0.0599999986588955,2.94000005722046,1.95999991893768,2128.77,2128.77,2128.77,2128.771,3.70441011909861E-06,45.0000228881836,1.26434215417248E-05,2.88238695134169E-08,-3.81579525310372E-07,1.43618797210365E-06,0,0,0,7
7.579998,-0.059999942779541,2.94000005722046,1.95999944210052,-0.0599999986588955,2.94000005722046,1.95999991893768,2128.773,2128.768,2128.768,2128.772,5.94238326812047E-06,45.0000228881836,1.45515559779597E-05,5.43501954552994E-09,-4.16662800262202E-07,1.47574132824957E-06,0,0,0,7
7.599998,-0.059999942779541,2.94000005722046,1.95999944210052,-0.0599999986588955,2.94000005722046,1.95999991893768,2128.769,2128.769,2128.771,2128.771,5.96595918977982E-06,45.0000228881836,1.49048955790931E-05,-1.21066481284515E-08,-3.66961643294417E-07,1.46695174407796E-06,0,0,0,7
7.619998,-0.059999942779541,2.94000005722046,1.95999944210052,-0.0599999986588955,2.94000005722046,1.95999991893768,2128.773,2128.767,2128.767,2128.774,6.93183437761036E-06,45.0000228881836,1.44101713885902E-05,-2.964821632645E-08,-3.17260344218084E-07,1.4405828778763E-06,0,0,0,7
7.639997,-0.059999942779541,2.94000005722046,1.95999944210052,-0.0599999986588955,2.94000005722046,1.95999991893768,2128.771,2128.769,2128.769,2128.771,5.35350909558474E-06,45.0000228881836,1.07116393337492E-05,-6.4731473514712E-08,-2.73406470796544E-07,1.42300359584624E-06,0,0,0,7
7.659997,-0.059999942779541,2.94000005722046,1.95999944210052,-0.0599999986588955,2.94000005722046,1.95999991893768,2128.769,2128.771,2128.772,2128.769,2.50308426075208E-06,45.0000228881836,6.21215485807625E-06,-8.22731323069092E-08,-2.44170479390959E-07,1.41421401167463E-06,0,0,0,7
7.679997,-0.059999942779541,2.94000005722046,1.95999944210052,-0.0599999986588955,2.94000005722046,1.95999991893768,2128.768,2128.775,2128.772,2128.765,9.71873532762402E-07,45.0000228881836,2.65496714746405E-06,-8.22731180960545E-08,-2.52941219969216E-07,1.43179329370469E-06,0,0,0,7
7.699997,-0.059999942779541,2.94000005722046,1.95999944210052,-0.0599999986588955,2.94000005722046,1.95999991893768,2128.769,2128.773,2128.771,2128.767,1.51371330048278E-06,45.0000228881836,3.62080254490138E-06,-8.22732175720375E-08,-2.5586456331439E-07,1.41860891744727E-06,0,0,0,7
7.719997,-0.059999942779541,2.94000005722046,1.95999944210052,-0.0599999986588955,2.94000005722046,1.95999991893768,2128.77,2128.77,2128.77,2128.771,2.9978489237692E-06,45.0000228881836,7.13083727532648E-06,-8.22732815208838E-08,-2.58788020346401E-07,1.3878452591598E-06,0,0,0,7
7.739997,-0.059999942779541,2.94000005722046,1.95999944210052,-0.0599999986588955,2.94000005722046,1.95999991893768,2128.771,2128.768,2128.769,2128.773,4.38775441580219E-06,45.0000228881836,1.03581851362833E-05,-8.22732744154564E-08,-2.73406072892612E-07,1.42300370953308E-06,0,0,0,7
7.759997,-0.0599999465048313,2.94000005722046,1.95999944210052,-0.0599999986588955,2.94000005722046,1.95999991893768,2128.771,2128.768,2128.769,2128.772,4.74113676318666E-06,45.0000228881836,1.15124785224907E-05,-9.98148763642348E-08,-2.44170138330446E-07,1.41860891744727E-06,0,0,0,7
7.779997,-0.0599999502301216,2.94000005722046,1.95999944210052,-0.0599999986588955,2.94000005722046,1.95999991893768,2128.771,2128.767,2128.77,2128.773,4.24645077146124E-06,45.0000228881836,1.04994915091083E-05,-1.17356464102158E-07,-2.14934189557425E-07,1.41421412536147E-06,0,0,0,7
7.799997,-0.0599999539554119,2.94000005722046,1.95999944210052,-0.0599999986588955,2.94000005722046,1.95999991893768,2128.77,2128.77,2128.771,2128.771,3.61042111762799E-06,45.0000228881836,6.61250123812351E-06,-1.34898002102091E-07,-1.85698240784404E-07,1.40542454118986E-06,0,0,0,7
7.819997,-0.0599999576807022,2.94000005722046,1.95999944210052,-0.0599999986588955,2.94000005722046,1.95999991893768,2128.77,2128.774,2128.771,2128.766,3.11573739963933E-06,45.0000228881836,2.39570681515033E-06,-1.34897987891236E-07,-1.30149715005246E-07,1.3878452591598E-06,0,0,0,7
7.839997,-0.0599999614059925,2.94000005722046,1.95999944210052,-0.0599999986588955,2.94000005722046,1.95999991893768,2128.772,2128.77,2128.769,2128.77,2.95085578727594E-06,45.0000228881836,1.995211960093E-06,-9.9814840837098E-08,-1.68156446989087E-07,1.42739850161888E-06,0,0,0,7
7.859997,-0.0599999614059925,2.94000005722046,1.95999944210052,-0.0599999986588955,2.94000005722046,1.95999991893768,2128.768,2128.775,2128.772,2128.765,1.60810384386423E-06,45.0000228881836,1.54760198256554E-06,-6.47316085178318E-08,-2.06163377924895E-07,1.46255695199216E-06,0,0,0,7
7.879997,-0.0599999614059925,2.94000005722046,1.95999944210052,-0.0599999986588955,2.94000005722046,1.95999991893768,2128.769,2128.772,2128.771,2128.768,1.77302422343928E-06,45.0000228881836,5.34032551513519E-06,-6.47317150992421E-08,-2.09086749691778E-07,1.44937257573474E-06,0,0,0,7
7.899997,-0.0599999614059925,2.94000005722046,1.95999944210052,-0.0599999986588955,2.94000005722046,1.95999991893768,2128.77,2128.766,2128.77,2128.775,2.59755211118318E-06,45.0000228881836,1.09234115370782E-05,-6.47317577318063E-08,-2.1785747605918E-07,1.48892581819382E-06,0,0,0,7
7.919997,-0.0599999614059925,2.94000005722046,1.95999944210052,-0.0599999986588955,2.94000005722046,1.95999991893768,2128.771,2128.766,2128.77,2128.774,3.4220806810481E-06,45.0000228881836,1.25488550111186E-05,-7.64260263963479E-08,-2.47093709049295E-07,1.51089989230968E-06,0,0,0,7
7.939997,-0.0599999651312828,2.94000005722046,1.95999944210052,-0.0599999986588955,2.94000005722046,1.95999991893768,2128.771,2128.769,2128.77,2128.771,3.9168076000351E-06,45.0000228881836,1.01695377452415E-05,-9.98147342556877E-08,-2.82177154531382E-07,1.54605834268295E-06,0,0,0,7
