t,x_s1,x_s2,x_s3,x_s_d1,x_s_d2,x_s_d3,propellers_rpms1,propellers_rpms2,propellers_rpms3,propellers_rpms4,rollRad,pitchRad,yawRad,v_s1,v_s2,v_s3,v_s_d1,v_s_d2,v_s_d3,insideCount
3.03999900817871,-2.10663676261902,2.03764224052429,2.71495819091797,-2.10709092459917,2.03744249913924,2.71481477590846,2102.296,2101.915,2100.412,2101.16,2.18754410743713,45.0000610351563,359.151428222656,-1.00316345691681,-0.442292213439941,0.369768172502518,-1.00202402957423,-0.441790028239331,0.369470931441136,0
3.05999898910522,-2.1265549659729,2.02886056900024,2.72230005264282,-2.12705793027089,2.02863909349306,2.72217710252528,2101.517,2101.116,2099.519,2100.269,2.26105141639709,45.0000686645508,359.122985839844,-0.995908141136169,-0.43909353017807,0.367087423801422,-0.99463823250341,-0.43853364775325,0.366747606208754,0
3.07999897003174,-2.14632344245911,2.02014446258545,2.72958636283875,-2.14687481762963,2.01990187465654,2.7294840768239,2100.833,2100.198,2098.571,2099.512,2.33368039131165,45.000072479248,359.094909667969,-0.988412320613861,-0.435788601636887,0.364318162202835,-0.987012689731818,-0.43517156395389,0.363935880833504,0
3.09999895095825,-2.1659369468689,2.01149702072144,2.73681569099426,-2.1665368224735,2.01123294315506,2.73673394212578,2099.967,2099.458,2097.823,2098.623,2.40531468391418,45.0000686645508,359.067108154297,-0.980679154396057,-0.432378768920898,0.361461490392685,-0.979150490080415,-0.431705138695114,0.361036894239725,0
3.11999893188477,-2.18539118766785,2.0029194355011,2.74398612976074,-2.18603924346076,2.00263437179909,2.74392496493047,2099.316,2098.646,2096.907,2097.814,2.47600817680359,45.0000762939453,359.039703369141,-0.972711801528931,-0.428865760564804,0.358518660068512,-0.971054830749926,-0.428135781615172,0.358051825314046,0
3.13999891281128,-2.2046811580658,1.99441468715668,2.75109601020813,-2.20537744427742,1.99410820472851,2.75105543571486,2098.448,2097.942,2096.215,2096.951,2.54564261436462,45.000072479248,359.012664794922,-0.964513659477234,-0.425250917673111,0.355490803718567,-0.962729017320853,-0.424464950136701,0.354981892905388,0
3.15999889373779,-2.22380304336548,1.98598396778107,2.75814366340637,-2.22454685580483,1.98565645645693,2.75812366973238,2097.816,2097.13,2095.34,2096.207,2.61429595947266,45.0000801086426,358.986053466797,-0.956088125705719,-0.421536087989807,0.352379143238068,-0.954176463753468,-0.420694149466721,0.35182835582496,0
3.17999887466431,-2.24275183677673,1.97762954235077,2.76512742042542,-2.24354297828729,1.97728111091604,2.76512800781232,2096.957,2096.376,2094.698,2095.46,2.68186283111572,45.0000839233398,358.959838867188,-0.947438716888428,-0.4177226126194,0.349184960126877,-0.945400692387814,-0.416824932596643,0.348592512846264,0
3.19999885559082,-2.26152324676514,1.96935319900513,2.77204561233521,-2.26236138349963,1.96898412049984,2.77206681715903,2096.308,2095.663,2093.899,2094.683,2.74843645095825,45.0000915527344,358.934051513672,-0.938569128513336,-0.413812130689621,0.34590956568718,-0.936405333943719,-0.412858900302259,0.345275702705095,0
3.21999883651733,-2.28011322021484,1.96115708351135,2.77889680862427,-2.28099771691478,1.96076740510904,2.77893849215117,2095.661,2094.973,2093.126,2093.92,2.81395149230957,45.0000915527344,358.90869140625,-0.929482817649841,-0.409806072711945,0.342554330825806,-0.927194127520771,-0.40879770114375,0.341879304099536,0
3.23999881744385,-2.29851675033569,1.95304298400879,2.78567910194397,-2.29944769987141,1.95263285119531,2.78574145514094,2095.049,2094.221,2092.353,2093.249,2.87835311889648,45.0000915527344,358.883758544922,-0.92018336057663,-0.405706107616425,0.339120745658875,-0.917770920598337,-0.404643031465682,0.33840473568996,0
3.25999879837036,-2.316730260849,1.94501256942749,2.79239130020142,-2.3177071317415,1.94458231080563,2.79247415725338,2094.535,2093.623,2091.523,2092.449,2.94157004356384,45.0000953674316,358.859283447266,-0.910674631595612,-0.401513695716858,0.335610121488571,-0.90813966903556,-0.400396635397009,0.334853456099034,0
3.27999877929688,-2.33474922180176,1.93706798553467,2.79903173446655,-2.33577189209792,1.93661760062658,2.79913507918555,2093.861,2092.951,2090.87,2091.771,3.00346493721008,45.0000991821289,358.835296630859,-0.900960445404053,-0.39723065495491,0.332023948431015,-0.898304437071348,-0.396060304851069,0.331226963911716,0
3.29999876022339,-2.35257005691528,1.92921090126038,2.80559897422791,-2.35363794288206,1.92874050102867,2.8057227320058,2093.292,2092.298,2090.16,2091.095,3.06404495239258,45.0001029968262,358.811859130859,-0.891045331954956,-0.392859041690826,0.328363806009293,-0.88826939732439,-0.391635879525586,0.327526797675251,0
3.3199987411499,-2.37018871307373,1.92144298553467,2.812091588974,-2.37130133057137,1.92095275511066,2.81223565795305,2092.6,2091.611,2089.593,2090.501,3.1232476234436,45.000114440918,358.788940429688,-0.880933701992035,-0.388400763273239,0.324631243944168,-0.878038830793148,-0.38712524690267,0.323754535899178,0
3.33999872207642,-2.38760137557983,1.91376578807831,2.81850814819336,-2.38875818834702,1.91325606774385,2.81867243123596,2091.961,2090.989,2089.009,2089.874,3.18112921714783,45.0001182556152,358.766510009766,-0.870630085468292,-0.383857786655426,0.320827931165695,-0.86761712685585,-0.38253034224882,0.319911797055328,0
3.35999870300293,-2.40480446815491,1.90618085861206,2.82484722137451,-2.40600473826142,1.90565210461638,2.82503165883226,2091.371,2090.42,2088.41,2089.228,3.23770999908447,45.0001182556152,358.744537353516,-0.860138833522797,-0.379232197999954,0.31695544719696,-0.857008783270507,-0.377853148614918,0.316000239577818,0
3.37999868392944,-2.42179346084595,1.89869046211243,2.83110761642456,-2.42303729340588,1.89814249127761,2.83131198128792,2090.823,2089.877,2087.802,2088.595,3.29298877716064,45.000114440918,358.723114013672,-0.849464297294617,-0.374525904655457,0.313015431165695,-0.846218406174894,-0.373095696836231,0.312021561863062,0
3.39999866485596,-2.43856596946716,1.89129567146301,2.83728790283203,-2.43985226007817,1.89072881218236,2.83751207351645,2090.562,2089.352,2086.975,2087.945,3.34693837165833,45.000114440918,358.702270507813,-0.838610768318176,-0.369740813970566,0.309009611606598,-0.835250710086563,-0.368260065532417,0.30797750226976,0
3.41999864578247,-2.45511770248413,1.88399815559387,2.84338665008545,-2.45644613995011,1.88341260973526,2.84363064559811,2090,2088.751,2086.445,2087.445,3.39930963516235,45.0001182556152,358.682037353516,-0.827582776546478,-0.36487865447998,0.304939657449722,-0.824110517902847,-0.363348381107516,0.303869839118907,0
3.43999862670898,-2.47144532203674,1.87679934501648,2.8494029045105,-2.47281553223516,1.87619538333507,2.84966644357917,2089.577,2088.25,2085.839,2086.856,3.4501166343689,45.000114440918,358.662353515625,-0.816385507583618,-0.359941780567169,0.300807386636734,-0.812802760900837,-0.358362817749955,0.299700390693786,0
3.4599986076355,-2.48754572868347,1.8697007894516,2.8553352355957,-2.48895713585605,1.86907858841895,2.85561825027117,2089.071,2087.765,2085.337,2086.302,3.49928188323975,45.0001182556152,358.643310546875,-0.805024087429047,-0.354932427406311,0.296614617109299,-0.801332478737407,-0.353305597432546,0.29547101523997,0
3.47999858856201,-2.50341558456421,1.86270356178284,2.86118245124817,-2.50486775161233,1.86206363550683,2.86148488605013,2088.557,2087.243,2084.88,2085.823,3.54680418968201,45.0001182556152,358.624877929688,-0.793503820896149,-0.349853187799454,0.292363345623016,-0.789704819449208,-0.348178989912491,0.291183610965327,0
3.49999856948853,-2.51905226707458,1.85580945014954,2.86694359779358,-2.52054428434799,1.85515188924569,2.86726520965582,2088.046,2086.82,2084.452,2085.288,3.59270906448364,45.0001182556152,358.607116699219,-0.781830072402954,-0.344706356525421,0.288055449724197,-0.777925039452654,-0.342985312731374,0.286840116040013,0
3.51999855041504,-2.53445267677307,1.8490195274353,2.87261748313904,-2.53598374511905,1.84834466745387,2.87295811899099,2087.613,2086.278,2083.987,2084.905,3.63703083992004,45.0001258850098,358.589996337891,-0.770008146762848,-0.339494258165359,0.283692896366119,-0.765998503543938,-0.337726931215167,0.282442508596475,0
3.53999853134155,-2.54961323738098,1.84233522415161,2.87820315361023,-2.55118325336113,1.8416432401654,2.87856255192065,2087.25,2085.843,2083.495,2084.447,3.67975902557373,45.0001220703125,358.573486328125,-0.75804340839386,-0.334219068288803,0.279277712106705,-0.753930684899023,-0.332406258474226,0.277992806729451,0
3.55999851226807,-2.56453227996826,1.83575749397278,2.88369941711426,-2.56614003905708,1.8350488286743,2.88407748707125,2087.065,2085.515,2082.88,2083.905,3.7208366394043,45.0001220703125,358.557586669922,-0.745940983295441,-0.328883111476898,0.274811834096909,-0.741727165073652,-0.327025755403295,0.273493068495972,0
3.57999849319458,-2.5792064666748,1.8292875289917,2.88910531997681,-2.58085144490454,1.8285626045789,2.88950194463,2086.654,2085.099,2082.496,2083.521,3.76007294654846,45.000114440918,358.542388916016,-0.73370623588562,-0.323488742113113,0.270297288894653,-0.729393634003335,-0.321587930681506,0.268945391915357,0
3.59999847412109,-2.59363317489624,1.82292699813843,2.89442014694214,-2.59531492848356,1.82218568882616,2.89483498714405,2086.36,2084.779,2082.06,2083.056,3.79748058319092,45.0001220703125,358.527923583984,-0.721345007419586,-0.318038642406464,0.265736252069473,-0.716935890003358,-0.316095340772373,0.264351914969218,0
3.61999845504761,-2.60781049728394,1.81667637825012,2.89964270591736,-2.60952806442418,1.81591915075597,2.90007572031979,2086.122,2084.386,2081.609,2082.701,3.83299589157104,45.0001182556152,358.51416015625,-0.708863317966461,-0.312535464763641,0.261130839586258,-0.70435983976878,-0.310550589923799,0.259714815601457,0
3.63999843597412,-2.6217360496521,1.8105366230011,2.90477228164673,-2.62348854657402,1.80976400714546,2.90522329382206,2085.684,2084.033,2081.369,2082.377,3.86652612686157,45.000114440918,358.501190185547,-0.696267306804657,-0.306981891393661,0.256483316421509,-0.691671498374427,-0.304956330168069,0.255036311718265,0
3.65999841690063,-2.63540697097778,1.80450916290283,2.90980815887451,-2.63719419016587,1.80372122125333,2.91027690207338,2085.302,2083.725,2081.119,2082.041,3.89815926551819,45.0001106262207,358.488922119141,-0.683563411235809,-0.301380842924118,0.25179597735405,-0.678876989274912,-0.29931526132186,0.250318661188129,0
3.67999839782715,-2.64882230758667,1.79859447479248,2.91474962234497,-2.65064293398532,1.79779170186416,2.91523578505326,2085.164,2083.458,2080.692,2081.679,3.92795014381409,45.0001068115234,358.477386474609,-0.670757651329041,-0.295735001564026,0.247071132063866,-0.665982544304608,-0.293630130986231,0.245564161841821,0
3.69999837875366,-2.66197919845581,1.79279351234436,2.91959595680237,-2.66383284253831,1.7919763023327,2.92009922909738,2084.844,2083.138,2080.451,2081.446,3.95577764511108,45.0001029968262,358.466644287109,-0.657856106758118,-0.290046900510788,0.242310956120491,-0.652994503677666,-0.287903734546629,0.240775151472409,0
3.71999883651733,-2.67487668991089,1.78710699081421,2.92434620857239,-2.67676241335595,1.78627568509393,2.92486668020846,2084.761,2082.954,2080.047,2081.084,3.98166990280151,45.0000991821289,358.456634521484,-0.644865155220032,-0.284319341182709,0.237517848610878,-0.639919003263946,-0.282138777293583,0.235953892526185,0
3.73999881744385,-2.68751215934753,1.78153610229492,2.92900013923645,-2.68942935234008,1.78069086161033,2.92953729249604,2084.575,2082.695,2079.773,2080.858,4.00548934936523,45.0001029968262,358.447448730469,-0.631790995597839,-0.278555124998093,0.232694119215012,-0.626763223642889,-0.276338425127611,0.231103032659589,0
3.75999879837036,-2.69988489151001,1.7760808467865,2.93355703353882,-2.70183242553843,1.77522237592852,2.93411061097152,2084.511,2082.492,2079.438,2080.598,4.02719593048096,45.0000991821289,358.439086914063,-0.618640422821045,-0.272756993770599,0.227842301130295,-0.613533519446496,-0.270505479790955,0.226224914981905,0
3.77999877929688,-2.71199345588684,1.77074217796326,2.93801641464233,-2.71397022201757,1.76987085012573,2.93858611538901,2084.222,2082.304,2079.333,2080.402,4.04666948318481,45.0001106262207,358.431549072266,-0.605420172214508,-0.26692807674408,0.222964748740196,-0.600236664410595,-0.264642927807743,0.22132203713631,0
3.79999876022339,-2.72383594512939,1.76552069187164,2.94237780570984,-2.72584146740245,1.76463684607091,2.94296333585505,2084.03,2082.099,2079.192,2080.249,4.06399345397949,45.000114440918,358.424835205078,-0.592137396335602,-0.261071562767029,0.218064069747925,-0.586879540650786,-0.258753803486494,0.216396936728282,0
3.8199987411499,-2.73541212081909,1.76041686534882,2.94664072990417,-2.73744502604399,1.75952086446905,2.94724185362786,2083.987,2082.008,2078.955,2080.015,4.07918930053711,45.0001068115234,358.4189453125,-0.578798949718475,-0.255190640687943,0.213142842054367,-0.573469138662448,-0.252841188920109,0.211452191325582,0
3.83999872207642,-2.74672031402588,1.75543117523193,2.95080471038818,-2.74877990318669,1.7545233439055,2.95142130191661,2083.844,2081.835,2078.838,2079.933,4.09216785430908,45.0001106262207,358.413940429688,-0.565411686897278,-0.249288216233253,0.208203539252281,-0.560012557320729,-0.246908213985875,0.206490418458267,0
3.85999870300293,-2.7577600479126,1.75056385993958,2.95486974716187,-2.75984524713621,1.7496446598903,2.95550136668061,2083.882,2081.778,2078.614,2079.755,4.10294580459595,45.0001106262207,358.409759521484,-0.551982760429382,-0.243367418646812,0.203248858451843,-0.546517003880547,-0.240958056345467,0.201514275618682,0
3.87999868392944,-2.76853036880493,1.74581527709961,2.95883536338806,-2.77064035142697,1.74488512390243,2.9594817874286,2083.835,2081.712,2078.498,2079.649,4.111403465271,45.0001068115234,358.406463623047,-0.538519263267517,-0.237431317567825,0.198281481862068,-0.532989793976595,-0.234993941444945,0.196526460261464,0
3.89999866485596,-2.7790310382843,1.74118566513062,2.96270155906677,-2.78116465698973,1.74024498243422,2.96336235801801,2083.854,2081.684,2078.374,2079.541,4.11751270294189,45.0000991821289,358.404083251953,-0.525028586387634,-0.231483295559883,0.19330407679081,-0.519438351623346,-0.229019142514754,0.19152970980354,0
3.91999864578247,-2.78926134109497,1.7366749048233,2.96646785736084,-2.79141775431922,1.73572441603557,2.96714292745415,2083.812,2081.629,2078.345,2079.517,4.12121391296387,45.0000991821289,358.402648925781,-0.511518239974976,-0.225526720285416,0.188319489359856,-0.505870209215039,-0.223036980569728,0.186526801624129,0
3.93999862670898,-2.79922127723694,1.7322838306427,2.97013449668884,-2.80139938564169,1.73132353835831,2.97082340068949,2083.804,2081.684,2078.331,2079.431,4.12250661849976,45.0000915527344,358.402130126953,-0.497996002435684,-0.219564914703369,0.183330446481705,-0.492293007525688,-0.217050824409084,0.181520553064741,0
3.9599986076355,-2.80891036987305,1.72801160812378,2.9737012386322,-2.81110944708251,1.72704239520053,2.9744037394229,2083.898,2081.595,2078.27,2079.529,4.12139225006104,45.0000915527344,358.402618408203,-0.484469592571259,-0.213601261377335,0.178339824080467,-0.478714495709081,-0.211064090616426,0.176513821429175,0
3.97999858856201,-2.81832933425903,1.72385895252228,2.9771683216095,-2.82054799083379,1.72288096355084,2.97788396289889,2083.943,2081.74,2078.293,2079.453,4.11780071258545,45.0000915527344,358.403991699219,-0.470946878194809,-0.207639142870903,0.173350483179092,-0.465142531298778,-0.205080243559746,0.171509503983524,0
3.99999856948853,-2.82747840881348,1.71982502937317,2.98053574562073,-2.82971522732196,1.71883915063274,2.98126414870687,2084.037,2081.697,2078.323,2079.61,4.11172294616699,45.0000801086426,358.406402587891,-0.457435697317123,-0.201682075858116,0.168365314602852,-0.451585080208119,-0.199102795391421,0.16651053795617,0
4.01999855041504,-2.83635687828064,1.71591091156006,2.98380351066589,-2.83861152737536,1.71491679294887,2.98454443358039,2084.068,2081.832,2078.449,2079.654,4.10313367843628,45.000072479248,358.409698486328,-0.443944126367569,-0.195733532309532,0.163387209177017,-0.438050216730205,-0.193135306048212,0.161519900537785,0
4.03999853134155,-2.84496641159058,1.7121148109436,2.98697185516357,-2.84723742439184,1.7111136553254,2.98772501419635,2084.511,2081.956,2078.27,2079.703,4.09206914901733,45.000072479248,358.413970947266,-0.430480092763901,-0.189797163009644,0.158419206738472,-0.424546123537917,-0.187181383251268,0.156540608881334,0
4.05999851226807,-2.85330772399902,1.70843696594238,2.99004125595093,-2.85559361650632,1.70742942995627,2.9908061479743,2084.486,2082.208,2078.532,2079.755,4.07826089859009,45.0000648498535,358.419219970703,-0.417051494121552,-0.183876469731331,0.153464302420616,-0.411081091683913,-0.181244682506126,0.151575720102072,0
4.07999849319458,-2.86138105392456,1.70487761497498,2.99301171302795,-2.86368096875845,1.70386373544756,2.99378815387565,2084.614,2082.355,2078.727,2079.932,4.06183099746704,45.000057220459,358.425567626953,-0.403667092323303,-0.177975475788116,0.148525610566139,-0.397663520600614,-0.175328907102703,0.146628331277545,0
4.09999847412109,-2.86918759346008,1.70143556594849,2.99588394165039,-2.87150051526014,1.70041611586177,2.99667141320293,2084.967,2082.502,2078.768,2080.144,4.04281187057495,45.0000495910645,358.432983398438,-0.390335410833359,-0.172097772359848,0.143606245517731,-0.384301918100229,-0.169437808115309,0.14170157944759,0
4.11999845504761,-2.87672877311707,1.69811081886292,2.99865818023682,-2.87905346136317,1.69708603976212,2.99945637039902,2085.19,2082.768,2078.963,2080.319,4.0210657119751,45.0000381469727,358.44140625,-0.377064883708954,-0.166246950626373,0.138709366321564,-0.371004900374722,-0.163575184402637,0.136798641614332,0
4.13999843597412,-2.88400626182556,1.69490218162537,3.00133490562439,-2.88634118582683,1.69387289925693,3.0021435338464,2085.497,2082.953,2079.14,2080.619,3.99657845497131,45.0000267028809,358.450927734375,-0.363864332437515,-0.160426780581474,0.133838042616844,-0.357781191995846,-0.157744882607763,0.131922734742194,0
4.15999841690063,-2.89102125167847,1.69180917739868,3.00391483306885,-2.89336524298545,1.69077600904385,3.00473347666643,2085.69,2083.243,2079.47,2080.89,3.96929740905762,45.0000343322754,358.461486816406,-0.35074257850647,-0.154641255736351,0.128995656967163,-0.344639625915118,-0.151950797158156,0.127077115757882,0
4.17999887466431,-2.89777517318726,1.68883180618286,3.00639843940735,-2.90012752302997,1.68779453574216,3.00722689581904,2086.031,2083.602,2079.727,2081.129,3.93927526473999,45.0000228881836,358.473052978516,-0.337708413600922,-0.148894369602203,0.124185465276241,-0.331588833473329,-0.146196733591584,0.122264967249266,0
4.19999837875366,-2.9042706489563,1.68596792221069,3.00878667831421,-2.90662946360577,1.6849278454974,3.00962432139947,2086.589,2083.928,2079.844,2081.442,3.90648055076599,45.0000114440918,358.485717773438,-0.324770659208298,-0.143190085887909,0.119410715997219,-0.318638794353067,-0.140487091926531,0.117489968971036,0
4.21999883651733,-2.91050910949707,1.6832172870636,3.01108026504517,-2.91287377893544,1.68217474161525,3.01192675420845,2086.776,2084.382,2080.329,2081.747,3.87071871757507,45,358.499481201172,-0.311938285827637,-0.137532413005829,0.114674858748913,-0.305797431895002,-0.134825365545187,0.112755042453984,0
4.23999834060669,-2.9164936542511,1.68057882785797,3.01327991485596,-2.91886215176863,1.67953448217536,3.01413481471717,2087.286,2084.824,2080.6,2082.073,3.83211898803711,44.9999961853027,358.514373779297,-0.299220770597458,-0.131925567984581,0.109981179237366,-0.29307523689619,-0.129216179815201,0.108064055913287,0
4.25999879837036,-2.9222264289856,1.67805111408234,3.0153865814209,-2.92459761801936,1.6770057286504,3.0162496223419,2087.628,2085.15,2081.068,2082.611,3.79057788848877,44.9999732971191,358.530517578125,-0.286627441644669,-0.126373633742332,0.105333112180233,-0.280480371193187,-0.123663133271033,0.103420018819044,0
4.27999830245972,-2.92770981788635,1.67563366889954,3.01740121841431,-2.93008228394558,1.67458755239623,3.0182719537118,2088.086,2085.635,2081.494,2083.042,3.74615263938904,44.9999656677246,358.547760009766,-0.2741679251194,-0.12088043987751,0.100734084844589,-0.268023518828482,-0.118170936481787,0.0988268706407847,0
4.29999876022339,-2.93294668197632,1.67332458496094,3.01932501792908,-2.93531951676385,1.67227846881501,3.02020305040253,2088.724,2086.073,2081.818,2083.568,3.69882583618164,44.9999580383301,358.566131591797,-0.261851608753204,-0.115450277924538,0.0961877331137657,-0.255713083710743,-0.112743294710944,0.0942877101065509,0
4.31999826431274,-2.93794059753418,1.67112278938293,3.02115893363953,-2.94031185389816,1.6700773591625,3.02204384802478,2089.287,2086.698,2082.265,2083.99,3.64845991134644,44.9999351501465,358.585601806641,-0.249687939882278,-0.110087126493454,0.0916975289583206,-0.243559939510323,-0.107385002134086,0.0898065466063351,0
4.33999872207642,-2.94269418716431,1.66902697086334,3.02290415763855,-2.94506300362337,1.66798258846906,3.02379571391081,2089.8,2087.226,2082.821,2084.583,3.59500575065613,44.9999313354492,358.606292724609,-0.237686559557915,-0.104795537889004,0.0872669965028763,-0.231572735866903,-0.102099872356922,0.0853865694752565,0
4.35999822616577,-2.94721126556396,1.66703534126282,3.02456212043762,-2.9495759420409,1.66599284457861,3.02545974542248,2090.469,2087.878,2083.309,2085.101,3.53848123550415,44.9999198913574,358.628112792969,-0.22585754096508,-0.0995800644159317,0.0828998982906342,-0.219762532378448,-0.0968927815300757,0.0810318566593957,0
4.37999868392944,-2.95149540901184,1.6651463508606,3.02613401412964,-2.95385472838772,1.66410633778317,3.02703743930041,2091.003,2088.534,2083.971,2085.714,3.47880363464355,44.9999122619629,358.651184082031,-0.214210852980614,-0.094445064663887,0.078599825501442,-0.208138228157264,-0.0917676532511429,0.0767456894805689,0
4.3999981880188,-2.95555019378662,1.66335868835449,3.02762150764465,-2.95790278480435,1.66232155926905,3.02853005737207,2091.646,2089.207,2084.605,2086.372,3.41603302955627,44.9998970031738,358.675476074219,-0.202756732702255,-0.0893951207399368,0.0743705034255981,-0.196711064945974,-0.0867294439779025,0.0725322130460775,0
4.41999864578247,-2.95938062667847,1.66166996955872,3.02902579307556,-2.96172453154498,1.66063656015661,3.02993922949401,2092.419,2089.878,2085.187,2087.095,3.35016369819641,44.9998779296875,358.701019287109,-0.191505387425423,-0.0844345539808273,0.0702157095074654,-0.1854901951538,-0.0817821889859633,0.0683948020745504,0
4.43999814987183,-2.96299028396606,1.66007828712463,3.03034853935242,-2.96532384399801,1.65904963179628,3.03126638461736,2093.027,2090.569,2085.979,2087.904,3.28111171722412,44.999870300293,358.727783203125,-0.180467113852501,-0.0795678123831749,0.0661391541361809,-0.174487038802395,-0.0769309233359028,0.0643376674091529,0
4.4599986076355,-2.96638298034668,1.65858268737793,3.03159141540527,-2.96870551364455,1.65755866163534,3.03251328947918,2093.821,2091.418,2086.685,2088.606,3.20895719528198,44.9998626708984,358.755706787109,-0.169652312994003,-0.0747995227575302,0.0621447339653969,-0.163711005504856,-0.0721797957039145,0.0603642786059186,0
4.47999811172485,-2.96956443786621,1.6571798324585,3.03275609016418,-2.97187387617336,1.65616173807886,3.03368154275465,2094.915,2092.251,2087.192,2089.378,3.13366103172302,44.9998435974121,358.784881591797,-0.159071087837219,-0.0701342821121216,0.0582363270223141,-0.15317368961356,-0.0675339180125745,0.0564789107880426,0
4.49999856948853,-2.97253918647766,1.65586805343628,3.03384447097778,-2.97483410466012,1.65485658032998,3.03477305188418,2095.61,2093.183,2088.122,2090.185,3.05496788024902,44.999828338623,358.815307617188,-0.148733869194984,-0.0655765905976295,0.0544177405536175,-0.14288476193515,-0.062997554097703,0.0526851298200484,0
4.51999807357788,-2.97531199455261,1.65464580059052,3.03485822677612,-2.9775910019868,1.65364107080939,3.03578958780858,2096.478,2094.091,2088.984,2091.074,2.97297978401184,44.9998245239258,358.847076416016,-0.138651713728905,-0.061131477355957,0.0506929457187653,-0.132855987121706,-0.0585758909666092,0.0489872736188248,0
4.53999853134155,-2.97788858413696,1.6535097360611,3.03579950332642,-2.98015013335263,1.6525127558339,3.03673320255384,2097.506,2094.964,2089.776,2092.075,2.88769364356995,44.9998054504395,358.880126953125,-0.128835633397102,-0.0568036139011383,0.0470659136772156,-0.123097301245771,-0.0542733094102159,0.0453890058589614,0
4.55999803543091,-2.98027491569519,1.65245771408081,3.03667020797729,-2.98251677556273,1.65146930887257,3.03760584180794,2098.335,2095.985,2090.817,2093.046,2.79900527000427,44.9997978210449,358.914489746094,-0.119296684861183,-0.0525978803634644,0.0435407608747482,-0.113620635145436,-0.0500950697068632,0.0418947257342275,0
4.57999849319458,-2.98247575759888,1.65148723125458,3.03747272491455,-2.98469689663328,1.65050809864118,3.03840970612538,2099.235,2096.964,2091.884,2094.139,2.70701241493225,44.9997711181641,358.950134277344,-0.110046036541462,-0.0485192723572254,0.0401215329766273,-0.104436194314179,-0.0460456714345199,0.0385081962613443,0
4.59999799728394,-2.98449730873108,1.65059614181519,3.03820896148682,-2.98669625385642,1.64962658676322,3.03914691836153,2100.402,2098.143,2092.789,2095.102,2.61178421974182,44.999755859375,358.986999511719,-0.101094752550125,-0.0445726774632931,0.0368123538792133,-0.0955560715797255,-0.0421304462923748,0.0352338763636428,0
4.61999845504761,-2.98634672164917,1.64978063106537,3.03888130187988,-2.98852122892657,1.64882195956469,3.03981983160425,2101.66,2099.258,2093.693,2096.223,2.51320767402649,44.9997329711914,359.025207519531,-0.09245365858078,-0.0407629162073135,0.0336172878742218,-0.0869907460942088,-0.0383540145138541,0.0320756299625318,0
4.63999795913696,-2.98802924156189,1.64903879165649,3.03949213027954,-2.99017806601712,1.64809146400429,3.04043074823401,2102.628,2100.454,2094.947,2097.391,2.41112685203552,44.9997253417969,359.064758300781,-0.0841340720653534,-0.0370948724448681,0.0305406004190445,-0.0787524683959209,-0.0347217773323605,0.029037974133109,0
4.65999841690063,-2.98955249786377,1.64836716651917,3.04004383087158,-2.9916735715332,1.64743209915406,3.04098217793998,2103.976,2101.7,2095.953,2098.566,2.30566573143005,44.9997062683105,359.105651855469,-0.0761477202177048,-0.0335737653076649,0.0275864005088806,-0.0708519956160636,-0.0312384775416348,0.0261248752945118,0
4.67999792098999,-2.99092245101929,1.64776289463043,3.04053902626038,-2.99301448275092,1.64684089456489,3.04147660492174,2105.09,2102.93,2097.259,2099.891,2.19667649269104,44.9996757507324,359.147918701172,-0.0685060918331146,-0.0302046183496714,0.0247590113431215,-0.0633017316417401,-0.0279095839862116,0.0233409070653217,0
4.69999837875366,-2.99214696884155,1.64722347259521,3.04098033905029,-2.99420804199309,1.64631465711375,3.04191669960203,2106.441,2104.317,2098.444,2101.142,2.08424282073975,44.9996643066406,359.191497802734,-0.0612211711704731,-0.0269927065819502,0.0220627821981907,-0.0561127159863251,-0.0247399639614612,0.0206901399859349,0
4.71999788284302,-2.99323320388794,1.64674425125122,3.0413703918457,-2.99526148568387,1.64585019627832,3.04230513022861,2107.79,2105.556,2099.726,2102.654,1.96829068660736,44.999641418457,359.236511230469,-0.0543046407401562,-0.0239431317895651,0.0195020530372858,-0.049297501441286,-0.0217351519634992,0.0181772025796345,0
4.73999834060669,-2.9941885471344,1.64632344245911,3.04171204566956,-2.99618250344843,1.64544412172102,3.0426447321556,2109.031,2107.128,2101.21,2103.951,1.84879088401794,44.9996223449707,359.282775878906,-0.0477685816586018,-0.0210612267255783,0.0170811843127012,-0.0428674143879402,-0.0189001417671024,0.0158062711620959,0
4.75999784469604,-2.99502086639404,1.64595627784729,3.0420081615448,-2.99697883672487,1.64509302026007,3.04293835984187,2110.613,2108.541,2102.479,2105.497,1.72585189342499,44.9996032714844,359.330444335938,-0.0416249446570873,-0.0183524563908577,0.0148045672103763,-0.0368351519950103,-0.0162405315239686,0.0135820274920508,0
4.77999830245972,-2.99573874473572,1.64563965797424,3.04226160049438,-2.99765863400656,1.644793299244,3.04318901783753,2112.04,2110.214,2103.996,2106.913,1.5993355512619,44.9995803833008,359.379455566406,-0.0358856320381165,-0.0158220939338207,0.0126767531037331,-0.03121233208023,-0.0137614435025073,0.0115087553449511,0
4.79999780654907,-2.99634981155396,1.64537048339844,3.04247570037842,-2.99823014742871,1.64454132032587,3.04339974890802,2113.547,2111.776,2105.549,2108.555,1.4692804813385,44.9995651245117,359.429901123047,-0.0305629391223192,-0.0134755382314324,0.0107021555304527,-0.026011791579748,-0.0114685374775441,0.00959118801522685,0
4.81999826431274,-2.99686312675476,1.64514398574829,3.04265332221985,-2.99870199610305,1.64433328335968,3.04357373113207,2115.303,2113.394,2106.975,2110.249,1.33570802211761,44.9995422363281,359.481781005859,-0.0256693437695503,-0.0113181360065937,0.0088854106143117,-0.0212454443988861,-0.00936706626180328,0.00783371845311276,0
4.8399977684021,-2.99728751182556,1.6449568271637,3.04279804229736,-2.99908294835904,1.64416532240968,3.04371419760862,2116.865,2115.156,2108.7,2111.938,1.19847297668457,44.9995231628418,359.535034179688,-0.021217156201601,-0.00935524050146341,0.00723112002015114,-0.016926262548715,-0.00746274918432821,0.00624112975848234,0
4.85999822616577,-2.99763202667236,1.64480483531952,3.04291296005249,-2.99938210586465,1.64403342457195,3.04382450434676,2118.579,2116.9,2110.4,2113.762,1.05764770507813,44.99951171875,359.589691162109,-0.0172191429883242,-0.00759250018745661,0.00574383698403835,-0.0130664607559794,-0.00576097168929746,0.00481792580184326,0
4.87999773025513,-2.99790549278259,1.64468431472778,3.04300141334534,-2.99960875845135,1.64393349398174,3.0439080767361,2120.343,2118.751,2112.176,2115.605,0.913223087787628,44.9994888305664,359.645721435547,-0.0136880315840244,-0.00603550765663385,0.00442821951583028,-0.00967914133147829,-0.0042675105545964,0.00356893772778299,0
4.8999981880188,-2.99811840057373,1.64459025859833,3.04306721687317,-2.99977250247228,1.64386129962962,3.0439684531883,2122.297,2120.689,2113.893,2117.491,0.765205681324005,44.9994697570801,359.703155517578,-0.0106365066021681,-0.00468986388295889,0.00328898336738348,-0.00677682463994955,-0.00298788597946764,0.00249878210305798,0
4.91999864578247,-2.99828004837036,1.64451920986176,3.04311394691467,-2.9998831585461,1.643812511628,3.04400925480729,2124.067,2122.687,2115.917,2119.461,0.613492548465729,44.9994506835938,359.761993408203,-0.00807728432118893,-0.00356127973645926,0.00233097188174725,-0.00437263587858538,-0.00192788483236139,0.00161229851104405,0
4.93999814987183,-2.99840021133423,1.64446592330933,3.04314517974854,-2.999950817524,1.64378268094443,3.04403420233833,2126.133,2124.709,2117.782,2121.538,0.458194494247437,44.9994316101074,359.822235107422,-0.00602348800748587,-0.00265564094297588,0.00155889592133462,-0.00247971361559962,-0.00109329987697482,0.000914331465335039,0
4.9599986076355,-2.99848985671997,1.64442658424377,3.04316473007202,-2.99998584096072,1.64376723919389,3.04404711634179,2128.166,2126.953,2119.814,2123.541,0.299222618341446,44.9994125366211,359.883880615234,-0.0044881128706038,-0.00197868444956839,0.000977598712779582,-0.00111104588831168,-0.000489857508285674,0.000409669975081073,0
4.97999811172485,-2.99855947494507,1.64439558982849,3.04317665100098,-2.99999884439806,1.64376150600907,3.04405191102931,2130.302,2129.051,2121.884,2125.834,0.136576801538467,44.999382019043,359.947021484375,-0.00348435388877988,-0.00153625127859414,0.000591879361309111,-0.000280039324103143,-0.000123468676652472,0.000103257393900158,0
4.99999856948853,-2.99862003326416,1.64436888694763,3.04318475723267,-3.00000071525573,1.64376068115234,3.04405260086059,2132.37,2131.366,2124.165,2128.061,359.97021484375,44.9993553161621,0.0115713402628899,-0.00302579114213586,-0.00133405800443143,0.000406721548642963,-1.4388490399142E-12,-6.34159391665889E-13,5.32018873400375E-13,0
5.01999807357788,-2.99868273735046,1.64434146881104,3.04319334030151,-2.99999883910678,1.64376068115234,3.04405069291247,2134.67,2133.633,2126.368,2130.487,359.800262451172,44.999324798584,0.0775811150670052,-0.0031258943490684,-0.00137815356720239,0.000427029939601198,0.000280885029283628,0,-0.000285645796484652,0
5.03999853134155,-2.99875855445862,1.64430809020996,3.04320645332336,-2.99998579356093,1.64376068115234,3.04403742625549,1557.565,1765.722,2687.979,2487.427,359.626647949219,44.9993057250977,0.144974440336227,-0.00379813043400645,-0.00167430844157934,0.000657840981148183,0.00111466649712245,0,-0.00113355916545855,0
5.05999803543091,-2.99885964393616,1.64426362514496,3.04321193695068,-2.99995065730729,1.64376068115234,3.04400169447164,1808.499,1928.784,2418.692,2312.577,359.950622558594,45.0002403259277,359.894683837891,-0.00505069922655821,-0.00222620787099004,0.000275439902907237,0.0024878348705762,0,-0.00253000159865575,0
5.07999849319458,-2.99895811080933,1.64421129226685,3.04319596290588,-2.9998827712752,1.64376068115234,3.04393265782786,2131.265,2133.212,2082.057,2093.602,0.543155670166016,44.9987411499023,359.475463867188,-0.00491603510454297,-0.00259878486394882,-0.000797008280642331,0.00438719898577833,0,-0.00446155835297364,0
5.09999799728394,-2.99900507926941,1.64416015148163,3.04314517974854,-2.99977175223413,1.64376068115234,3.04381975710655,2418.911,2308.713,1787.197,1898.367,1.11401665210724,44.9941825866699,359.073608398438,-0.00235363119281828,-0.00255408231168985,-0.00254071597009897,0.00679936517864185,0,-0.00691460875287917,0
5.11999845504761,-2.99895477294922,1.644118309021,3.04304623603821,-2.99960746241081,1.64376068115234,3.04365268270762,2502.117,2350.248,1699.443,1834.888,1.40682423114777,44.9916038513184,358.852386474609,0.00252712913788855,-0.00210515968501568,-0.00495043024420738,0.0097114588779942,0,-0.0098760600139461,0
5.13999795913696,-2.99878191947937,1.64408874511719,3.04288601875305,-2.99938005191925,1.64376068115234,3.04342141779772,2355.242,2248.904,1837.339,1919.669,1.34636402130127,44.9944458007813,358.858093261719,0.00861784722656012,-0.00148701667785645,-0.00800553523004055,0.013110207330395,0,-0.0133324144206227,0
5.15999841690063,-2.99849128723145,1.64406847953796,3.04265308380127,-2.99907989172012,1.64376068115234,3.04311617013332,2079.945,2074.355,2095.521,2087.553,1.05795073509216,44.9998550415039,359.008758544922,0.0145328249782324,-0.00100110983476043,-0.0116436909884214,0.0169830475585043,0,-0.0172708960635712,0
5.17999792098999,-2.99810338020325,1.64405167102814,3.04233717918396,-2.99869766033609,1.64376068115234,3.04272746024582,1837.566,1927.019,2315.826,2234.492,0.776367366313934,45.0035018920898,359.153564453125,0.0193904954940081,-0.000843349436763674,-0.0157997533679008,0.0213168326769055,0,-0.0216781352286215,0
5.19999837875366,-2.99763894081116,1.64403176307678,3.04192805290222,-2.99822422509665,1.64376068115234,3.04224600067356,1754.672,1881.251,2378.44,2278.616,0.705276787281036,45.004222869873,359.162994384766,0.0232272129505873,-0.0010094630997628,-0.0204506404697895,0.0260993063861985,0,-0.0265416678823116,0
5.21999788284302,-2.99710178375244,1.64400494098663,3.04141592979431,-2.99765078780064,1.64376068115234,3.0416628440932,1855.711,1947.448,2264.372,2204.306,0.908742904663086,45.0024108886719,358.997467041016,0.0268639624118805,-0.00132060889154673,-0.0256030075252056,0.0313174525433987,0,-0.0318482572688787,0
5.23999834060669,-2.99647450447083,1.64397430419922,3.04079079627991,-2.9969686999762,1.64376068115234,3.04096919544849,2062.515,2073.761,2053.656,2062.061,1.29208278656006,44.9983367919922,358.718811035156,0.0313591510057449,-0.00154170440509915,-0.0312608741223812,0.0369593166941219,0,-0.0375857463158979,0
5.25999784469604,-2.99572658538818,1.64394402503967,3.04004240036011,-2.99616968137255,1.64376068115234,3.04015663414528,2248.134,2180.345,1870.473,1934.257,1.67152214050293,44.9938049316406,358.445281982422,0.0373962074518204,-0.00151675171218812,-0.0374186374247074,0.0430120182292555,0,-0.0437410360986647,0
5.27999830245972,-2.99482750892639,1.64391899108887,3.03916120529175,-2.99524555573796,1.64376068115234,3.03921684535121,2310.613,2208.405,1809.97,1886.047,1.88475465774536,44.9923057556152,358.280090332031,0.0449470356106758,-0.00124410365242511,-0.0440638437867165,0.0494638997894753,0,-0.0503022716753279,0
5.29999780654907,-2.99376034736633,1.64390206336975,3.03813791275024,-2.99418855525623,1.64376068115234,3.03814192959205,2226.692,2149.307,1888.475,1933.115,1.87766337394714,44.9953918457031,358.256958007813,0.0533642210066319,-0.000860030064359307,-0.0511649772524834,0.0563022210080123,0,-0.0572564967405176,0
5.31999826431274,-2.99252438545227,1.64389085769653,3.03696441650391,-2.99299096410558,1.64376068115234,3.03692404026929,2055.997,2043.521,2044.299,2037.362,1.72170114517212,45.000732421875,358.329010009766,0.061800979077816,-0.000547791947610676,-0.0586691983044147,0.0635156169536149,0,-0.0645921537368673,0
5.3399977684021,-2.99113059043884,1.64388239383698,3.03563380241394,-2.99164552120194,1.64376068115234,3.03555579322951,1899.08,1952.423,2181.105,2133.03,1.5605525970459,45.0047225952148,358.403747558594,0.069690927863121,-0.000431691994890571,-0.0665280073881149,0.0710914921273607,0,-0.072296433682243,0
5.35999822616577,-2.98959016799927,1.64387202262878,3.03413939476013,-2.99014495954831,1.64376068115234,3.0340297983062,1838.622,1921.816,2223.67,2166.556,1.52350056171417,45.0054969787598,358.398895263672,0.0770187005400658,-0.000516491534654051,-0.074722446501255,0.0790187694420523,0,-0.0803580717420492,0
5.37999773025513,-2.98790502548218,1.6438581943512,3.03247427940369,-2.9884825189069,1.64376068115234,3.03233918068113,1894.658,1959.618,2157.686,2124.342,1.65591466426849,45.0031509399414,358.286224365234,0.084258459508419,-0.000698359915986657,-0.0832588225603104,0.0872850028091482,0,-0.0887644108769142,0
5.3999981880188,-2.98606395721436,1.64384126663208,3.03063130378723,-2.98665136968207,1.64376068115234,3.03047699500274,2022.004,2035.195,2029.676,2035.88,1.90410602092743,44.998893737793,358.100982666016,0.0920519456267357,-0.000834340113215148,-0.092148520052433,0.0958793984844547,0,-0.0975044743976743,0
5.41999769210815,-2.98404717445374,1.6438250541687,3.02860331535339,-2.9846452464164,1.64376068115234,3.02843686961931,2141.096,2100.696,1915.508,1952.625,2.15569758415222,44.9950294494629,357.915405273438,0.100832432508469,-0.000824893999379128,-0.101394347846508,0.104789664249377,0,-0.106565761742872,0
5.43999814987183,-2.98183512687683,1.64381146430969,3.02638363838196,-2.98245774567055,1.64376068115234,3.02621229255854,2186.316,2119.346,1874.264,1917.703,2.30803418159485,44.9939804077148,357.795104980469,0.110605672001839,-0.000663536426145583,-0.110985532402992,0.114005285284645,0,-0.115937579875811,0
5.45999765396118,-2.97941565513611,1.64380311965942,3.02396583557129,-2.98008309052489,1.64376068115234,3.02379738898683,2138.796,2084.849,1918.882,1943.35,2.32305145263672,44.9964904785156,357.763671875,0.120990782976151,-0.000429127598181367,-0.120893605053425,0.123514127618207,0,-0.125607589163725,0
5.47999811172485,-2.97678637504578,1.64379823207855,3.02134418487549,-2.97751529262633,1.64376068115234,3.0211860690535,2033.729,2020.641,2012.936,2007.479,2.24126982688904,45.000804901123,357.794586181641,0.131467401981354,-0.000233345606829971,-0.131077960133553,0.1333059510206,0,-0.135565375813795,0
5.49999761581421,-2.97395324707031,1.64379513263702,3.01851415634155,-2.97474905717705,1.64376068115234,3.01837294821831,1933.09,1964.119,2098.015,2069.067,2.15029501914978,45.0041732788086,357.831268310547,0.141671314835548,-0.000155021698446944,-0.141503050923347,0.143368784059949,0,-0.145798765488349,0
5.51999807357788,-2.97092151641846,1.64379155635834,3.0154709815979,-2.97177880001196,1.64376068115234,3.01535234766923,1890.428,1943.685,2126.835,2093.323,2.13187074661255,45.0048980712891,357.821655273438,0.151569724082947,-0.000201564689632505,-0.152153700590134,0.153692656844456,0,-0.15629761931423,0
5.53999757766724,-2.96769285202026,1.64378499984741,3.01221036911011,-2.96859970186895,1.64376068115234,3.01211936646166,1921.217,1965.116,2088.724,2069.671,2.21747922897339,45.0029335021973,357.746063232422,0.161435693502426,-0.000312328134896234,-0.163033902645111,0.164265764693075,0,-0.167049932530888,0
5.55999803543091,-2.9642596244812,1.64377725124359,3.00872731208801,-2.96520657204109,1.64376068115234,3.00866872591053,1998.916,2010.663,2011.18,2014.973,2.37682223320007,44.9994926452637,357.624389648438,0.171658053994179,-0.0004001235938631,-0.174153581261635,0.175078403882499,0,-0.178045836944988,0
5.57999753952026,-2.96060943603516,1.64376878738403,3.00501704216003,-2.96159506004911,1.64376068115234,3.00499600179956,2074.937,2050.892,1939.818,1961.599,2.54159021377563,44.996509552002,357.500823974609,0.182509869337082,-0.000401911296648905,-0.185516744852066,0.186118940610209,0,-0.189273501570753,0
5.59999799728394,-2.95672941207886,1.64376306533813,3.00107479095459,-2.95776035807953,1.64376068115234,3.00109630482685,2106.426,2063.596,1912.169,1937.003,2.64692497253418,44.995719909668,357.416656494141,0.194006934762001,-0.000310026109218597,-0.197114855051041,0.197377933235175,0,-0.200723324739206,0
5.61999750137329,-2.95261096954346,1.64375925064087,2.99689626693726,-2.95369857751961,1.64376068115234,2.9969656804709,2080.186,2043.293,1937.129,1950.959,2.66678762435913,44.9975128173828,357.388305664063,0.205923557281494,-0.000170527579030022,-0.208925485610962,0.20884392287813,0,-0.212383653352622,0
5.63999795913696,-2.94825220108032,1.64375829696655,2.99247789382935,-2.94940528304637,1.64376068115234,2.99259961823371,2015.727,2004.666,1994.1,1989.917,2.62367606163025,45.0006217956543,357.400665283203,0.217938378453255,-5.09639430674724E-05,-0.220918625593185,0.220507725977084,0,-0.224245148195291,0
5.65999746322632,-2.94365572929382,1.64375841617584,2.98781657218933,-2.94487704083719,1.64376068115234,2.98799462609221,1951.846,1969.306,2047.082,2029.457,2.57101035118103,45.0031433105469,357.419464111328,0.229816511273384,-1.91292929230258E-06,-0.233068123459816,0.232358062537774,0,-0.236296338086443,0
5.67999792098999,-2.9388256072998,1.64375782012939,2.98290944099426,-2.9401097778151,1.64376068115234,2.9831465619342,1922.592,1955.82,2066.56,2046.396,2.56022429466248,45.0037612915039,357.411712646484,0.241522535681725,-3.01724066957831E-05,-0.245361641049385,0.244386003156982,0,-0.248528142276917,0
5.69999742507935,-2.93376135826111,1.64375567436218,2.97775340080261,-2.93510050771434,1.64376068115234,2.97805238887919,1938.926,1967.882,2045.086,2033.532,2.61278367042542,45.0023536682129,357.364013671875,0.253212362527847,-0.000100556622783188,-0.257800191640854,0.256580450604233,0,-0.260929275447429,0
5.71999788284302,-2.92845892906189,1.64375257492065,2.97234559059143,-2.92984550961466,1.64376068115234,2.97270832294043,1986.543,1995.477,1997.923,1999.956,2.71207189559937,44.9998741149902,357.287353515625,0.265120565891266,-0.000159929943038151,-0.270389974117279,0.268932725797779,0,-0.273490911413025,0
5.73999834060669,-2.92291021347046,1.64374911785126,2.96668291091919,-2.92434196902575,1.64376068115234,2.96711150192433,2034.683,2020.503,1953.469,1966.111,2.81639623641968,44.9977416992188,357.208740234375,0.27741876244545,-0.000168130209203809,-0.283133029937744,0.281432517453041,0,-0.286202564121447,0
5.75999784469604,-2.91710805892944,1.64374661445618,2.96076250076294,-2.9185873124306,1.64376068115234,2.96125930869494,2056.456,2029.161,1934.962,1949.412,2.88500809669495,44.997142791748,357.154113769531,0.290122747421265,-0.000118289186502807,-0.29602238535881,0.294069594896542,0,-0.299053829497825,0
5.77999830245972,-2.91104602813721,1.64374589920044,2.95458173751831,-2.91257832856177,1.64376068115234,2.95514847755649,2042.105,2017.677,1949.036,1956.763,2.90016770362854,44.9983177185059,357.134704589844,0.303097546100616,-3.71253408957273E-05,-0.309040993452072,0.306835647518185,0,-0.312036256074148,0
5.79999780654907,-2.90472316741943,1.64374685287476,2.94813847541809,-2.90631311740613,1.64376068115234,2.94877707629222,2002.991,1994.122,1983.61,1980.809,2.87436008453369,45.0004234313965,357.142150878906,0.316143244504929,3.39209800586104E-05,-0.322166532278061,0.319720051424493,0,-0.325139039890793,0
5.81999826431274,-2.89814114570618,1.64374804496765,2.94143080711365,-2.89978879528652,1.64376068115234,2.94214217234905,1962.862,1972.328,2016.792,2005.869,2.83999443054199,45.0021591186523,357.155426025391,0.329107284545898,6.30222348263487E-05,-0.335379749536514,0.332714737096524,0,-0.3383539746572,0
5.8399977684021,-2.89130187034607,1.64374899864197,2.93445730209351,-2.89300388324325,1.64376068115234,2.93524226170014,1942.962,1963.428,2030.329,2017.781,2.82933402061462,45.0026397705078,357.153869628906,0.341957837343216,4.4216270907782E-05,-0.348669975996017,0.345809276327009,0,-0.351670455416673,0
5.85999822616577,-2.88420605659485,1.64374899864197,2.92721652984619,-2.88595581561705,1.64376068115234,2.92807473520045,1952.043,1970.512,2018.18,2010.754,2.85711026191711,45.0017204284668,357.128326416016,0.354782402515411,-2.23429015022703E-06,-0.362035781145096,0.358995837141253,0,-0.365080517449075,0
5.87999773025513,-2.87685179710388,1.64374804496765,2.91970705986023,-2.87864352660384,1.64376068115234,2.9206385089814,1980.9,1987.235,1989.929,1990.748,2.91399788856506,45.0000381469727,357.085021972656,0.367722302675247,-4.36917871411424E-05,-0.375479251146317,0.372264190523623,0,-0.378573758365477,0
5.8999981880188,-2.86923384666443,1.64374685287476,2.91192698478699,-2.87106475913003,1.64376068115234,2.91293128771388,2011.515,2003.187,1962.299,1969.473,2.97487926483154,44.9986000061035,357.040191650391,0.380883634090424,-5.44378417544067E-05,-0.389000356197357,0.385606738579727,0,-0.392142451493512,0
5.91999769210815,-2.86134815216064,1.6437463760376,2.90387511253357,-2.86321885251076,1.64376068115234,2.90495239951498,2026.407,2009.193,1950.196,1958.656,3.01412320137024,44.9981651306152,357.010223388672,0.394279181957245,-2.91132982965792E-05,-0.402592539787292,0.399013454908023,0,-0.405776400492485,0
5.93999814987183,-2.853191614151,1.64374709129333,2.89555025100708,-2.85510384896282,1.64376068115234,2.89669985341869,2019.08,2002.929,1958.1,1962.641,3.01983833312988,44.9988784790039,357.002593994141,0.407827138900757,1.69527465914143E-05,-0.416242718696594,0.412476972313452,0,-0.419468113299518,0
5.95999765396118,-2.84476375579834,1.64374780654907,2.88695168495178,-2.84671948474895,1.64376068115234,2.88817338121764,1995.506,1988.799,1979.408,1977.645,2.99871230125427,45.0002365112305,357.0126953125,0.421402275562286,5.84520312258974E-05,-0.429934233427048,0.425987470348054,0,-0.433207603018243,0
5.97999811172485,-2.83606553077698,1.64374959468842,2.87807869911194,-2.83806409221458,1.64376068115234,2.87937128699188,1970.463,1975.699,2000.6,1993.527,2.97048020362854,45.0013847351074,357.027740478516,0.43490469455719,7.48675738577731E-05,-0.443652451038361,0.439537809218093,0,-0.446987608841368,0
5.99999761581421,-2.82709932327271,1.6437509059906,2.86893105506897,-2.82913779626653,1.64376068115234,2.8702936977653,1957.743,1969.912,2009.891,2001.97,2.95549321174622,45.0017242431641,357.034851074219,0.44830796122551,6.1481878219638E-05,-0.45738810300827,0.453118377685714,0,-0.460798356628566,0
6.01999807357788,-2.81786608695984,1.64375114440918,2.85950827598572,-2.81993921034739,1.64376068115234,2.86093920347952,1962.749,1974.273,2003.501,1998.528,2.96344518661499,45.001148223877,357.02783203125,0.461660116910934,3.03500637528487E-05,-0.471137881278992,0.466722260143468,0,-0.474632813558603,0
6.03999757766724,-2.80836534500122,1.64375126361847,2.84981036186218,-2.8104688395759,1.64376068115234,2.8513083178146,1980.421,1984.781,1986.852,1986.827,2.98933625221252,45.0000801086426,357.010101318359,0.475045204162598,1.39113217301201E-06,-0.484900832176208,0.480340057737159,0,-0.488481421474535,0
6.05999803543091,-2.79859495162964,1.6437509059906,2.83983683586121,-2.80072556958732,1.64376068115234,2.84139990751825,2000.179,1995.086,1969.82,1973.932,3.01807022094727,44.999137878418,356.991455078125,0.488528192043304,-9.16570570552722E-06,-0.498674869537354,0.493965075913553,0,-0.502337372356033,0
6.07999753952026,-2.78855228424072,1.64375126361847,2.82958769798279,-2.79071027715486,1.64376068115234,2.83121486422426,2010.306,1999.539,1962.287,1967.308,3.03345966339111,44.9988288879395,356.982177734375,0.502117991447449,3.1357558327727E-06,-0.512453734874725,0.507588131292698,0,-0.516191327172502,0
6.09999799728394,-2.77823686599731,1.64375185966492,2.81906318664551,-2.78042211132554,1.64376068115234,2.8207523225567,2007.149,1996.536,1966.846,1969.628,3.02772355079651,44.9992523193359,356.987121582031,0.515763998031616,2.91125525109237E-05,-0.526226997375488,0.521202747326478,0,-0.530036699603735,0
6.11999750137329,-2.76764941215515,1.64375281333923,2.80826354026794,-2.76986231184767,1.64376068115234,2.81001354327659,1993.123,1988.448,1980.385,1979.2,3.00424695014954,45.0000801086426,357.00390625,0.529387235641479,5.32774502062239E-05,-0.539981961250305,0.534799959116798,0,-0.543864372804083,0
6.13999795913696,-2.75679087638855,1.64375400543213,2.79718947410583,-2.75903028251942,1.64376068115234,2.79899792007696,1978.008,1980.649,1994.124,1989.668,2.97515177726746,45.0008125305176,357.024780273438,0.542921543121338,6.23663509031758E-05,-0.553707242012024,0.548373505154528,0,-0.557667979137055,0
6.15999746322632,-2.74566388130188,1.64375519752502,2.78584170341492,-2.74792761726617,1.64376068115234,2.78770707389892,1969.994,1977.33,2000.953,1995.736,2.95313596725464,45.001033782959,357.041656494141,0.556345582008362,5.29556091350969E-05,-0.567394495010376,0.561914641948079,0,-0.571438626916163,0
6.17999792098999,-2.7342700958252,1.64375591278076,2.77422094345093,-2.73655396609364,1.64376068115234,2.77614064881606,1973.211,1980.241,1997.909,1994.499,2.94473719596863,45.0007019042969,357.050384521484,0.569684684276581,3.19674581987783E-05,-0.581039428710938,0.575417320144145,0,-0.585170164256604,0
6.19999742507935,-2.72261023521423,1.64375603199005,2.76232814788818,-2.72491126819091,1.64376068115234,2.7643006168851,1984.37,1987.082,1988.397,1988.126,2.94720840454102,45.0000381469727,357.052825927734,0.582988321781158,1.19456180982525E-05,-0.59463906288147,0.588873020499319,0,-0.598853927520894,0
6.21999788284302,-2.71068406105042,1.64375603199005,2.750164270401,-2.71299941134128,1.64376068115234,2.75218686398738,1997.264,1994.282,1978.296,1980.532,2.95145988464355,44.9994468688965,357.054840087891,0.596295535564423,3.18728325510165E-06,-0.60819011926651,0.602275903015924,0,-0.612483977728262,0
6.23999738693237,-2.6984920501709,1.64375603199005,2.73773050308228,-2.70082067097219,1.64376068115234,2.73980170411691,2004.474,1997.775,1973.875,1976.91,2.94737124443054,44.9992408752441,357.062896728516,0.609611868858337,8.6725613073213E-06,-0.621686398983002,0.61561767545745,0,-0.626051882095698,0
6.25999784469604,-2.68603372573853,1.6437566280365,2.7250280380249,-2.68837516432492,1.64376068115234,2.72714525650214,2003.397,1996.778,1977.055,1978.739,2.92982220649719,44.9994773864746,357.080169677734,0.622905254364014,2.32430393225513E-05,-0.635119557380676,0.628892704464619,0,-0.639551911783178,0
6.2799973487854,-2.67331147193909,1.64375746250153,2.71205854415894,-2.6756654939312,1.64376068115234,2.71422016778553,1995.735,1992.434,1985.796,1985.193,2.90067863464355,44.9999694824219,357.105377197266,0.636125087738037,3.72780559700914E-05,-0.648479580879211,0.642092927483559,0,-0.65297586758326,0
6.29999780654907,-2.66032695770264,1.64375817775726,2.69882345199585,-2.66269199827776,1.64376068115234,2.70102678219086,1987.014,1988.241,1995.036,1992.327,2.86715269088745,45.0004043579102,357.1337890625,0.649227619171143,4.25863436248619E-05,-0.661757528781891,0.655212915159136,0,-0.666318228117766,0
6.31999731063843,-2.64708280563354,1.64375901222229,2.6853244304657,-2.64945759776114,1.64376068115234,2.68756806961299,1982.329,1986.694,2000.338,1996.963,2.83715081214905,45.0005493164063,357.160369873047,0.662195980548859,3.64419247489423E-05,-0.674946010112762,0.668244837212889,0,-0.679571030391537,0
6.3399977684021,-2.63358211517334,1.64375925064087,2.67156362533569,-2.63596284400466,1.64376068115234,2.67384459102479,1984.815,1989.092,1999.38,1997.01,2.81507134437561,45.0003547668457,357.182434082031,0.675042569637299,2.27647215069737E-05,-0.688040256500244,0.681183465742539,0,-0.692728957893708,0
6.35999727249146,-2.61982607841492,1.64375972747803,2.65754294395447,-2.62221096592825,1.64376068115234,2.65985963007368,1992.012,1993.891,1994.533,1994.076,2.79940152168274,44.9999618530273,357.200988769531,0.687795877456665,9.27360269997735E-06,-0.701036214828491,0.694021205254839,0,-0.705784286393751,0
6.37999773025513,-2.60581660270691,1.64375948905945,2.64326429367065,-2.60820272028333,1.64376068115234,2.64561395633739,2000.986,1999.108,1988.776,1990.116,2.78484773635864,44.9996109008789,357.219451904297,0.700478553771973,2.54225687967846E-06,-0.713929951190948,0.706753026832046,0,-0.718731901737956,0
6.39999723434448,-2.59155464172363,1.64375984668732,2.62873005867004,-2.59394163507299,1.64376068115234,2.63111115761571,2006.136,2002.19,1986.761,1988.608,2.7649245262146,44.9994659423828,357.241882324219,0.713093638420105,4.90916499984451E-06,-0.726715683937073,0.719371572192963,0,-0.731564320928394,0
6.41999769210815,-2.57704257965088,1.64375984668732,2.61394238471985,-2.57942866426537,1.64376068115234,2.61635220404577,2006.781,2002.51,1989.062,1990.305,2.73647952079773,44.9995956420898,357.270324707031,0.725620210170746,1.31599517771974E-05,-0.739386558532715,0.73187200901903,0,-0.744276629742728,0
6.43999719619751,-2.56228184700012,1.64376068115234,2.59890365600586,-2.56466762541107,1.64376068115234,2.60134097788247,2002.633,2000.677,1995.425,1995.112,2.70023703575134,44.999870300293,357.304138183594,0.738025784492493,2.15982727240771E-05,-0.75193464756012,0.744247218584971,0,-0.756861588799222,0
6.45999765396118,-2.54727649688721,1.64376103878021,2.58361649513245,-2.54965966187736,1.64376068115234,2.58607864187218,1998.427,1998.904,2001.754,2000.203,2.66081857681274,45.000129699707,357.340393066406,0.750280618667603,2.47573298111092E-05,-0.764352738857269,0.756492562869023,0,-0.769314481465508,0
6.47999715805054,-2.53202891349792,1.64376163482666,2.56808376312256,-2.53440887113462,1.64376068115234,2.57056936293401,1995.905,1998.595,2006.292,2004.16,2.62285947799683,45.0002136230469,357.376068115234,0.762372136116028,2.09177414944861E-05,-0.776634335517883,0.768601164962728,0,-0.781628314275262,0
6.49999761581421,-2.51654291152954,1.64376187324524,2.55230832099915,-2.51891657822201,1.64376068115234,2.55481448856541,1998.248,2000.871,2006.655,2005.083,2.58947038650513,45.0001029968262,357.409301757813,0.774304986000061,1.21859766295529E-05,-0.788774847984314,0.780568578921708,0,-0.79379856592905,0
6.51999807357788,-2.50082111358643,1.64376187324524,2.53629302978516,-2.50318639513271,1.64376068115234,2.53881769197986,2003.328,2004.584,2004.71,2004.352,2.5597813129425,44.999885559082,357.440643310547,0.786095380783081,3.1974668672774E-06,-0.800769805908203,0.792388731851447,0,-0.805819060601858,0
6.53999757766724,-2.48486614227295,1.64376163482666,2.52004075050354,-2.48722208797922,1.64376068115234,2.52258280312231,2009.584,2008.727,2002.126,2002.879,2.53070330619812,44.9996795654297,357.472106933594,0.797755897045135,-1.69522445503389E-06,-0.812615275382996,0.804055687690925,0,-0.817683761621374,0
6.55999803543091,-2.4686803817749,1.64376163482666,2.50355458259583,-2.47102524001166,1.64376068115234,2.50611143207765,2014.17,2011.819,2001.349,2002.552,2.49834728240967,44.9995956420898,357.506134033203,0.809287905693054,-8.66069171934214E-07,-0.824306309223175,0.815565284634165,0,-0.829388436642481,0
6.57999753952026,-2.45226669311523,1.64376187324524,2.48683786392212,-2.45460060580721,1.64376068115234,2.48940841400919,2015.349,2012.833,2003.747,2004.741,2.46035146713257,44.9996528625488,357.544250488281,0.820678114891052,3.97519534089952E-06,-0.835836708545685,0.826911259664672,0,-0.84092671649577,0
6.59999799728394,-2.43562889099121,1.64376211166382,2.46989393234253,-2.43794993134368,1.64376068115234,2.47247552448761,2014.253,2012.852,2008.241,2008.331,2.41725039482117,44.9998016357422,357.5859375,0.831904411315918,9.342065823148E-06,-0.847200512886047,0.838089637868277,0,-0.852294558895591,0
6.61999750137329,-2.41877007484436,1.6437623500824,2.45272612571716,-2.42107821674359,1.64376068115234,2.45531784838332,2011.986,2012.415,2013.633,2012.845,2.37150168418884,44.9999542236328,357.629608154297,0.842946946620941,1.1772383004427E-05,-0.858391582965851,0.849094405305098,0,-0.863485847970791,0
6.63999795913696,-2.40169405937195,1.64376282691956,2.43533802032471,-2.40398736327559,1.64376068115234,2.43793731918993,2011.718,2013.346,2017.261,2015.978,2.3264787197113,45.0000114440918,357.673095703125,0.853795111179352,9.68264976108912E-06,-0.869404911994934,0.859921772023753,0,-0.874496729533471,0
6.65999746322632,-2.3844051361084,1.64376258850098,2.41773343086243,-2.38668260660647,1.64376068115234,2.42033926131437,2013.684,2015.434,2018.858,2017.94,2.28389430046082,44.9999542236328,357.715423583984,0.864450871944427,4.30962472819374E-06,-0.880235731601715,0.870565975048512,0,-0.885321342930264,0
6.67999792098999,-2.36690664291382,1.64376294612885,2.39991593360901,-2.36916599593443,1.64376068115234,2.40252575868709,2017.972,2019.036,2018.556,2018.176,2.24358820915222,44.9998359680176,357.756622314453,0.874922394752502,-1.46450383908814E-06,-0.890880346298218,0.881023407544721,0,-0.895956020193673,0
6.69999742507935,-2.34920215606689,1.64376258850098,2.38188934326172,-2.35144299239557,1.64376068115234,2.38450236500586,2022.813,2022.359,2017.959,2018.615,2.20354032516479,44.9997253417969,357.798217773438,0.885217308998108,-4.92680010211188E-06,-0.901334524154663,0.891288559305374,0,-0.906395157723277,0
6.71999788284302,-2.33129549026489,1.64376258850098,2.36365747451782,-2.33351578582855,1.64376068115234,2.3662713072253,2026.74,2025.541,2018.414,2019.262,2.16135764122009,44.9996757507324,357.841430664063,0.895335137844086,-4.6160394049366E-06,-0.911594271659851,0.901358004849461,0,-0.916635271979014,0
6.73999738693237,-2.3131902217865,1.64376258850098,2.34522438049316,-2.31539005269333,1.64376068115234,2.34783835801661,2028.5,2027.092,2020.931,2021.821,2.11551284790039,44.9997062683105,357.887451171875,0.905267119407654,-1.65788537742628E-06,-0.921654522418976,0.911226488460304,0,-0.926671018164189,0
6.75999784469604,-2.29489040374756,1.64376246929169,2.32659411430359,-2.29706811624874,1.64376068115234,2.32920588001597,2028.98,2028.259,2024.702,2024.99,2.06633877754211,44.9997940063477,357.935760498047,0.914998292922974,1.82050825969782E-06,-0.931510627269745,0.920890764330413,0,-0.936499095457581,0
6.7799973487854,-2.27640008926392,1.64376258850098,2.30777096748352,-2.27855585806596,1.64376068115234,2.31037985448225,2028.607,2029.028,2029.185,2028.865,2.01528286933899,44.9998779296875,357.985534667969,0.92451536655426,3.52397455571918E-06,-0.941157519817352,0.930345832872074,0,-0.946114419532628,0
6.79999780654907,-2.25772356987,1.64376270771027,2.28875923156738,-2.25985572766931,1.64376068115234,2.29136277245718,2029.61,2030.679,2032.482,2031.857,1.96448171138763,44.9999046325684,358.035339355469,0.933810472488403,2.49856384471059E-06,-0.950591325759888,0.93958862635417,0,-0.955513870662728,0
6.81999731063843,-2.23886585235596,1.64376258850098,2.2695631980896,-2.24097380146462,1.64376068115234,2.2721608133366,2031.761,2032.995,2034.718,2034.255,1.91494596004486,44.999885559082,358.084655761719,0.942883670330048,-5.92224978390732E-07,-0.959807932376862,0.948614402873613,0,-0.964692626573487,0
