t,x_s1,x_s2,x_s3,x_s_d1,x_s_d2,x_s_d3,propellers_rpms1,propellers_rpms2,propellers_rpms3,propellers_rpms4,rollRad,pitchRad,yawRad
15.16,0.402540743350983,0.403540372848511,1.60433077812195,0.39940784244815,0.391362285637354,1.59985196061204,2161.594,2145.815,2253.897,2047.496,6.0527850743776,0.786356695561388,6.1465816072436
15.17999,0.451384961605072,0.448246002197266,1.61633002758026,0.448528254602056,0.437103522035833,1.61213206365051,2160.477,2174.379,2261.049,2070.856,6.02781793935151,0.786108156054581,6.13316566704015
15.2,0.499945044517517,0.491824626922607,1.6282262802124,0.497367702292871,0.481742752133704,1.62434192557322,2162.656,2203.546,2268.747,2095.713,6.00361566418457,0.785855422069091,6.12048848771735
15.21999,0.548190712928772,0.534167528152466,1.64001452922821,0.54589068166738,0.525162962817341,1.63647267041684,2165.803,2232.916,2277.926,2122.998,5.98022405524716,0.785604685454402,6.1085798966792
15.24,0.59609192609787,0.575170040130615,1.65169036388397,0.594071170551946,0.567258605950955,1.64851779263799,2172.029,2262.46,2287.884,2150.421,5.95769371259962,0.785361339111681,6.09745374236326
15.25999,0.64361834526062,0.614729642868042,1.66324973106384,0.641874144123686,0.607919335942511,1.66046853603092,2179.439,2291.453,2299.09,2179.214,5.9360576594392,0.785129843835719,6.08712600373593
15.27999,0.690739989280701,0.652748107910156,1.67468893527985,0.689273966337686,0.647046312547276,1.67231849158442,2189.479,2320.09,2311.028,2207.305,5.91534945159538,0.784914061210067,6.07759721342944
15.29999,0.737427473068237,0.689130544662476,1.6860044002533,0.736236179876964,0.684536971958722,1.68405904496924,2200.321,2347.628,2323.933,2236.101,5.89558719856342,0.784717120448981,6.06887216513371
15.31999,0.783651351928711,0.723784923553467,1.69719278812408,0.782735599584082,0.7203001799067,1.69568389989602,2213.286,2374.415,2337.33,2263.482,5.87679167299967,0.784541418397424,6.06094340199775
15.33999,0.829382121562958,0.756625175476074,1.70825099945068,0.828738422689972,0.754242190054058,1.70718460567249,2226.236,2400,2351.394,2290.966,5.85896873385849,0.784388020319824,6.05380826086048
15.35999,0.874591052532196,0.787566900253296,1.71917593479156,0.874219978544429,0.786280494374233,1.71855499463611,2240.659,2424.368,2365.619,2316.707,5.842131164313,0.784257725164501,6.04745449118099
15.37999,0.919249534606934,0.816532611846924,1.7299644947052,0.919147204314862,0.816331110644967,1.72978680107872,2254.55,2447.393,2380.02,2341.993,5.82628002962764,0.784150799247563,6.0418757013727
15.39999,0.963328540325165,0.843447923660278,1.74061346054077,0.963496006178408,0.844320990244968,1.7408740015446,2269.364,2469.072,2394.151,2365.017,5.81142118875675,0.784066110725554,6.03705804299807
15.41999,1.00680065155029,0.868244647979736,1.75111961364746,1.00723414475837,0.870176763114876,1.75180853618959,2283.355,2488.893,2407.943,2387.377,5.79755251117149,0.784002993808208,6.03299512447052
15.43999,1.04963755607605,0.89085841178894,1.76147961616516,1.05033816392219,0.89383557767975,1.76258454098055,2297.672,2507.396,2421.084,2406.996,5.78467293160742,0.783960649547204,6.02967149945584
15.45999,1.09181201457977,0.911231279373169,1.77168989181519,1.09277672918838,0.915235416930093,1.7731941822971,2310.78,2523.806,2433.526,2425.611,5.77277552584576,0.783937413466873,6.02708237426413
15.47999,1.13329720497131,0.929310321807861,1.78174686431885,1.13452708136679,0.934324261009172,1.7836317703417,2323.376,2538.879,2445.067,2441.378,5.76185550019659,0.783932420039868,6.02521603098666
15.49999,1.1740665435791,0.945047855377197,1.79164659976959,1.17555887002462,0.951052072201814,1.79388971750615,2334.748,2551.527,2455.562,2455.752,5.75190593044113,0.78394400479052,6.02407033909458
15.51999,1.21409392356873,0.958402872085571,1.80138504505157,1.21585009040571,0.965378187663242,1.80396252260143,2344.766,2562.966,2464.901,2467.283,5.74291989236059,0.783970836138295,6.02363571120804
15.53999,1.25335383415222,0.969339847564697,1.81095790863037,1.25537145279361,0.977265054250792,1.8138428631984,2353.486,2571.629,2472.925,2477.277,5.73489205963284,0.784011249607524,6.02391587575255
15.55999,1.29182064533234,0.977829575538635,1.82036077976227,1.29410176245198,0.986683776742886,1.823525440613,2360.594,2578.97,2479.543,2484.339,5.72781710593574,0.784063847038645,6.0249033758771
15.57999,1.32947015762329,0.983848571777344,1.82958889007568,1.33201286436898,0.993609665779005,1.83300321609224,2366.296,2583.396,2484.654,2489.727,5.72169077021158,0.784127097114045,6.02660407053605
15.59999,1.36627793312073,0.987380623817444,1.83863747119904,1.36908442736769,0.998025885543177,1.84227110684192,2370.167,2586.604,2488.246,2491.962,5.716507193506,0.784199867990267,6.02901210077505
15.61999,1.40222024917603,0.988415002822876,1.84750127792358,1.40528950226271,0.99992085976888,1.85132237556568,2372.757,2586.725,2490.241,2492.347,5.71226424529016,0.784281693614126,6.03213865187058
15.63999,1.43727457523346,0.986947655677795,1.85617530345917,1.44060867279484,0.999289982052925,1.86015216819871,2373.162,2585.639,2490.722,2489.734,5.70895553397747,0.784371109247033,6.03598265855823
15.65999,1.47141778469086,0.98298180103302,1.86465406417847,1.47501626368096,0.996134906119307,1.86875406592024,2372.402,2581.519,2489.619,2485.036,5.70657999430352,0.784467981730934,6.04055796927554
15.67999,1.50462901592255,0.976524710655212,1.87293207645416,1.50849382262659,0.990463301492834,1.87712345565665,2369.408,2575.986,2487.045,2477.634,5.70513389784281,0.784571378959456,6.04586937771245
15.69999,1.53688621520996,0.96759307384491,1.88100373744965,1.5410170131088,0.982290035188802,1.8852542532772,2365.187,2567.692,2482.974,2468.051,5.70461884249198,0.784680768300383,6.05193339546759
15.71999,1.5681688785553,0.956208229064941,1.88886344432831,1.57256839340985,0.971634975213562,1.89314209835246,2358.947,2557.824,2477.538,2455.935,5.70503323035439,0.784795617121503,6.05875907728858
15.73999,1.59845745563507,0.942398428916931,1.89650535583496,1.60312502724304,0.95852605174738,1.90078125681076,2351.866,2544.935,2470.68,2441.909,5.70638238775217,0.784915925422816,6.06636559793515
15.75999,1.62773251533508,0.92619800567627,1.90392363071442,1.63267052752659,0.942995130652082,1.90816763188165,2342.882,2530.958,2462.658,2425.133,5.7086652494209,0.785041160572106,6.07476041425826
15.77999,1.65597522258759,0.907647609710693,1.91111242771149,1.66118341614895,0.925082923235428,1.91529585403724,2333.393,2513.968,2453.424,2406.603,5.71188660905051,0.785171588885483,6.0839648315465
15.79999,1.68316805362701,0.886794567108154,1.91806578636169,1.6886484020594,0.904832971434946,1.92216210051485,2322.077,2495.991,2443.371,2385.632,5.71604593400878,0.785306810888784,6.09399003507633
15.81999,1.70929360389709,0.863691806793213,1.92477798461914,1.71504551957704,0.882298356585265,1.92876137989426,2310.826,2475.014,2432.323,2363.061,5.72115121377891,0.785447492372278,6.10485839540075
15.83999,1.73433542251587,0.838397741317749,1.93124306201935,1.74036061230866,0.85753385701544,1.93509015307717,2298.012,2453.156,2420.794,2338.412,5.72720138309649,0.785593233861803,6.11658109779626
15.85999,1.75827765464783,0.810976982116699,1.93745505809784,1.76457527743894,0.830604388074495,1.94114381935973,2285.515,2428.523,2408.6,2312.526,5.73420230091585,0.785744301673468,6.12917891491918
15.87999,1.78110563755035,0.781499624252319,1.94340825080872,1.78767652899238,0.801575411334351,1.9469191322481,2271.875,2403.124,2396.333,2284.903,5.74215556513366,0.785900429491164,6.14266036888495
15.89999,1.80280494689941,0.750041246414185,1.94909691810608,1.80964757350628,0.770523020646676,1.95241189337657,2259.235,2375.086,2383.583,2256.425,5.75106863260089,0.786061617314893,6.15704143865997
15.91999,1.823361992836,0.716682434082031,1.95451521873474,1.8304766282265,0.737522699798796,1.95761915705662,2245.923,2346.449,2371.109,2226.696,5.76093830752427,0.786227199354386,6.17232585266976
15.93999,1.84276461601257,0.681508302688599,1.95965754985809,1.85014946175199,0.702659247336619,1.962537365438,2233.981,2315.446,2358.441,2196.742,5.77176991622594,0.786396776135483,6.18852053513308
15.95999,1.86099994182587,0.644609451293945,1.96451842784882,1.86865279345198,0.66602252328183,1.967163198363,2222.134,2283.952,2346.271,2166.085,5.78355600185489,0.786570014763051,6.20561856183116
15.97999,1.87805771827698,0.606080770492554,1.9690922498703,1.88597670025669,0.62770158611352,1.97149417506417,2210.758,2251.471,2334.864,2135.429,5.79629283598564,0.786745849972661,6.22361300854521
15.99999,1.89392697811127,0.566020727157593,1.97337365150452,1.90210858854614,0.58779688676163,1.97552714713654,2201.466,2217.404,2323.382,2105.509,5.80998041861818,0.786922950183779,6.24249162473433
16.01999,1.90859866142273,0.524532318115234,1.97735726833344,1.91703980702143,0.546405427671782,1.97925995175536,2192.35,2183.469,2313.124,2076.082,5.82460223815389,0.787099251446577,6.26222511562673
16.04,1.92206394672394,0.481722116470337,1.9810379743576,1.93076012664019,0.503633637879169,1.98269003166005,2185.588,2148.464,2302.781,2048.406,5.84015030510955,0.787272889548305,6.28278099065739
16.05999,1.9343147277832,0.437699556350708,1.98441064357758,1.94325974722389,0.459593825003235,1.98581493680597,2179.647,2113.946,2293.447,2022.239,5.85660011840332,0.787440935011787,0.0209217850392163
16.07999,1.94534397125244,0.392578601837158,1.98747038841248,1.95453315754358,0.414388843757486,1.9886332893859,2174.429,2080.297,2285.543,1997.721,5.87392877485001,0.787600391780821,0.0429587895822103
16.09999,1.95514583587646,0.34647274017334,1.99021244049072,1.96457198631894,0.368137032420097,1.99114299657974,2172.296,2046.371,2276.296,1977.288,5.89212029548321,0.787748130641148,0.0656422598300566
16.12,1.96371412277222,0.299501419067383,1.99263226985931,1.97336989252029,0.32095523242788,1.99334247313007,2170.333,2014.899,2268.644,1958.955,5.91112514550701,0.787879491060899,0.0888756686775549
16.13999,1.97104454040527,0.25178337097168,1.99472546577454,1.98092065839113,0.272967246201903,1.99523016459778,2169.645,1985.038,2261.159,1944.616,5.93090657329867,0.787990811193602,0.112565801326086
16.15999,1.97713351249695,0.20344090461731,1.99648785591125,1.98722095471043,0.224285149390376,1.99680523867761,2169.388,1958.067,2254.963,1933.36,5.95141983775221,0.788077563665439,0.136602136591266
16.17999,1.98197770118713,0.154596567153931,1.99791574478149,1.99226602222701,0.175036462896173,1.99806650555675,2171.291,1933.832,2246.195,1928.074,5.97262712198045,0.788136752420208,0.160872904931963
16.2,1.98557496070862,0.105373620986938,1.99900555610657,1.99605267422225,0.12534559886931,1.99901316855556,2173.189,1913.463,2238.585,1926.521,5.99445439010566,0.788164582453383,0.185242459903581
16.21999,1.98792386054993,0.0558969974517822,1.99975419044495,1.9985783381482,0.0753428665554185,1.99964458453705,2175.386,1897.53,2230.782,1929.546,6.01683719362995,0.788156925865309,0.209576594832974
16.23999,1.9890239238739,0.00629091262817383,2.00015902519226,1.99984190041009,0.0251450470298485,1.99996047510252,2177.507,1886.123,2223.743,1936.724,6.0397052251011,0.788112251338369,0.233739621663656
16.25999,1.98887395858765,-0.0433192253112793,2.00021815299988,1.99984226184456,-0.0251162939738767,1.99996056546114,2180.358,1880.497,2213.718,1949.883,6.06299563391786,0.788030026240349,0.257598365697396
16.27999,1.98747587203979,-0.0928094387054443,1.99992966651917,1.9985794222233,-0.0753141861354856,1.99964485555583,2182.956,1879.546,2205.175,1966.63,6.08661307891396,0.787910117413197,0.281018087628837
16.29999,1.98483037948608,-0.142055988311768,1.9992927312851,1.99605448018443,-0.125317063520689,1.99901362004611,2185.458,1884.498,2196.2,1987.383,6.1104739368318,0.787753656700367,0.303871505003617
16.31999,1.98094034194946,-0.190936088562012,1.99830710887909,1.99226854900442,-0.175008144715307,1.99806713725111,2187.867,1894.067,2188.797,2011.167,6.13449138862052,0.787563174104875,0.326045150515419
16.33999,1.9758083820343,-0.239327192306519,1.99697303771973,1.98722420070702,-0.224257119914723,1.99680605017676,2190.55,1910.433,2178.379,2039.665,6.15858660471247,0.787343663053726,0.347436459173558
16.35999,1.96943783760071,-0.287109851837158,1.99529159069061,1.98092462155658,-0.27293957623959,1.99523115538914,2193.614,1930.465,2170.299,2070.071,6.18265252603265,0.787099784078791,0.367958179163494
16.37999,1.96183252334595,-0.334165334701538,1.99326455593109,1.97337457028324,-0.320927991834576,1.99334364257081,2196.948,1954.779,2163.346,2102.515,6.20659647457586,0.786835931395835,0.387535409080151
16.39999,1.95299792289734,-0.380377054214478,1.99089443683624,1.96457737579296,-0.368110290048701,1.99114434394824,2200.912,1981.799,2158.966,2136.11,6.23032737023351,0.786558097117265,0.406108860300218
16.41999,1.94293880462646,-0.425629854202271,1.9881843328476,1.95453925532441,-0.414362667164635,1.9886348138311,2205.355,2014.213,2152.725,2172.012,6.25376957923123,0.786274204147261,0.423629996713206
16.43999,1.93166136741638,-0.469811677932739,1.98513805866241,1.94326654945985,-0.4595682803163,1.98581663736496,2211.135,2047.478,2150.017,2207.712,6.27682456460946,0.785989578807964,0.440073052235768
16.45999,1.91917216777802,-0.512812852859497,1.9817601442337,1.9307676289681,-0.503608789559761,1.98269190724203,2217.774,2082.741,2148.878,2243.66,0.0162263033398324,0.785709281105405,0.455418752239662
16.47999,1.90547919273376,-0.554526090621948,1.97805535793304,1.91704800476943,-0.546381338555145,1.97926200119236,2225.638,2118.102,2150.725,2279.087,0.0382687257511272,0.785438304466588,0.46965997276903
16.49999,1.89058995246887,-0.594848871231079,1.97402930259705,1.90211747653613,-0.587773617701754,1.97552936913403,2234.016,2156.772,2151.377,2314.776,0.0597035271584812,0.7851818420556,0.48279345145156
16.51999,1.87451267242432,-0.633678674697876,1.9696878194809,1.8859854751415,-0.627681061724658,1.97149636878538,2244.087,2193.532,2156.296,2348.397,0.0804530722555308,0.784943222823777,0.494838163309872
16.53999,1.857257604599,-0.67091965675354,1.96503722667694,1.86866389886544,-0.665999280486191,1.96716597471636,2254.829,2229.972,2162.204,2381.74,0.100461867423491,0.784724710458029,0.50581331639318
16.55999,1.83883321285248,-0.706477642059326,1.96008396148682,1.85016038499356,-0.702638782020892,1.96254009624839,2266.727,2264.519,2170.851,2413.245,0.119676874145189,0.784528635224291,0.515736687301622
16.57999,1.81925129890442,-0.740262985229492,1.95483481884003,1.83048821667519,-0.737503275778109,1.9576220541688,2278.818,2300.122,2178.78,2443.514,0.138058885696255,0.784357061072392,0.524625253687017
16.59999,1.79852271080017,-0.772190809249878,1.94929671287537,1.80965981984225,-0.770504686990035,1.95241495496056,2291.815,2333.141,2188.694,2471.92,0.155561945903484,0.784210786950652,0.532512970852999
16.61999,1.77665996551514,-0.802180051803589,1.94347667694092,1.78769050013748,-0.801556781184982,1.94692262503437,2305.138,2364.288,2199.7,2498.418,0.172150676336544,0.784088880752698,0.539427469095664
16.63999,1.75367474555969,-0.830153942108154,1.93738174438477,1.76458994409097,-0.830587036386966,1.94114748602274,2318.635,2392.598,2211.677,2523.463,0.187796681040533,0.783991275899503,0.545396678316727
16.65999,1.72958159446716,-0.856041193008423,1.93101894855499,1.74037478419653,-0.857519060624206,1.93509369604913,2331.658,2421.018,2222.633,2546.047,0.202479936373159,0.783917240021772,0.550437809194602
16.67999,1.70439398288727,-0.879776239395142,1.92439544200897,1.71506031596828,-0.88228481815244,1.92876507899207,2344.713,2445.924,2234.413,2566.77,0.216176224213447,0.783865641276051,0.554587413614964
16.69999,1.67812645435333,-0.901296377182007,1.9175181388855,1.68866509785627,-0.904819704537188,1.92216627446407,2357.369,2468.058,2246.517,2585.204,0.228869648818764,0.783835014923753,0.557869726343547
16.71999,1.65079593658447,-0.920546531677246,1.91039395332336,1.66120076782098,-0.925071089689181,1.91530019195524,2369.271,2486.813,2257.979,2602.693,0.24055157156039,0.783823962805315,0.560305586615719
16.73999,1.62241768836975,-0.937477350234985,1.90302956104279,1.63268713974667,-0.942985558034219,1.90817178493667,2380.05,2505.805,2267.726,2616.611,0.251215034930032,0.783831353077282,0.561897291407902
16.75999,1.59300935268402,-0.952043056488037,1.89543175697327,1.60314222427637,-0.958517853999372,1.90078555606909,2390.27,2520.288,2277.905,2628.545,0.260849319704386,0.783855254947881,0.56267679865293
16.77999,1.56258857250214,-0.964206457138062,1.88760697841644,1.57258468346616,-0.971628739861294,1.89314617086654,2399.028,2532.601,2286.268,2638.92,0.269453194171456,0.783893804204361,0.562656958102963
16.79999,1.53117430210114,-0.973934888839722,1.87956166267395,1.54103687458454,-0.982284196555269,1.88525921864614,2406.778,2541.702,2294.168,2646.671,0.277023279445636,0.783945802424242,0.561847090821743
16.81999,1.49878537654877,-0.981201648712158,1.87130200862885,1.50851270742955,-0.990459338327385,1.87712817685739,2413.081,2547.405,2300.579,2653.175,0.283561473029188,0.784009651710882,0.560251857341143
16.83999,1.46544170379639,-0.985987663269043,1.8628340959549,1.47503568770164,-0.9961323793419,1.86875892192541,2417.901,2552.631,2305.331,2655.586,0.289070188411831,0.784084020483746,0.557860371990291
16.85999,1.43116414546967,-0.988278865814209,1.85416388511658,1.44062696117191,-0.999288988348989,1.86015674029298,2421.456,2553.749,2309.199,2656.411,0.293551289806313,0.784168176373541,0.554690411369325
16.87999,1.39597487449646,-0.988068819046021,1.84529733657837,1.40531167298206,-0.999921251285547,1.85132791824552,2423.406,2552.279,2311.265,2655.33,0.297010336561367,0.784260987536811,0.550740610608198
16.89999,1.35989463329315,-0.985356092453003,1.83624005317688,1.3691053940558,-0.998027691505355,1.84227634851395,2423.913,2547.121,2311.885,2652.919,0.299452155656432,0.784361188972049,0.546005310489637
16.91999,1.32294714450836,-0.980146884918213,1.82699763774872,1.3320343192343,-0.9936129117756,1.83300857980858,2423.011,2541.089,2311.342,2646.177,0.3008822065717,0.784468314626068,0.54046117506477
16.93999,1.28515517711639,-0.972453117370605,1.8175755739212,1.29412186447478,-0.986688064723432,1.82353046611869,2420.595,2531.531,2309.176,2638.45,0.301308611948432,0.784581365813466,0.534112099206663
16.95999,1.24654316902161,-0.962293863296509,1.80797934532166,1.25539570887781,-0.977271660143525,1.81384892721945,2416.882,2519.13,2305.863,2628.564,0.300739228111784,0.784700275955217,0.526943635266512
16.97999,1.20713531970978,-0.949694156646729,1.79821419715881,1.21587292725848,-0.965385689991162,1.80396823181462,2411.826,2503.38,2301.148,2617.567,0.299183642441605,0.784824578998133,0.518935909404838
16.99999,1.16695737838745,-0.934685945510864,1.78828537464142,1.17558213908449,-0.9510609601918,1.79389553477112,2405.719,2487.365,2295.826,2601.694,0.296651475607259,0.784954075205135,0.510053168684284
17.01999,1.12603425979614,-0.917306423187256,1.77819812297821,1.13454879404614,-0.934333657912242,1.78363719851154,2398.442,2468.033,2289.235,2585.153,0.293156709204361,0.785088631418169,0.500295213367767
17.03999,1.084392786026,-0.8975989818573,1.76795756816864,1.0928028257008,-0.91524797104867,1.7732007064252,2390.263,2446.203,2281.881,2566.798,0.288712925354364,0.785228513953342,0.48964236935289
17.05999,1.0420595407486,-0.87561559677124,1.75756871700287,1.05036264033429,-0.893848474105975,1.76259066008357,2381.157,2421.415,2273.313,2548.052,0.283335337364878,0.785373722810654,0.478069736083651
17.07999,0.999062120914459,-0.851409912109375,1.74703669548035,1.00725899304306,-0.870190935002744,1.75181474826077,2371.681,2396.769,2265.524,2523.922,0.277037061304171,0.785523459041784,0.465532905349217
17.09999,0.955427706241608,-0.825045585632324,1.73636639118195,0.963519110260832,-0.844335117471037,1.74087977756521,2361.348,2369.616,2256.256,2500.39,0.269841349897328,0.785678122120892,0.452031011622243
17.11999,0.911185562610626,-0.796589136123657,1.72556281089783,0.919174877734293,-0.816349107186229,1.72979371943357,2350.928,2340.464,2247.921,2474.461,0.261765863231194,0.785837445731872,0.437539054478187
17.13999,0.866362988948822,-0.766113758087158,1.71463084220886,0.874245847354344,-0.786298265304093,1.71856146183859,2340.056,2309.54,2238.722,2448.777,0.252837299495487,0.78600149645375,0.422035229285793
17.15999,0.820989906787872,-0.733697175979614,1.70357537269592,0.828764599282824,-0.754261074857018,1.70719114982071,2329.424,2279.681,2231.072,2418.232,0.243078462006867,0.786169741654312,0.40548245152717
17.17999,0.775095045566559,-0.69942307472229,1.69240117073059,0.782759861765793,-0.720318468272401,1.69568996544145,2318.707,2248.357,2223.123,2388.33,0.232522906594808,0.786342048175506,0.387889076870174
17.19999,0.728708803653717,-0.663379430770874,1.68111312389374,0.736265150758693,-0.684559685845284,1.68406628768967,2308.325,2216.49,2216.281,2357.178,0.221201908757118,0.786517417331929,0.369247149121108
17.21999,0.681861221790314,-0.625658273696899,1.66971600055695,0.689300966323563,-0.647068241993235,1.67232524158089,2298.188,2183.91,2209.786,2326.67,0.209152852617311,0.786694517543047,0.34955357235523
17.23999,0.634582459926605,-0.586356639862061,1.65821444988251,0.641901384694865,-0.607942172795283,1.66047534617372,2288.608,2154.604,2204.646,2292.445,0.196412739469496,0.786872483281513,0.328794831030113
17.25999,0.586903154850006,-0.545576572418213,1.64661312103271,0.594096345834719,-0.567280318621345,1.64852408645868,2279.522,2124.894,2200.527,2259.485,0.18302429640408,0.787048651386257,0.30701030664007
17.27999,0.538854539394379,-0.503421306610107,1.63491678237915,0.545920657464984,-0.525189478910833,1.63648016436625,2270.91,2096.791,2197.863,2226.293,0.16903326321243,0.787220691591344,0.284226031584556
17.29999,0.490467250347137,-0.459999084472656,1.62312996387482,0.497395560810276,-0.48176795656235,1.62434889020257,2262.823,2069.681,2195.731,2195.252,0.154491754627726,0.787386073893757,0.260481903345342
17.31999,0.441772639751434,-0.415421485900879,1.61125731468201,0.44855628407771,-0.437129390845748,1.61213907101943,2255.448,2047.867,2195.247,2161.676,0.139450478901204,0.787542001974373,0.235807749326407
17.33999,0.392803013324738,-0.369803190231323,1.59930348396301,0.399433676613311,-0.391386547812875,1.59985841915333,2248.667,2027.696,2195.788,2130.811,0.123966028205591,0.787685213460882,0.210293301411033
17.35999,0.343588769435883,-0.323259830474854,1.58727300167084,0.350063486418835,-0.344659483117473,1.58751587160471,2242.388,2011.333,2197.277,2101.475,0.108096542675984,0.787811314137521,0.184018903839736
17.37999,0.294162333011627,-0.275910377502441,1.57517063617706,0.300467481388714,-0.297057327533217,1.57511687034718,2236.5,1997.289,2199.717,2076.011,0.091902151495904,0.787916508999764,0.157081961728629
17.39999,0.244555056095123,-0.227875471115112,1.56300103664398,0.25068168597015,-0.248704745015203,1.56267042149254,2231.211,1990.589,2202.76,2050.212,0.0754455471414017,0.787997069622115,0.129567396626316
17.41999,0.19479888677597,-0.179276943206787,1.55076920986176,0.20073754737802,-0.199723883973437,1.55018438684451,2226.365,1986.582,2206.741,2029.132,0.058787994800642,0.788049267579076,0.101618420019305
17.43999,0.144925653934479,-0.130237817764282,1.53848004341125,0.150671392912548,-0.150243219255464,1.53766784822814,2221.881,1987.255,2211.153,2011.855,0.0419934145004808,0.788070173393471,0.0733622893948249
17.45999,0.0949665904045105,-0.0808820724487305,1.52613878250122,0.100505297326968,-0.100378312650974,1.52512632433174,2217.718,1991.373,2216.117,1999.918,0.0251251977967493,0.788057123904231,0.0449326122147786
17.47999,0.0449538864195347,-0.0313339233398438,1.51375091075897,0.0502757175356097,-0.0502598301121623,1.5125689293839,2214.293,2002.603,2221.363,1989.74,0.00824795599385447,0.788009120425954,0.0164482164374308
17.49999,-0.00508111342787743,0.0182819366455078,1.5013222694397,1.43810698903043E-05,-1.43810698899325E-05,1.50000359526747,2211.517,2016.668,2227.172,1985.537,6.27460774933525,0.787925830063507,6.2712542969166
17.51999,-0.0551070533692837,0.0678415298461914,1.48885905742645,-0.0502469644796369,0.0502311043018757,1.48743825888009,2209.325,2034.763,2233.45,1986.27,6.25789481572781,0.787807985186184,6.24311533705679
17.53999,-0.105092823505402,0.117220878601074,1.47636783123016,-0.100471783879623,0.100344926243733,1.47488205403009,2207.993,2056.313,2240.171,1992.134,6.24135392232546,0.787657250269653,6.21534602395343
17.55999,-0.155006945133209,0.16629695892334,1.46385562419891,-0.150637932419606,0.150210044231169,1.4623405168951,2207.351,2080.371,2247.696,2003.646,6.22504365867172,0.787477420318439,6.18806193879692
17.57999,-0.204818546772003,0.21494722366333,1.45133006572723,-0.200708930457525,0.199695701244362,1.44982276738562,2208.805,2109.325,2255.51,2017.112,6.20902314694234,0.787272423495118,6.16135522696027
17.59999,-0.254497230052948,0.263051509857178,1.43879926204681,-0.250653150630167,0.248676886497799,1.43733671234246,2211.25,2139.543,2264.542,2035.867,6.19334085666878,0.787047253226696,6.13534146963389
17.61999,-0.304011642932892,0.310490131378174,1.4262717962265,-0.30043430635837,0.297025286258262,1.42489142341041,2215.173,2171.501,2274.467,2058.689,6.17804685527915,0.786807102677258,6.11010375744314
17.63999,-0.353331387042999,0.357145309448242,1.4137567281723,-0.350030448548191,0.344627983133954,1.41249238786295,2220.185,2204.461,2285.561,2085.771,6.16318907967269,0.786557697643104,6.08571079994363
17.65999,-0.402426540851593,0.40290093421936,1.40126383304596,-0.399405493884235,0.391360079971541,1.40014862652894,2227.937,2239.724,2297.481,2113.713,6.14881759727751,0.786303964972213,6.06220414244802
17.67999,-0.451266586780548,0.447644472122192,1.38880300521851,-0.448528254602056,0.437103522035833,1.38786793634949,2236.569,2275.032,2310.787,2145.272,6.13496756181974,0.786051497302829,6.03963811344215
17.69999,-0.499821603298187,0.491264581680298,1.37638485431671,-0.497363059196638,0.481738551356851,1.37565923520084,2247.173,2310.567,2325.156,2178.647,6.12168158387647,0.785805021745851,6.01803987716892
17.71999,-0.548061311244965,0.533652305603027,1.36402010917664,-0.545888375831304,0.52516092309672,1.36352790604217,2258.418,2346.218,2340.715,2214.274,6.10899428454161,0.785568333305804,5.99742594522695
17.73999,-0.595956444740295,0.574702024459839,1.3517199754715,-0.594068881884754,0.567256632052273,1.35148277952881,2272.879,2382.339,2357.101,2248.63,6.09694561123121,0.785344694354997,5.97779578498404
17.75999,-0.643476784229279,0.614311933517456,1.33949565887451,-0.641874144123686,0.607919335942511,1.33953146396908,2287.466,2417.934,2374.396,2284.815,6.08555793449824,0.785136701475473,5.95916377750996
17.77999,-0.690593540668488,0.652382373809814,1.32735872268677,-0.689269466326183,0.647042657587577,1.32768263341845,2303.464,2452.747,2392.447,2321.034,6.07485948385005,0.784946551775114,5.94152566174699
17.79999,-0.737276613712311,0.688817739486694,1.31532049179077,-0.736233951340203,0.684535224709154,1.31594151216495,2318.942,2487.088,2411.035,2358.235,6.06487422773625,0.784775310518349,5.92487238294751
17.81999,-0.783497393131256,0.723526239395142,1.30339252948761,-0.782733393924458,0.720298517303175,1.30431665151889,2337.574,2520.072,2430.044,2392.825,6.05563412408969,0.784622977705176,5.90918370108739
17.83999,-0.829226613044739,0.756420612335205,1.29158627986908,-0.828738422689972,0.754242190054058,1.29281539432751,2355.013,2552.382,2449.002,2428.098,6.04714876029021,0.784490019388784,5.89444896352234
17.85999,-0.874435782432556,0.787416696548462,1.27991282939911,-0.874215667058526,0.786277532489347,1.28144608323537,2372.955,2583.302,2468.074,2462.091,6.03943837636194,0.784376502148199,5.88064846286045
17.87999,-0.919096410274506,0.816435813903809,1.26838326454163,-0.919145075581048,0.81632972626281,1.27021373110474,2389.318,2613.652,2486.807,2495.744,6.03251841863909,0.78428222624634,5.86776036118096
17.89999,-0.963179886341095,0.843404293060303,1.25700831413269,-0.963493905798974,0.844319705922584,1.25912652355026,2408.353,2641.331,2505.454,2525.905,6.02641498610012,0.784205061154353,5.85576282056309
17.91999,-1.00665819644928,0.868252277374268,1.24579846858978,-1.00723414475837,0.870176763114876,1.24819146381041,2425.431,2668.211,2523.105,2555.573,6.02113074190612,0.784144673977103,5.84463773151157
17.93999,-1.04950380325317,0.890916109085083,1.23476386070251,-1.05033408449906,0.89383342820349,1.23741647887524,2441.691,2693.491,2540.119,2583.417,6.01667687133357,0.78410046550335,5.83436698453113
17.95999,-1.09168934822083,0.911337375640869,1.22391426563263,-1.09277472175337,0.91523445119186,1.22680631956166,2455.826,2717.564,2556.107,2610.166,6.01306455965897,0.784071636784773,5.8249324701265
17.97999,-1.13318765163422,0.929462432861328,1.21325886249542,-1.13452510747707,0.93432340671305,1.21636872313073,2472.18,2737.989,2571.575,2632.902,6.01031511217087,0.784055857555437,5.81631661143462
17.99999,-1.17397177219391,0.945244431495667,1.2028067111969,-1.17555887002462,0.951052072201814,1.20611028249385,2485.168,2757.944,2585.216,2654.883,6.00842480044378,0.784052195708966,5.80850236422464
18.01999,-1.21401584148407,0.95864200592041,1.19256615638733,-1.21584628423913,0.965376937197613,1.19603842894022,2497.377,2775.537,2597.855,2674.197,6.00740374448975,0.784060318350228,5.801475880059
18.03999,-1.25329399108887,0.969619512557983,1.1825453042984,-1.25536958692836,0.977264546065899,1.18615760326791,2506.594,2792.092,2608.84,2692.044,6.007259933792,0.784079426530901,5.79522437576458
18.05999,-1.29178071022034,0.978147268295288,1.17275178432465,-1.29409993498422,0.986683386892463,1.17647501625395,2517.975,2804.299,2619.129,2705.369,6.00801094521358,0.784107323143104,5.78973932922594
18.07999,-1.32945108413696,0.98420262336731,1.16319274902344,-1.33201286436898,0.993609665779005,1.16699678390776,2525.565,2816.031,2627.136,2717.623,6.00965091980015,0.784143342396568,5.78501168569545
18.09999,-1.36628103256226,0.987768888473511,1.15387499332428,-1.36908093289214,0.998025584469211,1.15772976677697,2532.079,2825.164,2633.929,2727.003,6.01218518387384,0.784187883765455,5.78103718411541
18.11999,-1.40224623680115,0.988835692405701,1.14480471611023,-1.40528779680863,0.999920829612002,1.14867805079784,2535.442,2833.141,2638.893,2734.654,6.01561853112457,0.784240281459496,5.77781262869252
18.13999,-1.43732392787933,0.987399101257324,1.13598775863647,-1.44060701020269,0.999290072355202,1.13984824744933,2541.224,2836.147,2643.241,2737.622,6.01996587525434,0.784299203898158,5.77534014995564
18.15999,-1.47149085998535,0.983461380004883,1.12742960453033,-1.47501626368095,0.996134906119307,1.13124593407976,2542.935,2838.821,2645.149,2739.61,6.02521443309001,0.784364051870199,5.77361761737592
18.17999,-1.50472545623779,0.977032423019409,1.11913537979126,-1.5084906751291,0.990463961940748,1.12287733121773,2543.646,2838.979,2645.938,2738.501,6.03136740042487,0.784435957219074,5.77264769411443
18.19999,-1.53700578212738,0.968127131462097,1.11110961437225,-1.54101548528748,0.982290484274955,1.11474612867813,2541.522,2837.905,2645.045,2735.555,6.03842477725891,0.784514520470623,5.77243730438994
18.21999,-1.56831121444702,0.956767320632935,1.10335671901703,-1.57256691248209,0.971635542030277,1.10685827187948,2542.045,2831.774,2643.734,2728.112,6.04639508570756,0.784597943991123,5.77299816611117
18.23999,-1.59862148761749,0.942981719970703,1.09588050842285,-1.60312502724304,0.95852605174738,1.09921874318924,2538.912,2825.461,2640.218,2719.636,6.05526074890776,0.784686360938629,5.77433613823246
18.25999,-1.62791728973389,0.926805019378662,1.08868455886841,-1.63266775879042,0.942996726012549,1.0918330603024,2535.308,2816.491,2635.933,2708.319,6.06501697316958,0.784781635525889,5.77646347129473
18.27999,-1.65617942810059,0.908277750015259,1.08177208900452,-1.66118208138825,0.925083833471016,1.08470447965294,2529.319,2806.601,2630.356,2695.217,6.07565417111317,0.784883301699715,5.77939401373555
18.29999,-1.68339061737061,0.887446880340576,1.07514607906342,-1.68864711775036,0.904833991929154,1.07783822056241,2526.555,2791.477,2624.811,2678.197,6.08717234273854,0.78499029419568,5.78314694031462
18.31999,-1.70953285694122,0.864365339279175,1.06880903244019,-1.71504551957704,0.882298356585265,1.07123862010574,2520.634,2776.455,2617.531,2660.54,6.09954166064171,0.785103012487944,5.78773183841179
18.33999,-1.73458981513977,0.839092493057251,1.06276321411133,-1.74036061230866,0.85753385701544,1.06490984692283,2515.007,2759.087,2610.018,2640.271,6.11274774375289,0.785222255524829,5.79316362172904
18.35999,-1.75854539871216,0.811692476272583,1.05701065063477,-1.76457414921719,0.83060572278629,1.0588564626957,2509.191,2739.837,2602.033,2618.232,6.1267676888869,0.785347956727307,5.79945826923279
18.37999,-1.78138482570648,0.782235622406006,1.05155301094055,-1.78767545427094,0.801576844390531,1.05308113643226,2502.125,2720.07,2593.434,2594.848,6.14157699496189,0.785479383726084,5.80663282515388
18.39999,-1.80309367179871,0.750797033309937,1.04639160633087,-1.80964757350628,0.770523020646676,1.04758810662343,2498.938,2695.31,2585.353,2569.054,6.15715542195375,0.785616003888947,5.81470859478088
18.41999,-1.8236585855484,0.717457056045532,1.04152750968933,-1.8304766282265,0.737522699798796,1.04238084294338,2493.861,2671.162,2576.372,2543.099,6.1734550329632,0.785757218004655,5.82368824127485
18.43999,-1.84306693077087,0.682301759719849,1.03696167469025,-1.85014764117453,0.70266265816606,1.03746308970637,2489.424,2645.496,2567.703,2516.082,6.19043641320644,0.785904157916661,5.83358081938343
18.45999,-1.86130630970001,0.645421266555786,1.03269469738007,-1.86865193917062,0.6660243111624,1.03283701520734,2484.499,2619.767,2559.085,2488.659,6.20805695210635,0.786056024676647,5.84439112279654
18.47999,-1.87836635112762,0.606909275054932,1.02872693538666,-1.88597590252364,0.627703451945419,1.02850602436909,2483.497,2590.151,2551.203,2460.368,6.22627776751131,0.786210354860621,5.85612820626181
18.49999,-1.89423668384552,0.566864967346191,1.02505850791931,-1.90210858854614,0.58779688676163,1.02447285286347,2480.78,2562.169,2542.832,2433.292,6.24503387829122,0.786365683729997,5.8687782213417
18.51999,-1.90890777111053,0.525391578674316,1.02168929576874,-1.91703844069155,0.546409442480607,1.02074038982711,2479.452,2533.361,2535.071,2406.456,6.26427308648914,0.786521012599373,5.88233051539191
18.53999,-1.92237102985382,0.482594013214111,1.01861894130707,-1.93075887621338,0.50363777922523,1.01731028094666,2478.158,2505.469,2527.553,2380.575,0.000750243747201264,0.786674077781839,5.89676857681383
18.55999,-1.93461918830872,0.438582420349121,1.01584684848785,-1.94325974722389,0.459593825003236,1.01418506319403,2479.869,2475.426,2520.605,2356.216,0.0207793475338924,0.786822149537301,5.91207429611217
18.57999,-1.94564461708069,0.39346981048584,1.01337230205536,-1.95453315754358,0.414388843757486,1.0113667106141,2480.918,2447.464,2513.636,2334.105,0.0410998448990862,0.786962631283714,5.92820346481318
18.59999,-1.95544147491455,0.347370147705078,1.01119446754456,-1.96457108803377,0.368141489452393,1.00885722799156,2483.038,2420.306,2507.164,2313.952,0.0616433112636305,0.787093192755144,5.94511187444311
18.61999,-1.96400499343872,0.30040168762207,1.00931227207184,-1.97336911285346,0.320959772500948,1.00665772178664,2484.472,2395.928,2501.004,2296.339,0.0823378828905419,0.787211303948574,5.96274572914837
18.63999,-1.97133040428162,0.252683877944946,1.00772452354431,-1.98092065839113,0.272967246201903,1.00476983540222,2488.308,2370.727,2495.295,2282.281,0.103121058718472,0.787313236438507,5.98105496150083
18.65999,-1.97741389274597,0.204338073730469,1.00642991065979,-1.98722095471043,0.224285149390377,1.00319476132239,2491.397,2349.207,2489.652,2271.304,0.123916218771214,0.7873953949575,5.99995754613957
18.67999,-1.98225283622742,0.155486583709717,1.00542712211609,-1.99226560105739,0.175041182578905,1.00193359973565,2494.913,2330.144,2484.352,2263.636,0.144655019677824,0.787455116344482,6.01937518612914
18.69999,-1.98584485054016,0.106253385543823,1.00471472740173,-1.99605237318842,0.125350354750665,1.0009869067029,2498.031,2314.84,2479.421,2259.124,0.165269883726165,0.787489937175465,6.03922425821196
18.71999,-1.98818910121918,0.0567626953125,1.00429141521454,-1.9985783381482,0.0753428665554187,1.00035541546295,2502.6,2300.531,2474.771,2259.094,0.185700656765579,0.787498059816727,6.05942646545259
18.73999,-1.98928427696228,0.00713920593261719,1.00415575504303,-1.99984190041009,0.0251450470298488,1.00003952489748,2506.427,2290.649,2470.547,2262.332,0.205878845622314,0.787478152687733,6.07987794456932
18.75999,-1.98913049697876,-0.042492151260376,1.00430655479431,-1.99984232204343,-0.0251115017958633,1.00003941948914,2510.549,2284.175,2466.874,2268.791,0.225746226937487,0.787429683156269,6.10048388702808
18.77999,-1.9877290725708,-0.0920069217681885,1.0047425031662,-1.9985796028623,-0.0753094060594414,1.00035509928443,2514.546,2281.853,2463.848,2278.027,0.24524722386853,0.787352784380388,6.121150016927
18.79999,-1.98508083820343,-0.141280651092529,1.00546264648438,-1.99605448018443,-0.125317063520688,1.00098637995389,2519.059,2281.396,2461.529,2291.56,0.264332468067119,0.7872487213616,6.14179484153738
18.81999,-1.98118770122528,-0.190189838409424,1.00646603107452,-1.99226854900442,-0.175008144715307,1.00193286274889,2523.794,2285.086,2460.018,2307.087,0.282954605200487,0.787119225154598,6.16231662810634
18.83999,-1.97605323791504,-0.23861289024353,1.00775194168091,-1.9872247416665,-0.224252448317405,1.00319381458338,2528.888,2292.043,2459.358,2325.01,0.30107029232223,0.786966559446292,6.18263175337631
18.85999,-1.9696798324585,-0.286428928375244,1.00931978225708,-1.98092528204432,-0.272934964557247,1.00476867948892,2534.208,2302.612,2459.766,2344.511,0.318639864977168,0.786794252925098,6.20266245304407
18.87999,-1.96207213401794,-0.333517789840698,1.01116919517517,-1.97337457028324,-0.320927991834576,1.00665635742919,2540.213,2314.68,2461.268,2366.787,0.335629867204368,0.786605900858461,6.22234587650837
18.89999,-1.95323383808136,-0.379763126373291,1.01330006122589,-1.96457737579296,-0.368110290048701,1.00885565605176,2546.871,2329.602,2463.876,2389.953,0.352009140019316,0.786405697725066,6.24161065105255
18.91999,-1.94317054748535,-0.425049066543579,1.01571226119995,-1.95454027158191,-0.414358304365834,1.01136493210452,2554.094,2346.917,2467.596,2413.95,0.36774948720419,0.786197638266515,6.26039818713309
18.93999,-1.9318882226944,-0.469262838363647,1.01840603351593,-1.94326768312677,-0.459564022831516,1.01418307921831,2562.101,2366.336,2472.246,2438.363,0.382826274519097,0.785985850382467,6.27866374364402
18.95999,-1.91939294338226,-0.512294292449951,1.0213817358017,-1.9307676289681,-0.503608789559761,1.01730809275797,2570.273,2386.088,2478.447,2464.299,0.397215134040252,0.785774195656472,0.0131873015838624
18.97999,-1.90569198131561,-0.554035663604736,1.02463972568512,-1.91704800476943,-0.546381338555145,1.02073799880764,2579.306,2407.522,2485.456,2489.701,0.41090208417204,0.785566402514029,0.0302966716836217
18.99999,-1.89079308509827,-0.594383239746094,1.02818036079407,-1.90211895782954,-0.587769739477836,1.02447026054261,2588.859,2429.727,2493.237,2515.103,0.423871612001232,0.785365666748419,0.0467795227388201
19.01999,-1.87470483779907,-0.633235454559326,1.03200423717499,-1.88598707053989,-0.627677329970717,1.02850323236503,2599.025,2452.971,2501.4,2539.737,0.436110068827347,0.785174451783632,0.0626141749538767
19.03999,-1.85743582248688,-0.670494794845581,1.03611171245575,-1.86866389886544,-0.665999280486191,1.03283402528364,2608.99,2475.255,2510.852,2564.776,0.447601375815427,0.784995087885605,0.0777922830639088
19.05999,-1.83899629116058,-0.70606803894043,1.04050314426422,-1.85016038499356,-0.702638782020892,1.03745990375161,2619.506,2498.042,2520.216,2588.585,0.458340705986036,0.784829639004165,0.0922944267990555
19.07999,-1.81939709186554,-0.739865303039551,1.04517877101898,-1.83049014804651,-0.737500038382007,1.04237746298837,2629.945,2520.428,2529.886,2611.535,0.468317739590027,0.784678970666661,0.106113844226914
19.09999,-1.79864931106567,-0.771801710128784,1.05013871192932,-1.80966186086186,-0.770501631318621,1.04758453478453,2640.528,2542.593,2538.983,2633.33,0.477524986486895,0.784544081558494,0.119246806921987
19.11999,-1.7767641544342,-0.801795959472656,1.05538284778595,-1.78769050013748,-0.801556781184982,1.05307737496563,2650.153,2562.916,2549.22,2654.317,0.485949530345451,0.784425171416743,0.131696236039072
19.13999,-1.75375580787659,-0.829771041870117,1.06091070175171,-1.76458994409097,-0.830587036386965,1.05885251397726,2659.759,2582.881,2558.172,2673.776,0.493594067616279,0.784322772873622,0.143456946736462
19.15999,-1.72963643074036,-0.85565710067749,1.06672179698944,-1.74037478419653,-0.857519060624206,1.06490630395087,2668.766,2601.313,2566.601,2692.043,0.500451674080598,0.784236486454972,0.154532251320738
19.17999,-1.70442128181458,-0.87938666343689,1.07281506061554,-1.715062781999,-0.882282561676009,1.07123430450025,2677.023,2618.776,2574.216,2708.379,0.506516091309894,0.784165712949552,0.164922624167465
19.19999,-1.67812538146973,-0.900899887084961,1.07918918132782,-1.68866509785627,-0.904819704537188,1.07783372553593,2684.614,2634.871,2580.122,2723.382,0.511780395085388,0.784109986304173,0.174635721864718
19.21999,-1.65076470375061,-0.920140266418457,1.08584260940552,-1.66120076782098,-0.925071089689181,1.08469980804476,2690.451,2648.08,2587.032,2736.504,0.516229571836551,0.78406804151733,0.183678768236897
19.23999,-1.62235522270203,-0.937058925628662,1.09277331829071,-1.63268713974667,-0.942985558034219,1.09182821506333,2695.425,2660.11,2591.513,2748.066,0.519870113018488,0.784039412535833,0.192051363809842
19.25999,-1.59291458129883,-0.951611518859863,1.09997880458832,-1.60314509041636,-0.958516487630946,1.09921372739591,2699.235,2670.348,2594.658,2757.468,0.522696392703441,0.784023833043577,0.199756404771216
19.27999,-1.5624612569809,-0.963760375976563,1.10745632648468,-1.57258764526522,-0.971627606088318,1.1068530886837,2702.013,2679.082,2595.206,2765.134,0.524701819567763,0.784020038039053,0.206799150864132
19.29999,-1.53101396560669,-0.973473072052002,1.11520266532898,-1.54103687458454,-0.982284196555269,1.11474078135386,2702.755,2684.29,2596.56,2770.474,0.525867152272728,0.784026895678807,0.21318672604445
19.31999,-1.49859166145325,-0.980723142623901,1.12321412563324,-1.50851270742955,-0.990459338327385,1.12287182314261,2702.169,2688.194,2594.799,2774.184,0.526196019375291,0.784043473856464,0.218917332678448
19.33999,-1.46521604061127,-0.98549222946167,1.13148677349091,-1.47503892500877,-0.996131958132215,1.13124026874781,2700.156,2689.847,2591.256,2775.771,0.525677568494096,0.784069506255918,0.22399200274104
19.35999,-1.4309070110321,-0.987766265869141,1.14001619815826,-1.44063028630449,-0.999288807600916,1.13984242842388,2696.698,2689.588,2585.367,2775.302,0.524298916587469,0.784103661296633,0.228410802811254
19.37999,-1.39568686485291,-0.987538814544678,1.14879751205444,-1.40531167298206,-0.999921251285547,1.14867208175448,2691.115,2685.709,2580.137,2772.182,0.522039956789335,0.784145206609317,0.232175131048651
19.39999,-1.35957753658295,-0.984809398651123,1.15782558917999,-1.3691053940558,-0.998027691505355,1.15772365148605,2684.025,2680.372,2571.76,2767.379,0.518902852918064,0.784193542982727,0.235279278301688
19.41999,-1.32260239124298,-0.979583740234375,1.1670948266983,-1.3320378950184,-0.993613452695119,1.1669905262454,2675.547,2672.674,2561.62,2760.333,0.514876619434244,0.784249336207132,0.237720115356108
19.43999,-1.28478455543518,-0.971873760223389,1.17659938335419,-1.29412551936385,-0.986688844282569,1.17646862015904,2665.873,2663.216,2548.43,2751.59,0.509947407900313,0.784311853913238,0.239493247996148
19.45999,-1.24614882469177,-0.961699247360229,1.1863329410553,-1.25539570887781,-0.977271660143525,1.18615107278055,2654.221,2649.839,2536.617,2739.933,0.504088220520931,0.784379964257589,0.240593899176638
19.47999,-1.2067197561264,-0.949085712432861,1.19628882408142,-1.21587292725848,-0.965385689991162,1.19603176818538,2641.134,2635.206,2521.731,2726.794,0.497297326241402,0.784453534082132,0.241010251120333
19.49999,-1.16652274131775,-0.934062719345093,1.20646023750305,-1.1755860172375,-0.951062441446972,1.20610349569062,2626.873,2618.247,2505.604,2711.434,0.489560943203191,0.784532896282002,0.240732916184463
19.51999,-1.12558352947235,-0.916670322418213,1.21683990955353,-1.13455274178484,-0.934335366370293,1.21636181455379,2611.791,2599.717,2486.469,2694.782,0.480864956652631,0.784618450331358,0.239751674488424
19.53999,-1.08392894268036,-0.896951198577881,1.22742033004761,-1.0928028257008,-0.915247971048671,1.2267992935748,2595.019,2577.371,2470.203,2674.615,0.471178340763263,0.784709330702853,0.238054208912271
19.55999,-1.04158544540405,-0.874956130981445,1.23819363117218,-1.05036264033429,-0.893848474105976,1.23740933991643,2577.334,2554.131,2450.701,2653.734,0.460506022383065,0.784805404238433,0.235626304833794
19.57999,-0.998580753803253,-0.850740432739258,1.24915182590485,-1.0072631344036,-0.870193296914071,1.2481842163991,2559.099,2528.869,2430.735,2630.653,0.448835218338903,0.784908401992794,0.232453564538462
19.59999,-0.954942524433136,-0.824366569519043,1.26028656959534,-0.963523310985106,-0.844337685994541,1.25911917225372,2540.673,2502.378,2408.619,2606.416,0.436153744668886,0.785018190807882,0.228522206167741
19.61999,-0.910698711872101,-0.795900344848633,1.27158915996552,-0.919174877734293,-0.816349107186229,1.27020628056643,2521.1,2472.477,2390.137,2579.115,0.422434803314751,0.785134038314403,0.223817865296612
19.63999,-0.865878760814667,-0.765416860580444,1.28305089473724,-0.874245847354345,-0.786298265304093,1.28143853816141,2501.345,2442.346,2369.046,2551.466,0.40768927994737,0.785255944512357,0.218324096905471
19.65999,-0.820510447025299,-0.732992172241211,1.29466271400452,-0.828768962031634,-0.754264222263513,1.29280775949209,2481.589,2410.582,2349.151,2521.615,0.391908752319861,0.785385041245199,0.212025621107683
19.67999,-0.774624168872833,-0.698710441589355,1.30641543865204,-0.782764273056942,-0.720321793376004,1.30430893173576,2462.499,2378.58,2327.526,2491.122,0.375095084644972,0.785521128775848,0.204911402429566
19.69999,-0.72824889421463,-0.662658929824829,1.31829941272736,-0.736265150758693,-0.684559685845285,1.31593371231033,2442.691,2343.724,2311.219,2457.857,0.357231199402346,0.785663741051117,0.196972885466185
19.71999,-0.681415021419525,-0.624930620193481,1.3303050994873,-0.689300966323563,-0.647068241993235,1.32767475841911,2423.456,2309.718,2293.242,2424.598,0.338347423338661,0.785812345438792,0.188200982180389
19.73999,-0.634152114391327,-0.585622310638428,1.34242260456085,-0.641905924777152,-0.607945978888514,1.33952351880571,2404.979,2275.15,2277.034,2389.998,0.318456373179483,0.785967341413034,0.178593062700623
19.75999,-0.586491048336029,-0.544834136962891,1.35464191436768,-0.594100923147765,-0.56728426633723,1.35147476921306,2387.838,2241.4,2260.572,2354.955,0.297578721712615,0.786127996604549,0.168151523871849
19.77999,-0.538462460041046,-0.502671718597412,1.36695277690887,-0.545920657464984,-0.525189478910834,1.36351983563375,2370.234,2206.469,2249.722,2318.392,0.275722558289804,0.7862919807474,0.156887634194343
19.79999,-0.490096986293793,-0.459242582321167,1.37934494018555,-0.497395560810276,-0.48176795656235,1.37565110979743,2353.605,2173.719,2238.565,2282.291,0.252943043634701,0.786457496207866,0.144814726118208
19.81999,-0.441425740718842,-0.414657831192017,1.39180779457092,-0.448560955647972,-0.437133702278916,1.38785976108801,2338.026,2142.215,2229.396,2246.101,0.229284685826681,0.786623344563466,0.131958782108628
19.83999,-0.392479479312897,-0.369032621383667,1.40433073043823,-0.399438373726798,-0.391390959088291,1.4001404065683,2324.051,2113.028,2220.679,2210.572,0.204798850584869,0.786786729495077,0.118354764477018
19.85999,-0.343289792537689,-0.322482347488403,1.41690313816071,-0.350063486418836,-0.344659483117474,1.41248412839529,2309.1,2085.182,2217.689,2174.902,0.179527382827569,0.786944122314281,0.10404919531831
19.87999,-0.293887794017792,-0.275126934051514,1.42951416969299,-0.300467481388715,-0.297057327533217,1.42488312965282,2295.414,2061.057,2214.06,2141.598,0.153563243520862,0.787091328542395,0.0890991245360384
19.89999,-0.244304478168488,-0.227086544036865,1.44215297698975,-0.25068168597015,-0.248704745015203,1.43732957850746,2282.382,2040.305,2212.407,2109.74,0.126983522855331,0.787225218965162,0.0735710312883997
19.91999,-0.194571435451508,-0.178483486175537,1.4548088312149,-0.200742316860732,-0.199728581078886,1.44981442078482,2270.091,2023.399,2211.822,2080.345,0.0998749316909198,0.78734133278779,0.0575451141742866
19.93999,-0.144719898700714,-0.129441261291504,1.46747100353241,-0.150671392912548,-0.150243219255464,1.46233215177186,2258.952,2010.869,2211.422,2053.912,0.0723258620080003,0.787435209215488,0.0411113589095224
19.95999,-0.0947814583778381,-0.0800838470458984,1.4801287651062,-0.100505297326968,-0.100378312650974,1.47487367566826,2245.745,2002.192,2215.078,2030.848,0.0444164083757359,0.787502320874438,0.0243698733025888
19.97999,-0.0447872243821621,-0.0305366516113281,1.49277174472809,-0.0502757175356099,-0.0502598301121625,1.4874310706161,2233.67,1998.697,2217.615,2012.155,0.0162732488357625,0.787538273548876,0.00742397655971005
19.99999,0.00523156300187111,0.0190761089324951,1.50538969039917,-1.91747598509155E-05,-1.91747598500342E-05,1.49999520631004,2222.029,1999.958,2220.699,1997.549,6.27119038105093,0.787541003288972,6.27356805125373
20.01999,0.0552439130842686,0.068629264831543,1.51797270774841,0.0502421723026336,0.05022631666279,1.51256054307566,2212.208,2005.8,2222.815,1987.456,6.24290761049338,0.787508179828791,6.25654565833003
20.03999,0.105218470096588,0.117998361587524,1.53051114082336,0.100471783879622,0.100344926243733,1.52511794596991,2200.507,2015.774,2227.391,1982.637,6.21469781054913,0.787438471587798,6.23965695609201
20.05999,0.155123889446259,0.16706109046936,1.54299592971802,0.150637932419606,0.150210044231169,1.5376594831049,2190.733,2030.065,2230.771,1982.624,6.18668348662737,0.7873321448821,6.22300740571802
20.07999,0.204929888248444,0.215693950653076,1.55541837215424,0.200704160966735,0.199691004106782,1.55017604024168,2182.084,2047.736,2234.304,1987.56,6.15896317568769,0.787190731029312,6.20669927259314
20.09999,0.254604637622833,0.263776779174805,1.56777024269104,0.250648394735124,0.248672243391558,1.56266209868378,2175.582,2068.937,2237.663,1996.23,6.13162902310307,0.787017625559798,6.19082416945815
20.11999,0.304117977619171,0.311189651489258,1.58004403114319,0.30043430635837,0.297025286258261,1.57510857658959,2167.895,2092.408,2243.146,2010.464,6.10475613001569,0.786817821900563,6.17547051326056
20.13999,0.353438794612885,0.357814788818359,1.59223258495331,0.35003044854819,0.344627983133954,1.58750761213705,2163.296,2118.319,2248.374,2027.614,6.07844622917838,0.786595714267371,6.16070381776268
20.15999,0.402536690235138,0.403536558151245,1.60432946681976,0.399400796754693,0.391355668633176,1.59985019918867,2160.629,2145.822,2254.375,2047.975,6.05277655226217,0.786357161614575,6.1465853356691
20.17999,0.451380789279938,0.448242425918579,1.61632871627808,0.448523583013763,0.437099210532359,1.61213089575344,2161.255,2174.514,2260.755,2070.23,6.02781634145487,0.786108289212635,6.13316619967236
20.19999,0.499940931797028,0.491820812225342,1.62822496891022,0.497363059196638,0.481738551356851,1.62434076479916,2161.902,2203.509,2268.992,2096.255,6.00361193575907,0.785855555227144,6.12049168351064
20.21999,0.548186600208282,0.534163951873779,1.64001321792603,0.545888375831303,0.525160923096719,1.63647209395783,2165.918,2232.977,2277.866,2122.877,5.98022618577602,0.785604552296348,6.10858096194363
20.23999,0.596087634563446,0.575166463851929,1.65168905258179,0.594064304547818,0.567252684245139,1.64851607613695,2171.957,2262.321,2287.848,2150.666,5.9577006368184,0.785360873058494,6.09745480762768
20.25999,0.643614113330841,0.614726305007935,1.66324841976166,0.641869604015585,0.60791552975149,1.6604674010039,2180.64,2291.567,2298.712,2178.267,5.93606937734791,0.785129311203505,6.08712334057486
20.27999,0.690735816955566,0.652745008468628,1.67468762397766,0.689269466326183,0.647042657587577,1.67231736658155,2189.166,2319.923,2311.068,2207.738,5.91535318002087,0.784914061210067,6.0775993439583
20.29999,0.737423479557037,0.689127206802368,1.68600308895111,0.736233951340203,0.684535224709153,1.68405848783505,2200.265,2347.57,2324.028,2236.116,5.89558666593121,0.784717719660222,6.06887429566257
20.31999,0.783647358417511,0.723782062530518,1.69719159603119,0.782728982601825,0.720295192083701,1.69568224565046,2212.652,2374.393,2337.558,2263.908,5.87678741194196,0.784542150766718,6.06094499989439
20.33999,0.829378128051758,0.756622314453125,1.70824980735779,0.828734059907828,0.754239042526231,1.70718351497696,2226.712,2400.279,2351.371,2290.221,5.85896820122628,0.784388552952038,6.05380613033162
20.35999,0.874587118625641,0.787564277648926,1.71917474269867,0.874215667058526,0.786277532489347,1.71855391676463,2240.127,2424.302,2365.661,2317.255,5.84212956641636,0.784257924901581,6.04745662170984
20.37999,0.919245481491089,0.816529989242554,1.7299633026123,0.919145075581047,0.816329726262809,1.72978626889526,2254.673,2447.353,2379.956,2341.966,5.8262821601565,0.784150333194376,6.04187729926934
20.39999,0.96332448720932,0.843445777893066,1.74061226844788,0.963489705035959,0.844317137263268,1.74087242625899,2269.325,2468.869,2394.077,2365.332,5.81142598244668,0.784065444935287,6.0370591082625
20.41999,1.00679647922516,0.868242502212524,1.75111842155457,1.00723000335734,0.870174401063578,1.75180750083933,2283.957,2489.274,2407.819,2386.504,5.79755890275806,0.784002394596968,6.03299139604502
20.43999,1.04963374137878,0.890856981277466,1.76147842407227,1.05033408449906,0.89383342820349,1.76258352112476,2297.534,2507.147,2421.079,2407.381,5.7846761274007,0.783960383231097,6.02967256472027
20.45999,1.09180819988251,0.911230087280273,1.77168881893158,1.09277472175337,0.91523445119186,1.77319368043834,2310.914,2523.712,2433.563,2425.531,5.77277659111019,0.78393767978298,6.02708343952855
20.47999,1.13329362869263,0.929308414459229,1.78174579143524,1.13452115969275,0.934321698104706,1.78363028992319,2323.13,2538.647,2445.153,2441.778,5.76185336966773,0.783932952672082,6.02521656361887
20.49999,1.17406284809113,0.945046782493591,1.79164564609528,1.17555499182434,0.951050590793659,1.79388874795608,2334.452,2552.388,2455.674,2455.056,5.75190273464784,0.783944604001761,6.02406607803687
20.51999,1.21409046649933,0.958401918411255,1.80138409137726,1.21584628423913,0.965376937197613,1.80396157105978,2344.809,2562.428,2464.905,2467.767,5.74291935972838,0.783970836138295,6.02363890700133
20.53999,1.25335037708282,0.96933925151825,1.81095707416534,1.25536958692836,0.977264546065899,1.81384239673209,2353.499,2571.65,2472.842,2477.32,5.73489365752948,0.784010850133363,6.02391853891362
20.55999,1.29181706905365,0.977829217910767,1.82035994529724,1.29409628004311,0.986682607174611,1.82352407001078,2360.825,2578.553,2479.437,2484.641,5.72782030172903,0.784063048090324,6.02490550640596
20.57999,1.32946670055389,0.983848452568054,1.82958805561066,1.3320092885313,0.993609124699657,1.83300232213283,2366.139,2584.181,2484.642,2489.094,5.72169290074044,0.784126697639884,6.02659927684613
20.59999,1.36627435684204,0.987380743026733,1.83863663673401,1.36908093289214,0.998025584469211,1.84227023322303,2370.423,2586.173,2488.249,2492.131,5.71650932403486,0.784199934569294,6.02901210077505
20.61999,1.4022171497345,0.988415241241455,1.84750056266785,1.40528779680863,0.999920829612002,1.85132194920216,2372.701,2586.764,2490.263,2492.342,5.71226477792237,0.784281627035099,6.03213811923837
20.63999,1.43727135658264,0.986948490142822,1.85617458820343,1.44060368501218,0.999290252942533,1.86015092125305,2373.332,2585.327,2490.733,2489.88,5.70895446871305,0.78437137556314,6.03598212592601
20.65999,1.47141492366791,0.982982039451599,1.86465334892273,1.47501302631452,0.996135327168757,1.86875325657863,2371.829,2582.349,2489.73,2484.654,5.70657679851024,0.784468048309961,6.04055370821783
20.67999,1.50462579727173,0.976525664329529,1.87293136119843,1.50849067512909,0.990463961940748,1.87712266878227,2369.553,2575.582,2487.07,2477.863,5.7051333652106,0.784571245801402,6.04587150824131
20.69999,1.53688299655914,0.967594385147095,1.8810031414032,1.54101548528748,0.982290484274956,1.88525387132187,2365.219,2567.507,2482.912,2468.268,5.70461990775641,0.784680169089143,6.05193659126087
20.71999,1.56816613674164,0.956209421157837,1.88886284828186,1.57256691248209,0.971635542030277,1.89314172812052,2359.322,2557.351,2477.408,2456.184,5.70503536088324,0.784795017910263,6.05876067518523
20.73999,1.5984548330307,0.942399859428406,1.89650475978851,1.60312216103859,0.958527417961622,1.90078054025965,2351.818,2545.288,2470.647,2441.656,5.70638185511996,0.784915459369628,6.06635920634858
20.75999,1.62772977352142,0.926199674606323,1.90392303466797,1.63266775879042,0.942996726012549,1.9081669396976,2342.506,2531.626,2462.788,2424.711,5.70866152099541,0.78504109399308,6.07475082687841
20.77999,1.65597248077393,0.907649755477905,1.91111183166504,1.66118208138825,0.925083833471016,1.91529552034706,2333.358,2513.969,2453.513,2406.547,5.71188447852165,0.785171588885483,6.08396057048878
20.79999,1.68316555023193,0.886796951293945,1.91806530952454,1.68864711775036,0.904833991929154,1.92216177943759,2322.44,2495.419,2443.28,2385.95,5.71604593400878,0.785306810888784,6.09399216560519
20.81999,1.7092912197113,0.863694190979004,1.92477750778198,1.71504305347735,0.882300612919777,1.92876076336934,2310.798,2474.982,2432.281,2363.184,5.72114961588227,0.785447226056171,6.10485946066518
20.83999,1.73433327674866,0.83840012550354,1.93124258518219,1.74035825029235,0.857536323011679,1.93508956257309,2297.593,2453.559,2420.933,2338.29,5.7271981873032,0.785593167282777,6.11658003253183
20.85999,1.75827586650848,0.810979604721069,1.93745458126068,1.76457414921719,0.83060572278629,1.9411435373043,2285.615,2428.403,2408.615,2312.531,5.73420230091585,0.785744301673468,6.12917998018361
20.87999,1.78110373020172,0.781502485275269,1.94340777397156,1.78767545427094,0.801576844390531,1.94691886356774,2272.382,2402.651,2396.114,2285.106,5.74215769566251,0.785900229754084,6.1426624994138
20.89999,1.80280327796936,0.750044345855713,1.94909644126892,1.8096455324139,0.770526076194144,1.95241138310347,2259.132,2375.187,2383.564,2256.465,5.75106703470425,0.786061284419759,6.15703930813112
20.91999,1.82336044311523,0.716685056686401,1.95451474189758,1.83047469678158,0.73752593707626,1.95761867419539,2245.491,2347.002,2371.335,2226.352,5.76093404646656,0.786227199354386,6.17231946108319
20.93999,1.84276294708252,0.681511163711548,1.95965707302094,1.85014764117453,0.70266265816606,1.96253691029363,2233.918,2315.528,2358.54,2196.623,5.77176778569708,0.786396909293536,6.18851787197201
20.95999,1.86099827289581,0.644612550735474,1.96451795101166,1.86865193917062,0.6660243111624,1.96716298479266,2222.245,2283.767,2346.224,2166.207,5.78355759975153,0.786570214500131,6.2056201597278
20.97999,1.8780562877655,0.606083869934082,1.96909177303314,1.88597430704941,0.627707183598392,1.97149357676235,2211.296,2250.924,2334.509,2135.809,5.79629656441114,0.786745916551688,6.22361726960293
20.99999,1.89392554759979,0.5660240650177,1.97337317466736,1.90210710717623,0.587800764890999,1.97552677679406,2200.728,2218.076,2323.853,2105.094,5.80997935335375,0.786922950183779,6.24249109210211
21.01999,1.90859735012054,0.5245361328125,1.97735679149628,1.91703844069155,0.546409442480607,1.97925961017289,2192.951,2182.909,2312.732,2076.436,5.82460596657938,0.787099451183657,6.2622277787878
