t,x_s1,x_s2,x_s3,x_s_d1,x_s_d2,x_s_d3,propellers_rpms1,propellers_rpms2,propellers_rpms3,propellers_rpms4,rollRad,pitchRad,yawRad,v_s1,v_s2,v_s3,v_s_d1,v_s_d2,v_s_d3,insideCount
25.87999,128.212173461914,-51.8296890258789,0.2551349401474,10.3519966125488,-0.14725971569542,0.557860014967854,0,0,0,0,28.9874153137207,171.398361206055,4.84328889846802,11.9519786834717,-5.07475757598877,2.8023533821106,0.4,1.16837928316967,0.69394506149768,0
25.89999,128.451232910156,-51.9311943054199,0.307258009910583,10.3599960327148,-0.123618651272169,0.570628132306594,0,0,0,0,24.7121925354004,174.315704345703,9.89975070953369,11.9519786834717,-5.07475757598877,2.60615348815918,0.4,1.19512076559071,0.582539170024987,0
25.91999,128.69026184082,-52.0326728820801,0.355457067489624,10.3679962158203,-0.0994874696787024,0.581145461651462,0,0,0,0,20.3645324707031,176.756988525391,14.7189159393311,11.9519786834717,-5.07475757598877,2.40995359420776,0.4,1.21714820866085,0.468823655800273,0
25.93999,128.929306030273,-52.1341743469238,0.399732112884521,10.3759963989258,-0.0749636385263701,0.589369170403829,0,0,0,0,15.9833908081055,178.788665771484,19.3755283355713,11.9519786834717,-5.07475757598877,2.21375370025635,0.4,1.23437190399532,0.353257824121208,0
25.95999,129.168350219727,-52.2356758117676,0.440083146095276,10.3839965820313,-0.0501439466018979,0.59526680185709,0,0,0,0,11.6001930236816,180.464294433594,23.9321403503418,11.9519786834717,-5.07475757598877,2.01755380630493,0.4,1.24672387442675,0.236297781399782,0
25.97999,129.407409667969,-52.3371620178223,0.476510167121887,10.3919960021973,-0.0251287424838019,0.598814853838531,0,0,0,0,7.2405743598938,181.826614379883,28.4410057067871,11.9519786834717,-5.07475757598877,1.82135379314423,0.4,1.25415489711972,0.118416409171592,0
25.99999,129.646453857422,-52.4386520385742,0.509013235569,10.3999961853027,-1.19842249057947E-05,0.599999999730709,0,0,0,0,2.92561078071594,182.909301757813,32.945858001709,11.9519786834717,-5.07475757598877,1.62515377998352,0.4,1.25663706087192,5.64743293845189E-05,0
26.01999,129.885482788086,-52.5401420593262,0.53759229183197,10.4079963684082,0.0251048213324209,0.598817111377256,0,0,0,0,358.672729492188,183.738647460938,37.4835395812988,11.9519786834717,-5.07475757598877,1.42895376682281,0.4,1.25415962529777,-0.118303683401427,0
26.03999,130.124542236328,-52.6416435241699,0.562247335910797,10.4159965515137,0.0501225450952881,0.595270857311723,0,0,0,0,354.496398925781,184.3349609375,42.0852584838867,11.9519786834717,-5.07475757598877,1.23275375366211,0.4,1.24673236815107,-0.23619692917587,0
26.05999,130.363586425781,-52.7431335449219,0.582978427410126,10.4239959716797,0.0749400946161707,0.589375907204026,0,0,0,0,350.408416748047,184.713638305664,46.7776832580566,11.9519786834717,-5.07475757598877,1.0365537405014,0.4,1.23438601351666,-0.353146876058229,0
26.07999,130.602615356445,-52.8446235656738,0.599785506725311,10.4319961547852,0.0994642542403879,0.581154402709734,0,0,0,0,346.418395996094,184.885940551758,51.583812713623,11.9519786834717,-5.07475757598877,0.840353786945343,0.4,1.21716693476951,-0.468714255624585,0
26.09999,130.841674804688,-52.9461288452148,0.612668573856354,10.4399963378906,0.123595855930672,0.57063924233505,0,0,0,0,342.533905029297,184.859588623047,56.523624420166,11.9519786834717,-5.07475757598877,0.644153833389282,0.4,1.19514403437989,-0.582431749508912,0
26.11999,131.080703735352,-53.0476150512695,0.621627628803253,10.4479965209961,0.147239658921628,0.557871926513107,0,0,0,0,338.760589599609,184.639221191406,61.614803314209,11.9519786834717,-5.07475757598877,0.447953879833221,0.4,1.16840423065171,-0.693850546177882,0
26.13999,131.319747924805,-53.149112701416,0.626662731170654,10.4559959411621,0.170300178894941,0.542904375008887,0,0,0,0,335.102294921875,184.226440429688,66.8732986450195,11.9519786834717,-5.07475757598877,0.251753926277161,0.4,1.13705626408645,-0.802520686382063,0
26.15999,131.558807373047,-53.2506141662598,0.627773821353912,10.4639961242676,0.192690799665367,0.525792806511959,0,0,0,0,331.561279296875,183.61994934082,72.3139724731445,11.9519786834717,-5.07475757598877,0.0555539727210999,0.4,1.10121787883222,-0.908034000964591,0
26.17999,131.7978515625,-53.3521003723145,0.624960899353027,10.471996307373,0.214320923081414,0.506606079060885,0,0,0,0,328.138305664063,182.815124511719,77.9513549804688,11.9519786834717,-5.07475757598877,-0.140645980834961,0.4,1.06103329082774,-1.00996355619473,0
26.19999,132.036895751953,-53.4535980224609,0.618223965167999,10.4799964904785,0.23510518102139,0.485419917368482,0,0,0,0,324.832946777344,181.803634643555,83.8005981445313,11.9519786834717,-5.07475757598877,-0.336845934391022,0.4,1.01666109754066,-1.10790706427654,0
26.21999,132.275939941406,-53.5550880432129,0.607563078403473,10.4879959106445,0.25495969691569,0.462320228991208,0,0,0,0,321.643859863281,180.572570800781,89.8784866333008,11.9519786834717,-5.07475757598877,-0.533045887947083,0.4,0.968281223336487,-1.20146926618772,0
26.23999,132.51496887207,-53.6565856933594,0.592978179454803,10.49599609375,0.273809896451656,0.437393777232313,0,0,0,0,318.569488525391,179.103454589844,96.2049331665039,11.9519786834717,-5.07475757598877,-0.729245841503143,0.4,0.916075384852618,-1.29029873875906,0
26.25999,132.754028320313,-53.7580795288086,0.574469268321991,10.5039962768555,0.291579443967823,0.410741053067117,0,0,0,0,315.608520507813,177.370681762695,102.804702758789,11.9519786834717,-5.07475757598877,-0.925445795059204,0.4,0.860254049895594,-1.37403575866066,0
26.27999,132.993057250977,-53.859561920166,0.552036345005035,10.5119964599609,0.308198207969073,0.38246724743495,0,0,0,0,312.760925292969,175.339859008789,109.709381103516,11.9519786834717,-5.07475757598877,-1.12164568901062,0.4,0.801037529853566,-1.45234983900777,0
26.29999,133.232116699219,-53.9610557556152,0.525679469108582,10.5199966430664,0.323600598784925,0.352683949235835,0,0,0,0,310.029296875,172.96565246582,116.959777832031,11.9519786834717,-5.07475757598877,-1.31784558296204,0.4,0.738659535972224,-1.52493189575997,0
26.31999,133.471160888672,-54.0625610351563,0.495398581027985,10.5279960632324,0.337724543083547,0.321511740450908,0,0,0,0,307.420318603516,170.189727783203,124.608207702637,11.9519786834717,-5.07475757598877,-1.51404547691345,0.4,0.673372614562293,-1.59148941523236,0
26.33999,133.710205078125,-54.1640510559082,0.461193680763245,10.5359962463379,0.350516990795951,0.28906770507537,0,0,0,0,304.94677734375,166.939102172852,132.720611572266,11.9519786834717,-5.07475757598877,-1.71024537086487,0.4,0.605421985769895,-1.65177240486444,0
26.35999,133.949249267578,-54.2655410766602,0.423064827919006,10.5439964294434,0.36192604477793,0.255482799324453,0,0,0,0,302.630279541016,163.126098632813,141.376754760742,11.9519786834717,-5.07475757598877,-1.90644526481628,0.4,0.535081923650837,-1.70553630512573,0
26.37999,134.188278198242,-54.3670387268066,0.38101190328598,10.5519966125488,0.371906676645237,0.220889573543125,0,0,0,0,300.503753662109,158.65202331543,150.666885375977,11.9519786834717,-5.07475757598877,-2.1026451587677,0.4,0.462630040998443,-1.75256892475451,0
26.39999,134.427337646484,-54.4685325622559,0.335035026073456,10.5599960327148,0.380418754871062,0.185427976908257,0,0,0,0,298.614532470703,153.418350219727,160.680862426758,11.9519786834717,-5.07475757598877,-2.29884505271912,0.4,0.388359446683331,-1.79268114838606,0
26.41999,134.666381835938,-54.5700263977051,0.285134136676788,10.5679962158203,0.387430307767642,0.149231204518049,0,0,0,0,297.025939941406,147.349960327148,171.485198974609,11.9519786834717,-5.07475757598877,-2.49504494667053,0.4,0.312549103866838,-1.82572231299129,0
26.43999,134.905410766602,-54.6715126037598,0.231309294700623,10.5759963989258,0.392912780269219,0.112445457789558,0,0,0,0,295.816162109375,140.434005737305,183.084503173828,11.9519786834717,-5.07475757598877,-2.69124484062195,0.4,0.235505216080812,-1.85155785599298,0
26.45999,135.144470214844,-54.773021697998,0.173560380935669,10.5839965820313,0.396844534571394,0.0752159199028416,0,0,0,0,295.071746826172,132.768325805664,195.373291015625,11.9519786834717,-5.07475757598877,-2.88744473457336,0.4,0.15753185426651,-1.87008581164013,0
26.47999,135.383514404297,-54.8745079040527,0.111887574195862,10.5919960021973,0.399209902559021,0.037693113725706,0,0,0,0,294.874145507813,124.59595489502,208.101669311523,11.9519786834717,-5.07475757598877,-3.08364462852478,0.4,0.0789442727810684,-1.88123234567957,0
26.49999,135.622543334961,-54.9759979248047,0.0462906360626221,10.5999961853027,0.399999999820473,1.79763373533998E-05,0,0,0,0,295.28173828125,116.289901733398,220.890823364258,11.9519786834717,-5.07475757598877,-3.2798445224762,0.4,3.76495529119283E-05,-1.88495559130787,0
26.51999,135.861587524414,-55.0774917602539,-0.0232301950454712,10.6079963684082,0.399211407584838,-0.0376572319986282,0,0,0,0,296.31591796875,108.271377563477,233.314849853516,11.9519786834717,-5.07475757598877,-3.47604441642761,0.4,-0.0788691222676111,-1.88123943794665,0
26.53999,136.100646972656,-55.1789894104004,-0.0931849479675293,10.6159965515137,0.396847238207815,-0.0751838176429374,0,0,0,0,297.957855224609,100.899658203125,245.011169433594,11.9519786834717,-5.07475757598877,-3.49774026870728,0.4,-0.157464619450591,-1.87009855222661,0
26.55999,136.339691162109,-55.2804908752441,-0.153063774108887,10.6239959716797,0.392917271469351,-0.112410141924253,0,0,0,0,300.158142089844,94.3972091674805,255.755294799805,11.9519786834717,-5.07475757598877,-2.99393892288208,0.4,-0.235431250705479,-1.85157902027499,0
26.57999,136.578720092773,-55.381965637207,-0.193870306015015,10.6319961547852,0.387436268473155,-0.149196381360587,0,0,0,0,302.8525390625,88.8417434692383,265.469268798828,11.9519786834717,-5.07475757598877,-2.04033088684082,0.4,-0.312476170416401,-1.82575040215426,0
26.59999,136.817779541016,-55.483470916748,-0.209474086761475,10.6399963378906,0.380426161556701,-0.185393783896005,0,0,0,0,305.975708007813,84.2088165283203,274.178192138672,11.9519786834717,-5.07475757598877,-0.780185699462891,0.4,-0.388287833005935,-1.79271605156984,0
26.61999,137.05680847168,-55.5849609375,-0.197530508041382,10.6479965209961,0.371914617675404,-0.220859488382447,0,0,0,0,309.466400146484,80.4120483398438,281.971618652344,11.9519786834717,-5.07475757598877,0.597174406051636,0.4,-0.462567030785265,-1.75260634597756,0
26.63999,137.295852661133,-55.686450958252,-0.159834265708923,10.6559959411621,0.361936250005925,-0.255450268342409,0,0,0,0,313.273773193359,77.3469314575195,288.958312988281,11.9519786834717,-5.07475757598877,1.88481485843658,0.4,-0.535013790921369,-1.70558439612968,0
26.65999,137.534912109375,-55.7879524230957,-0.102048635482788,10.6639961242676,0.350528537674641,-0.289036199498048,0,0,0,0,317.354736328125,74.9095993041992,295.248199462891,11.9519786834717,-5.07475757598877,2.88928270339966,0.4,-0.605356000643055,-1.65182681824834,0
26.67999,137.773956298828,-55.8894424438477,-0.0328552722930908,10.671996307373,0.337737386040591,-0.321481384622118,0,0,0,0,321.673614501953,73.0068511962891,300.943054199219,11.9519786834717,-5.07475757598877,3.45966768264771,0.4,-0.673309037463148,-1.59154993624161,0
26.69999,138.013000488281,-55.9909477233887,0.0373501777648926,10.6799964904785,0.323613278245653,-0.352657771532089,0,0,0,0,326.201263427734,71.5608367919922,306.130767822266,11.9519786834717,-5.07475757598877,3.51027512550354,0.4,-0.738604709517705,-1.52499164631098,0
26.71999,138.252044677734,-56.0924415588379,0.103631615638733,10.6879959106445,0.30821348599414,-0.382439545373533,0,0,0,0,330.913208007813,70.5083847045898,310.887176513672,11.9519786834717,-5.07475757598877,3.31407523155212,0.4,-0.800979510791808,-1.45242183500474,0
26.73999,138.491073608398,-56.1939277648926,0.16598916053772,10.69599609375,0.29159585148821,-0.410714844677481,0,0,0,0,335.788208007813,69.7998199462891,315.27734375,11.9519786834717,-5.07475757598877,3.11787533760071,0.4,-0.860199159172698,-1.37411307727893,0
26.75999,138.730133056641,-56.2954330444336,0.224422574043274,10.7039962768555,0.273827368711413,-0.437369165951732,0,0,0,0,340.807647705078,69.3973846435547,319.357696533203,11.9519786834717,-5.07475757598877,2.92167544364929,0.4,-0.916023839107104,-1.2903810748434,0
26.77999,138.969177246094,-56.3969230651855,0.278932094573975,10.7119964599609,0.254978164956631,-0.462297311953612,0,0,0,0,345.954620361328,69.2737808227539,323.178253173828,11.9519786834717,-5.07475757598877,2.72547554969788,0.4,-0.968233226005185,-1.20155629478034,0
26.79999,139.208206176758,-56.4984092712402,0.329517602920532,10.719995880127,0.235124571870847,-0.485398784846789,0,0,0,0,351.213409423828,69.4110717773438,326.784515380859,11.9519786834717,-5.07475757598877,2.52927565574646,0.4,-1.01661683769072,-1.10799844150185,0
26.81999,139.447250366211,-56.5998992919922,0.376179099082947,10.7279960632324,0.214341160300607,-0.506586814625318,0,0,0,0,356.568878173828,69.8001251220703,330.219665527344,11.9519786834717,-5.07475757598877,2.33307576179504,0.4,-1.06099294348824,-1.01005892184345,0
26.83999,139.686309814453,-56.7014007568359,0.418916583061218,10.7359962463379,0.192711803383582,-0.525775486193924,0,0,0,0,2.0060658454895,70.4404144287109,333.526397705078,11.9519786834717,-5.07475757598877,2.13687586784363,0.4,-1.10118160324296,-0.908132978654851,0
26.85999,139.925354003906,-56.8028907775879,0.457730054855347,10.7439964294434,0.170321866216299,-0.542889067166897,0,0,0,0,7.50951242446899,71.3406524658203,336.749145507813,11.9519786834717,-5.07475757598877,1.94067585468292,0.4,-1.13702420341716,-0.80262288547624,0
26.87999,140.164398193359,-56.9043807983398,0.492619574069977,10.7519958496094,0.147261944199402,-0.557858691362676,0,0,0,0,13.0627365112305,72.5198745727539,339.936706542969,11.9519786834717,-5.07475757598877,1.74447584152222,0.4,-1.16837651101747,-0.693955563075287,0
26.89999,140.403442382813,-57.0058784484863,0.523585081100464,10.7599960327148,0.123618651272173,-0.570628132306592,0,0,0,0,18.6473751068115,74.0098037719727,343.145416259766,11.9519786834717,-5.07475757598877,1.54827582836151,0.4,-1.1951207655907,-0.582539170025006,0
26.91999,140.642486572266,-57.1073799133301,0.550626575946808,10.7679962158203,0.0994874696787011,-0.581145461651463,0,0,0,0,24.2420520782471,75.8583221435547,346.443511962891,11.9519786834717,-5.07475757598877,1.35207581520081,0.4,-1.21714820866086,-0.468823655800267,0
26.93999,140.88151550293,-57.2088584899902,0.573744058609009,10.7759963989258,0.0749636385263688,-0.589369170403829,0,0,0,0,29.8207263946533,78.1350173950195,349.917388916016,11.9519786834717,-5.07475757598877,1.1558758020401,0.4,-1.23437190399532,-0.353257824121201,0
26.95999,141.120574951172,-57.310359954834,0.592937588691711,10.7839958190918,0.0501463245380722,-0.595266351144154,0,0,0,0,35.3501625061035,80.9395065307617,353.680389404297,11.9519786834717,-5.07475757598877,0.959675788879395,0.4,-1.24672293045578,-0.236308987160006,0
26.97999,141.359603881836,-57.4118576049805,0.608207106590271,10.7919960021973,0.0251287424838062,-0.598814853838531,0,0,0,0,40.7859306335449,84.4138565063477,357.885589599609,11.9519786834717,-5.07475757598877,0.763475775718689,0.4,-1.25415489711972,-0.118416409171613,0
26.99999,141.598648071289,-57.5133476257324,0.619552612304688,10.7999961853027,1.19842249044226E-05,-0.599999999730709,0,0,0,0,46.0660591125488,88.76025390625,2.74373626708984,11.9519786834717,-5.07475757598877,0.567275762557983,0.4,-1.25663706087192,-5.6474329378053E-05,0
27.01999,141.837707519531,-57.6148452758789,0.626974105834961,10.8079963684082,-0.0251048213324166,-0.598817111377257,0,0,0,0,51.1007423400879,94.2632293701172,8.54580783843994,11.9519786834717,-5.07475757598877,0.371075809001923,0.4,-1.25415962529777,0.118303683401407,0
27.03999,142.076751708984,-57.7163352966309,0.630471646785736,10.8159957885742,-0.0501201671411133,-0.595271307810926,0,0,0,0,55.7565383911133,101.308700561523,15.6821660995483,11.9519786834717,-5.07475757598877,0.174875840544701,0.4,-1.2467333116744,0.236185723330821,0
27.05999,142.315795898438,-57.8178367614746,0.630045175552368,10.8239959716797,-0.0749400946161665,-0.589375907204027,0,0,0,0,59.8345489501953,110.366943359375,24.6256256103516,11.9519786834717,-5.07475757598877,-0.0213241279125214,0.4,-1.23438601351666,0.353146876058209,0
27.07999,142.554840087891,-57.9193267822266,0.625694692134857,10.8319961547852,-0.0994642542403892,-0.581154402709734,0,0,0,0,63.0517463684082,121.853401184082,35.7923927307129,11.9519786834717,-5.07475757598877,-0.217524096369743,0.4,-1.21716693476951,0.468714255624591,0
27.09999,142.793884277344,-58.0208129882813,0.617420196533203,10.8399963378906,-0.123595855930668,-0.570639242335052,0,0,0,0,65.0586013793945,135.746063232422,49.1593208312988,11.9519786834717,-5.07475757598877,-0.413724064826965,0.4,-1.1951440343799,0.582431749508893,0
27.11999,143.032913208008,-58.1223030090332,0.605221748352051,10.8479965209961,-0.14723965892163,-0.557871926513106,0,0,0,0,65.547966003418,151.089279174805,63.7679786682129,11.9519786834717,-5.07475757598877,-0.609924018383026,0.4,-1.16840423065171,0.693850546177888,0
27.13999,143.271957397461,-58.2238006591797,0.589099287986755,10.8559959411621,-0.170300178894937,-0.542904375008889,0,0,0,0,64.4326858520508,166.117385864258,77.8479232788086,11.9519786834717,-5.07475757598877,-0.806123971939087,0.4,-1.13705626408646,0.802520686382045,0
27.15999,143.511001586914,-58.3252983093262,0.569052815437317,10.8639961242676,-0.192690799665369,-0.525792806511958,0,0,0,0,61.9100227355957,179.304321289063,89.8664398193359,11.9519786834717,-5.07475757598877,-1.0023238658905,0.4,-1.10121787883222,0.908034000964597,0
27.17999,143.750061035156,-58.4267845153809,0.545082330703735,10.871996307373,-0.21432092308141,-0.506606079060889,0,0,0,0,58.3265838623047,190.114471435547,99.2791595458984,11.9519786834717,-5.07475757598877,-1.19852375984192,0.4,-1.06103329082774,1.00996355619471,0
27.19999,143.989105224609,-58.5282859802246,0.517187893390656,10.8799964904785,-0.235105181021391,-0.485419917368481,0,0,0,0,54.0142669677734,198.76953125,106.29679107666,11.9519786834717,-5.07475757598877,-1.39472365379333,0.4,-1.01666109754066,1.10790706427655,0
27.21999,144.228149414063,-58.6297798156738,0.485369443893433,10.8879959106445,-0.254959696915687,-0.462320228991213,0,0,0,0,49.2237358093262,205.743850708008,111.380187988281,11.9519786834717,-5.07475757598877,-1.59092354774475,0.4,-0.968281223336496,1.2014692661877,0
27.23999,144.467193603516,-58.7312660217285,0.449626982212067,10.89599609375,-0.273809896451657,-0.437393777232312,0,0,0,0,44.1276779174805,211.489547729492,114.965255737305,11.9519786834717,-5.07475757598877,-1.78712344169617,0.4,-0.916075384852615,1.29029873875906,0
27.25999,144.70622253418,-58.8327598571777,0.409960508346558,10.9039962768555,-0.29157944396782,-0.410741053067122,0,0,0,0,38.843376159668,216.361572265625,117.387619018555,11.9519786834717,-5.07475757598877,-1.98332333564758,0.4,-0.860254049895604,1.37403575866065,0
27.27999,144.945281982422,-58.9342651367188,0.36637008190155,10.9119964599609,-0.308198207969074,-0.382467247434949,0,0,0,0,33.4524040222168,220.622009277344,118.886611938477,11.9519786834717,-5.07475757598877,-2.179523229599,0.4,-0.801037529853563,1.45234983900777,0
27.29999,145.184310913086,-59.0357551574707,0.3188556432724,10.919995880127,-0.323599189897858,-0.352686857806274,0,0,0,0,28.0142593383789,224.462753295898,119.62752532959,11.9519786834717,-5.07475757598877,-2.37572312355042,0.4,-0.738665627667905,1.52492525653608,0
27.31999,145.423370361328,-59.1372566223145,0.267417192459106,10.9279960632324,-0.337724543083547,-0.321511740450906,0,0,0,0,22.575080871582,228.026580810547,119.722183227539,11.9519786834717,-5.07475757598877,-2.57192301750183,0.4,-0.673372614562289,1.59148941523236,0
27.33999,145.662399291992,-59.2387466430664,0.21205472946167,10.9359962463379,-0.350516990795949,-0.289067705075375,0,0,0,0,17.1730651855469,231.422988891602,119.244316101074,11.9519786834717,-5.07475757598877,-2.76812291145325,0.4,-0.605421985769906,1.65177240486443,0
27.35999,145.901458740234,-59.3402366638184,0.15276837348938,10.9439964294434,-0.361926044777931,-0.255482799324451,0,0,0,0,11.8421239852905,234.739318847656,118.240234375,11.9519786834717,-5.07475757598877,-2.96432280540466,0.4,-0.535081923650833,1.70553630512574,0
27.37999,146.140502929688,-59.441722869873,0.0895578861236572,10.9519958496094,-0.371905794241783,-0.220892916299106,0,0,0,0,6.61426448822021,238.048248291016,116.735954284668,11.9519786834717,-5.07475757598877,-3.16052269935608,0.4,-0.462637042050198,1.7525647665262,0
27.39999,146.379531860352,-59.5432090759277,0.0224235057830811,10.9599960327148,-0.380418754871063,-0.185427976908255,0,0,0,0,1.52136945724487,241.412887573242,114.742210388184,11.9519786834717,-5.07475757598877,-3.3567225933075,0.4,-0.388359446683327,1.79268114838606,0
27.41999,146.618591308594,-59.644718170166,-0.0486348867416382,10.9679962158203,-0.387430307767641,-0.149231204518055,0,0,0,0,356.596527099609,244.889984130859,112.258003234863,11.9519786834717,-5.07475757598877,-3.55292248725891,0.4,-0.312549103866851,1.82572231299128,0
27.43999,146.857635498047,-59.7462196350098,-0.116310477256775,10.9759963989258,-0.392912780269219,-0.112445457789556,0,0,0,0,351.875213623047,248.531829833984,109.27335357666,11.9519786834717,-5.07475757598877,-3.38377928733826,0.4,-0.235505216080808,1.85155785599298,0
27.45999,147.0966796875,-59.847713470459,-0.170435667037964,10.9839958190918,-0.396844234096102,-0.0752194868071115,0,0,0,0,347.395965576172,252.386962890625,105.771842956543,11.9519786834717,-5.07475757598877,-2.70626020431519,0.4,-0.157539324773344,1.87008439568368,0
27.47999,147.335723876953,-59.9491996765137,-0.202878832817078,10.9919960021973,-0.399209902559021,-0.0376931137257039,0,0,0,0,343.200927734375,256.499114990234,101.734580993652,11.9519786834717,-5.07475757598877,-1.62215507030487,0.4,-0.0789442727810641,1.88123234567957,0
27.49999,147.574768066406,-60.0506858825684,-0.208765506744385,10.9999961853027,-0.399999999820473,-1.79763373598681E-05,0,0,0,0,339.335876464844,260.904968261719,97.1447525024414,11.9519786834717,-5.07475757598877,-0.294338345527649,0.4,-3.76495529254756E-05,1.88495559130787,0
27.51999,147.813812255859,-60.1521949768066,-0.187211632728577,11.0079963684082,-0.399211407584838,0.0376572319986302,0,0,0,0,335.849334716797,265.630004882813,91.9923706054688,11.9519786834717,-5.07475757598877,1.07769894599915,0.4,0.0788691222676155,1.88123943794665,0
27.53999,148.052856445313,-60.2536849975586,-0.141455054283142,11.0159957885742,-0.396847538540618,0.0751802507116667,0,0,0,0,332.790985107422,270.684326171875,86.2779388427734,11.9519786834717,-5.07475757598877,2.2878246307373,0.4,0.157457148887207,1.8700999675116,0
27.55999,148.291900634766,-60.3551750183105,-0.0783705711364746,11.0239959716797,-0.392917271469351,0.112410141924255,0,0,0,0,330.209381103516,276.055084228516,80.0234146118164,11.9519786834717,-5.07475757598877,3.15422868728638,0.4,0.235431250705483,1.85157902027499,0
27.57999,148.530944824219,-60.4566764831543,-0.00743567943572998,11.0319961547852,-0.387436268473156,0.149196381360581,0,0,0,0,328.147827148438,281.701538085938,73.2761611938477,11.9519786834717,-5.07475757598877,3.54674506187439,0.4,0.312476170416388,1.82575040215427,0
27.59999,148.769989013672,-60.5581703186035,0.060692310333252,11.0399963378906,-0.380426161556701,0.185393783896007,0,0,0,0,326.639617919922,287.552978515625,66.1116409301758,11.9519786834717,-5.07475757598877,3.40640163421631,0.4,0.388287833005939,1.79271605156984,0
27.61999,149.009017944336,-60.6596565246582,0.124896287918091,11.0479957580566,-0.371915499945321,0.220856145547161,0,0,0,0,325.70361328125,293.511413574219,58.6313552856445,11.9519786834717,-5.07475757598877,3.21020174026489,0.4,0.462560029567412,1.7526105035766,0
27.63999,149.248062133789,-60.7611427307129,0.185176372528076,11.0559959411621,-0.361936250005925,0.255450268342411,0,0,0,0,325.340362548828,299.460388183594,50.9542961120605,11.9519786834717,-5.07475757598877,3.01400184631348,0.4,0.535013790921373,1.70558439612968,0
27.65999,149.487121582031,-60.8626441955566,0.241532385349274,11.0639961242676,-0.35052853767464,0.28903619949805,0,0,0,0,325.530578613281,305.278930664063,43.203369140625,11.9519786834717,-5.07475757598877,2.81780195236206,0.4,0.605356000643059,1.65182681824833,0
27.67999,149.726165771484,-60.9641456604004,0.293964385986328,11.071996307373,-0.337737386040591,0.32148138462212,0,0,0,0,326.236724853516,310.856689453125,35.4905433654785,11.9519786834717,-5.07475757598877,2.62160205841064,0.4,0.673309037463152,1.59154993624161,0
27.69999,149.965209960938,-61.0656318664551,0.342472434043884,11.0799957275391,-0.323614687016528,0.352654862835022,0,0,0,0,327.4072265625,316.10595703125,27.9051361083984,11.9519786834717,-5.07475757598877,2.42540216445923,0.4,0.738598617556815,1.52499828498733,0
27.71999,150.204254150391,-61.1671257019043,0.387056469917297,11.0879959106445,-0.308213485994139,0.382439545373535,0,0,0,0,328.981597900391,320.967834472656,20.5078582763672,11.9519786834717,-5.07475757598877,2.22920227050781,0.4,0.800979510791812,1.45242183500473,0
27.73999,150.443298339844,-61.2686195373535,0.427716493606567,11.09599609375,-0.291595851488209,0.410714844677483,0,0,0,0,330.896148681641,325.412231445313,13.3310203552246,11.9519786834717,-5.07475757598877,2.0330023765564,0.4,0.860199159172702,1.37411307727893,0
27.75999,150.682327270508,-61.3701057434082,0.464452505111694,11.1039962768555,-0.273827368711412,0.437369165951733,0,0,0,0,333.088562011719,329.433898925781,6.38297128677368,11.9519786834717,-5.07475757598877,1.83680236339569,0.4,0.916023839107107,1.29038107484339,0
27.77999,150.92138671875,-61.471607208252,0.497264504432678,11.1119956970215,-0.254980011710375,0.462295020158554,0,0,0,0,335.501068115234,333.045837402344,359.654571533203,11.9519786834717,-5.07475757598877,1.64060235023499,0.4,0.968228426080839,1.20156499740233,0
27.79999,151.160415649414,-61.5731086730957,0.526152551174164,11.119995880127,-0.235124571870846,0.48539878484679,0,0,0,0,338.082366943359,336.273284912109,353.125610351563,11.9519786834717,-5.07475757598877,1.44440233707428,0.4,1.01661683769073,1.10799844150184,0
27.81999,151.399475097656,-61.6746025085449,0.551116585731506,11.1279960632324,-0.214341160300606,0.506586814625319,0,0,0,0,340.788482666016,339.148376464844,346.770355224609,11.9519786834717,-5.07475757598877,1.24820232391357,0.4,1.06099294348824,1.01005892184344,0
27.83999,151.63850402832,-61.7760887145996,0.572156608104706,11.1359962463379,-0.19271180338358,0.525775486193925,0,0,0,0,343.5830078125,341.706329345703,340.561340332031,11.9519786834717,-5.07475757598877,1.05200231075287,0.4,1.10118160324296,0.908132978654845,0
27.85999,151.877548217773,-61.8775825500488,0.589272618293762,11.1439964294434,-0.170321866216302,0.542889067166895,0,0,0,0,346.436614990234,343.982543945313,334.472381591797,11.9519786834717,-5.07475757598877,0.855802297592163,0.4,1.13702420341715,0.802622885476259,0
27.87999,152.116607666016,-61.9790840148926,0.60246467590332,11.1519958496094,-0.147261944199401,0.557858691362677,0,0,0,0,349.326873779297,346.011260986328,328.479888916016,11.9519786834717,-5.07475757598877,0.659602284431458,0.4,1.16837651101747,0.693955563075281,0
27.89999,152.35563659668,-62.0805702209473,0.611732721328735,11.1599960327148,-0.123618651272172,0.570628132306593,0,0,0,0,352.237396240234,347.824279785156,322.564025878906,11.9519786834717,-5.07475757598877,0.463402301073074,0.4,1.1951207655907,0.582539170025,0
27.91999,152.594696044922,-62.1820640563965,0.617076754570007,11.1679962158203,-0.0994874696786998,0.581145461651463,0,0,0,0,355.157409667969,349.450714111328,316.708801269531,11.9519786834717,-5.07475757598877,0.267202317714691,0.4,1.21714820866086,0.468823655800261,0
27.93999,152.833740234375,-62.2835655212402,0.618496775627136,11.1759963989258,-0.074963638526373,0.589369170403828,0,0,0,0,358.081115722656,350.916473388672,310.902130126953,11.9519786834717,-5.07475757598877,0.071002334356308,0.4,1.23437190399532,0.353257824121221,0
27.95999,153.072784423828,-62.3850593566895,0.615992844104767,11.1839958190918,-0.0501463245380708,0.595266351144154,0,0,0,0,1.00700449943542,352.244323730469,305.135559082031,11.9519786834717,-5.07475757598877,-0.125197634100914,0.4,1.24672293045578,0.236308987159999,0
27.97999,153.311828613281,-62.4865455627441,0.609564900398254,11.1919960021973,-0.0251287424838048,0.598814853838531,0,0,0,0,3.93743681907654,353.45361328125,299.403778076172,11.9519786834717,-5.07475757598877,-0.321397602558136,0.4,1.25415489711972,0.118416409171606,0
27.99999,153.550872802734,-62.5880470275879,0.599212944507599,11.1999961853027,-1.19842249030505E-05,0.599999999730709,0,0,0,0,6.87792015075684,354.560333251953,293.704040527344,11.9519786834717,-5.07475757598877,-0.517597556114197,0.4,1.25663706087192,5.64743293715871E-05,0
28.01999,153.789916992188,-62.6895332336426,0.5849369764328,11.2079963684082,0.025104821332418,0.598817111377256,0,0,0,0,9.83653926849365,355.576995849609,288.03564453125,11.9519786834717,-5.07475757598877,-0.713797509670258,0.4,1.25415962529777,-0.118303683401413,0
28.03999,154.028961181641,-62.7910270690918,0.566737055778503,11.2159957885742,0.0501201671411147,0.595271307810926,0,0,0,0,12.8233461380005,356.512542724609,282.399047851563,11.9519786834717,-5.07475757598877,-0.909997463226318,0.4,1.2467333116744,-0.236185723330828,0
28.05999,154.268005371094,-62.8925132751465,0.544613122940063,11.2239959716797,0.0749400946161678,0.589375907204027,0,0,0,0,15.8497133255005,357.372100830078,276.795227050781,11.9519786834717,-5.07475757598877,-1.10619735717773,0.4,1.23438601351666,-0.353146876058215,0
28.07999,154.507049560547,-62.9940223693848,0.51856517791748,11.2319961547852,0.0994642542403906,0.581154402709733,0,0,0,0,18.9277439117432,358.156921386719,271.224853515625,11.9519786834717,-5.07475757598877,-1.30239725112915,0.4,1.21716693476951,-0.468714255624598,0
28.09999,154.74609375,-63.0955085754395,0.488593220710754,11.2399963378906,0.123595855930669,0.570639242335052,0,0,0,0,22.0696029663086,358.863983154297,265.687255859375,11.9519786834717,-5.07475757598877,-1.49859714508057,0.4,1.1951440343799,-0.582431749508899,0
28.11999,154.985122680664,-63.1970024108887,0.45469731092453,11.2479957580566,0.147237430364772,0.557873249917983,0,0,0,0,25.2869758605957,359.485687255859,260.179321289063,11.9519786834717,-5.07475757598877,-1.69479703903198,0.4,1.1684070023844,-0.693840044351109,0
28.13999,155.224182128906,-63.2985038757324,0.416877388954163,11.2559959411621,0.170300178894939,0.542904375008888,0,0,0,0,28.5904541015625,0.00904857739806175,254.694351196289,11.9519786834717,-5.07475757598877,-1.8909969329834,0.4,1.13705626408645,-0.802520686382051,0
28.15999,155.46321105957,-63.3999977111816,0.375133454799652,11.2639961242676,0.19269079966537,0.525792806511957,0,0,0,0,31.9890041351318,0.414807975292206,249.220367431641,11.9519786834717,-5.07475757598877,-2.08719682693481,0.4,1.10121787883222,-0.908034000964603,0
28.17999,155.702270507813,-63.5014915466309,0.329465508460999,11.271996307373,0.214320923081412,0.506606079060887,0,0,0,0,35.4893684387207,0.675796687602997,243.737915039063,11.9519786834717,-5.07475757598877,-2.28339672088623,0.4,1.06103329082774,-1.00996355619472,0
28.19999,155.941299438477,-63.6029853820801,0.279873609542847,11.2799957275391,0.235103241890013,0.485422030524793,0,0,0,0,39.0954818725586,0.754446506500244,238.217163085938,11.9519786834717,-5.07475757598877,-2.47959661483765,0.4,1.01666552332489,-1.10789792633521,0
28.21999,156.180358886719,-63.7044715881348,0.226357698440552,11.2879959106445,0.254959696915688,0.462320228991211,0,0,0,0,42.8077125549316,0.598805665969849,232.61344909668,11.9519786834717,-5.07475757598877,-2.67579650878906,0.4,0.968281223336493,-1.20146926618771,0
28.23999,156.419403076172,-63.8059730529785,0.168917775154114,11.29599609375,0.273809896451658,0.437393777232311,0,0,0,0,46.6217193603516,0.135994866490364,226.860382080078,11.9519786834717,-5.07475757598877,-2.87199640274048,0.4,0.916075384852612,-1.29029873875906,0
28.25999,156.658432006836,-63.9074516296387,0.107553839683533,11.3039962768555,0.291579443967821,0.410741053067121,0,0,0,0,50.5269470214844,359.261688232422,220.859069824219,11.9519786834717,-5.07475757598877,-3.06819629669189,0.4,0.860254049895601,-1.37403575866065,0
28.27999,156.897491455078,-64.0089569091797,0.0422660112380981,11.3119956970215,0.308196680105701,0.382470017565565,0,0,0,0,54.5036697387695,357.822296142578,214.460189819336,11.9519786834717,-5.07475757598877,-3.26439619064331,0.4,0.80104333160156,-1.45234263912125,0
28.29999,157.136535644531,-64.1104507446289,-0.026945948600769,11.319995880127,0.323599189897859,0.352686857806272,0,0,0,0,58.5179748535156,355.584564208984,207.433456420898,11.9519786834717,-5.07475757598877,-3.46059608459473,0.4,0.738665627667901,-1.52492525653608,0
28.31999,157.375579833984,-64.2119369506836,-0.0960334539413452,11.3279960632324,0.337724543083548,0.321511740450904,0,0,0,0,62.5123977661133,352.184387207031,199.416351318359,11.9519786834717,-5.07475757598877,-3.45437932014465,0.4,0.673372614562286,-1.59148941523237,0
28.33999,157.614624023438,-64.3134307861328,-0.154617071151733,11.3359962463379,0.350516990795949,0.289067705075373,0,0,0,0,66.3870010375977,347.042846679688,189.83039855957,11.9519786834717,-5.07475757598877,-2.92918014526367,0.4,0.605421985769903,-1.65177240486443,0
28.35999,157.853652954102,-64.4149322509766,-0.193895101547241,11.3439956665039,0.361925024183656,0.255486052372208,0,0,0,0,69.9636764526367,339.259765625,177.774490356445,11.9519786834717,-5.07475757598877,-1.9639036655426,0.4,0.535088736818123,-1.70553149568852,0
28.37999,158.092712402344,-64.5164260864258,-0.207966566085815,11.3519958496094,0.371905794241784,0.220892916299104,0,0,0,0,72.9246673583984,327.628784179688,162.039611816406,11.9519786834717,-5.07475757598877,-0.703572154045105,0.4,0.462637042050194,-1.7525647665262,0
28.39999,158.331756591797,-64.617919921875,-0.194717288017273,11.3599960327148,0.380418754871063,0.185427976908253,0,0,0,0,74.7605590820313,311.386627197266,141.859512329102,11.9519786834717,-5.07475757598877,0.662463426589966,0.4,0.388359446683323,-1.79268114838606,0
28.41999,158.57080078125,-64.7194061279297,-0.156137824058533,11.3679962158203,0.387430307767641,0.149231204518053,0,0,0,0,74.9087448120117,292.2373046875,118.933784484863,11.9519786834717,-5.07475757598877,1.9289710521698,0.4,0.312549103866847,-1.82572231299128,0
28.43999,158.809844970703,-64.8209075927734,-0.0980244874954224,11.3759956359863,0.392912331071613,0.112448989353887,0,0,0,0,73.2000579833984,274.584838867188,97.6612091064453,11.9519786834717,-5.07475757598877,2.9056715965271,0.4,0.235512612571845,-1.85155573919913,0
28.45999,159.048889160156,-64.9223937988281,-0.029107928276062,11.3839958190918,0.396844234096103,0.0752194868071095,0,0,0,0,70.0074996948242,261.322143554688,80.9285202026367,11.9519786834717,-5.07475757598877,3.44582724571228,0.4,0.15753932477334,-1.87008439568368,0
28.47999,159.287933349609,-65.0238876342773,0.0402576923370361,11.3919960021973,0.39920990255902,0.0376931137257104,0,0,0,0,65.8353500366211,252.285034179688,68.5647964477539,11.9519786834717,-5.07475757598877,3.46828484535217,0.4,0.0789442727810776,-1.88123234567957,0
28.49999,159.526962280273,-65.1253814697266,0.105699419975281,11.3999961853027,0.399999999820473,1.797633735781E-05,0,0,0,0,61.043041229248,246.271881103516,59.3609161376953,11.9519786834717,-5.07475757598877,3.27208495140076,0.4,3.76495529211651E-05,-1.88495559130787,0
28.51999,159.766021728516,-65.2268753051758,0.167217135429382,11.4079956054688,0.399211558008583,-0.03765364381848,0,0,0,0,55.842170715332,242.258850097656,52.2849082946777,11.9519786834717,-5.07475757598877,3.07588505744934,0.4,-0.0788616072006824,-1.88124014680185,0
28.53999,160.005065917969,-65.3283843994141,0.224810719490051,11.4159957885742,0.396847538540618,-0.0751802507116688,0,0,0,0,50.3544807434082,239.569976806641,46.6519203186035,11.9519786834717,-5.07475757598877,2.87968516349792,0.4,-0.157457148887212,-1.87009996751159,0
28.55999,160.244110107422,-65.4298706054688,0.278480410575867,11.4239959716797,0.392917271469352,-0.112410141924249,0,0,0,0,44.653076171875,237.782272338867,42.0293579101563,11.9519786834717,-5.07475757598877,2.68348526954651,0.4,-0.23543125070547,-1.85157902027499,0
28.57999,160.483154296875,-65.5313568115234,0.328226089477539,11.4319961547852,0.387436268473156,-0.149196381360583,0,0,0,0,38.7846221923828,236.630065917969,38.1409568786621,11.9519786834717,-5.07475757598877,2.48728537559509,0.4,-0.312476170416392,-1.82575040215426,0
28.59999,160.722198486328,-65.6328506469727,0.374047815799713,11.4399955749512,0.380426902150139,-0.185390364558165,0,0,0,0,32.7809257507324,235.943145751953,34.8048210144043,11.9519786834717,-5.07475757598877,2.29108548164368,0.4,-0.388280671561509,-1.7927195415342,0
28.61999,160.961242675781,-65.7343444824219,0.415945529937744,11.4479957580566,0.371915499945321,-0.220856145547163,0,0,0,0,26.6651935577393,235.610122680664,31.8965473175049,11.9519786834717,-5.07475757598877,2.09488558769226,0.4,-0.462560029567416,-1.75261050357659,0
28.63999,161.200286865234,-65.8358459472656,0.453919172286987,11.4559959411621,0.361936250005926,-0.255450268342405,0,0,0,0,20.4553203582764,235.557342529297,29.3274803161621,11.9519786834717,-5.07475757598877,1.89868557453156,0.4,-0.535013790921361,-1.70558439612969,0
28.65999,161.439331054688,-65.9373321533203,0.487968921661377,11.4639961242676,0.350528537674639,-0.289036199498052,0,0,0,0,14.165901184082,235.736083984375,27.0315971374512,11.9519786834717,-5.07475757598877,1.70248556137085,0.4,-0.605356000643062,-1.65182681824833,0
28.67999,161.678375244141,-66.0388336181641,0.518094599246979,11.471996307373,0.33773738604059,-0.321481384622122,0,0,0,0,7.80944776535034,236.115219116211,24.9571075439453,11.9519786834717,-5.07475757598877,1.50628554821014,0.4,-0.673309037463155,-1.59154993624161,0
28.69999,161.917419433594,-66.1403274536133,0.544296324253082,11.4799957275391,0.323614687016527,-0.352654862835024,0,0,0,0,1.39713406562805,236.676849365234,23.0608921051025,11.9519786834717,-5.07475757598877,1.31008553504944,0.4,-0.738598617556818,-1.52499828498732,0
28.71999,162.156448364258,-66.2418212890625,0.566574037075043,11.4879959106445,0.308213485994142,-0.38243954537353,0,0,0,0,354.939392089844,237.413925170898,21.3043956756592,11.9519786834717,-5.07475757598877,1.11388552188873,0.4,-0.800979510791801,-1.45242183500475,0
28.73999,162.3955078125,-66.3433227539063,0.58492773771286,11.49599609375,0.291595851488209,-0.410714844677484,0,0,0,0,348.446380615234,238.32958984375,19.6501197814941,11.9519786834717,-5.07475757598877,0.917685508728027,0.4,-0.860199159172705,-1.37411307727892,0
28.75999,162.634552001953,-66.4448089599609,0.599357426166534,11.5039962768555,0.273827368711411,-0.437369165951735,0,0,0,0,341.928283691406,239.437789916992,18.0580787658691,11.9519786834717,-5.07475757598877,0.721485495567322,0.4,-0.91602383910711,-1.29038107484339,0
28.77999,162.873596191406,-66.5462951660156,0.609863102436066,11.5119956970215,0.254980011710374,-0.462295020158555,0,0,0,0,335.39599609375,240.765533447266,16.4815044403076,11.9519786834717,-5.07475757598877,0.525285482406616,0.4,-0.968228426080842,-1.20156499740233,0
28.79999,163.112640380859,-66.6477966308594,0.616444826126099,11.519995880127,0.23512457187085,-0.485398784846786,0,0,0,0,328.861755371094,242.357711791992,14.8606853485107,11.9519786834717,-5.07475757598877,0.329085499048233,0.4,-1.01661683769072,-1.10799844150186,0
28.81999,163.351684570313,-66.7492904663086,0.619102537631989,11.5279960632324,0.214341160300605,-0.50658681462532,0,0,0,0,322.340026855469,244.285949707031,13.1131401062012,11.9519786834717,-5.07475757598877,0.13288551568985,0.4,-1.06099294348824,-1.01005892184344,0
28.83999,163.590728759766,-66.8507766723633,0.617836236953735,11.5359962463379,0.192711803383584,-0.525775486193922,0,0,0,0,315.849639892578,246.664947509766,11.1164798736572,11.9519786834717,-5.07475757598877,-0.0633144676685333,0.4,-1.10118160324295,-0.908132978654863,0
28.85999,163.82975769043,-66.9522705078125,0.612645924091339,11.5439956665039,0.170324034914802,-0.542887536275487,0,0,0,0,309.417114257813,249.68440246582,8.67609024047852,11.9519786834717,-5.07475757598877,-0.259514451026917,0.4,-1.13702099712569,-0.80263310522717,0
28.87999,164.068817138672,-67.0537719726563,0.603531658649445,11.5519958496094,0.147261944199405,-0.557858691362674,0,0,0,0,303.083953857422,253.673782348633,5.45991516113281,11.9519786834717,-5.07475757598877,-0.455714404582977,0.4,-1.16837651101746,-0.6939555630753,0
28.89999,164.307846069336,-67.1552581787109,0.590493381023407,11.5599960327148,0.123618651272171,-0.570628132306594,0,0,0,0,296.923400878906,259.244140625,0.85638689994812,11.9519786834717,-5.07475757598877,-0.651914358139038,0.4,-1.19512076559071,-0.582539170024994,0
28.91999,164.546890258789,-67.2567520141602,0.573531091213226,11.5679962158203,0.099487469678704,-0.581145461651461,0,0,0,0,291.082580566406,267.614929199219,353.647491455078,11.9519786834717,-5.07475757598877,-0.848114311695099,0.4,-1.21714820866085,-0.46882365580028,0
28.93999,164.785949707031,-67.3582611083984,0.552644789218903,11.5759956359863,0.0749659929025878,-0.58936849660742,0,0,0,0,285.899780273438,281.325500488281,341.297119140625,11.9519786834717,-5.07475757598877,-1.04431426525116,0.4,-1.23437049279942,-0.353268918857752,0
28.95999,165.024993896484,-67.4597473144531,0.527834534645081,11.5839958190918,0.0501463245380751,-0.595266351144153,0,0,0,0,282.203125,304.745849609375,319.440185546875,11.9519786834717,-5.07475757598877,-1.24051427841187,0.4,-1.24672293045578,-0.23630898716002,0
28.97999,165.264038085938,-67.5612335205078,0.499100267887115,11.5919960021973,0.0251287424838034,-0.598814853838531,0,0,0,0,281.466857910156,337.570281982422,288.389221191406,11.9519786834717,-5.07475757598877,-1.43671417236328,0.4,-1.25415489711972,-0.1184164091716,0
28.99999,165.503082275391,-67.6627349853516,0.466441988945007,11.5999961853027,1.19842249073628E-05,-0.599999999730709,0,0,0,0,284.099334716797,5.55599737167358,262.395477294922,11.9519786834717,-5.07475757598877,-1.6329140663147,0.4,-1.25663706087192,-5.64743293919081E-05,0
29.01999,165.742126464844,-67.7642288208008,0.429859757423401,11.6079956054688,-0.0251024292123236,-0.598817337012875,0,0,0,0,288.672607421875,22.654224395752,247.518005371094,11.9519786834717,-5.07475757598877,-1.82911396026611,0.4,-1.2541600978679,0.11829241080104,0
29.03999,165.981155395508,-67.8657150268555,0.389353454113007,11.6159957885742,-0.0501201671411104,-0.595271307810927,0,0,0,0,294.052001953125,33.0104827880859,239.623458862305,11.9519786834717,-5.07475757598877,-2.02531385421753,0.4,-1.2467333116744,0.236185723330807,0
29.05999,166.22021484375,-67.9672088623047,0.344923198223114,11.6239959716797,-0.0749400946161692,-0.589375907204026,0,0,0,0,299.752288818359,39.9261093139648,235.424667358398,11.9519786834717,-5.07475757598877,-2.22151374816895,0.4,-1.23438601351666,0.353146876058222,0
29.07999,166.459259033203,-68.0687103271484,0.296568930149078,11.6319961547852,-0.0994642542403864,-0.581154402709735,0,0,0,0,305.569030761719,45.0238494873047,233.315063476563,11.9519786834717,-5.07475757598877,-2.41771364212036,0.4,-1.21716693476951,0.468714255624578,0
29.09999,166.698303222656,-68.1701965332031,0.244290709495544,11.6399955749512,-0.123593576372113,-0.570640353225207,0,0,0,0,311.402893066406,49.1018829345703,232.514892578125,11.9519786834717,-5.07475757598877,-2.61391353607178,0.4,-1.1951463610228,0.582421007342279,0
29.11999,166.937347412109,-68.2716903686523,0.188088417053223,11.6479957580566,-0.147237430364773,-0.557873249917983,0,0,0,0,317.197143554688,52.5841178894043,232.620910644531,11.9519786834717,-5.07475757598877,-2.81011343002319,0.4,-1.1684070023844,0.693840044351115,0
29.13999,167.176391601563,-68.3731842041016,0.127962231636047,11.6559959411621,-0.17030017889494,-0.542904375008888,0,0,0,0,322.913757324219,55.7150917053223,233.411514282227,11.9519786834717,-5.07475757598877,-3.00631332397461,0.4,-1.13705626408645,0.802520686382056,0
29.15999,167.415435791016,-68.4746856689453,0.0639119148254395,11.6639961242676,-0.192690799665366,-0.525792806511961,0,0,0,0,328.523406982422,58.6471519470215,234.759674072266,11.9519786834717,-5.07475757598877,-3.20251321792603,0.4,-1.10121787883222,0.908034000964585,0
29.17999,167.65446472168,-68.5761795043945,-0.00406229496002197,11.6719955444336,-0.21431889931717,-0.506608005404398,0,0,0,0,334.000823974609,61.4820518493652,236.591247558594,11.9519786834717,-5.07475757598877,-3.39871311187744,0.4,-1.06103732535216,1.00995401943041,0
29.19999,167.893524169922,-68.6776733398438,-0.0753501653671265,11.6799957275391,-0.235103241890014,-0.485422030524792,0,0,0,0,339.322479248047,64.2922210693359,238.863220214844,11.9519786834717,-5.07475757598877,-3.56439733505249,0.4,-1.01666552332488,1.10789792633522,0
29.21999,168.132553100586,-68.779167175293,-0.139241576194763,11.6879959106445,-0.254959696915689,-0.46232022899121,0,0,0,0,344.464813232422,67.1321105957031,241.552581787109,11.9519786834717,-5.07475757598877,-3.19457006454468,0.4,-0.96828122333649,1.20146926618771,0
29.23999,168.371597290039,-68.8806533813477,-0.186137437820435,11.69599609375,-0.273809896451655,-0.437393777232315,0,0,0,0,349.404632568359,70.0448913574219,244.648071289063,11.9519786834717,-5.07475757598877,-2.34479355812073,0.4,-0.916075384852621,1.29029873875905,0
29.25999,168.610656738281,-68.9821548461914,-0.208992123603821,11.703995513916,-0.291577803158202,-0.410743673824969,0,0,0,0,354.117431640625,73.0655822753906,248.145782470703,11.9519786834717,-5.07475757598877,-1.14273726940155,0.4,-0.860259538798004,1.37402802652749,0
29.27999,168.849685668945,-69.0836410522461,-0.20437216758728,11.7119956970215,-0.308196680105702,-0.382470017565564,0,0,0,0,358.577178955078,76.2223815917969,252.047790527344,11.9519786834717,-5.07475757598877,0.23100221157074,0.4,-0.801043331601556,1.45234263912126,0
29.29999,169.088745117188,-69.1851425170898,-0.172971367835999,11.719995880127,-0.32359918989786,-0.35268685780627,0,0,0,0,2.75856852531433,79.5381774902344,256.355590820313,11.9519786834717,-5.07475757598877,1.57003688812256,0.4,-0.738665627667898,1.52492525653609,0
29.31999,169.327789306641,-69.2866363525391,-0.119507670402527,11.7279960632324,-0.337724543083546,-0.32151174045091,0,0,0,0,6.63456439971924,83.0292663574219,261.071746826172,11.9519786834717,-5.07475757598877,2.67319011688232,0.4,-0.673372614562297,1.59148941523236,0
29.33999,169.566833496094,-69.3881225585938,-0.0520131587982178,11.7359954833984,-0.350515836038861,-0.289070855576018,0,0,0,0,10.1792116165161,86.7049407958984,266.194396972656,11.9519786834717,-5.07475757598877,3.37472653388977,0.4,-0.605428584163023,1.65176696319986,0
29.35999,169.805877685547,-69.4896240234375,0.0193717479705811,11.7439956665039,-0.361925024183657,-0.255486052372206,0,0,0,0,13.367901802063,90.5660247802734,271.715759277344,11.9519786834717,-5.07475757598877,3.56924724578857,0.4,-0.535088736818119,1.70553149568853,0
29.37999,170.044906616211,-69.5911102294922,0.0868327617645264,11.7519958496094,-0.371905794241784,-0.220892916299102,0,0,0,0,16.1785869598389,94.6036911010742,277.620880126953,11.9519786834717,-5.07475757598877,3.37304735183716,0.4,-0.462637042050189,1.7525647665262,0
29.39999,170.283950805664,-69.6926040649414,0.150369644165039,11.7599960327148,-0.380418754871062,-0.185427976908259,0,0,0,0,18.5930461883545,98.7984619140625,283.885284423828,11.9519786834717,-5.07475757598877,3.17684745788574,0.4,-0.388359446683336,1.79268114838606,0
29.41999,170.523010253906,-69.7941131591797,0.209982573986053,11.7679954528809,-0.387429711620581,-0.149234686804327,0,0,0,0,20.5987415313721,103.1201171875,290.474426269531,11.9519786834717,-5.07475757598877,2.98064756393433,0.4,-0.312556397150165,1.82571950371444,0
29.43999,170.762054443359,-69.8955917358398,0.265671491622925,11.7759956359863,-0.392912331071613,-0.112448989353885,0,0,0,0,22.1902713775635,107.528594970703,297.34423828125,11.9519786834717,-5.07475757598877,2.78444766998291,0.4,-0.235512612571841,1.85155573919913,0
29.45999,171.001098632813,-69.9970855712891,0.317436456680298,11.7839958190918,-0.396844234096103,-0.0752194868071074,0,0,0,0,23.3704319000244,111.976455688477,304.442901611328,11.9519786834717,-5.07475757598877,2.58824777603149,0.4,-0.157539324773335,1.87008439568368,0
29.47999,171.240142822266,-70.0985794067383,0.365277349948883,11.7919960021973,-0.39920990255902,-0.0376931137257083,0,0,0,0,24.1506996154785,116.412376403809,311.714233398438,11.9519786834717,-5.07475757598877,2.39204788208008,0.4,-0.0789442727810733,1.88123234567957,0
29.49999,171.479187011719,-70.200080871582,0.40919429063797,11.7999961853027,-0.399999999820473,-1.79763373557518E-05,0,0,0,0,24.5506992340088,120.785377502441,319.101623535156,11.9519786834717,-5.07475757598877,2.19584798812866,0.4,-3.76495529168545E-05,1.88495559130787,0
29.51999,171.718231201172,-70.3015747070313,0.449187219142914,11.8079956054688,-0.399211558008583,0.0376536438184821,0,0,0,0,24.5971279144287,125.049125671387,326.551818847656,11.9519786834717,-5.07475757598877,1.99964797496796,0.4,0.0788616072006867,1.88124014680185,0
29.53999,171.957260131836,-70.4030609130859,0.485256195068359,11.8159957885742,-0.396847538540617,0.0751802507116708,0,0,0,0,24.3218364715576,129.165313720703,334.018310546875,11.9519786834717,-5.07475757598877,1.80344796180725,0.4,0.157457148887216,1.87009996751159,0
29.55999,172.196319580078,-70.5045623779297,0.517401099205017,11.8239959716797,-0.392917271469351,0.112410141924251,0,0,0,0,23.7596015930176,133.105819702148,341.463165283203,11.9519786834717,-5.07475757598877,1.60724794864655,0.4,0.235431250705474,1.85157902027499,0
29.57999,172.435348510742,-70.6060562133789,0.545622050762177,11.8319961547852,-0.387436268473156,0.149196381360585,0,0,0,0,22.9458045959473,136.853469848633,348.857727050781,11.9519786834717,-5.07475757598877,1.41104793548584,0.4,0.312476170416396,1.82575040215426,0
29.59999,172.674407958984,-70.7075424194336,0.569918990135193,11.8399955749512,-0.380426902150139,0.185390364558166,0,0,0,0,21.9143981933594,140.40153503418,356.182098388672,11.9519786834717,-5.07475757598877,1.21484792232513,0.4,0.388280671561513,1.7927195415342,0
29.61999,172.913452148438,-70.8090286254883,0.590291917324066,11.8479957580566,-0.37191549994532,0.220856145547165,0,0,0,0,20.6961078643799,143.752182006836,3.42357444763184,11.9519786834717,-5.07475757598877,1.01864790916443,0.4,0.46256002956742,1.75261050357659,0
29.63999,173.152496337891,-70.9105377197266,0.606740891933441,11.8559959411621,-0.361936250005926,0.255450268342407,0,0,0,0,19.3172607421875,146.914596557617,10.5749225616455,11.9519786834717,-5.07475757598877,0.822447896003723,0.4,0.535013790921365,1.70558439612968,0
29.65999,173.391540527344,-71.0120315551758,0.619265854358673,11.8639961242676,-0.350528537674639,0.289036199498054,0,0,0,0,17.7989482879639,149.90283203125,17.6324863433838,11.9519786834717,-5.07475757598877,0.626247882843018,0.4,0.605356000643066,1.65182681824833,0
29.67999,173.630569458008,-71.1135101318359,0.627866804599762,11.8719955444336,-0.3377386702696,0.321478348975752,0,0,0,0,16.1567287445068,152.733871459961,24.5945167541504,11.9519786834717,-5.07475757598877,0.430047899484634,0.4,0.673302679620266,1.59155598802824,0
29.69999,173.86962890625,-71.2150115966797,0.632543742656708,11.8799957275391,-0.323614687016526,0.352654862835026,0,0,0,0,14.4006118774414,155.425842285156,31.4597625732422,11.9519786834717,-5.07475757598877,0.233847916126251,0.4,0.738598617556822,1.52499828498732,0
29.71999,174.108657836914,-71.3165130615234,0.633296728134155,11.8879959106445,-0.308213485994141,0.382439545373531,0,0,0,0,12.5353670120239,157.996551513672,38.2265129089355,11.9519786834717,-5.07475757598877,0.037647932767868,0.4,0.800979510791804,1.45242183500474,0
29.73999,174.347702026367,-71.4179992675781,0.63012570142746,11.89599609375,-0.291595851488208,0.410714844677486,0,0,0,0,10.5610609054565,160.462356567383,44.8919258117676,11.9519786834717,-5.07475757598877,-0.158552050590515,0.4,0.860199159172708,1.37411307727892,0
29.75999,174.586761474609,-71.5195007324219,0.623030662536621,11.903995513916,-0.273829115883314,0.437366704737301,0,0,0,0,8.47372531890869,162.837463378906,51.4517478942871,11.9519786834717,-5.07475757598877,-0.354752033948898,0.4,0.916018684351654,1.29038930819701,0
29.77999,174.825805664063,-71.6209945678711,0.612011611461639,11.9119956970215,-0.254980011710373,0.462295020158557,0,0,0,0,6.26621150970459,165.133224487305,57.9002799987793,11.9519786834717,-5.07475757598877,-0.550952017307281,0.4,0.968228426080845,1.20156499740232,0
29.79999,175.064849853516,-71.7224884033203,0.597068548202515,11.919995880127,-0.235124571870849,0.485398784846788,0,0,0,0,3.92901349067688,167.358032226563,64.2305068969727,11.9519786834717,-5.07475757598877,-0.747151970863342,0.4,1.01661683769072,1.10799844150185,0
29.81999,175.303894042969,-71.823974609375,0.578201532363892,11.9279960632324,-0.214341160300603,0.506586814625321,0,0,0,0,1.45116019248962,169.517120361328,70.4344863891602,11.9519786834717,-5.07475757598877,-0.943351924419403,0.4,1.06099294348824,1.01005892184343,0
29.83999,175.542938232422,-71.9254760742188,0.555410504341125,11.9359954833984,-0.192713903717347,0.52577375405829,0,0,0,0,358.821075439453,171.612747192383,76.5038528442383,11.9519786834717,-5.07475757598877,-1.13955187797546,0.4,1.10117797546657,0.908142876244544,0
29.85999,175.781982421875,-72.026969909668,0.528695464134216,11.9439956665039,-0.170324034914801,0.542887536275488,0,0,0,0,356.027313232422,173.644454956055,82.4303359985352,11.9519786834717,-5.07475757598877,-1.33575177192688,0.4,1.13702099712569,0.802633105227164,0
29.87999,176.021026611328,-72.1284561157227,0.498056411743164,11.9519958496094,-0.147261944199403,0.557858691362675,0,0,0,0,353.059295654297,175.60920715332,88.206413269043,11.9519786834717,-5.07475757598877,-1.5319516658783,0.4,1.16837651101746,0.693955563075294,0
29.89999,176.260070800781,-72.2299575805664,0.463493466377258,11.9599960327148,-0.123618651272169,0.570628132306594,0,0,0,0,349.907806396484,177.501892089844,93.8259124755859,11.9519786834717,-5.07475757598877,-1.72815155982971,0.4,1.19512076559071,0.582539170024988,0
29.91999,176.499114990234,-72.3314437866211,0.42500638961792,11.9679954528809,-0.0994897912028868,0.58114456743087,0,0,0,0,346.5654296875,179.315414428711,99.2847442626953,11.9519786834717,-5.07475757598877,-1.92435145378113,0.4,1.21714633580963,0.468834595725257,0
29.93999,176.738159179688,-72.4329376220703,0.382595419883728,11.9759956359863,-0.0749659929025921,0.589368496607419,0,0,0,0,343.026763916016,181.040893554688,104.581489562988,11.9519786834717,-5.07475757598877,-2.12055134773254,0.4,1.23437049279942,0.353268918857772,0
29.95999,176.977203369141,-72.5344314575195,0.336260437965393,11.9839958190918,-0.0501463245380738,0.595266351144154,0,0,0,0,339.288665771484,182.66748046875,109.718116760254,11.9519786834717,-5.07475757598877,-2.31675124168396,0.4,1.24672293045578,0.236308987160013,0
29.97999,177.216247558594,-72.6359252929688,0.286001443862915,11.9919960021973,-0.025128742483802,0.598814853838531,0,0,0,0,335.350280761719,184.182052612305,114.700981140137,11.9519786834717,-5.07475757598877,-2.51295113563538,0.4,1.25415489711972,0.118416409171593,0
29.99999,177.455291748047,-72.737419128418,0.231818437576294,11.9999954223633,-1.43810698842429E-05,0.599999999612222,0,0,0,0,331.212829589844,185.568252563477,119.541725158691,11.9519786834717,-5.07475757598877,-2.70915102958679,0.4,1.25663706062376,6.77691952486486E-05,0
30.01999,177.6943359375,-72.8389282226563,0.17371141910553,12.0079956054688,0.0251024292123192,0.598817337012875,0,0,0,0,326.879913330078,186.804977416992,124.259147644043,11.9519786834717,-5.07475757598877,-2.90535092353821,0.4,1.2541600978679,-0.11829241080102,0
30.03999,177.933364868164,-72.9404144287109,0.111680388450623,12.0159957885742,0.0501201671411117,0.595271307810926,0,0,0,0,322.357147216797,187.863708496094,128.881774902344,11.9519786834717,-5.07475757598877,-3.10155081748962,0.4,1.2467333116744,-0.236185723330814,0
30.05999,178.172424316406,-73.0419082641602,0.0457254648208618,12.0239959716797,0.0749400946161705,0.589375907204026,0,0,0,0,317.652374267578,188.703887939453,133.452255249023,11.9519786834717,-5.07475757598877,-3.29775071144104,0.4,1.23438601351666,-0.353146876058228,0
30.07999,178.41145324707,-73.1434020996094,-0.0241535902023315,12.0319953918457,0.0994619326769146,0.581155296700795,0,0,0,0,312.775970458984,189.264633178711,138.035415649414,11.9519786834717,-5.07475757598877,-3.49395060539246,0.4,1.21716880714001,-0.468703315514456,0
30.09999,178.650512695313,-73.2448883056641,-0.0943276882171631,12.0399955749512,0.123593576372109,0.570640353225209,0,0,0,0,307.741607666016,189.449600219727,142.733367919922,11.9519786834717,-5.07475757598877,-3.50870990753174,0.4,1.1951463610228,-0.58242100734226,0
30.11999,178.889556884766,-73.3463897705078,-0.154254198074341,12.0479957580566,0.147237430364774,0.557873249917982,0,0,0,0,302.568084716797,189.096664428711,147.71484375,11.9519786834717,-5.07475757598877,-2.99632453918457,0.4,1.1684070023844,-0.693840044351121,0
30.13999,179.128601074219,-73.447883605957,-0.194929718971252,12.0559959411621,0.170300178894941,0.542904375008887,0,0,0,0,297.283508300781,187.910446166992,153.283233642578,11.9519786834717,-5.07475757598877,-2.03377389907837,0.4,1.13705626408645,-0.802520686382062,0
30.15999,179.367645263672,-73.5493774414063,-0.210243105888367,12.0639953613281,0.192688699255494,0.525794538439929,0,0,0,0,291.937194824219,185.297180175781,160.041122436523,11.9519786834717,-5.07475757598877,-0.765670418739319,0.4,1.10122150617368,-0.908024103016248,0
30.17999,179.606689453125,-73.6508636474609,-0.197893738746643,12.0719955444336,0.214318899317166,0.506608005404402,0,0,0,0,286.63427734375,179.903884887695,169.350967407227,11.9519786834717,-5.07475757598877,0.617466568946838,0.4,1.06103732535216,-1.00995401943039,0
30.19999,179.845733642578,-73.7523651123047,-0.15973699092865,12.0799957275391,0.235103241890015,0.485422030524791,0,0,0,0,281.660705566406,168.159881591797,184.793304443359,11.9519786834717,-5.07475757598877,1.90783560276031,0.4,1.01666552332488,-1.10789792633522,0
30.21999,180.084777832031,-73.8538589477539,-0.101505637168884,12.0879959106445,0.25495969691569,0.462320228991209,0,0,0,0,277.994903564453,140.767730712891,215.675720214844,11.9519786834717,-5.07475757598877,2.91157293319702,0.4,0.968281223336488,-1.20146926618772,0
30.23999,180.323806762695,-73.9553451538086,-0.0319480895996094,12.09599609375,0.273809896451656,0.437393777232314,0,0,0,0,278.06884765625,97.0399169921875,262.695861816406,11.9519786834717,-5.07475757598877,3.47787880897522,0.4,0.916075384852618,-1.29029873875905,0
30.25999,180.562866210938,-74.0568313598633,0.0384852886199951,12.103995513916,0.291577803158199,0.410743673824974,0,0,0,0,281.990112304688,69.5690002441406,293.271209716797,11.9519786834717,-5.07475757598877,3.52167153358459,0.4,0.860259538798013,-1.37402802652747,0
30.27999,180.801910400391,-74.1583404541016,0.104994773864746,12.1119956970215,0.308196680105703,0.382470017565562,0,0,0,0,287.428802490234,57.6814041137695,308.085113525391,11.9519786834717,-5.07475757598877,3.32547163963318,0.4,0.801043331601553,-1.45234263912126,0
30.29999,181.040954589844,-74.2598342895508,0.167580127716064,12.119995880127,0.323599189897857,0.352686857806275,0,0,0,0,293.422973632813,52.0760803222656,316.448272705078,11.9519786834717,-5.07475757598877,3.12927174568176,0.4,0.738665627667909,-1.52492525653607,0
