t,x_s1,x_s2,x_s3,x_s_d1,x_s_d2,x_s_d3,propellers_rpms1,propellers_rpms2,propellers_rpms3,propellers_rpms4,rollRad,pitchRad,yawRad,v_s1,v_s2,v_s3,v_s_d1,v_s_d2,v_s_d3,insideCount
0,-0.06000005453825,2.94000005722046,1.96001851558685,-0.06000005453825,2.94000005722046,1.96001851558685,2128.801,2128.795,2128.793,2128.798,1.48432036439772E-05,45.0000228881836,1.07426249087439E-05,7.09643970253637E-08,-5.26232270203764E-07,-7.72143976064399E-05,-3.5527136788005E-16,-7.105427357601E-16,8.88178419700125E-16,7
0.0199999809265137,-0.06000005453825,2.94000005722046,1.96001696586609,-0.0600019248617934,2.93999923334802,1.96001920381133,2128.873,2128.871,2128.855,2128.857,1.47489899973152E-05,45.0000228881836,1.07426121758181E-05,5.92697304568901E-08,-4.82377799926326E-07,-7.47445155866444E-05,-0.000279986126875619,-0.000123333128212552,0.000103026722937611,7
0.0399999618530273,-0.06000005453825,2.94000005722046,1.9600156545639,-0.0600149272436398,2.93999350583414,1.96002398830836,2461.512,2262.615,1799.839,2000.916,6.78659898767364E-06,45.0000228881836,1.68234892043984E-05,4.75742325534156E-08,-4.38521851719997E-07,-6.60955265630037E-05,-0.00111096704119694,-0.000489377963331286,0.000408803446166602,7
0.059999942779541,-0.06000005453825,2.94000005722046,1.96001887321472,-0.0600499475393776,2.93997807948901,1.96003687475508,2300.964,2200.91,1963.702,2069.528,359.708740234375,44.9998779296875,0.111806310713291,1.40134268633574E-08,-3.9588738331986E-07,0.000159731833264232,-0.00247955782833586,-0.0010922384868277,0.000912404911760444,7
0.0799999237060547,-0.0600196197628975,2.93999123573303,1.96003127098083,-0.0601176049903541,2.93994827656567,1.96006177072237,2105.51,2128.294,2163.309,2148.325,359.26904296875,44.9988975524902,0.279724150896072,-0.000978218275122344,-0.000435939466115087,0.000618224730715156,-0.00437248195343481,-0.00192606642116724,0.00160894574238422,7
0.0999999046325684,-0.0600882992148399,2.93996047973633,1.96005725860596,-0.0602282543912696,2.93989953580519,1.96010248647246,1940.559,2065.994,2334.556,2214.419,358.854797363281,44.9973106384277,0.439105361700058,-0.00343403499573469,-0.00153241213411093,0.00129934109281749,-0.00677657126140718,-0.00298506122980996,0.00249358044129549,7
0.119999885559082,-0.0602340586483479,2.93989539146423,1.96010100841522,-0.0603919882577705,2.93982741148183,1.96016273575655,1901.888,2049.861,2380.794,2232.534,358.613952636719,44.9966087341309,0.535081565380096,-0.00728805316612124,-0.00325024547055364,0.0021861745044589,-0.00967876597693725,-0.00426347011721058,0.00356150339234435,7
0.139999866485596,-0.0604733899235725,2.93978905677795,1.96016645431519,-0.0606186389940426,2.93972757244828,1.96024613661241,1996.415,2083.6,2293.012,2201.229,358.583923339844,44.9976425170898,0.55299311876297,-0.0119664939120412,-0.00532268825918436,0.00327182468026876,-0.0130661147044802,-0.00575558802881846,0.00480794885997335,6
0.159999847412109,-0.0608087256550789,2.93964052200317,1.96025776863098,-0.0609177810604047,2.93959580118076,1.96035621216198,2158.397,2144.584,2135.291,2145.034,358.684417724609,44.9995956420898,0.520639181137085,-0.0167668499052525,-0.0074268551543355,0.00456578005105257,-0.0169257744282622,-0.00745575765107758,0.00622819098921755,6
0.179999828338623,-0.0612336881458759,2.939453125,1.96037936210632,-0.0612987331409014,2.93942799282429,1.96049639140903,2292.437,2198.286,2003.263,2098.116,358.774749755859,45.0011329650879,0.488104641437531,-0.0212482064962387,-0.0093667833134532,0.00607754196971655,-0.0212450105122804,-0.00935836941142658,0.00781754380570453,6
0.199999809265137,-0.0617423690855503,2.93922972679138,1.96053540706635,-0.0617705603108971,2.93922015423778,1.96067001003671,2329.553,2218.086,1967.645,2085.165,358.73779296875,45.0015983581543,0.498379796743393,-0.0254341177642345,-0.0111674889922142,0.00779980653896928,-0.0260111967003025,-0.0114578614782987,0.00957136121565433,6
0.21999979019165,-0.0623371601104736,2.93896913528442,1.96072959899902,-0.0623420762046689,2.93896840303929,1.9608803112052,2261.725,2198.806,2038.349,2109.569,358.541564941406,45.0009651184082,0.565456509590149,-0.0297395866364241,-0.013035130687058,0.00971125438809395,-0.0312118151158676,-0.0137487197611219,0.0114850370058795,6
0.239999771118164,-0.0630310252308846,2.93866467475891,1.96096539497375,-0.0630218451830003,2.93866896665116,1.96113044634929,2139.406,2156.586,2165.81,2154.469,358.246978759766,44.9995346069336,0.670677900314331,-0.0346934273838997,-0.015220551751554,0.0117887165397406,-0.0368344562622855,-0.0162254779103187,0.0135540048437851,6
0.259999990463257,-0.0638436377048492,2.93830728530884,1.96124565601349,-0.0638181947210292,2.93831817684321,1.96142347973681,2037.079,2117.656,2274.944,2194.175,357.964050292969,44.9980773925781,0.776817798614502,-0.0406307876110077,-0.0178715493530035,0.0140137877315283,-0.0428668933276777,-0.018882750048475,0.015773765619455,6
0.279999971389771,-0.0647941753268242,2.93788814544678,1.96157324314117,-0.0647391782278277,2.93791248611063,1.96176237478723,2009.768,2103.114,2308.901,2209.308,357.785797119141,44.9976463317871,0.850248396396637,-0.0475268661975861,-0.0209581274539232,0.0163764171302319,-0.0492967896314876,-0.0217151019013222,0.0181397797945062,6
0.299999952316284,-0.0658950954675674,2.93740200996399,1.96195077896118,-0.0657926340284038,2.93744844169254,1.96215001577539,2064.752,2118.721,2258.469,2196.091,357.739227294922,44.9986152648926,0.878268897533417,-0.055045947432518,-0.0243042316287756,0.0188790913671255,-0.0561121303112942,-0.0247172409546064,0.0206476262502369,6
0.319999933242798,-0.0671501830220222,2.93684792518616,1.96238148212433,-0.0669861510626439,2.93692270068155,1.96258919520966,2163.396,2153.489,2161.573,2166.328,357.777893066406,45.0003204345703,0.873213827610016,-0.0627542287111282,-0.0276983305811882,0.0215337853878736,-0.0633009393907831,-0.0278838918232978,0.0232928981768976,6
0.339999914169312,-0.0685574039816856,2.93622756004333,1.96286845207214,-0.0683270798349334,2.93633202520044,1.96308261786114,2247.518,2187.477,2077.432,2138.885,357.815765380859,45.0016708374023,0.862689256668091,-0.0703612267971039,-0.0310123153030872,0.0243494752794504,-0.0708513492734107,-0.0312098268633613,0.0260712286453312,6
0.359999895095825,-0.0701145008206367,2.935542345047,1.96341490745544,-0.0698225345817497,2.93567328144738,1.96363290156121,2273.571,2203.549,2051.642,2128.78,357.77880859375,45.0019836425781,0.872960090637207,-0.0778550356626511,-0.0342613756656647,0.0273209866136312,-0.0787516007424042,-0.0346898661717564,0.0289782906069731,6
0.379999876022339,-0.0718239098787308,2.93479084968567,1.9640234708786,-0.0714793954392557,2.93494343874107,1.96424257799917,2234.83,2196.191,2092.642,2139.846,357.644134521484,45.0012130737305,0.915210247039795,-0.085470512509346,-0.0375783741474152,0.0304304249584675,-0.086990042960762,-0.0383188775864373,0.0320097968938514,6
0.399999856948853,-0.0736944451928139,2.93396830558777,1.96469664573669,-0.0733043106108931,2.93413956856596,1.96491409351985,2160.806,2173.029,2171.322,2164.132,357.446899414063,44.9998550415039,0.981557726860046,-0.0935266315937042,-0.0411250963807106,0.03365633264184,-0.0955551334712531,-0.0420917766863527,0.0351615002185863,6
0.419999837875366,-0.0757391899824142,2.93306827545166,1.96543633937836,-0.0753036985349761,2.93325884361741,1.96564980992122,2096.985,2149.061,2241.119,2187.695,357.254302978516,44.9986801147461,1.05170559883118,-0.102237202227116,-0.0449964925646782,0.0369819700717926,-0.104435438196418,-0.0460035267914461,0.0384291931743909,6
0.43999981880188,-0.0779712051153183,2.93208479881287,1.96624433994293,-0.0774837500522842,2.93229853684688,1.96645200525199,2078.037,2137.787,2265.485,2198.873,357.125122070313,44.9983901977539,1.1053159236908,-0.111600734293461,-0.0491719357669353,0.0404004380106926,-0.113619631438567,-0.0500491389626555,0.0418087082350705,6
0.459999799728394,-0.0803996175527573,2.93101406097412,1.96712267398834,-0.0798504305736558,2.9312560205071,1.96732287460926,2109.977,2144.341,2236.835,2194.123,357.078430175781,44.9991645812988,1.13278353214264,-0.1214205250144,-0.0535359606146812,0.0439157634973526,-0.123096495879782,-0.0542236720019137,0.0452959177550232,6
0.479999780654907,-0.0830281972885132,2.92985510826111,1.9680734872818,-0.0824094822475818,2.93012876519726,1.96826453093607,2170.15,2163.773,2177.496,2178.761,357.087585449219,45.0004806518555,1.13896095752716,-0.131429061293602,-0.0579496659338474,0.0475381910800934,-0.132854922581917,-0.0585222324521479,0.0488867339692393,6
0.499999761581421,-0.0858569145202637,2.92860865592957,1.96909892559052,-0.0851664261277984,2.9289143389082,1.96927900581905,2223.006,2184.803,2124.084,2162.993,357.100006103516,45.0015029907227,1.13875043392181,-0.141435980796814,-0.0623277425765991,0.0512746460735798,-0.142883910986594,-0.0629399745972803,0.0525771089933016,6
0.519999742507935,-0.0888852626085281,2.92727518081665,1.97020137310028,-0.0881265643408812,2.92761040606755,1.97036825028604,2241.063,2196.672,2105.846,2155.792,357.06884765625,45.0017280578613,1.14789652824402,-0.151417285203934,-0.0666778683662415,0.0551215372979641,-0.153172568915209,-0.0674721004622273,0.0563630348233858,6
0.539999723434448,-0.0921153277158737,2.92585349082947,1.97138273715973,-0.0912949822538376,2.92621472658496,1.97153413560368,2219.024,2194.797,2129.454,2160.376,356.978210449219,45.001091003418,1.17454838752747,-0.161503240466118,-0.0710844546556473,0.0590654872357845,-0.163710112568928,-0.0721138598129003,0.0602405433362595,6
0.559999704360962,-0.0955530107021332,2.92434048652649,1.97264456748962,-0.0946765506417011,2.92472515489728,1.97277845407502,2174.171,2182.457,2177.838,2173.283,356.84814453125,45.0000305175781,1.21592831611633,-0.171883955597878,-0.0756513029336929,0.0630894601345062,-0.174485866528686,-0.0768605501562052,0.0642057062892833,6
0.579999685287476,-0.0992068648338318,2.92273163795471,1.97398817539215,-0.0982759278551241,2.92313963901369,1.97410291983713,2134.324,2168.009,2222.224,2187.106,356.719696044922,44.9991416931152,1.2612224817276,-0.182693332433701,-0.0804395377635956,0.0671801716089249,-0.185489263755191,-0.0817075167400426,0.06825463532041,6
0.599999666213989,-0.103085607290268,2.92102289199829,1.97541487216949,-0.102097561987971,2.92145621956093,1.97550916965873,2121.307,2159.931,2239.27,2194.872,356.629913330078,44.9989395141602,1.29832458496094,-0.193937212228775,-0.0854354202747345,0.0713323131203651,-0.196709845588921,-0.0866501525533076,0.0723834819481851,6
0.619999647140503,-0.107195600867271,2.91921162605286,1.97692584991455,-0.106145693044913,2.91967302882846,1.9769987637378,2139.751,2162.188,2223.16,2193.806,356.592041015625,44.9994850158691,1.32045924663544,-0.205499738454819,-0.0905635207891464,0.0755487978458405,-0.208137261750127,-0.09168389832589,0.0765884375717463,6
0.639999628067017,-0.111539915204048,2.91729688644409,1.97852253913879,-0.110424355109019,2.91778828981365,1.97857318649917,2176.437,2172.803,2186.918,2186.098,356.590911865234,45.0004234313965,1.32906699180603,-0.217215463519096,-0.095732256770134,0.0798366889357567,-0.219761270338827,-0.0968042425286744,0.0808657334708242,6
0.65999960899353,-0.116119101643562,2.91527915000916,1.98020660877228,-0.114937378509351,2.91580031526695,1.98023384739212,2209.622,2185.548,2153.13,2177.131,356.594390869141,45.0011672973633,1.33200633525848,-0.228959932923317,-0.100884273648262,0.0842007100582123,-0.231571737834813,-0.10200672137354,0.0852116408057416,6
0.679999589920044,-0.120933249592781,2.91315865516663,1.98197937011719,-0.119688391988557,2.91370750673709,1.98198208168807,2221.984,2193.778,2140.427,2172.23,356.572998046875,45.0013236999512,1.33857607841492,-0.240707412362099,-0.106022119522095,0.0886381790041924,-0.243558639097648,-0.10728691881336,0.0896224706174138,6
0.699999570846558,-0.125983819365501,2.91093468666077,1.98384213447571,-0.124680824870464,2.91150835361624,1.98381915127807,2209.52,2194.08,2153.828,2173.802,356.515716552734,45.0008659362793,1.35438644886017,-0.252528190612793,-0.111198328435421,0.0931393802165985,-0.255712057366663,-0.112640466542003,0.0940945738273487,6
0.719999551773071,-0.131274476647377,2.90860509872437,1.98579597473145,-0.12991790922767,2.90920143218519,1.98574624547051,2182.314,2187.645,2183.398,2180.516,356.433929443359,45.0001068115234,1.37887811660767,-0.264533787965775,-0.116478927433491,0.0976917967200279,-0.268022184260964,-0.118063043994333,0.0986243412376468,6
0.739999532699585,-0.136810600757599,2.90616703033447,1.98784172534943,-0.135402682049143,2.90678540465857,1.9877644817887,2157.342,2179.099,2211.463,2188.445,356.352630615234,44.9994888305664,1.40640830993652,-0.27680641412735,-0.121903099119663,0.102285288274288,-0.280479319779424,-0.123550378346206,0.103208203531001,6
0.759999513626099,-0.142597645521164,2.90361785888672,1.9899799823761,-0.141137987407804,2.90425901822997,1.98987490676846,2148.396,2173.552,2223.13,2193.574,356.295104980469,44.9993324279785,1.42991828918457,-0.289352267980576,-0.127462014555931,0.106915406882763,-0.29307387230069,-0.129098244514476,0.107842631270696,7
0.779999494552612,-0.148639693856239,2.90095567703247,1.99221169948578,-0.147126478628133,2.90162110411717,1.99207849675576,2158.911,2173.895,2214.124,2193.858,356.2705078125,44.9996910095215,1.44484376907349,-0.302102267742157,-0.133106470108032,0.111583516001701,-0.305796358583177,-0.134702465156988,0.112524134900611,7
0.799999475479126,-0.154938757419586,2.89818024635315,1.9945375919342,-0.153370620453751,2.8988705766073,1.99437615870432,2181.18,2179.528,2192.015,2190.035,356.270202636719,45.000316619873,1.4512255191803,-0.314953416585922,-0.138776123523712,0.116293758153915,-0.318637403765075,-0.140358910672586,0.117249264745215,7
0.81999945640564,-0.161495238542557,2.89529156684875,1.99695861339569,-0.15987269121502,2.89600643210203,1.99676873097321,2201.986,2187.013,2170.592,2184.977,356.274688720703,45.0008163452148,1.45312762260437,-0.327824145555496,-0.144431740045547,0.121048621833324,-0.33158774136434,-0.146063499201104,0.122014611009571,7
0.839999437332153,-0.168309062719345,2.89229011535645,1.99947547912598,-0.166634784996636,2.89302774816274,1.99925698412449,2210.284,2192.426,2161.822,2181.68,356.265319824219,45.000919342041,1.45592522621155,-0.340691208839417,-0.15007258951664,0.125845938920975,-0.344638213278702,-0.151812196623374,0.126816803779336,7
0.859999895095825,-0.175380885601044,2.88917541503906,2.00208902359009,-0.173658984407981,2.88993360740564,2.00184168449762,2203.238,2193.321,2169.232,2181.904,356.234649658203,45.000617980957,1.46333932876587,-0.353590846061707,-0.155730724334717,0.130678683519363,-0.357780084119647,-0.157601155024487,0.131652628686487,7
0.879999876022339,-0.182712614536285,2.88594651222229,2.00479984283447,-0.180946686645222,2.88672339436964,2.00452334622001,2186.68,2190.042,2187.116,2185.187,356.189025878906,45.0001029968262,1.47564446926117,-0.366587162017822,-0.16144748032093,0.135537818074226,-0.371003785729196,-0.16342615965685,0.13651856492815,7
0.899999856948853,-0.190307214856148,2.8826014995575,2.00760817527771,-0.188499610393778,2.88339635197846,2.00730260171773,2170.885,2184.926,2204.74,2189.645,356.143585205078,44.999683380127,1.49001801013947,-0.379729211330414,-0.167247787117958,0.140415772795677,-0.384300797416353,-0.169283457179228,0.141411477138724,7
0.919999837875366,-0.198167622089386,2.8791389465332,2.01051425933838,-0.196319134427449,2.879951872886,2.01017995833931,2164.668,2181.195,2212.534,2192.813,356.113037109375,44.9995651245117,1.5023558139801,-0.393021464347839,-0.173125997185707,0.145308643579483,-0.397662394600516,-0.175169204437568,0.146328154927185,7
0.93999981880188,-0.206296056509018,2.8755578994751,2.01351857185364,-0.204406464112383,2.87638942613175,2.0131558596243,2170.508,2180.745,2207.452,2193.365,356.103546142578,44.9997978210449,1.50970816612244,-0.406421631574631,-0.179049968719482,0.150216430425644,-0.411079961080853,-0.181079606018814,0.151265427783104,7
0.959999799728394,-0.214693367481232,2.87185835838318,2.01662135124207,-0.212762633574675,2.87270855618596,2.01623068610093,2183.949,2183.531,2193.85,2191.449,356.110321044922,45.000186920166,1.51165890693665,-0.419865012168884,-0.184979677200317,0.155141055583954,-0.424544989036302,-0.187010914250901,0.156220165076639,7
0.979999780654907,-0.223359301686287,2.86804056167603,2.01982307434082,-0.221388507867955,2.86890888199487,2.01940475608367,2196.878,2187.744,2180.206,2188.51,356.121459960938,45.0005187988281,1.51023173332214,-0.433297514915466,-0.190888121724129,0.160083442926407,-0.438049079025574,-0.192959429202762,0.161189276058546,7
0.999999761581421,-0.232293307781219,2.86410522460938,2.02312397956848,-0.230284785140987,2.86499009602583,2.02267832647091,2202.331,2191.09,2174.084,2186.239,356.125274658203,45.0005874633789,1.50849521160126,-0.446699738502502,-0.196772754192352,0.16504143178463,-0.451583939987149,-0.198921498684323,0.16616970986017,7
1.01999974250793,-0.241495087742805,2.86005210876465,2.02652406692505,-0.239451998805257,2.86095196331255,2.02605159354251,2198.266,2191.882,2177.988,2185.868,356.116638183594,45.0003929138184,1.50884783267975,-0.460088819265366,-0.202652469277382,0.170009791851044,-0.465141389239278,-0.204893518246505,0.17115845549345,7
1.03999972343445,-0.250965088605881,2.85588097572327,2.03002381324768,-0.248890519702569,2.8567943205002,2.02952469375741,2187.986,2190.14,2188.721,2187.272,356.099090576172,45.0000648498535,1.5117791891098,-0.473500549793243,-0.208553001284599,0.174982026219368,-0.478713352479985,-0.210871931181222,0.176152541850918,7
1.05999970436096,-0.260704338550568,2.85159111022949,2.0336229801178,-0.258600558272641,2.85251707489068,2.03309770455129,2177.912,2187.073,2199.558,2189.547,356.081878662109,44.9997825622559,1.51593160629272,-0.486963272094727,-0.214489981532097,0.179952561855316,-0.492291863787063,-0.216853228521386,0.181149037705696,7
1.07999968528748,-0.270713925361633,2.84718203544617,2.03732132911682,-0.268582166720691,2.84812020348772,2.03677064513416,2173.528,2184.491,2204.548,2191.349,356.074157714844,44.9997100830078,1.51901268959045,-0.500478982925415,-0.22045935690403,0.184917807579041,-0.505869065618075,-0.222833949040901,0.186145051711501,7
1.09999966621399,-0.280994385480881,2.84265327453613,2.04111886024475,-0.278835241185039,2.84360375204211,2.04054347728794,2176.608,2183.662,2201.544,2191.788,356.080139160156,44.9998435974121,1.51915049552917,-0.514021217823029,-0.226440027356148,0.189876884222031,-0.519437208810359,-0.228810679254667,0.191137732402641,7
1.1199996471405,-0.291545331478119,2.83800506591797,2.04501557350159,-0.289359523904693,2.83896783409686,2.04441610616412,2184.538,2184.824,2193.086,2190.702,356.097045898438,45.0000877380371,1.51581001281738,-0.527548551559448,-0.232405304908752,0.194830149412155,-0.532988652581019,-0.234780053418577,0.196124268194018,7
1.13999962806702,-0.302365869283676,2.83323836326599,2.04901123046875,-0.300154605386947,2.83421263003241,2.04838838108132,2192.404,2187.043,2184.304,2188.809,356.117736816406,45.0002937316895,1.50996148586273,-0.54102486371994,-0.238336652517319,0.199777483940125,-0.546515864526933,-0.240738753529521,0.201101887381125,7
1.15999960899353,-0.313454508781433,2.82835364341736,2.05310559272766,-0.311219926574974,2.82933838611176,2.05246009632296,2195.834,2188.874,2179.944,2187.181,356.134887695313,45.0003356933594,1.50336885452271,-0.554434359073639,-0.244230672717094,0.204716712236404,-0.560011420624749,-0.246683509325381,0.206067858140049,7
1.17999958992004,-0.324810206890106,2.82335162162781,2.05729842185974,-0.322554781015416,2.8243454135257,2.05663099193481,2193.347,2189.382,2181.789,2186.455,356.14501953125,45.0002212524414,1.4975106716156,-0.567783892154694,-0.250098168849945,0.209643959999084,-0.573468005230886,-0.252611098285035,0.211019488527468,7
1.19999957084656,-0.336432009935379,2.81823253631592,2.06158947944641,-0.33415831702598,2.81923408743796,2.06090075452266,2186.869,2188.271,2187.986,2186.857,356.150085449219,45.0000267028809,1.49290859699249,-0.581092357635498,-0.255954504013062,0.214554354548454,-0.586878411081534,-0.258518345628357,0.215954126480653,7
1.21999955177307,-0.348319530487061,2.81299638748169,2.06597828865051,-0.346029539863033,2.81400484603042,2.06526901804986,2180.305,2186.269,2194.451,2187.838,356.155609130859,44.9998435974121,1.48890852928162,-0.594375312328339,-0.261809170246124,0.21944360435009,-0.600235539292654,-0.264402124316213,0.220869159817467,7
1.23999953269958,-0.360472142696381,2.80764317512512,2.07046437263489,-0.358167313889191,2.80865818954825,2.06973536463502,2177.078,2184.38,2197.484,2188.673,356.167388916016,44.9997901916504,1.48423039913177,-0.607632875442505,-0.267659276723862,0.224308773875237,-0.613532399359977,-0.270259355050466,0.225762016236367,7
1.2599995136261,-0.372889131307602,2.80217337608337,2.07504725456238,-0.370570364740916,2.80319467934514,2.07429932534955,2178.448,2183.469,2195.585,2188.739,356.188140869141,44.9998626708984,1.47771012783051,-0.620847761631012,-0.273491024971008,0.229148477315903,-0.626762109159006,-0.276087006273972,0.230630163316402,7
1.27999949455261,-0.385568976402283,2.79658770561218,2.07972645759583,-0.383237281496107,2.79761493692842,2.07896038101529,2182.953,2183.67,2190.159,2187.962,356.216430664063,45.0000152587891,1.46893417835236,-0.633992969989777,-0.279286623001099,0.233962059020996,-0.639917894945015,-0.281882094170581,0.235471108517212,7
1.29999947547913,-0.398509860038757,2.79088711738586,2.08450150489807,-0.396166518841694,2.79191964300432,2.08371796300213,2187.595,2184.586,2184.33,2186.612,356.247894287109,45.0001373291016,1.45832693576813,-0.647043943405151,-0.28503292798996,0.238748654723167,-0.652993091353049,-0.287641682665141,0.240282399179031,7
1.31999945640564,-0.411709576845169,2.78507256507874,2.08937168121338,-0.409356399241234,2.78610953652308,2.08857145402562,2189.582,2185.413,2181.117,2185.271,356.277923583984,45.0001678466797,1.44686043262482,-0.659988164901733,-0.29072642326355,0.24350617825985,-0.665981141397922,-0.293362883423491,0.245061622522685,7
1.33999943733215,-0.425166130065918,2.77914500236511,2.09433627128601,-0.4228051151025,2.78018541372417,2.09352018894459,2187.903,2185.51,2181.715,2184.396,356.304229736328,45.0000991821289,1.43546080589294,-0.672826826572418,-0.296372890472412,0.248231559991837,-0.678875596474221,-0.299042855852467,0.249806405649593,7
1.35999941825867,-0.438877522945404,2.77310538291931,2.09939479827881,-0.436510730945077,2.77414812718144,2.09856345555872,2183.635,2184.659,2185.102,2184.153,356.327819824219,44.9999771118164,1.42454099655151,-0.685569286346436,-0.301981329917908,0.252921253442764,-0.691670116356304,-0.304678807099897,0.254514415541766,7
1.37999939918518,-0.452841997146606,2.76695418357849,2.10454630851746,-0.450471185567955,2.76799858484834,2.10370049540621,2179.191,2183.171,2188.762,2184.338,356.35205078125,44.9998664855957,1.41383564472198,-0.698223352432251,-0.307557225227356,0.257571876049042,-0.704358469198298,-0.310267992054608,0.259183359061807,8
1.39999938011169,-0.467057704925537,2.76069211959839,2.10978984832764,-0.464684294217121,2.76173774910309,2.10893050456134,2176.7,2181.678,2190.405,2184.479,356.380493164063,44.999828338623,1.40262758731842,-0.710787773132324,-0.313098341226578,0.262180805206299,-0.716934531534103,-0.315807713346417,0.263810982952913,8
1.41999936103821,-0.481522738933563,2.75432014465332,2.11512470245361,-0.479147750753155,2.75536663579382,2.11425263443212,2177.055,2180.679,2188.996,2184.227,356.414978027344,44.999870300293,1.39021825790405,-0.72325074672699,-0.318595439195633,0.266746431589127,-0.729392288277389,-0.321295321346138,0.268395073838871,8
1.43999934196472,-0.496234595775604,2.74783945083618,2.12055015563965,-0.49385912981882,2.74888631328381,2.11966599255786,2179.416,2180.317,2185.334,2183.48,356.454711914063,44.9999542236328,1.37629103660583,-0.735594272613525,-0.324036568403244,0.271267771720886,-0.741725832721596,-0.32672821416558,0.272933458224064,8
1.45999932289124,-0.511190593242645,2.74125123023987,2.12606501579285,-0.50881588900666,2.74229790149665,2.12516964340683,2181.969,2180.42,2181.298,2182.343,356.497039794922,45.0000190734863,1.36101448535919,-0.747801542282104,-0.329412370920181,0.275743514299393,-0.753929366539937,-0.332103837657545,0.277424002493464,8
1.47999930381775,-0.526387810707092,2.73455691337585,2.13166856765747,-0.524015371026587,2.73560257096139,2.13076260917383,2182.919,2180.535,2178.823,2181.135,356.539093017578,45.0000381469727,1.34491884708405,-0.75986260175705,-0.334719806909561,0.280171900987625,-0.765997199785394,-0.337419685415832,0.281864612912638,8
1.49999928474426,-0.541823327541351,2.72775769233704,2.13735961914063,-0.539454805873481,2.72880154185776,2.13644387057783,2181.607,2180.264,2178.668,2180.156,356.579345703125,44.9999961853027,1.32857084274292,-0.771776080131531,-0.339961439371109,0.284550309181213,-0.777923750890722,-0.342673298775231,0.286253235627744,8
1.51999926567078,-0.557494282722473,2.72085475921631,2.14313721656799,-0.555131312994778,2.72189608306135,2.14221236765955,2178.625,2179.445,2180.291,2179.521,356.618286132813,44.999927520752,1.31227147579193,-0.783545792102814,-0.345142513513565,0.288876056671143,-0.789703546668444,-0.347862266811531,0.290587856665534,8
1.53999924659729,-0.573397755622864,2.71384954452515,2.14900016784668,-0.571041903458067,2.71488751118875,2.1480670005791,2175.419,2178.226,2182.186,2179.144,356.657958984375,44.9998626708984,1.29593968391418,-0.795175015926361,-0.350266009569168,0.293146550655365,-0.801331222310856,-0.352984226341513,0.29486650193335,8
1.5599992275238,-0.589531004428864,2.70674300193787,2.15494728088379,-0.58718348211868,2.70777718964279,2.15400663041357,2173.441,2176.899,2182.799,2178.838,356.700622558594,44.9998359680176,1.27921259403229,-0.806661784648895,-0.355330139398575,0.297359615564346,-0.812801521390025,-0.358036861922953,0.299087237219129,8
1.57999920845032,-0.605890870094299,2.69953632354736,2.160977602005,-0.60355284978729,2.70056652765767,2.16003007995468,2173.158,2175.828,2181.598,2178.307,356.747406005859,44.9998626708984,1.26165497303009,-0.817997753620148,-0.360328555107117,0.301513701677322,-0.824109295857789,-0.363017905854621,0.3032481681914,8
1.59999918937683,-0.622474253177643,2.69223117828369,2.16708970069885,-0.620146705397499,2.69325697934418,2.16613613450633,2174.161,2175.168,2178.953,2177.435,356.797912597656,44.9999046325684,1.24303758144379,-0.829170644283295,-0.365253120660782,0.305607587099075,-0.835249506045754,-0.367925138176283,0.307347440399282,8
1.61999917030334,-0.639277696609497,2.6848292350769,2.17328238487244,-0.636961648173436,2.68585004273484,2.17232354268226,2175.33,2174.73,2176.027,2176.374,356.850524902344,44.999942779541,1.22345280647278,-0.840168714523315,-0.370097219944,0.309639871120453,-0.846217220665302,-0.372756386668699,0.311383239272491,8
1.63999915122986,-0.656297385692596,2.67733216285706,2.17955446243286,-0.653994179797347,2.67834725882912,2.17859101720363,2175.572,2174.32,2173.985,2175.249,356.903411865234,44.9999542236328,1.20316755771637,-0.850984275341034,-0.374858021736145,0.313608855009079,-0.857007616807581,-0.377509526853624,0.315353790121332,8
1.65999960899353,-0.67352968454361,2.66974139213562,2.18590474128723,-0.671241120288788,2.67075002839977,2.18493738793045,2174.436,2173.75,2173.341,2174.183,356.955627441406,44.9999351501465,1.18248748779297,-0.861614942550659,-0.379536598920822,0.31751275062561,-0.867616230659961,-0.382182592433722,0.319257450393039,7
1.67999958992004,-0.690970957279205,2.66205859184265,2.19233179092407,-0.688697960295291,2.6630603378043,2.19136099555263,2172.262,2172.933,2173.775,2173.248,357.007385253906,44.9998970031738,1.16162347793579,-0.872061431407928,-0.384135574102402,0.321349322795868,-0.87803795013636,-0.386773331548961,0.323092338989136,7
1.69999957084656,-0.708617389202118,2.6542854309082,2.19883418083191,-0.70636133053001,2.6552796712044,2.19786060027095,2169.705,2171.74,2174.629,2172.575,357.059783935547,44.9998550415039,1.1406261920929,-0.882324576377869,-0.388656765222549,0.325116634368896,-0.888268532581623,-0.391279875321273,0.326856894736354,7
1.71999955177307,-0.726465404033661,2.64642357826233,2.20541048049927,-0.724227364181504,2.64740973192002,2.20443477921164,2167.971,2170.529,2174.609,2171.901,357.114349365234,44.9998359680176,1.11927127838135,-0.892402410507202,-0.393098682165146,0.328812777996063,-0.898303588608568,-0.39570029023753,0.330549502468319,7
1.73999953269958,-0.744511187076569,2.6384744644165,2.21205925941467,-0.742292107734472,2.63945226146391,2.21108207759648,2167.33,2169.377,2173.423,2171.172,357.171844482422,44.9998512268066,1.09732913970947,-0.902288794517517,-0.397457003593445,0.332436352968216,-0.908138837209785,-0.400032690525597,0.334168586899252,7
1.7599995136261,-0.762750685214996,2.63043999671936,2.21877908706665,-0.760551523137338,2.6314090385868,2.21780100954033,2167.49,2168.478,2171.347,2170.215,357.231994628906,44.9998741149902,1.07461977005005,-0.911975145339966,-0.401725888252258,0.33598604798317,-0.917770105757633,-0.404275238154336,0.337712612623964,7
1.77999949455261,-0.78117972612381,2.62232208251953,2.22556829452515,-0.779001489969856,2.62328187832263,2.22459005884881,2167.821,2167.739,2169.018,2169.114,357.293884277344,44.9999046325684,1.05116868019104,-0.921453058719635,-0.405900716781616,0.339460670948029,-0.927193330004242,-0.408426142833602,0.341180084117859,7
1.79999947547913,-0.799794018268585,2.61412239074707,2.23242545127869,-0.797637807610691,2.61507263103369,2.23144767981586,2167.586,2167.045,2167.227,2167.939,357.356262207031,44.9999122619629,1.02713191509247,-0.930716574192047,-0.409979194402695,0.342858880758286,-0.936404554081513,-0.412483662014244,0.344569545736934,7
1.81999945640564,-0.818589329719543,2.60584306716919,2.2393491268158,-0.816456197405021,2.60678318145578,2.23837229802139,2166.43,2166.285,2166.361,2166.766,357.418518066406,44.9999046325684,1.00271534919739,-0.939763128757477,-0.413961499929428,0.346179097890854,-0.94539993050112,-0.416446100888108,0.347879581717779,7
1.83999943733215,-0.837561190128326,2.59748601913452,2.24633741378784,-0.835452304832127,2.59841544774347,2.24536231112887,2164.598,2165.28,2166.186,2165.769,357.480712890625,44.9998893737793,0.978094518184662,-0.948592185974121,-0.417849004268646,0.349419713020325,-0.954175720154505,-0.420311812388033,0.351108816177575,7
1.85999941825867,-0.856705248355865,2.5890531539917,2.25338888168335,-0.854621701672987,2.5899713805152,2.25241608968293,2162.637,2164.136,2166.143,2164.855,357.543640136719,44.999870300293,0.953264951705933,-0.957203507423401,-0.421642422676086,0.352579206228256,-0.962728292312883,-0.424079197187853,0.354255913114096,7
1.87999939918518,-0.876017153263092,2.58054637908936,2.26050209999084,-0.87395988817787,2.58145296189851,2.25953197790701,2161.079,2162.923,2165.677,2163.98,357.608093261719,44.9998626708984,0.928129136562347,-0.965595006942749,-0.425340443849564,0.355656117200851,-0.971054124627239,-0.427746703702396,0.35731957640571,6
1.89999938011169,-0.895492374897003,2.57196760177612,2.26767516136169,-0.893462295233925,2.57286220457518,2.26670829450093,2160.185,2161.751,2164.5,2163.062,357.674560546875,44.999870300293,0.902541399002075,-0.973762273788452,-0.428940176963806,0.35864931344986,-0.979149803128329,-0.431312828087486,0.360298549811376,6
1.91999936103821,-0.915126383304596,2.56331872940063,2.27490639686584,-0.913124286532783,2.56420115082646,2.27394333343854,2159.808,2160.721,2162.755,2162.009,357.742950439453,44.9998817443848,0.876393854618073,-0.981699407100677,-0.432437837123871,0.361557722091675,-0.98701202222668,-0.434776114239941,0.363191616970644,6
1.93999934196472,-0.934914410114288,2.55460214614868,2.28219389915466,-0.932941160738143,2.55547187157822,2.28123536476528,2159.51,2159.803,2160.887,2160.843,357.812622070313,44.9998970031738,0.849696278572083,-0.989400506019592,-0.435830056667328,0.364380151033401,-0.994637584712589,-0.438135153797573,0.365997601403661,6
1.95999932289124,-0.954851686954498,2.5458197593689,2.28953623771667,-0.952908153653365,2.54667646544613,2.28858263539585,2158.948,2158.879,2159.258,2159.671,357.882904052734,44.9999008178711,0.822555363178253,-0.996861219406128,-0.439115196466446,0.367115557193756,-1.00202340175613,-0.44138858613919,0.368715366511162,5
1.97999930381775,-0.974933207035065,2.53697395324707,2.29693150520325,-0.97302044038907,2.53781705778086,2.29598336991176,2157.804,2157.94,2158.208,2158.476,357.953308105469,44.9998931884766,0.795077204704285,-1.00407910346985,-0.442292958498001,0.36976283788681,-1.00916649290713,-0.444535098384592,0.371343815574477,5
1.99999928474426,-0.995154201984406,2.52806663513184,2.30437803268433,-0.993273137530728,2.52889579971324,2.30343577135901,2156.278,2156.888,2157.54,2157.363,358.02392578125,44.9998779296875,0.767370820045471,-1.01105320453644,-0.445363879203796,0.372320711612701,-1.01606398609522,-0.447573425394577,0.373881891755528,4
2.01999926567078,-1.01550984382629,2.51910018920898,2.3118736743927,-1.01366130530625,2.51991486719945,2.31093802204564,2154.58,2155.746,2157.05,2156.298,358.095062255859,44.999870300293,0.739462316036224,-1.01778280735016,-0.448328167200089,0.374788075685501,-1.02271311762976,-0.450502349770936,0.376328578096828,4
2.03999924659729,-1.03599512577057,2.51007652282715,2.31941699981689,-1.03417994975359,2.51087646006621,2.31848828433937,2153.13,2154.505,2156.3,2155.316,358.167297363281,44.999870300293,0.711318016052246,-1.02426624298096,-0.451185047626495,0.377163887023926,-1.02911123219991,-0.453320701856454,0.378682897521485,2
2.0599992275238,-1.05660510063171,2.50099778175354,2.3270058631897,-1.05482402488833,2.50178280105595,2.32608470146521,2152.065,2153.344,2155.142,2154.249,358.240936279297,44.999870300293,0.682828009128571,-1.0305004119873,-0.453932493925095,0.379447281360626,-1.03525578287461,-0.456027359734912,0.380943912833198,0
2.07999920845032,-1.07733488082886,2.49186635017395,2.33463859558105,-1.07558843487127,2.49263613487199,2.33372539830305,2151.343,2152.243,2153.614,2153.124,358.31591796875,44.9998779296875,0.653951585292816,-1.03648138046265,-0.45656806230545,0.381637334823608,-1.04114433110253,-0.458621249231085,0.383110726716258,0
2.09999918937683,-1.09817886352539,2.48268461227417,2.34231328964233,-1.09646803617603,2.48343872722372,2.34140848218533,2150.718,2151.157,2151.966,2151.983,358.391906738281,44.999885559082,0.624699413776398,-1.04220497608185,-0.459089428186417,0.38373327255249,-1.04677454671214,-0.461101343910743,0.385182481735551,0
2.11999917030334,-1.11913228034973,2.47345471382141,2.3500280380249,-1.11745763975664,2.47419286387179,2.34913204369456,2150.004,2150.162,2150.389,2150.748,358.468475341797,44.999885559082,0.595094442367554,-1.04766821861267,-0.461495250463486,0.385734260082245,-1.05214420791169,-0.463466665080649,0.387158360336552,0
2.13999915122986,-1.14018964767456,2.46417903900146,2.35778093338013,-1.13855201321515,2.46490084967329,2.35689415746101,2148.848,2149.093,2149.259,2149.564,358.545166015625,44.9998931884766,0.565239131450653,-1.05286908149719,-0.463785111904144,0.387639492750168,-1.05725120128918,-0.465716281788563,0.389037584845331,0
2.15999913215637,-1.16134572029114,2.45485973358154,2.3655698299408,-1.15974588296918,2.45556500762693,2.36469288296028,2147.45,2148.003,2148.369,2148.386,358.6220703125,44.999885559082,0.535183668136597,-1.05780673027039,-0.465959250926971,0.38944810628891,-1.06209352181238,-0.467849310823238,0.39081941746855,0
2.17999911308289,-1.18259537220001,2.44549965858459,2.37339305877686,-1.18103393641956,2.44618767791822,2.37252626531094,2145.93,2146.869,2147.605,2147.238,358.699371337891,44.9998817443848,0.504964351654053,-1.0624805688858,-0.468017905950546,0.391159325838089,-1.06666927282885,-0.469864916714423,0.392503160293463,0
2.1999990940094,-1.20393300056458,2.43610048294067,2.38124847412109,-1.20241082411789,2.43677121696462,2.38039233607211,2144.591,2145.602,2146.655,2146.213,358.777404785156,44.9998970031738,0.474587738513947,-1.06688940525055,-0.469960659742355,0.392772614955902,-1.07097666606591,-0.47176231173286,0.394088155287916,0
2.21999907493591,-1.22535359859467,2.42666482925415,2.38913416862488,-1.22387116193416,2.4273179964608,2.38828911404108,2143.453,2144.5,2145.5,2145.02,358.856323242188,44.9999008178711,0.443950474262238,-1.07103145122528,-0.471786022186279,0.394287139177322,-1.07501402163064,-0.473540755890287,0.39557378430035,0
2.23999905586243,-1.24685180187225,2.41719484329224,2.39704823493958,-1.24540953322433,2.41783040242373,2.39621460605093,2142.543,2143.312,2144.106,2143.918,358.936187744141,44.9999046325684,0.413092046976089,-1.07490396499634,-0.4734927713871,0.395702540874481,-1.07877976800991,-0.475199556939436,0.396959469059794,0
2.25999903678894,-1.26842188835144,2.40769338607788,2.40498852729797,-1.2670204909979,2.40831083423792,2.40416680776816,2141.686,2142.223,2142.65,2142.719,359.016723632813,44.9999046325684,0.38197460770607,-1.07850456237793,-0.475079089403152,0.397018134593964,-1.08227244207035,-0.476738070374034,0.398244671175875,0
2.27999901771545,-1.29005837440491,2.3981626033783,2.41295313835144,-1.28869856008557,2.39876170370059,2.41214370449023,2140.864,2141.108,2141.154,2141.551,359.09765625,44.9999122619629,0.350645124912262,-1.08183121681213,-0.476544231176376,0.398233473300934,-1.08549068905837,-0.478155699428801,0.399428892138809,0
2.29999899864197,-1.3117561340332,2.38860487937927,2.42094016075134,-1.31043823930675,2.38918543406683,2.42014327194327,2139.777,2140.044,2139.929,2140.324,359.178741455078,44.9999046325684,0.319126278162003,-1.08488261699677,-0.477887779474258,0.399348080158234,-1.08843326260013,-0.479451895079456,0.400511673319404,0
2.31999897956848,-1.33350920677185,2.3790225982666,2.42894744873047,-1.33223400363721,2.3795844590948,2.42816347707961,2138.436,2138.904,2138.961,2139.17,359.259918212891,44.9999160766602,0.287487983703613,-1.08765840530396,-0.479109942913055,0.400361478328705,-1.09109902470159,-0.480626156042707,0.401492595969063,0
2.339998960495,-1.35531234741211,2.36941838264465,2.43697285652161,-1.35408030637667,2.36996122209091,2.43620227887544,2137.078,2137.798,2138.018,2137.979,359.341278076172,44.9999198913574,0.255735844373703,-1.09015822410583,-0.480210989713669,0.401273190975189,-1.09348694574846,-0.48167802877626,0.40237128121978,0
2.35999894142151,-1.37716007232666,2.35979461669922,2.44501447677612,-1.37597158131636,2.36031817495501,2.44425762912837,2135.788,2136.604,2137.01,2136.878,359.423095703125,44.9999160766602,0.223906755447388,-1.09238171577454,-0.481190860271454,0.402082949876785,-1.09559610450623,-0.482607107478815,0.403147390084141,0
2.37999892234802,-1.39904654026031,2.35015368461609,2.45307016372681,-1.39790224490665,2.35065777722553,2.45232747325512,2134.641,2135.417,2135.864,2135.776,359.505432128906,44.9999198913574,0.191959828138351,-1.09432792663574,-0.482048749923706,0.402790397405624,-1.09742568812015,-0.483413034090068,0.403820623455326,0
2.39999890327454,-1.42096650600433,2.34049797058105,2.46113801002502,-1.4198666984246,2.34098249512471,2.46040975108905,2133.696,2134.305,2134.517,2134.606,359.588317871094,44.9999198913574,0.15985894203186,-1.09599542617798,-0.482783824205399,0.403395265340805,-1.09897499211526,-0.484095498290706,0.404390722107106,0
2.41999888420105,-1.44291400909424,2.33083009719849,2.46921586990356,-1.44185933014163,2.33129480060376,2.46850239767782,2132.76,2133.19,2133.167,2133.444,359.671539306641,44.9999237060547,0.127629697322845,-1.09738290309906,-0.48339518904686,0.403897315263748,-1.10024342039635,-0.484654237502415,0.404857466693846,0
2.43999886512756,-1.46488380432129,2.32115244865417,2.47730183601379,-1.46387451749101,2.32159717038804,2.47660334408098,2131.852,2132.114,2131.798,2132.249,359.754974365234,44.9999237060547,0.095291443169117,-1.09848952293396,-0.483882516622543,0.404296457767487,-1.101230485248,-0.485089036887871,0.405220677750502,0
2.45999932289124,-1.48687016963959,2.31146764755249,2.4853937625885,-1.48590715467949,2.3118918535656,2.48471071151563,2130.729,2130.996,2130.649,2131.105,359.838348388672,44.9999313354492,0.0628946498036385,-1.09931480884552,-0.484245657920837,0.404592394828796,-1.10193582078966,-0.485399735277693,0.405480220643714,0
2.47999930381775,-1.50886738300323,2.30177783966064,2.49348950386047,-1.5079505532809,2.30218179637,2.49282203883616,2129.629,2129.904,2129.488,2129.942,359.921722412109,44.999927520752,0.0304510854184628,-1.09985899925232,-0.4844850897789,0.404785007238388,-1.10235912242912,-0.48558619849983,0.405635983292432,0
2.49999928474426,-1.53086984157562,2.29208564758301,2.5015869140625,-1.52999959632737,2.29246925281169,2.50093544314772,2128.208,2128.78,2128.659,2128.818,0.00502833118662238,44.9999351501465,-0.00200907047837973,-1.10012233257294,-0.484600961208344,0.404874265193939,-1.10250024776888,-0.48564836382858,0.405687913298541,0
2.51999926567078,-1.55287194252014,2.28239393234253,2.50968408584595,-1.5520486395757,2.28275670916446,2.50904884753357,2127.018,2127.663,2127.61,2127.698,0.0885301977396011,44.9999351501465,359.965515136719,-1.10010528564453,-0.484593689441681,0.404860109090805,-1.10235914261519,-0.485586207391739,0.405635990720318,0
2.53999924659729,-1.57486808300018,2.27270460128784,2.5177788734436,-1.57409203878264,2.27304665170213,2.51716017507691,2125.999,2126.5,2126.401,2126.635,0.172292739152908,44.9999351501465,359.933013916016,-1.09980762004852,-0.484462916851044,0.404742479324341,-1.10193586115405,-0.485399753058098,0.405480235496632,0
2.5599992275238,-1.59685254096985,2.26302051544189,2.52586936950684,-1.59612415187244,2.26334156574373,2.52526734965855,2125.017,2125.446,2125.173,2125.47,0.25623282790184,44.9999351501465,359.900482177734,-1.09922885894775,-0.484208256006241,0.404521524906158,-1.10123056595126,-0.48508907243744,0.405220707446947,0
2.57999920845032,-1.61881995201111,2.25334405899048,2.53395342826843,-1.61813934110447,2.25364393469871,2.53336829675447,2124.142,2124.372,2123.846,2124.341,0.340244084596634,44.9999504089355,359.867919921875,-1.09836888313293,-0.483829468488693,0.40419727563858,-1.10024352795236,-0.484654284880544,0.404857506271317,0
2.59999918937683,-1.64076447486877,2.24367737770081,2.54202890396118,-1.64013197524081,2.24395623911206,2.54146094423347,2123.152,2123.278,2122.651,2123.243,0.42412605881691,44.9999504089355,359.835357666016,-1.09722769260406,-0.483326613903046,0.403769850730896,-1.09897512648267,-0.484095557479185,0.404390771550391,0
2.61999917030334,-1.66268086433411,2.23402333259583,2.55009365081787,-1.66209643171381,2.23428095570955,2.54954322315477,2122.061,2122.279,2121.568,2122.068,0.507788121700287,44.9999542236328,359.802825927734,-1.09580588340759,-0.482700020074844,0.403239369392395,-1.09742584924728,-0.483413105066132,0.403820682745407,0
2.63999915122986,-1.68456268310547,2.22438430786133,2.55814576148987,-1.68402709879372,2.2246205564429,2.5576130685656,2120.919,2121.152,2120.553,2121.037,0.591234087944031,44.9999580383301,359.770385742188,-1.09410440921783,-0.481950342655182,0.402606040239334,-1.09559629233107,-0.482607190215147,0.4031474591982,0
2.65999913215637,-1.70640528202057,2.21476268768311,2.56618309020996,-1.70591837775628,2.21497750753493,2.56566842029884,2119.873,2120.161,2119.462,2119.883,0.674519062042236,44.9999618530273,359.738006591797,-1.09212422370911,-0.481077998876572,0.401870131492615,-1.09348716019866,-0.481678123240988,0.402371360131192,0
2.67999911308289,-1.72820258140564,2.20516109466553,2.57420372962952,-1.72776468505031,2.20535426852477,2.57370722377061,2118.717,2119.031,2118.495,2118.887,0.757624089717865,44.9999656677246,359.705718994141,-1.08986616134644,-0.480083435773849,0.401031970977783,-1.09109926569445,-0.480626262199407,0.401492684647402,0
2.6999990940094,-1.74994921684265,2.19558167457581,2.58220553398132,-1.74956045446529,2.19575329131303,2.5817274307779,2117.745,2117.982,2117.366,2117.824,0.840633690357208,44.9999694824219,359.673492431641,-1.08733117580414,-0.478966861963272,0.400091856718063,-1.08843353004264,-0.479452012887153,0.400511771730441,0
2.71999907493591,-1.77163970470428,2.18602705001831,2.59018659591675,-1.77130013929896,2.18617701920698,2.58972700029617,2116.768,2116.968,2116.261,2116.745,0.92347913980484,44.9999732971191,359.641357421875,-1.08451986312866,-0.477728575468063,0.399050116539001,-1.08549098284716,-0.478155828841966,0.399429000244509,0
2.73999905586243,-1.79326832294464,2.17649936676025,2.59814476966858,-1.79297821452492,2.17662788596574,2.59770389927696,2115.853,2115.949,2115.113,2115.689,1.00610280036926,44.9999809265137,359.609313964844,-1.08143317699432,-0.476368814706802,0.397907167673111,-1.08227276209173,-0.476738211342583,0.398244788934404,0
2.75999903678894,-1.81482970714569,2.16700196266174,2.60607814788818,-1.81458917896022,2.16710831484547,2.6056561034455,2114.919,2114.999,2114.006,2114.582,1.08840203285217,44.9999885559082,359.577362060547,-1.07807207107544,-0.474888056516647,0.396663457155228,-1.07878011413985,-0.475199709408734,0.39695959642551,0
2.77999901771545,-1.83631825447083,2.15753626823425,2.61398458480835,-1.83612755743295,2.15762071764449,2.61358159809833,2114.056,2113.898,2112.85,2113.643,1.17030072212219,44.9999923706055,359.545593261719,-1.07443785667419,-0.473286956548691,0.395319432020187,-1.07501439373477,-0.473540919801146,0.39557392122381,0
2.79999899864197,-1.85772907733917,2.14810490608215,2.62186217308044,-1.85758790294984,2.14816749374857,2.62147837890091,2112.996,2112.992,2111.907,2112.537,1.251669049263,44.9999961853027,359.513916015625,-1.07053208351135,-0.471566170454025,0.393875598907471,-1.07097706399953,-0.471762487021539,0.394088301715875,0
2.81999897956848,-1.87905621528625,2.13871002197266,2.62970876693726,-1.87896479886385,2.13875102917599,2.6293444526852,2111.89,2111.966,2111.031,2111.574,1.33255934715271,45,359.482452392578,-1.06635665893555,-0.469726800918579,0.392332583665848,-1.06666969643693,-0.469865103312628,0.39250331616887,0
2.839998960495,-1.90029406547546,2.12935495376587,2.63752269744873,-1.90025286104175,2.12937369562282,2.63717783824734,2110.887,2111.064,2110.078,2110.508,1.41307258605957,45.0000038146973,359.451171875,-1.06191337108612,-0.467769682407379,0.390690952539444,-1.06209397092953,-0.467849508658122,0.390819582730552,0
2.85999894142151,-1.92143821716309,2.12004113197327,2.64530181884766,-1.92144674003175,2.12003784950804,2.64497656714518,2110.134,2110.039,2108.906,2109.577,1.49323225021362,45.0000038146973,359.420104980469,-1.05720376968384,-0.465695410966873,0.388951390981674,-1.05725167573969,-0.465716490782725,0.389037759429272,0
2.87999892234802,-1.94248294830322,2.11077094078064,2.6530442237854,-1.94254112323105,2.11074583101876,2.65273868449596,2109.137,2109.05,2107.989,2108.647,1.57285368442535,45.0000228881836,359.389221191406,-1.05222964286804,-0.463504374027252,0.387114524841309,-1.05214470750952,-0.463466885152137,0.387158544173973,0
2.89999890327454,-1.96342265605927,2.10154700279236,2.66074776649475,-1.96353073705346,2.10149996315535,2.66046224977387,2108.258,2108.137,2106.987,2107.657,1.65197014808655,45.0000228881836,359.358520507813,-1.04699289798737,-0.461197465658188,0.385181039571762,-1.04677507126091,-0.46110157497305,0.385182674754188,0
2.91999888420105,-1.98425269126892,2.09237146377563,2.66841077804565,-1.98441034909698,2.09230255077668,2.66814533760769,2107.479,2107.253,2105.916,2106.659,1.73052871227264,45.0000228881836,359.328033447266,-1.04149520397186,-0.458775609731674,0.383151680231094,-1.04114488039551,-0.458621491193153,0.383110928840046,0
2.93999886512756,-2.00496768951416,2.08324670791626,2.67603135108948,-2.00517477031141,2.08315587964527,2.6757860385784,2106.575,2106.334,2104.989,2105.729,1.80840039253235,45.0000343322754,359.297790527344,-1.03573882579803,-0.45623978972435,0.381027370691299,-1.03525635669475,-0.456027612501129,0.380944123982265,0
2.95999884605408,-2.02556228637695,2.07417488098145,2.68360757827759,-2.02581885716593,2.07406221547248,2.68338246001677,2105.692,2105.429,2104.069,2104.807,1.88557386398315,45.0000343322754,359.267791748047,-1.02972614765167,-0.453591018915176,0.378808885812759,-1.02911183031984,-0.453320965326656,0.37868311761216,0
2.97999882698059,-2.04603123664856,2.06515836715698,2.69113755226135,-2.04633751381668,2.06502380296368,2.690932726801,2104.83,2104.579,2103.156,2103.855,1.96203434467316,45.0000381469727,359.238098144531,-1.02345955371857,-0.450830608606339,0.376497149467468,-1.02271373981173,-0.450502623840404,0.376328807041635,0
2.9999988079071,-2.06637024879456,2.05619883537292,2.69861936569214,-2.06672569427439,2.05604286486342,2.69843498215431,2104.016,2103.737,2102.22,2102.923,2.03775978088379,45.0000495910645,359.208679199219,-1.01694166660309,-0.447959661483765,0.374092996120453,-1.01606463209117,-0.447573709954041,0.373882129463185,0
3.01999878883362,-2.08657360076904,2.0472993850708,2.70605134963989,-2.08697840457195,2.04712160100066,2.70588738844254,2103.036,2102.856,2101.466,2102.071,2.11269569396973,45.0000534057617,359.179595947266,-1.0101752281189,-0.444979250431061,0.371597409248352,-1.00916716245867,-0.444535393320228,0.371344061949904,0
3.03999876976013,-2.10663676261902,2.03846144676208,2.71343159675598,-2.107090704932,2.0382621873339,2.71328812797182,2102.372,2101.943,2100.451,2101.25,2.18694281578064,45.000057220459,359.15087890625,-1.00316298007965,-0.441890567541122,0.369011461734772,-1.00202409459452,-0.441388891332622,0.368715621455472,0
3.05999875068665,-2.1265549659729,2.02968788146973,2.72075819969177,-2.12705771193453,2.02946677499639,2.7206354037861,2101.549,2101.133,2099.606,2100.374,2.26034593582153,45.000057220459,359.122436523438,-0.995907604694366,-0.438694477081299,0.366336137056351,-0.99463830055877,-0.438135469125872,0.365997864814163,0
3.07999873161316,-2.14632320404053,2.02097988128662,2.72802972793579,-2.14687460068447,2.0207374893413,2.72792744046483,2100.849,2100.229,2098.678,2099.611,2.3328959941864,45.0000686645508,359.094329833984,-0.988411962985992,-0.435392469167709,0.363572508096695,-0.987012760791239,-0.434776439575623,0.363191888740847,0
3.09999871253967,-2.1659369468689,2.01234030723572,2.7352442741394,-2.1665366069793,2.0120764289869,2.73516248492051,2100.017,2099.561,2097.899,2098.652,2.40449213981628,45.0000610351563,359.066467285156,-0.980679035186768,-0.431985795497894,0.360721796751022,-0.979150564111526,-0.431313163298517,0.360298829830982,0
3.11999869346619,-2.18539094924927,2.00377082824707,2.74239993095398,-2.18603902947662,2.00348566486174,2.74233880719637,2099.292,2098.737,2097.051,2097.868,2.47515797615051,45.000072479248,359.039001464844,-0.972711861133575,-0.428476244211197,0.357785046100616,-0.971054907718995,-0.427747048652188,0.357319864560622,0
3.1399986743927,-2.2046811580658,1.9952734708786,2.74949526786804,-2.20537723186174,1.99496723924984,2.74945470126392,2098.587,2098.073,2096.214,2096.957,2.54483914375305,45.000072479248,359.011901855469,-0.964513719081879,-0.424865126609802,0.354763388633728,-0.962729097192786,-0.424079551735264,0.354256209286409,0
3.15999865531921,-2.22380304336548,1.98685038089752,2.75652837753296,-2.22454664501532,1.98652316483586,2.75650848582058,2097.808,2097.284,2095.476,2096.208,2.61347889900208,45.0000877380371,358.985290527344,-0.956088006496429,-0.421154022216797,0.35165810585022,-0.954176546491805,-0.420312176387369,0.351109120245584,0
3.17999863624573,-2.24275183677673,1.97850346565247,2.76349782943726,-2.24354276918089,1.9781554237503,2.76349850508733,2097.081,2096.47,2094.721,2095.51,2.68109226226807,45.0000877380371,358.959106445313,-0.947438418865204,-0.417344212532043,0.348470479249954,-0.945400777954732,-0.416446474189122,0.347879893555975,0
3.19999861717224,-2.26152324676514,1.97023463249207,2.77040195465088,-2.26236117613252,1.96986596661465,2.77042312960624,2096.429,2095.723,2093.927,2094.772,2.74767017364502,45.0000953674316,358.933349609375,-0.938568651676178,-0.413437187671661,0.345201849937439,-0.936405422300015,-0.412484044462136,0.344569865216004,0
3.21999859809875,-2.28011322021484,1.96204590797424,2.77723908424377,-2.28099751134235,1.96165671158661,2.77728075703817,2095.777,2095.004,2093.163,2094.039,2.81314516067505,45.0000953674316,358.908020019531,-0.929482161998749,-0.409434497356415,0.341853588819504,-0.927194218625877,-0.408426534269019,0.341180411104686,0
3.23999857902527,-2.29851651191711,1.95393919944763,2.78400754928589,-2.29944749614823,1.95352954340523,2.78406981296032,2095.124,2094.284,2092.431,2093.342,2.8774721622467,45.0001029968262,358.883056640625,-0.920182704925537,-0.40533784031868,0.338427037000656,-0.91777101441031,-0.404275638413371,0.337712946981629,0
3.25999903678894,-2.31673002243042,1.94591617584229,2.79070591926575,-2.31770736295599,1.94548612168549,2.790788911008,2094.621,2093.734,2091.595,2092.495,2.94061541557312,45.0001068115234,358.858520507813,-0.910674035549164,-0.401148974895477,0.334923624992371,-0.908139533435925,-0.400032997211321,0.334168843090152,0
3.27999901771545,-2.33474922180176,1.93797898292542,2.79733276367188,-2.33577212057838,1.93752864503183,2.79743621456997,2093.959,2093.07,2090.935,2091.815,3.00242853164673,45.000114440918,358.834503173828,-0.900959968566895,-0.396869838237762,0.331344872713089,-0.898304299276591,-0.395700603284863,0.33054976397341,0
3.29999899864197,-2.3525698184967,1.93012881278992,2.8038866519928,-2.35363816858513,1.929658699424,2.80401039879298,2093.258,2092.368,2090.347,2091.203,3.06291174888611,45.0001182556152,358.81103515625,-0.891045033931732,-0.392502397298813,0.327692300081253,-0.888269257389201,-0.391280194597042,0.326857161444388,0
3.31999897956848,-2.37018847465515,1.922367811203,2.81036591529846,-2.37130155345481,1.92187802637745,2.81051000889654,2092.615,2091.82,2089.738,2090.468,3.12211632728577,45.0001258850098,358.788055419922,-0.88093376159668,-0.388048559427261,0.323967546224594,-0.878038688773416,-0.386773656916578,0.323092610786015,0
3.339998960495,-2.38760113716125,1.91469764709473,2.81676936149597,-2.38875840836969,1.91418832921488,2.81693362200457,2092.011,2091.113,2089.121,2089.929,3.18005585670471,45.000129699707,358.765655517578,-0.870630383491516,-0.383510202169418,0.320172041654587,-0.867616982808668,-0.382182923753184,0.31925772716181,0
3.35999894142151,-2.40480422973633,1.90711975097656,2.82309556007385,-2.40600495538336,1.90659127211141,2.82327984794306,2091.518,2090.486,2088.438,2089.334,3.23672437667847,45.000129699707,358.743743896484,-0.86013925075531,-0.378888994455338,0.316307544708252,-0.857008637254154,-0.377509976357568,0.315354165615889,0
3.37999892234802,-2.42179346084595,1.89963603019714,2.82934308052063,-2.4230375075883,1.89908847913981,2.82954733003765,2091.01,2089.92,2087.797,2088.722,3.29203701019287,45.0001220703125,358.722351074219,-0.849464654922485,-0.374186754226685,0.312375634908676,-0.846218258248849,-0.372756843721433,0.311383621072953,0
3.39999890327454,-2.43856573104858,1.89224791526794,2.83551073074341,-2.43985247128348,1.8916815333156,2.83573474591124,2090.654,2089.431,2087.055,2088.05,3.34593391418457,45.0001220703125,358.701446533203,-0.8386110663414,-0.369405567646027,0.308378040790558,-0.835250560311497,-0.367925602577479,0.307347828338306,0
3.41999888420105,-2.45511746406555,1.88495683670044,2.84159708023071,-2.45644634814194,1.88437197564231,2.84184080828162,2090.14,2088.907,2086.491,2087.465,3.39825081825256,45.0001258850098,358.681121826172,-0.827583014965057,-0.364547550678253,0.304316461086273,-0.82411036634061,-0.363018377399395,0.303248562097835,0
3.43999886512756,-2.47144484519958,1.87776470184326,2.84760093688965,-2.4728157373784,1.87716130415661,2.84786426575907,2089.602,2088.412,2085.989,2086.887,3.44896221160889,45.0001220703125,358.661437988281,-0.816385686397552,-0.359615117311478,0.300192683935165,-0.812802607614472,-0.35803734040187,0.299087636918023,0
3.45999884605408,-2.48754525184631,1.87067270278931,2.85352110862732,-2.48895733791686,1.87005097297352,2.85380390364396,2089.168,2087.899,2085.429,2086.352,3.49808430671692,45.0001258850098,358.642395019531,-0.805024266242981,-0.354610592126846,0.296008557081223,-0.80133232379114,-0.352984711540586,0.294866907245947,0
3.47999882698059,-2.50341558456421,1.86368179321289,2.85935640335083,-2.50486795055817,1.86304239133157,2.85965854472437,2088.597,2087.341,2085.021,2085.921,3.54556179046631,45.000129699707,358.623992919922,-0.793504118919373,-0.349536180496216,0.291766047477722,-0.789704662908441,-0.347862758512218,0.290588267409274,0
3.4999988079071,-2.51905202865601,1.85679411888123,2.86510562896729,-2.52054448014763,1.85613692263799,2.86542705007372,2088.028,2086.872,2084.644,2085.444,3.5914671421051,45.000129699707,358.606201171875,-0.781830668449402,-0.344394117593765,0.287467002868652,-0.777924881383972,-0.342673796754437,0.286253651616266,0
3.51999878883362,-2.53445243835449,1.85001015663147,2.87076783180237,-2.5359839377426,1.84933588351389,2.87110831984834,2087.808,2086.411,2083.997,2084.955,3.63588571548462,45.0001258850098,358.589050292969,-0.770009100437164,-0.339186877012253,0.283113449811935,-0.765998344015102,-0.337420189445909,0.281865033955776,0
3.53999876976013,-2.54961323738098,1.84333193302155,2.87634205818176,-2.55118344278008,1.84264054283946,2.87670129408513,2087.354,2086.023,2083.578,2084.474,3.67862677574158,45.000129699707,358.572479248047,-0.758044242858887,-0.333916336297989,0.278707236051559,-0.75393052397897,-0.332104347506295,0.277424428397248,0
3.55999875068665,-2.5645318031311,1.83676028251648,2.88182711601257,-2.5661402252443,1.83605212079912,2.88220495349913,2087.197,2085.623,2082.946,2083.997,3.71970653533936,45.0001258850098,358.556579589844,-0.745941579341888,-0.328585118055344,0.274250537157059,-0.741727002832485,-0.326728729596248,0.272933888790721,0
3.57999873161316,-2.57920598983765,1.83029639720917,2.88722205162048,-2.58085162783432,1.8295717879267,2.88761832028115,2086.875,2085.282,2082.49,2083.524,3.75891518592834,45.000129699707,358.541381835938,-0.733706533908844,-0.323195517063141,0.269745290279388,-0.729393470512334,-0.321295842117419,0.268395508866826,0
3.59999871253967,-2.59363317489624,1.82394134998322,2.89252591133118,-2.59531510813163,1.82320066415065,2.89294045889538,2086.445,2084.858,2082.176,2083.18,3.79619479179382,45.0001258850098,358.526947021484,-0.721345067024231,-0.317750334739685,0.26519364118576,-0.716935725334964,-0.315808239212453,0.263811422236787,0
3.61999869346619,-2.60781049728394,1.81769633293152,2.89773797988892,-2.60952824076772,1.81693981783922,2.898170476877,2086.02,2084.484,2081.893,2082.83,3.83159565925598,45.0001373291016,358.513214111328,-0.70886355638504,-0.312252253293991,0.260597765445709,-0.704359673996598,-0.310268522764986,0.259183802392419,0
3.6399986743927,-2.62173581123352,1.81156229972839,2.90285706520081,-2.6234887195917,1.8107902648456,2.90330752562979,2085.733,2084.165,2081.525,2082.449,3.86518239974976,45.000129699707,358.500183105469,-0.69626796245575,-0.306704014539719,0.255959898233414,-0.691671331573231,-0.304679342399652,0.254514862706128,0
3.65999865531921,-2.63540697097778,1.80554008483887,2.90788269042969,-2.63719435983788,1.80475296755316,2.90835080122374,2085.484,2083.87,2081.152,2082.093,3.89691710472107,45.0001373291016,358.487884521484,-0.683564245700836,-0.301108211278915,0.251282155513763,-0.678876821520628,-0.299043395482081,0.249806856430917,0
3.67999863624573,-2.64882230758667,1.79963064193726,2.91281414031982,-2.65064310029336,1.79882883392055,2.91329954519265,2085.261,2083.601,2080.796,2081.75,3.92674803733826,45.000129699707,358.476348876953,-0.670758366584778,-0.295467436313629,0.246566936373711,-0.665982375674327,-0.293363427118895,0.245062076700379,0
