t,x_s1,x_s2,x_s3,x_s_d1,x_s_d2,x_s_d3,propellers_rpms1,propellers_rpms2,propellers_rpms3,propellers_rpms4,rollRad,pitchRad,yawRad,v_s1,v_s2,v_s3,v_s_d1,v_s_d2,v_s_d3,insideCount
1.85999941825867,0.000409360975027084,2.94001078605652,2.07054853439331,0,2.94000005722046,2.07036610720774,2143.889,2147.36,2144.706,2141.256,359.986785888672,45.0000648498535,0.00564661668613553,-0.000791720231063664,6.9535592047032E-05,0.117245398461819,0,0,0.11776138405218,7
1.87999939918518,0.000392604619264603,2.94001173973083,2.07292199134827,0,2.94000005722046,2.07273578451874,2139.73,2145.545,2149.083,2143.28,359.982696533203,45.0000648498535,0.00560591416433454,-0.000837726169265807,5.10856698383577E-05,0.11867693811655,0,0,0.119208175343944,7
1.89999938011169,0.000374734401702881,2.94001221656799,2.07532429695129,0,2.94000005722046,2.07513449439386,2138.771,2143.548,2150.266,2145.492,359.982727050781,45.0000610351563,0.00653239898383617,-0.000893617863766849,2.25538824452087E-05,0.120118372142315,0,0,0.120664674676101,7
1.91999936103821,0.000355701893568039,2.94001221656799,2.07775568962097,0,2.94000005722046,2.0775624328865,2141.267,2142.462,2147.997,2146.8,359.987823486328,45.000057220459,0.00662859715521336,-0.000951656431425363,-3.62615719495807E-06,0.121569886803627,0,0,0.122131071636688,7
1.93999934196472,0.000335749238729477,2.94001197814941,2.08021640777588,0,2.94000005722046,2.08001979986042,2145.485,2142.825,2144.008,2146.666,-0.00413108989596367,45.000057220459,0.00487172417342663,-0.000997551367618144,-1.71984702319605E-05,0.123031742870808,0,0,0.123607557672455,7
1.95999932289124,0.000315356999635696,2.94001173973083,2.08270645141602,0,2.94000005722046,2.08250679902687,2148.97,2144.303,2140.756,2145.422,0.00327071454375982,45.0000457763672,0.00147442636080086,-0.00101950741373003,-1.53929395310115E-05,0.124504141509533,0,0,0.125094326088868,7
1.97999930381775,0.000295057892799377,2.94001173973083,2.08522629737854,0,2.94000005722046,2.08502363798182,2149.952,2146.031,2140.011,2143.935,0.00705692684277892,45.0000457763672,-0.00240093329921365,-0.00101511843968183,-3.81647078029346E-06,0.125987321138382,0,0,0.126591572050107,7
1.99999928474426,0.000275216996669769,2.94001197814941,2.08777594566345,0,2.94000005722046,2.08757052824309,2148.239,2147.104,2141.966,2143.104,0.00646744528785348,45.0000419616699,-0.00538048334419727,-0.000992040731944144,7.55740256863646E-06,0.127481490373611,0,0,0.128099492579071,7
2.01999926567078,0.000255953520536423,2.94001221656799,2.09035563468933,0,2.94000005722046,2.09014768528756,2145.13,2147.098,2145.324,2143.359,0.00311679928563535,45.0000381469727,359.993347167969,-0.000963146158028394,1.01410369097721E-05,0.128986895084381,0,0,0.12961828655737,7
2.03999924659729,0.000237166881561279,2.94001221656799,2.09296560287476,0,2.94000005722046,2.09275532858829,2142.534,2146.227,2148.172,2144.484,-0.000148193721543066,45.0000343322754,359.993682861328,-0.000939311401452869,1.46746333484771E-06,0.130503714084625,0,0,0.131148154725334,7
2.0599992275238,0.00021868571639061,2.94001197814941,2.09560632705688,0,2.94000005722046,2.09539368165177,2141.895,2145.11,2149.068,2145.859,-0.00093197962269187,45.0000343322754,-0.00525477295741439,-0.000924231717363,-1.43868937811931E-05,0.132032230496407,0,0,0.132689299682004,7
2.07999920845032,0.000200409442186356,2.94001150131226,2.09827780723572,0,2.94000005722046,2.09806297205503,2143.416,2144.418,2147.809,2146.811,0.00144139851909131,45.0000305175781,-0.00450394628569484,-0.000913676980417222,-2.94790606858442E-05,0.133572578430176,0,0,0.13424192588514,7
2.09999918937683,0.000182423740625381,2.94001078605652,2.10098028182983,0,2.94000005722046,2.10076343148285,2146.069,2144.539,2145.422,2146.957,0.00574818020686507,45.0000228881836,-0.00477525824680924,-0.000899143517017365,-3.70020497939549E-05,0.135125011205673,0,0,0.135806239651216,7
2.11999917030334,0.000164959579706192,2.94001007080078,2.10371398925781,0,2.94000005722046,2.10349529576492,2148.318,2145.395,2143.445,2146.371,0.00976996496319771,45.0000228881836,359.993927001953,-0.000873458106070757,-3.46681408700533E-05,0.136689677834511,0,0,0.137382449155421,7
2.13999915122986,0.000148262828588486,2.94000959396362,2.10647940635681,0,2.94000005722046,2.106258804913,2149.07,2146.471,2142.969,2145.57,0.0116467075422406,45.0000228881836,359.9921875,-0.000834768521599472,-2.56972452916671E-05,0.138266801834106,0,0,0.138970764431659,7
2.15999913215637,0.000132519751787186,2.94000935554504,2.10927653312683,0,2.94000005722046,2.10905420315814,2148.155,2147.232,2144.165,2145.086,0.0108381398022175,45.0000228881836,359.990875244141,-0.000787299475632608,-1.63897711900063E-05,0.139856681227684,0,0,0.140571397372553,7
2.17999911308289,0.000117745250463486,2.94000911712646,2.11210560798645,0,2.94000005722046,2.11188173898781,2146.322,2147.401,2146.281,2145.201,0.00827336870133877,45.0000228881836,359.990447998047,-0.000738548114895821,-1.2263319149497E-05,0.141459360718727,0,0,0.142184561729437,7
2.1999990940094,0.000103842467069626,2.94000887870789,2.11496710777283,0,2.94000005722046,2.11474166518309,2144.742,2147.04,2148.15,2145.852,0.00569106778129935,45.0000228881836,359.990966796875,-0.000695022637955844,-1.54261470015626E-05,0.143075108528137,0,0,0.143810473112362,7
2.21999907493591,9.06623899936676E-05,2.94000840187073,2.11786127090454,0,2.94000005722046,2.11763423885584,2144.356,2146.456,2148.828,2146.729,0.00460895104333758,45.0000228881836,359.992004394531,-0.000659064331557602,-2.35975967370905E-05,0.144704192876816,0,0,0.145449348990096,7
2.23999905586243,7.8100711107254E-05,2.94000768661499,2.12078809738159,0,2.94000005722046,2.12055972148589,2145.284,2146.092,2148.197,2147.389,0.00549486745148897,45.0000228881836,359.992919921875,-0.000628239067737013,-3.18963793688454E-05,0.146346777677536,0,0,0.147101408690121,7
2.25999903678894,6.61499798297882E-05,2.94000697135925,2.12374806404114,0,2.94000005722046,2.1235183789582,2146.961,2146.172,2146.821,2147.613,0.00766282714903355,45.0000152587891,359.993255615234,-0.000597482488956302,-3.57733479177114E-05,0.148002982139587,0,0,0.148766873398633,7
2.27999901771545,5.49033284187317E-05,2.94000625610352,2.12674140930176,0,2.94000005722046,2.12651048160002,2148.478,2146.651,2145.611,2147.44,0.00976920407265425,45.0000152587891,359.993011474609,-0.000562306959182024,-3.34794458467513E-05,0.149673148989677,0,0,0.150445966160547,7
2.29999899864197,4.44762408733368E-05,2.94000577926636,2.12976861000061,0,2.94000005722046,2.12953630421811,2149.07,2147.34,2145.331,2147.061,0.0106135662645102,45.0000152587891,359.992401123047,-0.000521361245773733,-2.67299237748375E-05,0.151357442140579,0,0,0.152138911879491,7
2.31999897956848,3.49394977092743E-05,2.9400053024292,2.1328296661377,0,2.94000005722046,2.13259612613586,2148.63,2147.891,2146.086,2146.825,0.00981220882385969,45.0000152587891,359.991943359375,-0.000476897519547492,-1.93960222532041E-05,0.153056100010872,0,0,0.153845937317809,7
2.339998960495,2.62781977653503E-05,2.94000506401062,2.13592505455017,0,2.94000005722046,2.1356902312305,2147.553,2148.158,2147.482,2146.877,0.00789111945778131,45.0000152587891,359.991912841797,-0.000433226785389706,-1.50873629536363E-05,0.154769241809845,0,0,0.15556727109656,7
2.35999894142151,1.83917582035065E-05,2.94000482559204,2.13905501365662,0,2.94000005722046,2.13881890797026,2146.659,2148.045,2148.7,2147.314,0.00593841634690762,45.0000152587891,359.992431640625,-0.000394195056287572,-1.56005298777018E-05,0.156497165560722,0,0,0.157303143695519,7
2.37999939918518,1.11646950244904E-05,2.94000434875488,2.14221978187561,0,2.94000005722046,2.14198252529433,2146.434,2147.813,2149.254,2147.875,0.00488438177853823,45.0000152587891,359.993286132813,-0.000361224665539339,-1.96001074073138E-05,0.158239990472794,0,0,0.159053829369765,7
2.39999938011169,4.50760126113892E-06,2.94000387191772,2.14541983604431,0,2.94000005722046,2.14518123012086,2147.026,2147.674,2148.995,2148.348,0.00507172755897045,45.0000152587891,359.994079589844,-0.000332882918883115,-2.41191555687692E-05,0.159997940063477,0,0,0.160819478843889,7
2.41999936103821,-1.61305069923401E-06,2.94000339508057,2.14865517616272,0,2.94000005722046,2.14841539992225,2148.15,2147.733,2148.209,2148.626,0.0061257965862751,45.0000152587891,-0.005386873614043,-0.00030604939092882,-2.62018547800835E-05,0.161771327257156,0,0,0.162600369735489,7
2.43999934196472,-7.17118382453918E-06,2.94000291824341,2.15192627906799,0,2.94000005722046,2.1516853419026,2149.186,2148.059,2147.517,2148.644,0.00720573356375098,45.0000152587891,-0.00524510117247701,-0.00027791564934887,-2.44169605139177E-05,0.163560181856155,0,0,0.164396739959246,7
2.45999932289124,-1.21183693408966E-05,2.94000244140625,2.15523362159729,0,2.94000005722046,2.1549913680429,2149.667,2148.532,2147.385,2148.52,0.0075512919574976,45.0000152587891,-0.00535309920087457,-0.000247454707277939,-1.96666951524094E-05,0.165364935994148,0,0,0.166208829288556,7
2.47999930381775,-1.64397060871124E-05,2.94000220298767,2.15857744216919,0,2.94000005722046,2.15833379513818,2149.485,2148.977,2147.919,2148.427,0.00689250370487571,45.0000152587891,-0.00545602338388562,-0.000215911350096576,-1.4325897609524E-05,0.167185738682747,0,0,0.168036879355531,7
2.49999928474426,-2.0153820514679E-05,2.94000196456909,2.16195797920227,0,2.94000005722046,2.1617129448347,2148.943,2149.212,2148.818,2148.549,0.005544095300138,45.0000152587891,-0.00532417185604572,-0.000185734665137716,-1.08762196759926E-05,0.169022798538208,0,0,0.169881133650999,7
2.51999926567078,-2.33389437198639E-05,2.94000172615051,2.16537547111511,0,2.94000005722046,2.16512914366711,2148.426,2149.294,2149.697,2148.829,0.00414075143635273,45.0000152587891,-0.00490903435274959,-0.000159185452503152,-1.03715510704205E-05,0.170876324176788,0,0,0.171741837524501,7
2.53999924659729,-2.60770320892334E-05,2.94000148773193,2.16883039474487,0,2.94000005722046,2.16858272309564,2148.348,2149.253,2150.143,2149.238,0.00329703697934747,45.0000152587891,-0.00429519126191735,-0.000137078895932063,-1.22398041639826E-05,0.172746494412422,0,0,0.173619238184297,7
2.5599992275238,-2.84500420093536E-05,2.94000124931335,2.17232298851013,0,2.94000005722046,2.17207401954327,2148.799,2149.233,2150.065,2149.632,0.00324315601028502,45.0000152587891,-0.00367485568858683,-0.000118512500193901,-1.47133205246064E-05,0.174633637070656,0,0,0.17551358469736,7
2.57999920845032,-3.04765999317169E-05,2.94000101089478,2.17585372924805,0,2.94000005722046,2.17560337443289,2149.565,2149.344,2149.678,2149.899,0.00374673772603273,45.0000152587891,-0.00322515098378062,-0.000101591700513382,-1.58202983584488E-05,0.17653800547123,0,0,0.177425127989379,7
2.59999918937683,-3.21753323078156E-05,2.9400007724762,2.1794228553772,0,2.94000005722046,2.17917113422451,2150.294,2149.613,2149.333,2150.015,0.00430026091635227,45.0000152587891,-0.00301255518570542,-8.45513350213878E-05,-1.45360800161143E-05,0.178459793329239,0,0,0.179354120844758,7
2.61999917030334,-3.3501535654068E-05,2.94000053405762,2.18303084373474,0,2.94000005722046,2.18277765045238,2150.692,2149.974,2149.324,2150.043,0.0044302218593657,45.0000152587891,-0.0029717804864049,-6.66886771796271E-05,-1.14123513412778E-05,0.180399298667908,0,0,0.181300817906619,7
2.63999915122986,-3.4477561712265E-05,2.94000029563904,2.18667793273926,0,2.94000005722046,2.18642327976222,2150.684,2150.34,2149.727,2150.07,0.00395777262747288,45.0000152587891,-0.0029607240576297,-4.85881901113316E-05,-7.84837720857468E-06,0.182356745004654,0,0,0.183265475676795,7
2.65999913215637,-3.51108610630035E-05,2.94000029563904,2.19036459922791,0,2.94000005722046,2.19010838394836,2150.431,2150.607,2150.38,2150.203,0.00306421192362905,45.0000152587891,-0.00283435825258493,-3.1690884497948E-05,-5.43870464753127E-06,0.184332326054573,0,0,0.185248352515839,7
2.67999911308289,-3.54573130607605E-05,2.94000029563904,2.19409108161926,0,2.94000005722046,2.19383332999092,2150.24,2150.726,2150.976,2150.49,0.00214808317832649,45.0000152587891,-0.00253512244671583,-1.72609725268558E-05,-4.88347450300353E-06,0.186326310038567,0,0,0.187249708643016,7
2.6999990940094,-3.55727970600128E-05,2.94000029563904,2.19785785675049,0,2.94000005722046,2.19759849009298,2150.271,2150.812,2151.356,2150.815,0.00155586830805987,45.0000152587891,-0.00213488866575062,-5.80691084905993E-06,-5.84042345508351E-06,0.188338994979858,0,0,0.189269806136309,7
2.71999907493591,-3.55131924152374E-05,2.94000005722046,2.20166516304016,0,2.94000005722046,2.20140424171778,2150.619,2150.903,2151.424,2151.14,0.00144097383599728,45.0000152587891,-0.0017358890036121,3.23198310070438E-06,-7.26712869436597E-06,0.190370604395866,0,0,0.191308908932414,7
2.73999905586243,-3.52822244167328E-05,2.93999981880188,2.20551347732544,0,2.94000005722046,2.20525096762587,2151.139,2151.097,2151.326,2151.369,0.00167995865922421,45.0000152587891,-0.00143806997220963,1.1019184057659E-05,-8.00270572653972E-06,0.192421421408653,0,0,0.193367282826744,7
2.75999903678894,-3.49171459674835E-05,2.9399995803833,2.20940327644348,0,2.94000005722046,2.20913905591229,2151.699,2151.337,2151.195,2151.557,0.00200120615772903,45.0000152587891,-0.00125629093963653,1.8677144907997E-05,-7.39113420422655E-06,0.19449171423912,0,0,0.195445195473428,7
2.77999901771545,-3.4380704164505E-05,2.9399995803833,2.21333479881287,0,2.94000005722046,2.21306890004373,2152.068,2151.629,2151.26,2151.699,0.00210096640512347,45.0000152587891,-0.00116856012027711,2.66490569629241E-05,-5.58579404241755E-06,0.196581766009331,0,0,0.197542916385309,7
2.79999899864197,-3.36878001689911E-05,2.9399995803833,2.21730852127075,0,2.94000005722046,2.21704089889574,2152.221,2151.902,2151.547,2151.865,0.00184496340807527,45.0000152587891,-0.00111114233732224,3.46513152180705E-05,-3.31633168570988E-06,0.198691800236702,0,0,0.199660716933946,7
2.81999897956848,-3.28496098518372E-05,2.9399995803833,2.2213249206543,0,2.94000005722046,2.22105545678987,2152.164,2152.181,2152.049,2152.032,0.00129227829165757,45.0000152587891,-0.00103767635300756,4.18859999626875E-05,-1.50471294091403E-06,0.200822070240974,0,0,0.201798870349614,7
2.839998960495,-3.18996608257294E-05,2.9399995803833,2.22538447380066,0,2.94000005722046,2.22511298353087,2152.108,2152.405,2152.556,2152.259,0.000688944535795599,45.0000152587891,-0.00090033863671124,4.76317909487989E-05,-8.98802852589142E-07,0.202972903847694,0,0,0.203957651721302,7
2.85999894142151,-3.08677554130554E-05,2.9399995803833,2.22948741912842,0,2.94000005722046,2.22921389444384,2152.202,2152.589,2152.918,2152.531,0.00028264508000575,45.0000152587891,-0.000700911390595138,5.15159372298513E-05,-1.41313068979798E-06,0.20514452457428,0,0,0.206137337996717,7
2.87999892234802,-2.97911465167999E-05,2.9399995803833,2.23363423347473,0,2.94000005722046,2.23335861041141,2152.505,2152.752,2153.077,2152.83,0.000191166793229058,45.0000152587891,-0.000476886256365106,5.39164466317743E-05,-2.4744215352257E-06,0.207337141036987,0,0,0.208338207982278,7
2.89999890327454,-2.86772847175598E-05,2.9399995803833,2.23782515525818,0,2.94000005722046,2.23754755791094,2152.953,2152.944,2153.098,2153.106,0.00035118730738759,45.0000152587891,-0.000286511756712571,5.5578064348083E-05,-3.18695265377755E-06,0.20955103635788,0,0,0.210560542343122,7
2.91999888420105,-2.75373458862305E-05,2.9399995803833,2.2420608997345,0,2.94000005722046,2.24178116905167,2153.417,2153.182,2153.109,2153.344,0.000575001409742981,45.0000152587891,-0.000165633085998707,5.71570635656826E-05,-3.03615001939761E-06,0.211786493659019,0,0,0.212804623603101,7
2.93999886512756,-2.6356428861618E-05,2.9399995803833,2.24634170532227,0,2.94000005722046,2.24605988161187,2153.763,2153.459,2153.244,2153.548,0.000662889215163887,45.0000152587891,-0.000114021786430385,5.89550654694904E-05,-2.03365220841079E-06,0.214043870568275,0,0,0.215070736144782,7
2.95999884605408,-2.51345336437225E-05,2.9399995803833,2.25066828727722,0,2.94000005722046,2.25038413907609,2153.95,2153.756,2153.545,2153.74,0.000522788497619331,45.0000152587891,-0.000100038960226811,6.08656519034412E-05,-7.11626626070938E-07,0.216323435306549,0,0,0.217359166209448,7
2.97999882698059,-2.38902866840363E-05,2.9399995803833,2.25504088401794,0,2.94000005722046,2.25475439067225,2154.029,2154.042,2153.959,2153.946,0.000204546697204933,45.0000152587891,-7.90608755778521E-05,6.2380095187109E-05,3.17719468512223E-07,0.218625500798225,0,0,0.219670201897097,7
2.9999988079071,-2.26274132728577E-05,2.9399995803833,2.25945997238159,0,2.94000005722046,2.25917109140888,2154.104,2154.291,2154.383,2154.196,-0.000144272635225207,45.0000152587891,-1.68881906574825E-05,6.30900685791858E-05,5.89878766277252E-07,0.2209502607584,0,0,0.222004133166442,7
3.01999878883362,-2.1371990442276E-05,2.9399995803833,2.26392602920532,0,2.94000005722046,2.26363470211223,2154.276,2154.518,2154.717,2154.475,-0.000369933899492025,45.0000152587891,8.59762003528886E-05,6.27942135906778E-05,1.69765314694814E-07,0.22329805791378,0,0,0.224361251834913,7
3.03999876976013,-2.01389193534851E-05,2.9399995803833,2.26843929290771,0,2.94000005722046,2.26814568946351,2154.578,2154.73,2154.927,2154.775,-0.00040138783515431,45.0000152587891,0.000207129109185189,6.17053301539272E-05,-5.34453590717021E-07,0.225669145584106,0,0,0.226741851578653,7
3.05999875068665,-1.89393758773804E-05,2.9399995803833,2.27300047874451,0,2.94000005722046,2.27270452603603,2154.971,2154.959,2155.053,2155.066,-0.000279200437944382,45.0000152587891,0.000309033406665549,6.019610009389E-05,-1.00497538824129E-06,0.22806379199028,0,0,0.229146227932523,7
3.07999873161316,-1.77584588527679E-05,2.9399995803833,2.27761006355286,0,2.94000005722046,2.27731169033237,2155.368,2155.217,2155.183,2155.335,-0.000120875956781674,45.0000152587891,0.000365262560080737,5.87932299822569E-05,-9.51702133988874E-07,0.230482429265976,0,0,0.231574678290098,7
3.09999871253967,-1.66110694408417E-05,2.9399995803833,2.28226852416992,0,2.94000005722046,2.28196766682156,2155.701,2155.514,2155.383,2155.57,-4.38244715041947E-05,45.0000152587891,0.000370969879440963,5.76269849261735E-05,-3.89305682801933E-07,0.232925340533257,0,0,0.234027501903668,8
3.11999869346619,-1.54748558998108E-05,2.9399995803833,2.28697633743286,0,2.94000005722046,2.28667294597628,2155.933,2155.818,2155.69,2155.805,-0.000107269392174203,45.0000152587891,0.000353176612406969,5.65967711736448E-05,3.56702230419614E-07,0.235392779111862,0,0,0.236504999884241,8
3.1399986743927,-1.43647193908691E-05,2.9399995803833,2.29173398017883,0,2.94000005722046,2.29142802430999,2156.102,2156.116,2156.066,2156.053,-0.000277476501651108,45.0000152587891,0.000340686994604766,5.5453918321291E-05,9.45886370118387E-07,0.237885057926178,0,0,0.239007475201537,8
3.15999865531921,-1.32843852043152E-05,2.9399995803833,2.296541929245,0,2.94000005722046,2.29623340441413,2156.276,2156.391,2156.445,2156.329,-0.000463137228507549,45.0000152587891,0.00035508131259121,5.39496686542407E-05,1.12947623165383E-06,0.240402474999428,0,0,0.241535232683995,8
3.17999911308289,-1.22487545013428E-05,2.9399995803833,2.30140089988708,0,2.94000005722046,2.3010897113858,2156.51,2156.652,2156.77,2156.628,-0.000574403733480722,45.0000152587891,0.000395948067307472,5.1918083045166E-05,8.42214888052695E-07,0.242945358157158,0,0,0.244088640202843,8
3.1999990940094,-1.12578272819519E-05,2.9399995803833,2.30631113052368,0,2.94000005722046,2.30599722853278,2156.816,2156.909,2157.03,2156.937,-0.000571652315557003,45.0000152587891,0.000447056343546137,4.95426575071178E-05,3.41661632319301E-07,0.245514005422592,0,0,0.24666788455693,8
3.21999907493591,-1.0315328836441E-05,2.9399995803833,2.31127333641052,0,2.94000005722046,2.3109565920766,2157.183,2157.18,2157.235,2157.238,-0.000474718486657366,45.0000152587891,0.000486231554532424,4.70662016596179E-05,6.92827484272129E-09,0.248108729720116,0,0,0.249273336721206,8
3.23999905586243,-9.42498445510864E-06,2.9399995803833,2.31628799438477,0,2.94000005722046,2.31596832929251,2157.557,2157.466,2157.439,2157.531,-0.000354792602593079,45.0000152587891,0.000500808877404779,4.47316233476158E-05,2.17415330183712E-08,0.250729829072952,0,0,0.251905308959012,8
3.25999903678894,-8.5681676864624E-06,2.9399995803833,2.32135558128357,0,2.94000005722046,2.32103297371959,2157.888,2157.771,2157.693,2157.811,-0.000286834343569353,45.0000152587891,0.00048772493028082,4.2627849325072E-05,3.35822846864176E-07,0.253377616405487,0,0,0.254564115392408,8
3.27999901771545,-7.75232911109924E-06,2.9399995803833,2.32647657394409,0,2.94000005722046,2.32615106519795,2158.161,2158.09,2158.012,2158.084,-0.000304860644973814,45.0000152587891,0.000457678543170914,4.07430852646939E-05,7.83301743467746E-07,0.25605234503746,0,0,0.257250072002167,8
3.29999899864197,-6.97746872901917E-06,2.9399995803833,2.33165168762207,0,2.94000005722046,2.33132314990589,2158.399,2158.406,2158.374,2158.367,-0.00038842365029268,45.0000152587891,0.000429963896749541,3.88936277886387E-05,1.08857784653082E-06,0.258754372596741,0,0,0.25996349662778,8
3.31999897956848,-6.23613595962524E-06,2.9399995803833,2.33688139915466,0,2.94000005722046,2.33654978039708,2158.637,2158.712,2158.742,2158.667,-0.000483152834931388,45.0000152587891,0.000418662995798513,3.69075569324195E-05,1.16268506644701E-06,0.261484056711197,0,0,0.262704708967451,8
3.339998960495,-5.54323196411133E-06,2.9399995803833,2.34216618537903,0,2.94000005722046,2.34183151563774,2158.918,2159.006,2159.074,2158.987,-0.000531945144757628,45.0000152587891,0.00042642789776437,3.46840351994615E-05,9.67017626862798E-07,0.264241605997086,0,0,0.265474030578101,8
3.35999894142151,-4.89130616188049E-06,2.9399995803833,2.3475067615509,0,2.94000005722046,2.34716892104382,2159.243,2159.298,2159.37,2159.315,-0.000512185331899673,45.0000152587891,0.00044255971442908,3.23534550261684E-05,7.09055370862188E-07,0.267027407884598,0,0,0.268271784875365,8
3.37999892234802,-4.29153442382813E-06,2.9399995803833,2.35290360450745,0,2.94000005722046,2.35256256851814,2159.61,2159.601,2159.631,2159.64,-0.000436170492321253,45.0000152587891,0.000451376166893169,3.00106767099351E-05,5.63745629733603E-07,0.269841820001602,0,0,0.271098297133596,8
3.39999890327454,-3.74391674995422E-06,2.9399995803833,2.35835719108582,0,2.94000005722046,2.35801303648761,2159.975,2159.915,2159.901,2159.961,-0.000350638409145176,45.0000152587891,0.000443367345724255,2.78336519841105E-05,5.84507176881743E-07,0.272685170173645,0,0,0.27395389448586,8
3.41999888420105,-3.22237610816956E-06,2.9399995803833,2.36386823654175,0,2.94000005722046,2.36352090994037,2160.316,2160.249,2160.203,2160.27,-0.000297898310236633,45.0000152587891,0.000415789952967316,2.58639538515126E-05,8.27750909593306E-07,0.27555775642395,0,0,0.276838905923938,8
3.43999886512756,-2.74553894996643E-06,2.9399995803833,2.36943745613098,0,2.94000005722046,2.36908678046298,2160.63,2160.589,2160.538,2160.58,-0.000294958590529859,45.0000152587891,0.000379388366127387,2.41313100559637E-05,1.06509685338096E-06,0.278460025787354,0,0,0.27975366229833,8
3.45999884605408,-2.29105353355408E-06,2.9399995803833,2.37506532669067,0,2.94000005722046,2.37471124627758,2160.918,2160.931,2160.906,2160.894,-0.000332490424625576,45.0000152587891,0.000346690212609246,2.24696195800789E-05,1.29654472402763E-06,0.281392216682434,0,0,0.282698496318247,8
3.47999882698059,-1.87382102012634E-06,2.9399995803833,2.38075232505798,0,2.94000005722046,2.3803949122791,2161.217,2161.259,2161.271,2161.229,-0.000375393341528252,45.0000152587891,0.000329902861267328,2.07542598218424E-05,1.29357738387625E-06,0.284354627132416,0,0,0.28567374255162,8
3.4999988079071,-1.49384140968323E-06,2.9399995803833,2.38649916648865,0,2.94000005722046,2.38613839007238,2161.53,2161.586,2161.63,2161.573,-0.000394361995859072,45.0000152587891,0.00032564316643402,1.90208284038818E-05,1.157041310762E-06,0.287347614765167,0,0,0.288679737425091,8
3.51999878883362,-1.15111470222473E-06,2.9399995803833,2.3923065662384,0,2.94000005722046,2.3919422980094,2161.884,2161.915,2161.955,2161.924,-0.0003689955919981,45.0000152587891,0.000326824316289276,1.72455675055971E-05,9.61111254582647E-07,0.290371537208557,0,0,0.29171681922402,8
3.53999876976013,-8.38190317153931E-07,2.9399995803833,2.39817500114441,0,2.94000005722046,2.39780726122642,2162.256,2162.25,2162.269,2162.275,-0.000312062271405011,45.0000152587891,0.00032416480826214,1.55294092110125E-05,8.39377889860771E-07,0.293426752090454,0,0,0.294785328092482,8
3.55999875068665,-5.62518835067749E-07,2.9399995803833,2.4041051864624,0,2.94000005722046,2.40373391168114,2162.634,2162.597,2162.584,2162.622,-0.000249569449806586,45.0000152587891,0.000310349481878802,1.39792764457525E-05,8.15620808225503E-07,0.296513617038727,0,0,0.297885606033268,8
3.57999873161316,-3.09199094772339E-07,2.9399995803833,2.41009783744812,0,2.94000005722046,2.40972288818992,2162.996,2162.956,2162.924,2162.964,-0.000208984944038093,45.0000152587891,0.000285698217339814,1.26308586914092E-05,9.6115354608628E-07,0.299632459878922,0,0,0.301017996907884,8
3.59999871253967,-7.82310962677002E-08,2.9399995803833,2.41615343093872,0,2.94000005722046,2.41577483646493,2163.345,2163.318,2163.283,2163.31,-0.000200297203264199,45.0000152587891,0.000257526378845796,1.14248095997027E-05,1.16612102374347E-06,0.302783578634262,0,0,0.30418284643655,8
3.61999869346619,1.22934579849243E-07,2.9399995803833,2.42227268218994,0,2.94000005722046,2.42189040915133,2163.679,2163.68,2163.666,2163.664,-0.000219124543946236,45.0000152587891,0.000232463688007556,1.02958101706463E-05,1.28793305975705E-06,0.305967330932617,0,0,0.307380502198204,8
3.6399986743927,3.09199094772339E-07,2.9399995803833,2.42845630645752,0,2.94000005722046,2.42807026586441,2164.013,2164.043,2164.056,2164.025,-0.000243794071138836,45.0000152587891,0.000214441955904476,9.16068165679462E-06,1.28793305975705E-06,0.309184104204178,0,0,0.310611313630497,8
3.65999865531921,4.73111867904663E-07,2.9399995803833,2.43470501899719,0,2.94000005722046,2.43431507322682,2164.367,2164.406,2164.432,2164.394,-0.000249570613959804,45.0000152587891,0.000204421405214816,8.04913997853873E-06,1.1987730204055E-06,0.312434256076813,0,0,0.313875632029798,8
3.67999863624573,6.07222318649292E-07,2.9399995803833,2.44101929664612,0,2.94000005722046,2.44062550490571,2164.748,2164.769,2164.79,2164.769,-0.000226748452405445,45.0000152587891,0.000199201589566655,6.93741094437428E-06,1.10365306227322E-06,0.315718054771423,0,0,0.317173810551189,8
3.69999861717224,7.26431608200073E-07,2.9399995803833,2.44740009307861,0,2.94000005722046,2.44700224164992,2165.141,2165.134,2165.144,2165.151,-0.000185080381925218,45.0000152587891,0.0001938903296832,5.89089950153721E-06,9.99597205009195E-07,0.319035917520523,0,0,0.320506204208469,8
3.71999859809875,8.30739736557007E-07,2.9399995803833,2.45384788513184,0,2.94000005722046,2.45344597132713,2165.535,2165.514,2165.503,2165.524,-0.000142375749419443,45.0000152587891,0.000181355178938247,4.98099052492762E-06,1.03230615877692E-06,0.322388172149658,0,0,0.323873169874152,8
3.73999857902527,9.05245542526245E-07,2.9399995803833,2.46036338806152,0,2.94000005722046,2.45995738896107,2165.927,2165.897,2165.872,2165.903,-0.00011375846224837,45.0000152587891,0.000164293596753851,4.17204137193039E-06,1.12747591174411E-06,0.325775146484375,0,0,0.327275066279467,8
3.75999855995178,9.79751348495483E-07,2.9399995803833,2.46694731712341,0,2.94000005722046,2.46653719676865,2166.301,2166.284,2166.269,2166.285,-0.000109452441392932,45.0000152587891,0.000144671692396514,3.4819333905034E-06,1.25538258544111E-06,0.329197198152542,0,0,0.33071225401436,8
3.7799985408783,1.03935599327087E-06,2.9399995803833,2.47360038757324,0,2.94000005722046,2.47318610419719,2166.677,2166.68,2166.671,2166.667,-0.000119139476737473,45.0000152587891,0.000124638274428435,2.86310614683316E-06,1.33571052174375E-06,0.332654744386673,0,0,0.33418509552749,8
3.79999852180481,1.08405947685242E-06,2.9399995803833,2.48032331466675,0,2.94000005722046,2.47990482796153,2167.054,2167.075,2167.079,2167.059,-0.000131370747112669,45.0000152587891,0.000110091365058906,2.27392456508824E-06,1.33868627472111E-06,0.336148142814636,0,0,0.337693955126234,8
3.81999850273132,1.11386179924011E-06,2.9399995803833,2.48711681365967,0,2.94000005722046,2.48669409208127,2167.445,2167.469,2167.482,2167.458,-0.000132859830046073,45.0000152587891,0.000102402620541397,1.70249381881149E-06,1.2523771601991E-06,0.339677751064301,0,0,0.341239198976682,8
3.83999848365784,1.13993883132935E-06,2.9399995803833,2.49398159980774,0,2.94000005722046,2.49355462791789,2167.85,2167.866,2167.879,2167.864,-0.00011762315989472,45.0000152587891,9.90573680610396E-05,1.13691226033552E-06,1.17200579552446E-06,0.343243956565857,0,0,0.344821195103642,8
3.85999846458435,1.15111470222473E-06,2.9399995803833,2.50091862678528,0,2.94000005722046,2.50048717421195,2168.27,2168.266,2168.269,2168.274,-8.98539583431557E-05,45.0000152587891,9.69008833635598E-05,6.06953562964918E-07,1.10650580609217E-06,0.346847146749496,0,0,0.348440313390635,7
3.87999844551086,1.15483999252319E-06,2.9399995803833,2.50792837142944,0,2.94000005722046,2.50749247712026,2168.689,2168.672,2168.668,2168.685,-6.26972541795112E-05,45.0000152587891,9.11324241315015E-05,1.90054009863161E-07,1.07970492990717E-06,0.350487679243088,0,0,0.352096925579899,7
3.89999842643738,1.15111470222473E-06,2.9399995803833,2.51501178741455,0,2.94000005722046,2.51457129025308,2169.107,2169.091,2169.075,2169.092,-4.4727923523169E-05,45.0000152587891,8.0106059613172E-05,-1.61399242415428E-07,1.12735904167494E-06,0.354165881872177,0,0,0.355791405272388,7
3.91999840736389,1.14366412162781E-06,2.9399995803833,2.52216935157776,0,2.94000005722046,2.52172437471123,2169.52,2169.508,2169.496,2169.508,-4.10815118812025E-05,45.0000152587891,6.84395999996923E-05,-4.59298092891913E-07,1.18693810691184E-06,0.357882112264633,0,0,0.359524127927768,6
3.93999838829041,1.1250376701355E-06,2.9399995803833,2.52940201759338,0,2.94000005722046,2.52895249912332,2169.93,2169.932,2169.929,2169.927,-4.78945803479291E-05,45.0000152587891,5.68645555176772E-05,-7.39376673664083E-07,1.22269239000161E-06,0.361636757850647,0,0,0.363295470864426,6
3.95999884605408,1.11013650894165E-06,2.9399995803833,2.53671050071716,0,2.94000005722046,2.53625661473262,2170.345,2170.358,2170.365,2170.352,-5.54614925931673E-05,45.0000152587891,4.78499205200933E-05,-9.36065646328643E-07,1.19885135063669E-06,0.365430235862732,0,0,0.367105904573133,6
3.97999882698059,1.08778476715088E-06,2.9399995803833,2.54409575462341,0,2.94000005722046,2.54363715707109,2170.777,2170.793,2170.795,2170.779,-5.4029471357353E-05,45.0000152587891,4.13499292335473E-05,-1.19240723961411E-06,1.15116029064666E-06,0.369262993335724,0,0,0.370955628405819,5
3.9999988079071,1.06170773506165E-06,2.9399995803833,2.55155849456787,0,2.94000005722046,2.55109509080667,2171.211,2171.219,2171.228,2171.22,-4.44937140855473E-05,45.0000152587891,4.10679967899341E-05,-1.44283728786831E-06,1.09153461380629E-06,0.373135387897491,0,0,0.374845115636377,5
4.01999878883362,1.02445483207703E-06,2.9399995803833,2.55909943580627,0,2.94000005722046,2.55863121505101,2171.656,2171.653,2171.657,2171.661,-2.78436182270525E-05,45.0000152587891,4.01002616854385E-05,-1.63964273269812E-06,1.08258916498016E-06,0.377047747373581,0,0,0.378774751018097,5
4.03999876976013,9.87201929092407E-07,2.9399995803833,2.56671953201294,0,2.94000005722046,2.56624633662937,2172.107,2172.094,2172.091,2172.104,-1.07223677332513E-05,45.0000152587891,3.59320401912555E-05,-1.80666302185273E-06,1.06171148672729E-06,0.381000429391861,0,0,0.382744921162984,5
4.05999875068665,9.49949026107788E-07,2.9399995803833,2.5744194984436,0,2.94000005722046,2.57394127011786,2172.553,2172.544,2172.537,2172.545,-9.98144969344139E-07,45.0000152587891,2.75117672572378E-05,-1.89019033314253E-06,1.09750840238121E-06,0.384993851184845,0,0,0.38675601454176,4
4.07999873161316,9.12696123123169E-07,2.9399995803833,2.582200050354,0,2.94000005722046,2.58171683788055,2173.004,2172.998,2172.987,2172.992,1.56462533595914E-06,45.0000152587891,1.88171761692502E-05,-1.96776750271965E-06,1.10944301923155E-06,0.389028400182724,0,0,0.39080842148386,4
4.09999871253967,8.71717929840088E-07,2.9399995803833,2.59006214141846,0,2.94000005722046,2.58957387010672,2173.449,2173.454,2173.451,2173.446,-3.26962981489487E-06,45.0000152587891,1.25457909234683E-05,-1.99761143448995E-06,1.13928626888082E-06,0.393104404211044,0,0,0.394902534177437,3
4.11999869346619,8.30739736557007E-07,2.9399995803833,2.5980064868927,0,2.94000005722046,2.59751320484795,2173.905,2173.911,2173.913,2173.906,-7.20870411896612E-06,45.0000152587891,9.42915539781097E-06,-2.05134097086557E-06,1.12137661290035E-06,0.397222340106964,0,0,0.399038746669358,3
4.1399986743927,7.86036252975464E-07,2.9399995803833,2.60603404045105,0,2.94000005722046,2.60553568805538,2174.365,2174.373,2174.381,2174.372,-7.84974145062733E-06,45.0000152587891,8.141358193825E-06,-2.07522566597618E-06,1.08554968392127E-06,0.401382625102997,0,0,0.403217454865206,2
4.15999865531921,7.45058059692383E-07,2.9399995803833,2.61414575576782,0,2.94000005722046,2.61364217361681,2174.837,2174.841,2174.844,2174.84,-1.5649006854801E-06,45.0000152587891,7.26505459169857E-06,-2.09911536330765E-06,1.06763252460951E-06,0.405585616827011,0,0,0.407439056529278,2
4.17999863624573,7.04079866409302E-07,2.9399995803833,2.62234234809875,0,2.94000005722046,2.6218335233939,2175.315,2175.311,2175.31,2175.314,8.39489439385943E-06,45.0000152587891,6.4801943153725E-06,-2.11703650165873E-06,1.04971138625842E-06,0.40983173251152,0,0,0.411703951284589,1
4.19999861717224,6.59376382827759E-07,2.9399995803833,2.63062477111816,0,2.94000005722046,2.63011060725939,2175.794,2175.788,2175.784,2175.79,1.63758668350056E-05,45.0000152587891,4.23226083512418E-06,-2.09911127058149E-06,1.05269873529323E-06,0.414121359586716,0,0,0.416012540612867,2
4.21999859809875,6.2212347984314E-07,2.9399995803833,2.63899397850037,0,2.94000005722046,2.6384743031342,2176.275,2176.27,2176.265,2176.27,2.00222784769721E-05,45.0000152587891,8.87023134055198E-07,-2.10508778764051E-06,1.09752124899387E-06,0.418454885482788,0,0,0.420365227854557,1
4.23999857902527,5.77419996261597E-07,2.9399995803833,2.6474506855011,0,2.94000005722046,2.64692549702464,2176.758,2176.753,2176.752,2176.756,1.89572110684821E-05,45.0000152587891,-2.8239833227417E-06,-2.05726655622129E-06,1.16626438284584E-06,0.422832727432251,0,0,0.424762418208819,0
4.25999855995178,5.40167093276978E-07,2.9399995803833,2.65599584579468,0,2.94000005722046,2.65546508305959,2177.245,2177.244,2177.243,2177.244,1.54421704792185E-05,45.0000152587891,-7.72373823565431E-06,-2.01541342903511E-06,1.18719083275209E-06,0.427255243062973,0,0,0.429204518733528,0
4.2799985408783,4.99188899993896E-07,2.9399995803833,2.66463041305542,0,2.94000005722046,2.66409396352767,2177.734,2177.742,2177.742,2177.734,1.12204079414369E-05,45.0000152587891,-1.23034451462445E-05,-1.97355097952823E-06,1.20812205750553E-06,0.43172287940979,0,0,0.433691938345276,0
4.29999852180481,4.61935997009277E-07,2.9399995803833,2.67335510253906,0,2.94000005722046,2.67281304891441,2178.232,2178.238,2178.241,2178.235,1.05322560557397E-05,45.0000152587891,-1.35455193230882E-05,-1.9137337403663E-06,1.18120465231186E-06,0.436236083507538,0,0,0.438225087819368,0
4.31999850273132,4.24683094024658E-07,2.9399995803833,2.6821711063385,0,2.94000005722046,2.68162325793942,2178.737,2178.742,2178.742,2178.737,1.3754633073404E-05,45.0000152587891,-1.34616821014788E-05,-1.87185207778384E-06,1.1662471024465E-06,0.44079515337944,0,0,0.442804379789826,0
4.33999848365784,3.83704900741577E-07,2.9399995803833,2.69107913970947,0,2.94000005722046,2.69052551759357,2179.248,2179.245,2179.246,2179.249,1.93798641703324E-05,45.0000152587891,-1.09546344901901E-05,-1.81200744009402E-06,1.16923956738901E-06,0.4454006254673,0,0,0.447430228749387,0
4.35999846458435,3.53902578353882E-07,2.9399995803833,2.70008015632629,0,2.94000005722046,2.69952076317618,2179.765,2179.759,2179.753,2179.76,2.43926006078254E-05,45.0000152587891,-9.77349645836512E-06,-1.73419118709717E-06,1.2171263961136E-06,0.450052827596664,0,0,0.452103051049505,0
4.37999844551086,3.24100255966187E-07,2.9399995803833,2.70917510986328,0,2.94000005722046,2.70860993833215,2180.28,2180.275,2180.272,2180.277,2.40342542383587E-05,45.0000152587891,-9.04957323655253E-06,-1.63839513334096E-06,1.24706252790929E-06,0.454752296209335,0,0,0.456823264900347,0
4.39999842643738,2.90572643280029E-07,2.9399995803833,2.71836519241333,0,2.94000005722046,2.71779399508918,2180.798,2180.797,2180.798,2180.798,2.028364178841E-05,45.0000152587891,-9.05718206922757E-06,-1.5545535916317E-06,1.26502845887444E-06,0.459499418735504,0,0,0.461591290370796,0
4.41999888420105,2.60770320892334E-07,2.9399995803833,2.72765111923218,0,2.94000005722046,2.72707411629541,2181.321,2181.322,2181.325,2181.325,1.66272566275438E-05,45.0000152587891,-9.88776810117997E-06,-1.51861286212807E-06,1.28599390336603E-06,0.464294582605362,0,0,0.466407664795492,0
4.43999838829041,2.27242708206177E-07,2.9399995803833,2.73703384399414,0,2.94000005722046,2.73645060365418,2181.85,2181.852,2181.858,2181.856,1.50439236676903E-05,45.0000152587891,-1.19071009976324E-05,-1.47667174132948E-06,1.30696446376533E-06,0.4691381752491,0,0,0.47127246573963,0
4.45999884605408,1.97440385818481E-07,2.9399995803833,2.74651455879211,0,2.94000005722046,2.74592532882946,2182.387,2182.388,2182.391,2182.389,1.71355495695025E-05,45.0000152587891,-1.56638325279346E-05,-1.4347203887155E-06,1.3039680197835E-06,0.474030733108521,0,0,0.476186582816867,0
4.47999835014343,1.7508864402771E-07,2.9399995803833,2.75609397888184,0,2.94000005722046,2.75549837416104,2182.929,2182.932,2182.929,2182.926,2.11117676371941E-05,45.0000152587891,-1.97863300854806E-05,-1.35079744723043E-06,1.26500390251749E-06,0.478972524404526,0,0,0.481149974881383,0
4.4999988079071,1.49011611938477E-07,2.9399995803833,2.7657732963562,0,2.94000005722046,2.76517164715925,2183.477,2183.477,2183.469,2183.469,2.50408666033763E-05,45.0000152587891,-2.18513869185699E-05,-1.25486189972435E-06,1.23202607937856E-06,0.483964115381241,0,0,0.486163544667001,0
4.51999831199646,1.22934579849243E-07,2.9399995803833,2.77555346488953,0,2.94000005722046,2.77494522840328,2184.025,2184.024,2184.02,2184.021,2.55776994890766E-05,45.0000152587891,-2.05330852622865E-05,-1.15890270535601E-06,1.25601593481406E-06,0.48900580406189,0,0,0.491227245260881,0
4.53999876976013,1.04308128356934E-07,2.9399995803833,2.78543543815613,0,2.94000005722046,2.78482106177789,2184.578,2184.574,2184.573,2184.576,2.35232182603795E-05,45.0000152587891,-1.77059919224121E-05,-1.05692026863835E-06,1.28001181565196E-06,0.494098156690598,0,0,0.496341992680797,0
4.55999827384949,8.19563865661621E-08,2.9399995803833,2.79542016983032,0,2.94000005722046,2.79479922586767,2185.135,2185.134,2185.134,2185.135,1.93485720956232E-05,45.0000152587891,-1.56561618496198E-05,-9.54911911321688E-07,1.29801321691048E-06,0.499241471290588,0,0,0.501507734082394,0
4.57999873161316,6.70552253723145E-08,2.9399995803833,2.805508852005,0,2.94000005722046,2.80488170146651,2185.693,2185.696,2185.702,2185.699,1.49383522511926E-05,45.0000152587891,-1.42921444421518E-05,-8.70883411607792E-07,1.32202126224001E-06,0.504436373710632,0,0,0.506725398932605,0
4.59999823570251,4.84287738800049E-08,2.9399995803833,2.81570243835449,0,2.94000005722046,2.81506856492383,2186.266,2186.267,2186.267,2186.267,1.45328922371846E-05,45.0000152587891,-1.4619803550886E-05,-8.1685095665307E-07,1.34903746129567E-06,0.509683132171631,0,0,0.511994928289641,0
4.61999869346619,4.09781932830811E-08,2.9399995803833,2.82600212097168,0,2.94000005722046,2.8253618344839,2186.838,2186.837,2186.84,2186.84,1.45985804920201E-05,45.0000152587891,-1.50389032569365E-05,-7.56799522605434E-07,1.35204004436673E-06,0.514982342720032,0,0,0.517317265236223,0
4.63999819755554,1.86264514923096E-08,2.9399995803833,2.83640885353088,0,2.94000005722046,2.83576158401376,2187.418,2187.42,2187.416,2187.415,1.55594480020227E-05,45.0000152587891,-1.66924710356398E-05,-7.02738987001794E-07,1.37907022690342E-06,0.520334303379059,0,0,0.52269234456579,0
4.65999865531921,7.45058059692383E-09,2.9399995803833,2.84692358970642,0,2.94000005722046,2.84626986975605,2187.999,2187.997,2187.998,2188,1.53424498421373E-05,45.0000152587891,-1.59228220582008E-05,-6.42656118543528E-07,1.38207440159022E-06,0.525739550590515,0,0,0.528121123144893,0
4.67999815940857,-3.72529029846191E-09,2.9399995803833,2.85754752159119,0,2.94000005722046,2.85688676284145,2188.588,2188.589,2188.586,2188.585,1.46543006849242E-05,45.0000152587891,-1.61590432981029E-05,-5.58517513127299E-07,1.34901983983582E-06,0.531198382377625,0,0,0.533603529333452,0
4.69999861717224,-1.11758708953857E-08,2.9399995803833,2.86828184127808,0,2.94000005722046,2.86761435806573,2189.178,2189.182,2189.179,2189.175,1.30709731820389E-05,45.0000152587891,-1.49779089042568E-05,-4.98402414450538E-07,1.35202560613834E-06,0.536711454391479,0,0,0.539140533951307,0
4.7199981212616,-1.86264514923096E-08,2.9399995803833,2.87912750244141,0,2.94000005722046,2.87845272356245,2189.776,2189.775,2189.776,2189.777,1.18645593829569E-05,45.0000152587891,-1.096207597584E-05,-4.14218561672897E-07,1.3189534229241E-06,0.542279005050659,0,0,0.544732058754688,0
4.73999857902527,-2.60770320892334E-08,2.9399995803833,2.89008545875549,0,2.94000005722046,2.88940399324206,2190.376,2190.377,2190.377,2190.376,1.06110346678179E-05,45.0000152587891,-8.18071021058131E-06,-3.54070692765163E-07,1.29188686059933E-06,0.547901690006256,0,0,0.550379088687604,0
4.75999808311462,-3.35276126861572E-08,2.9399995803833,2.90115714073181,0,2.94000005722046,2.90046823197344,2190.983,2190.98,2190.987,2190.989,9.92288642009953E-06,45.0000152587891,-5.03357478010003E-06,-3.05939238387509E-07,1.28887870687322E-06,0.553579688072205,0,0,0.556081538731006,0
4.7799985408783,-3.35276126861572E-08,2.9399995803833,2.91234350204468,0,2.94000005722046,2.91164761335012,2191.595,2191.593,2191.596,2191.598,1.06952984424424E-05,45.0000152587891,-5.77272430746234E-06,-2.69830422894302E-07,1.24374287224782E-06,0.559313774108887,0,0,0.56184040812537,0
4.79999804496765,-4.4703483581543E-08,2.9399995803833,2.92364549636841,0,2.94000005722046,2.92294219870181,2192.213,2192.217,2192.213,2192.209,1.17503996079904E-05,45.0000152587891,-8.61503940541297E-06,-2.33711645591939E-07,1.25277244933386E-06,0.565104067325592,0,0,0.567655604903361,0
4.81999850273132,-4.4703483581543E-08,2.9399995803833,2.93506455421448,0,2.94000005722046,2.93435420188047,2192.835,2192.834,2192.833,2192.834,1.25699252748745E-05,45.0000152587891,-7.93683830124792E-06,-1.9156146890964E-07,1.24976179449732E-06,0.570951342582703,0,0,0.573528142775636,0
4.83999800682068,-5.58793544769287E-08,2.9399995803833,2.9466016292572,0,2.94000005722046,2.94588368039526,2193.463,2193.462,2193.461,2193.462,1.25413862406276E-05,45.0000152587891,-7.25863765183021E-06,-1.49399227211688E-07,1.27084285850287E-06,0.576855838298798,0,0,0.579457922652153,0
4.85999846458435,-5.58793544769287E-08,2.9399995803833,2.95825791358948,0,2.94000005722046,2.9575328889388,2194.093,2194.093,2194.093,2194.093,1.19474671009812E-05,45.0000152587891,-6.94620439389837E-06,-1.07224892076374E-07,1.29192994791083E-06,0.582818210124969,0,0,0.585445972888884,0
4.87999796867371,-5.58793544769287E-08,2.9399995803833,2.9700345993042,0,2.94000005722046,2.96930188091131,2194.734,2194.732,2194.729,2194.73,1.11650915641803E-05,45.0000152587891,-6.99953943694709E-06,-6.50384066602783E-08,1.31302317640802E-06,0.588838756084442,0,0,0.591492187097233,0
4.89999842643738,-5.58793544769287E-08,2.9399995803833,2.98193287849426,0,2.94000005722046,2.98119295243545,2195.371,2195.372,2195.374,2195.373,8.45100748847472E-06,45.0000152587891,-6.45850241198787E-06,-2.28397567525462E-08,1.33412254399445E-06,0.594918131828308,0,0,0.597597608455041,0
4.91999793052673,-5.58793544769287E-08,2.9399995803833,2.99395394325256,0,2.94000005722046,2.99320615250695,2196.022,2196.021,2196.02,2196.02,7.24459732737159E-06,45.0000152587891,-6.10034931014525E-06,1.33412321190463E-08,1.31904721456522E-06,0.601056575775146,0,0,0.603762123097896,0
4.93999838829041,-5.58793544769287E-08,2.9399995803833,3.006098985672,0,2.94000005722046,3.00534381927499,2196.671,2196.674,2196.674,2196.671,5.19012110089534E-06,45.0000152587891,-5.19354398420546E-06,7.36605301199234E-08,1.28587157632865E-06,0.607254803180695,0,0,0.609986789203479,0
4.95999789237976,-5.58793544769287E-08,2.9399995803833,3.01836919784546,0,2.94000005722046,3.01760599702821,2197.33,2197.333,2197.332,2197.329,4.40774465459981E-06,45.0000152587891,-2.77794583780633E-06,1.15896597208121E-07,1.3009560007049E-06,0.613513052463531,0,0,0.616271485252887,0
4.97999835014343,-4.4703483581543E-08,2.9399995803833,3.03076577186584,0,2.94000005722046,3.02999506654582,2197.991,2197.988,2197.993,2197.996,4.52054973720806E-06,45.0000152587891,1.60365379997529E-06,1.34003158791529E-07,1.28586725622881E-06,0.619832038879395,0,0,0.622617284603022,0
4.99999785423279,-4.4703483581543E-08,2.9399995803833,3.04328989982605,0,2.94000005722046,3.04251106709966,2198.661,2198.658,2198.66,2198.664,5.62276636628667E-06,45.0000152587891,2.46473791776225E-06,1.52115390505969E-07,1.34322192479885E-06,0.626211881637573,0,0,0.629024057900394,0
5.01999831199646,-4.09781932830811E-08,2.9399995803833,3.05594301223755,0,1.64434051513672,3.0425124168396,2199.337,2199.331,2199.329,2199.335,6.5836397880048E-06,45.0000152587891,4.45399336967967E-07,1.76272251906084E-07,1.36435892272857E-06,0.632653415203094,0,0,0,0
5.03999781608582,-3.35276126861572E-08,2.9399995803833,3.06872606277466,0,1.64434051513672,3.0425124168396,0,0,0,0,3.96378754885518E-06,45.0000152587891,-3.40277892973972E-06,1.94395283870108E-07,1.42174849315779E-06,0.639156877994537,0,0,0,0
5.05999827384949,-3.35276126861572E-08,2.9399995803833,3.07758522033691,0,1.64434051513672,3.0425124168396,0,0,0,0,1.3439363328871E-06,45.0000152587891,-7.25095878806314E-06,1.94395283870108E-07,1.42174849315779E-06,0.442956924438477,0,0,0,0
5.07999777793884,-2.98023223876953E-08,2.9399995803833,3.08252024650574,0,1.64434051513672,3.0425124168396,0,0,6944.904,281.4139,-1.27591601994936E-06,45.0000152587891,-1.10991377368919E-05,1.94395283870108E-07,1.42174849315779E-06,0.246756970882416,0,0,0,0
5.09999823570251,-2.23517417907715E-08,2.9399995803833,3.08686137199402,0,1.64434051513672,3.0425124168396,1880.441,355.9101,2148.527,2375.141,3.05638241767883,44.5525550842285,359.867828369141,3.30440883544725E-07,1.49118488934619E-06,0.217062026262283,0,0,0,0
5.11999773979187,0.00012163445353508,2.94011282920837,3.09038949012756,0,1.64434051513672,3.0425124168396,7007.385,0,0,0,6.22574710845947,43.9850158691406,358.854522705078,0.00608287798240781,0.00566749600693583,0.17640084028244,0,0,0,0
5.13999819755554,0.000532887876033783,2.94043326377869,3.09320306777954,0,1.64434051513672,3.0425124168396,7099.982,0,0,0,6.29345655441284,42.9785346984863,357.797027587891,0.0205627400428057,0.0160218998789787,0.140677034854889,0,0,0,0
5.15999865531921,0.00128048285841942,2.94093012809753,3.09534239768982,0,1.64434051513672,3.0425124168396,4162.202,590.8403,0,1367.148,3.2091498374939,41.6485977172852,356.739959716797,0.0373798571527004,0.0248451735824347,0.106965094804764,0,0,0,0
5.17999815940857,0.00225267931818962,2.9414381980896,3.09636902809143,0,1.64434051513672,3.0425124168396,707.8007,2574.549,696.2332,3171.867,358.275726318359,40.3674011230469,355.393188476563,0.0486099608242512,0.0254050809890032,0.051334336400032,0,0,0,0
5.19999861717224,0.0033625103533268,2.94169950485229,3.09675478935242,0,1.64434051513672,3.0425124168396,0,2560.342,3772.151,2541.09,353.357635498047,39.4997978210449,353.781158447266,0.0554916299879551,0.0130693661049008,0.0192845948040485,0,0,0,0
5.2199981212616,0.00451506301760674,2.94131636619568,3.09725427627563,0,1.64434051513672,3.0425124168396,764.2737,3264.8,3510.508,2879.059,350.101104736328,38.6486396789551,352.163635253906,0.0576272122561932,-0.0191604122519493,0.0249774996191263,0,0,0,0
5.23999857902527,0.00566818192601204,2.93988561630249,3.09851551055908,0,1.64434051513672,3.0425124168396,3254.422,2820.966,2797.156,2486.219,348.061187744141,37.8201789855957,350.701202392578,0.0576562583446503,-0.0715318694710732,0.063056044280529,0,0,0,0
5.25999808311462,0.00683418288826942,2.93709230422974,3.10090661048889,0,1.64434051513672,3.0425124168396,4650.636,2617.434,2128.948,2370.381,345.815521240234,37.0191764831543,349.381683349609,0.0583000630140305,-0.139670118689537,0.119552552700043,0,0,0,0
5.2799985408783,0.00801164284348488,2.93265438079834,3.10454106330872,0,1.64434051513672,3.0425124168396,4278.145,2985.892,2086.962,2674.269,342.460510253906,36.3606910705566,348.138824462891,0.058873001486063,-0.221891492605209,0.181722909212112,0,0,0,0
5.29999804496765,0.00913739576935768,2.92622518539429,3.10942268371582,0,1.64434051513672,3.0425124168396,2915.194,3542.189,2736.559,3169.672,338.161285400391,35.9328727722168,346.946594238281,0.0562875419855118,-0.32146418094635,0.244080156087875,0,0,0,0
5.31999850273132,0.0100934766232967,2.91736888885498,3.1155321598053,0,1.64434051513672,3.0425124168396,1757.518,3832.279,3551.306,3575.266,333.814819335938,35.6796913146973,345.809906005859,0.0478039085865021,-0.442811518907547,0.305478900671005,0,0,0,0
5.33999800682068,0.0107542313635349,2.9056384563446,3.12281584739685,0,1.64434051513672,3.0425124168396,1337.592,3813.454,3894.504,3823.135,330.281188964844,35.4354362487793,344.734741210938,0.0330375619232655,-0.58652526140213,0.364189833402634,0,0,0,0
5.35999846458435,0.0110427625477314,2.89069175720215,3.13114428520203,0,1.64434051513672,3.0425124168396,1421.629,3745.515,3553.974,3968.512,327.885375976563,35.0797882080078,343.681060791016,0.0144269391894341,-0.747329354286194,0.416416883468628,0,0,0,0
5.37999796867371,0.0109612829983234,2.87235927581787,3.14030194282532,0,1.64434051513672,3.0425124168396,1501.321,3876.31,2776.676,4054.445,326.448211669922,34.6506576538086,342.557983398438,-0.00407390110194683,-0.916624069213867,0.457888215780258,0,0,0,0
5.39999842643738,0.0105803944170475,2.85062766075134,3.15000891685486,0,1.64434051513672,3.0425124168396,1205.393,4273.158,1941.064,4120.328,325.624298095703,34.3171463012695,341.301361083984,-0.0190446823835373,-1.08658480644226,0.485347002744675,0,0,0,0
5.41999793052673,0.0100041665136814,2.82558584213257,3.15994930267334,0,1.64434051513672,3.0425124168396,410.0824,4859.772,1274.959,4243.054,325.223815917969,34.2709655761719,339.945770263672,-0.0288109965622425,-1.25209522247314,0.497022658586502,0,0,0,0
5.43999838829041,0.00933681055903435,2.79738283157349,3.16980147361755,0,1.64434051513672,3.0425124168396,0,4901.291,1258.479,3864.774,325.355895996094,34.633487701416,338.620239257813,-0.0333678796887398,-1.4101505279541,0.492614150047302,0,0,0,0
5.45999789237976,0.00866534188389778,2.76621055603027,3.1792688369751,0,1.64434051513672,3.0425124168396,0,4490.741,1656.151,3115.55,326.190795898438,35.303539276123,337.56689453125,-0.0335746668279171,-1.55861043930054,0.473364591598511,0,0,0,0
5.47999835014343,0.00805443897843361,2.7323055267334,3.18809032440186,0,1.64434051513672,3.0425124168396,0,4119.337,2021.016,2365.811,327.852722167969,36.0538787841797,337.064025878906,-0.0305446814745665,-1.69525730609894,0.441075265407562,0,0,0,0
5.49999785423279,0.0075480230152607,2.69594836235046,3.19604444503784,0,1.64434051513672,3.0425124168396,0,5038.429,0,2712.731,330.449829101563,36.7022399902344,337.368041992188,-0.0253204014152288,-1.81785750389099,0.397701174020767,0,0,0,0
5.51999831199646,0.00717185810208321,2.657466173172,3.20294237136841,0,1.64434051513672,3.0425124168396,0,5099.461,0,1980.013,333.245025634766,37.9057960510254,338.392120361328,-0.0188079625368118,-1.92411422729492,0.344904154539108,0,0,0,0
5.53999781608582,0.00690473988652229,2.61716842651367,3.20862483978271,0,1.64434051513672,3.0425124168396,0,3251,4281.973,0,336.209991455078,39.6389770507813,340.525665283203,-0.0133560802787542,-2.01488780975342,0.284125953912735,0,0,0,0
5.55999827384949,0.00668661668896675,2.57511568069458,3.21337842941284,0,1.64434051513672,3.0425124168396,0,2124.371,4217.874,0,340.943664550781,40.7781867980957,344.309051513672,-0.0109059866517782,-2.10263633728027,0.237662434577942,0,0,0,0
5.57999777793884,0.00646700337529182,2.53185105323792,3.21686697006226,0,1.64434051513672,3.0425124168396,0,3258.963,3838.429,0,347.472869873047,41.6361045837402,349.067657470703,-0.0109796021133661,-2.16323280334473,0.174441307783127,0,0,0,0
5.59999823570251,0.00624822452664375,2.4876537322998,3.219566822052,0,1.64434051513672,3.0425124168396,2177.25,0,3410.04,0,355.508850097656,42.7550277709961,354.983795166016,-0.0109392218291759,-2.20986747741699,0.134985238313675,0,0,0,0
5.61999773979187,0.00605844333767891,2.44315600395203,3.22089958190918,0,1.64434051513672,3.0425124168396,4760.005,0,788.0637,0,2.43969106674194,43.8205146789551,359.5771484375,-0.00949126295745373,-2.22488307952881,0.0666376873850822,0,0,0,0
5.63999819755554,0.00595756247639656,2.3987238407135,3.22086238861084,0,1.64434051513672,3.0425124168396,5709.685,0,33.84566,0,7.30157041549683,44.9479789733887,3.96893835067749,-0.00504286028444767,-2.22161030769348,-0.00184601545333862,0,0,0,0
5.6599977016449,0.00596413388848305,2.35465860366821,3.21952056884766,0,1.64434051513672,3.0425124168396,4761.242,0,12.44507,1295.552,9.66731739044189,45.812816619873,8.33571529388428,0.000327783636748791,-2.20326399803162,-0.0670945718884468,0,0,0,0
5.67999815940857,0.00602129474282265,2.31120800971985,3.2169828414917,0,1.64434051513672,3.0425124168396,2946.89,0,900.2982,2609.349,9.97859573364258,46.2498664855957,12.0785970687866,0.00285834260284901,-2.17253136634827,-0.126892596483231,0,0,0,0
5.69999766349792,0.00601208582520485,2.2685558795929,3.21338653564453,0,1.64434051513672,3.0425124168396,1432.179,0,2293.944,3128.036,9.42317676544189,46.4149208068848,14.6585445404053,-0.000459446804597974,-2.13261246681213,-0.179818600416183,0,0,0,0
5.7199981212616,0.00581425800919533,2.22682762145996,3.20888042449951,0,1.64434051513672,3.0425124168396,1036.946,0,3520.974,2667.425,9.24708938598633,46.6251068115234,15.9102973937988,-0.00989280361682177,-2.08641695976257,-0.225290864706039,0,0,0,0
5.73999762535095,0.00536349788308144,2.18611621856689,3.20361137390137,0,1.64434051513672,3.0425124168396,1880.324,0,4091.034,1591.85,10.1575450897217,47.016845703125,16.0549392700195,-0.0225348044186831,-2.03557467460632,-0.263466477394104,0,0,0,0
5.75999808311462,0.00468781962990761,2.14651250839233,3.19771480560303,0,1.64434051513672,3.0425124168396,2575.523,1092.772,3086.528,1146.111,12.0851211547852,47.3910713195801,15.5243844985962,-0.0337874516844749,-1.9801812171936,-0.294820785522461,0,0,0,0
5.77999758720398,0.00389287248253822,2.10812330245972,3.19132471084595,0,1.64434051513672,3.0425124168396,2947.187,2453.628,1487.104,1335.109,14.2943143844604,47.5837631225586,14.9466619491577,-0.0397453308105469,-1.91945803165436,-0.319500833749771,0,0,0,0
5.79999804496765,0.00310609117150307,2.0710654258728,3.1845588684082,0,1.64434051513672,3.0425124168396,3026.577,3184.095,466.9536,1829.006,15.8973731994629,47.5500984191895,14.8040494918823,-0.0393394380807877,-1.8528938293457,-0.338308095932007,0,0,0,0
5.81999754905701,0.00240934267640114,2.03544735908508,3.17751383781433,0,1.64434051513672,3.0425124168396,2765.063,3102.338,485.4179,2394.171,16.3867034912109,47.318187713623,15.1924085617065,-0.0348419286310673,-1.78090572357178,-0.352256685495377,0,0,0,0
5.83999800682068,0.00180307403206825,2.00134968757629,3.1702766418457,0,1.64434051513672,3.0425124168396,2264.791,2514.884,1331.446,2841.549,15.8694972991943,46.9610824584961,15.8501710891724,-0.0303097497671843,-1.70487940311432,-0.361857503652573,0,0,0,0
5.85999751091003,0.00122100487351418,1.96881639957428,3.1629331111908,0,1.64434051513672,3.0425124168396,1793.593,1890.372,2418.079,3025.668,14.9270801544189,46.597728729248,16.3698215484619,-0.0291016940027475,-1.6266667842865,-0.367180943489075,0,0,0,0
5.87999796867371,0.000579718500375748,1.93785870075226,3.15556502342224,0,1.64434051513672,3.0425124168396,1617.698,1596.551,3146.769,2909.438,14.2364616394043,46.3571281433105,16.439567565918,-0.0320649780333042,-1.54788541793823,-0.3684002161026,0,0,0,0
5.89999747276306,-0.000166770070791245,1.90847134590149,3.14824461936951,0,1.64434051513672,3.0425124168396,1826.644,1755.197,3206.643,2596.443,14.1961240768433,46.2960586547852,15.9938678741455,-0.0373258367180824,-1.46936726570129,-0.366019457578659,0,0,0,0
5.91999793052673,-0.000999566167593002,1.88064992427826,3.14103078842163,0,1.64434051513672,3.0425124168396,2288.286,2228.888,2686.571,2275.552,14.7526006698608,46.3590469360352,15.2195415496826,-0.0416394285857677,-1.39107120037079,-0.360695391893387,0,0,0,0
5.93999743461609,-0.00184696540236473,1.85439920425415,3.13396906852722,0,1.64434051513672,3.0425124168396,2741.417,2728.333,1970.939,2114.652,15.4881801605225,46.4295043945313,14.4284944534302,-0.0423722341656685,-1.31253814697266,-0.353086680173874,0,0,0,0
5.95999789237976,-0.00262558087706566,1.82972824573517,3.12709307670593,0,1.64434051513672,3.0425124168396,2948.513,2990.714,1492.339,2177.823,15.8946714401245,46.4139366149902,13.8780212402344,-0.0389300361275673,-1.23354542255402,-0.343804955482483,0,0,0,0
5.97999835014343,-0.00328373536467552,1.80663859844208,3.12042760848999,0,1.64434051513672,3.0425124168396,2823.282,2920.234,1491.799,2406.443,15.6676721572876,46.286060333252,13.6447134017944,-0.0329037941992283,-1.15449106693268,-0.333272159099579,0,0,0,0
5.99999785423279,-0.00382327660918236,1.78511214256287,3.11399555206299,0,1.64434051513672,3.0425124168396,2468.999,2608.247,1918.978,2661.329,14.8550777435303,46.0838279724121,13.6122217178345,-0.0269794855266809,-1.07632029056549,-0.321603387594223,0,0,0,0
6.01999831199646,-0.00429051741957664,1.7651093006134,3.10782051086426,0,1.64434051513672,3.0425124168396,2107.626,2251.306,2500.577,2800.554,13.7932348251343,45.8833122253418,13.5607004165649,-0.0233625378459692,-1.00013625621796,-0.308758080005646,0,0,0,0
6.03999781608582,-0.00474369153380394,1.74657416343689,3.1019241809845,0,1.64434051513672,3.0425124168396,1944.246,2036.097,2913.36,2756.214,12.8922271728516,45.7574501037598,13.2958841323853,-0.0226566158235073,-0.926756143569946,-0.294820845127106,0,0,0,0
6.05999827384949,-0.00521856173872948,1.7294454574585,3.09632253646851,0,1.64434051513672,3.0425124168396,2052.535,2049.467,2963.576,2563.865,12.4067058563232,45.7326736450195,12.7480363845825,-0.0237462483346462,-0.856438100337982,-0.280087321996689,0,0,0,0
6.07999777793884,-0.00571119412779808,1.71366715431213,3.09102392196655,0,1.64434051513672,3.0425124168396,2347.845,2247.148,2676.106,2331.482,12.3178472518921,45.7746620178223,11.9953594207764,-0.0246261078864336,-0.788924396038055,-0.264933735132217,0,0,0,0
6.09999823570251,-0.00618338212370872,1.69919180870056,3.08603024482727,0,1.64434051513672,3.0425124168396,2650.483,2492.215,2254.489,2173.705,12.3765478134155,45.8177795410156,11.2069463729858,-0.0236130859702826,-0.72376823425293,-0.249689713120461,0,0,0,0
6.11999773979187,-0.00658797845244408,1.68597745895386,3.08133840560913,0,1.64434051513672,3.0425124168396,2791.838,2641.729,1947.163,2152.798,12.2673568725586,45.8104019165039,10.5437660217285,-0.0202342104166746,-0.660717964172363,-0.234594643115997,0,0,0,0
6.13999819755554,-0.00689500197768211,1.67397916316986,3.07694315910339,0,1.64434051513672,3.0425124168396,2703.995,2625.838,1905.932,2255.018,11.791543006897,45.7398223876953,10.0763053894043,-0.0153508065268397,-0.599912285804749,-0.219768106937408,0,0,0,0
6.1599977016449,-0.00710588321089745,1.66314291954041,3.07283902168274,0,1.64434051513672,3.0425124168396,2448.594,2473.492,2116.836,2405.846,10.9660320281982,45.6291923522949,9.76021385192871,-0.0105426320806146,-0.541803538799286,-0.205203115940094,0,0,0,0
