t,x_s1,x_s2,x_s3,x_s_d1,x_s_d2,x_s_d3,propellers_rpms1,propellers_rpms2,propellers_rpms3,propellers_rpms4,rollRad,pitchRad,yawRad,v_s1,v_s2,v_s3,v_s_d1,v_s_d2,v_s_d3,insideCount
10.42,-2.99999856948853,1.64379823207855,3.0444507598877,-3.00000071525574,1.64379715919495,3.044442653656,2125.573,2127.464,2132.021,2130.13,359.993957519531,45.0000076293945,0.00238055805675685,2.70399850705871E-05,1.2178828001197E-05,-4.54869550594594E-05,0,0,0,0
10.44,-2.99999833106995,1.64379835128784,3.04444980621338,-3.00000071525574,1.64379715919495,3.044442653656,2127.578,2128.344,2130.017,2129.251,-0.00315249804407358,45.0000076293945,0.00120391801465303,6.66234518575948E-06,3.26470399159007E-06,-4.29994906880893E-05,0,0,0,0
10.46,-2.99999833106995,1.64379835128784,3.04444909095764,-3.00000071525574,1.64379715919495,3.044442653656,2130.244,2129.395,2127.352,2128.201,0.000811262172646821,45.0000076293945,-0.000372538255760446,-3.8919524740777E-06,-1.47449645737652E-06,-4.04988422815222E-05,0,0,0,0
10.48,-2.99999833106995,1.64379835128784,3.0444483757019,-3.00000071525574,1.64379715919495,3.044442653656,2131.723,2129.97,2125.871,2127.624,0.00350339384749532,45.0000076293945,-0.00142413529101759,-1.02100489129953E-06,-4.30784780292015E-07,-3.79542470909655E-05,0,0,0,0
10.5,-2.99999809265137,1.64379835128784,3.04444766044617,-3.00000071525574,1.64379715919495,3.044442653656,2131.44,2129.84,2126.153,2127.753,0.00362305599264801,45.0000076293945,-0.00144316488876939,1.09190123112057E-05,4.57735586678609E-06,-3.54404146492016E-05,0,0,0,0
10.52,-2.99999761581421,1.64379858970642,3.04444694519043,-3.00000071525574,1.64379715919495,3.044442653656,2129.734,2129.167,2127.858,2128.425,0.00141830835491419,45.0000076293945,-0.000545198970939964,2.31689446081873E-05,9.82523852144368E-06,-3.30364528053906E-05,0,0,0,0
10.54,-2.99999690055847,1.64379906654358,3.04444622993469,-3.00000071525574,1.64379715919495,3.044442653656,2127.733,2128.338,2129.857,2129.253,-0.00160934601444751,45.0000076293945,0.000677670526783913,2.78993520623771E-05,1.1889310371771E-05,-3.06368856399786E-05,0,0,0,0
10.56,-2.99999666213989,1.64379906654358,3.04444575309753,-3.00000071525574,1.64379715919495,3.044442653656,2126.57,2127.866,2131.02,2129.724,-0.00370120629668236,45.0000076293945,0.0014981800923124,2.23503338929731E-05,9.62935700954404E-06,-2.82944511127425E-05,0,0,0,0
10.58,-2.99999618530273,1.64379918575287,3.04444527626038,-3.00000071525574,1.64379715919495,3.044442653656,2126.625,2127.966,2130.962,2129.622,-0.00383285456337035,45.0000076293945,0.00150044623296708,9.74955219135154E-06,4.32591787102865E-06,-2.60047545452835E-05,0,0,0,0
10.6,-2.99999618530273,1.64379918575287,3.04444479942322,-3.00000071525574,1.64379715919495,3.044442653656,2128.048,2128.534,2129.537,2129.052,-0.00205206521786749,45.0000076293945,0.000774082320276648,-3.18452293868177E-06,-1.32835339172743E-06,-2.38425072893733E-05,0,0,0,0
10.62,-2.99999666213989,1.64379906654358,3.04444432258606,-3.00000071525574,1.64379715919495,3.044442653656,2129.595,2129.126,2127.988,2128.457,0.000387059670174494,45.0000076293945,-0.000180835530045442,-1.0037494575954E-05,-4.41569773101946E-06,-2.17593660636339E-05,0,0,0,0
10.64,-2.99999713897705,1.643798828125,3.0444438457489,-3.00000071525574,1.64379715919495,3.044442653656,2130.522,2129.46,2127.06,2128.122,0.00211993348784745,45.0000076293945,-0.000841757166199386,-8.69266114023048E-06,-3.92746687793988E-06,-1.97773060790496E-05,0,0,0,0
10.66,-2.99999713897705,1.643798828125,3.04444336891174,-3.00000071525574,1.64379715919495,3.044442653656,2130.413,2129.43,2127.168,2128.15,0.00233142240904272,45.0000076293945,-0.000913319352548569,-1.48890785567346E-06,-8.37221250549192E-07,-1.78919326572213E-05,0,0,0,0
10.68,-2.99999666213989,1.64379906654358,3.04444313049316,-3.00000071525574,1.64379715919495,3.044442653656,2129.51,2129.06,2128.069,2128.519,0.00111575669143349,45.0000076293945,-0.000422472454374656,6.34635352980695E-06,2.55123654824274E-06,-1.60549025167711E-05,0,0,0,0
10.7,-2.99999642372131,1.64379906654358,3.04444289207458,-3.00000071525574,1.64379715919495,3.044442653656,2128.311,2128.584,2129.266,2128.991,-0.000731624779291451,45.0000076293945,0.000305738823954016,1.01002642622916E-05,4.20892092733993E-06,-1.42881881401991E-05,0,0,0,0
10.72,-2.99999570846558,1.64379930496216,3.04444265365601,-3.00000071525574,1.64379715919495,3.044442653656,2127.398,2128.257,2130.176,2129.316,-0.00215478450991213,45.0000076293945,0.000854725716635585,7.58596524974564E-06,3.14180533678154E-06,-1.25961860248935E-05,0,0,0,0
10.74,-2.99999570846558,1.64379930496216,3.04444241523743,-3.00000071525574,1.64379715919495,3.044442653656,2127.518,2128.295,2130.053,2129.276,-0.00235479604452848,45.0000076293945,0.000937040138524026,3.23736003338126E-07,-5.36915649718139E-08,-1.10272385427379E-05,0,0,0,0
10.76,-2.99999642372131,1.64379906654358,3.04444217681885,-3.00000071525574,1.64379715919495,3.044442653656,2128.13,2128.52,2129.439,2129.049,-0.00143809244036674,45.0000076293945,0.000587406160775572,-7.65185905038379E-06,-3.50354525835428E-06,-9.62089870881755E-06,0,0,0,0
10.78,-2.99999666213989,1.64379906654358,3.04444193840027,-3.00000071525574,1.64379715919495,3.044442653656,2129.039,2128.86,2128.529,2128.707,5.85946872888599E-05,45.0000076293945,4.55384088127175E-06,-1.25459773698822E-05,-5.55591759621166E-06,-8.3200347944512E-06,0,0,0,0
10.8,-2.99999666213989,1.64379906654358,3.04444169998169,-3.00000071525574,1.64379715919495,3.044442653656,2129.885,2129.197,2127.681,2128.369,0.00133355963043869,45.0000076293945,-0.00051111273933202,-1.24056550703244E-05,-5.4331312639988E-06,-7.07190838511451E-06,0,0,0,0
10.82,-2.99999713897705,1.643798828125,3.04444169998169,-3.00000071525574,1.64379715919495,3.044442653656,2129.955,2129.262,2127.609,2128.302,0.0016394667327404,45.0000076293945,-0.000663430080749094,-7.92086848377949E-06,-3.47140326084627E-06,-5.90728359384229E-06,0,0,0,0
10.84,-2.99999713897705,1.643798828125,3.04444169998169,-3.00000071525574,1.64379715919495,3.044442653656,2129.26,2128.999,2128.301,2128.562,0.000914454518351704,45.0000076293945,-0.000393268681364134,-2.31926424021367E-06,-1.15299417302595E-06,-4.80418611914502E-06,0,0,0,0
10.86,-2.99999713897705,1.643798828125,3.04444169998169,-3.00000071525574,1.64379715919495,3.044442653656,2128.548,2128.705,2129.011,2128.854,-0.000230209538131021,45.0000076293945,6.89796361257322E-05,8.4991688709124E-07,8.66120899445377E-08,-3.82414327759761E-06,0,0,0,0
10.88,-2.99999713897705,1.643798828125,3.04444169998169,-3.00000071525574,1.64379715919495,3.044442653656,2127.959,2128.453,2129.597,2129.104,-0.00116851064376533,45.0000076293945,0.000465172925032675,1.54106260197295E-07,-3.37307199060888E-07,-2.95836548502848E-06,0,0,0,0
10.9,-2.99999713897705,1.643798828125,3.04444169998169,-3.00000071525574,1.64379715919495,3.044442653656,2127.913,2128.42,2129.641,2129.134,-0.00138402334414423,45.0000076293945,0.000574578705709428,-3.78104368792265E-06,-2.03883541871619E-06,-2.22003723138187E-06,0,0,0,0
10.92,-2.99999713897705,1.64379870891571,3.04444169998169,-3.00000071525574,1.64379715919495,3.044442653656,2128.357,2128.588,2129.196,2128.965,-0.000837029772810638,45.0000076293945,0.000369445857359096,-8.52310768095776E-06,-3.99179316445952E-06,-1.58718444254191E-06,0,0,0,0
10.94,-2.99999761581421,1.64379835128784,3.04444169998169,-3.00000071525574,1.64379715919495,3.044442653656,2128.97,2128.858,2128.58,2128.693,8.01449859864078E-05,45.0000076293945,-1.86095655863028E-06,-1.14642434709822E-05,-5.17584931003512E-06,-9.89490217762068E-07,0,0,0,0
10.96,-2.99999761581421,1.64379858970642,3.04444169998169,-3.00000071525574,1.64379715919495,3.044442653656,2129.327,2129.01,2128.222,2128.539,0.000828554388135672,45.0000076293945,-0.000302872475003824,-1.12420584628126E-05,-4.98581812280463E-06,-5.19245418217906E-07,0,0,0,0
10.98,-2.99999809265137,1.64379835128784,3.04444169998169,-3.00000071525574,1.64379715919495,3.044442653656,2129.555,2129.026,2127.993,2128.522,0.00109177560079843,45.0000076293945,-0.000397521071135998,-8.49388925416861E-06,-3.74621731680236E-06,-1.10528020513811E-07,0,0,0,0
11,-2.99999809265137,1.64379835128784,3.04444169998169,-3.00000071525574,1.64379715919495,3.044442653656,2129.065,2128.911,2128.483,2128.636,0.000671360525302589,45.0000076293945,-0.000270164775429294,-4.89203466713661E-06,-2.07977655009017E-06,2.49846465294468E-07,0,0,0,0
11.02,-2.99999809265137,1.64379835128784,3.04444169998169,-3.00000071525574,1.64379715919495,3.044442653656,2128.688,2128.759,2128.859,2128.788,-1.30721718960558E-06,45.0000076293945,-2.19119337998563E-05,-2.61163245340867E-06,-1.14714964638551E-06,5.88246905408596E-07,0,0,0,0
11.04,-2.99999809265137,1.64379835128784,3.04444169998169,-3.00000071525574,1.64379715919495,3.044442653656,2128.306,2128.609,2129.24,2128.937,-0.000595858553424478,45.0000076293945,0.000212677681702189,-2.56485100180726E-06,-1.23193183299009E-06,8.82699225712713E-07,0,0,0,0
11.06,-2.99999809265137,1.64379835128784,3.04444169998169,-3.00000071525574,1.64379715919495,3.044442653656,2128.247,2128.57,2129.298,2128.975,-0.000776129250880331,45.0000076293945,0.000301823776680976,-4.5178003347246E-06,-2.18794184547733E-06,1.1683619050018E-06,0,0,0,0
11.08,-2.99999833106995,1.64379799365997,3.04444169998169,-3.00000071525574,1.64379715919495,3.044442653656,2128.489,2128.651,2129.055,2128.894,-0.000490717065986246,45.0000076293945,0.000211745253182016,-7.13732924850774E-06,-3.35152708430542E-06,1.37931283461512E-06,0,0,0,0
11.1,-2.99999856948853,1.64379823207855,3.04444169998169,-3.00000071525574,1.64379715919495,3.044442653656,2128.79,2128.804,2128.753,2128.74,4.80785747640766E-05,45.0000076293945,1.39623143695644E-05,-8.86224461282836E-06,-4.02979867430986E-06,1.56389489802677E-06,0,0,0,0
11.12,-2.99999856948853,1.64379787445068,3.04444169998169,-3.00000071525574,1.64379715919495,3.044442653656,2129.191,2128.835,2128.352,2128.708,0.000572692661080509,45.0000076293945,-0.000157294969540089,-8.78038554219529E-06,-3.90408285966259E-06,1.71331851106515E-06,0,0,0,0
11.14,-2.9999988079071,1.64379811286926,3.04444169998169,-3.00000071525574,1.64379715919495,3.044442653656,2129.192,2129.004,2128.351,2128.539,0.000730706320609897,45.0000076293945,-0.000272438686806709,-7.03793148204568E-06,-2.93930406769505E-06,1.85395242624509E-06,0,0,0,0
11.16,-2.9999988079071,1.64379811286926,3.04444169998169,-3.00000071525574,1.64379715919495,3.044442653656,2129.053,2128.813,2128.49,2128.729,0.000519481080118567,45.0000076293945,-0.000183056909008883,-4.58797057945048E-06,-1.86049896910845E-06,2.01656052922772E-06,0,0,0,0
11.18,-2.9999988079071,1.64379811286926,3.04444169998169,-3.00000071525574,1.64379715919495,3.044442653656,2128.729,2128.791,2128.813,2128.751,6.16098768659867E-05,45.0000076293945,-5.65016016480513E-05,-2.86890008283081E-06,-1.05066771993734E-06,2.10006191991852E-06,0,0,0,0
11.2,-2.9999988079071,1.64379811286926,3.04444169998169,-3.00000071525574,1.64379715919495,3.044442653656,2128.472,2128.688,2129.071,2128.854,-0.000358051329385489,45.0000076293945,8.76275589689612E-05,-2.57069132203469E-06,-1.04774187548173E-06,2.1659841422661E-06,0,0,0,0
11.22,-2.9999988079071,1.64379811286926,3.04444169998169,-3.00000071525574,1.64379715919495,3.044442653656,2128.41,2128.655,2129.132,2128.886,-0.000512927188538015,45.0000076293945,0.000159105664351955,-3.66995436706929E-06,-1.72016393662489E-06,2.2494855329569E-06,0,0,0,0
11.24,-2.9999988079071,1.64379811286926,3.04444169998169,-3.00000071525574,1.64379715919495,3.044442653656,2128.557,2128.688,2128.985,2128.854,-0.000348788627889007,45.0000076293945,0.000128674524603412,-5.2720747589774E-06,-2.57969600170327E-06,2.31101284953183E-06,0,0,0,0
11.26,-2.99999904632568,1.6437976360321,3.04444169998169,-3.00000071525574,1.64379715919495,3.044442653656,2128.812,2128.766,2128.73,2128.776,4.84574366055313E-06,45.0000076293945,2.52154350164346E-05,-6.42396571493009E-06,-3.16441287395719E-06,2.42088322011114E-06,0,0,0,0
11.28,-2.99999904632568,1.6437976360321,3.04444169998169,-3.00000071525574,1.64379715919495,3.044442653656,2128.92,2128.867,2128.622,2128.674,0.000324039196129888,45.0000076293945,-8.43214875203557E-05,-6.47074466542108E-06,-3.12348402076168E-06,2.51756910074619E-06,0,0,0,0
11.3,-2.99999904632568,1.6437976360321,3.04444169998169,-3.00000071525574,1.64379715919495,3.044442653656,2129.106,2128.845,2128.435,2128.696,0.000513289938680828,45.0000076293945,-0.00010999410005752,-5.47672698303359E-06,-2.56800035458582E-06,2.56591192737687E-06,0,0,0,0
11.32,-2.99999904632568,1.6437976360321,3.04444169998169,-3.00000071525574,1.64379715919495,3.044442653656,2128.992,2128.815,2128.548,2128.726,0.000409062544349581,45.0000076293945,-7.1072303398978E-05,-3.95646566175856E-06,-1.62660785463231E-06,2.58349109572009E-06,0,0,0,0
11.34,-2.99999904632568,1.6437976360321,3.04444169998169,-3.00000071525574,1.64379715919495,3.044442653656,2128.781,2128.761,2128.759,2128.78,0.000111428780655842,45.0000076293945,6.43646399112185E-06,-2.79287928606209E-06,-8.25545555471763E-07,2.64501841229503E-06,0,0,0,0
11.36,-2.99999904632568,1.6437976360321,3.04444169998169,-3.00000071525574,1.64379715919495,3.044442653656,2128.588,2128.717,2128.953,2128.823,-0.000194826992810704,45.0000076293945,7.46636433177628E-05,-2.54729616244731E-06,-5.88734110351652E-07,2.702151050471E-06,0,0,0,0
11.38,-2.99999904632568,1.6437976360321,3.04444169998169,-3.00000071525574,1.64379715919495,3.044442653656,2128.518,2128.711,2129.023,2128.829,-0.000338677957188338,45.0000076293945,9.51635229284875E-05,-3.20802291753353E-06,-8.95708353709779E-07,2.70654595624364E-06,0,0,0,0
11.4,-2.99999904632568,1.6437976360321,3.04444169998169,-3.00000071525574,1.64379715919495,3.044442653656,2128.601,2128.737,2128.939,2128.803,-0.000258969172136858,45.0000076293945,6.29419664619491E-05,-4.27220493293134E-06,-1.52135351072502E-06,2.75049410447537E-06,0,0,0,0
11.42,-2.99999904632568,1.6437976360321,3.04444169998169,-3.00000071525574,1.64379715919495,3.044442653656,2128.767,2128.781,2128.773,2128.759,-2.81630964309443E-05,45.0000076293945,7.08290883721929E-07,-5.055724614067E-06,-1.99204941964126E-06,2.73730961453111E-06,0,0,0,0
11.44,-2.99999904632568,1.6437976360321,3.04444169998169,-3.00000071525574,1.64379715919495,3.044442653656,2128.921,2128.813,2128.619,2128.728,0.000206317912670784,45.0000076293945,-5.27620213688351E-05,-5.12004407937638E-06,-2.09437507692201E-06,2.77246817859123E-06,0,0,0,0
11.46,-2.99999904632568,1.6437976360321,3.04444169998169,-3.00000071525574,1.64379715919495,3.044442653656,2128.97,2128.821,2128.57,2128.72,0.000308971648337319,45.0000076293945,-6.97654832038097E-05,-4.49439903604798E-06,-1.74062245150708E-06,2.78125776276283E-06,0,0,0,0
11.48,-2.99999904632568,1.6437976360321,3.04444169998169,-3.00000071525574,1.64379715919495,3.044442653656,2128.903,2128.797,2128.637,2128.743,0.000237677508266643,45.0000076293945,-4.34233406849671E-05,-3.57054796040757E-06,-1.19391324915341E-06,2.76807327281858E-06,0,0,0,0
11.5,-2.99999904632568,1.6437976360321,3.04444169998169,-3.00000071525574,1.64379715919495,3.044442653656,2128.77,2128.764,2128.77,2128.776,5.04808922414668E-05,45.0000076293945,5.62812465432216E-06,-2.90981824946357E-06,-7.55375936023484E-07,2.75928368864697E-06,0,0,0,0
11.52,-2.99999904632568,1.6437976360321,3.04444169998169,-3.00000071525574,1.64379715919495,3.044442653656,2128.652,2128.736,2128.889,2128.804,-0.000135396476252936,45.0000076293945,4.86488970636856E-05,-2.81041525340697E-06,-6.50126310119958E-07,2.79883693110605E-06,0,0,0,0
11.54,-2.99999904632568,1.6437976360321,3.04444169998169,-3.00000071525574,1.64379715919495,3.044442653656,2128.616,2128.733,2128.925,2128.807,-0.000215689549804665,45.0000076293945,6.11863797530532E-05,-3.23725657835894E-06,-8.66470259097696E-07,2.79444202533341E-06,0,0,0,0
11.56,-2.99999904632568,1.6437976360321,3.04444169998169,-3.00000071525574,1.64379715919495,3.044442653656,2128.673,2128.751,2128.868,2128.79,-0.000158642942551523,45.0000076293945,4.02252699132077E-05,-3.92722085962305E-06,-1.23191705370118E-06,2.77246795121755E-06,0,0,0,0
11.58,-2.99999904632568,1.6437976360321,3.04444169998169,-3.00000071525574,1.64379715919495,3.044442653656,2128.776,2128.775,2128.765,2128.765,-1.43867691804189E-05,45.0000076293945,1.21919447337859E-06,-4.38329925600556E-06,-1.55643465404864E-06,2.80762651527766E-06,0,0,0,0
11.6,-2.99999904632568,1.6437976360321,3.04444169998169,-3.00000071525574,1.64379715919495,3.044442653656,2128.866,2128.801,2128.675,2128.739,0.000126382888993248,45.0000076293945,-3.40176775353029E-05,-4.4066882765037E-06,-1.59736509885988E-06,2.82081100522191E-06,0,0,0,0
11.62,-2.99999904632568,1.6437976360321,3.04444169998169,-3.00000071525574,1.64379715919495,3.044442653656,2128.893,2128.802,2128.647,2128.739,0.000185078519280069,45.0000076293945,-4.29645006079227E-05,-3.99738746637013E-06,-1.40148563332332E-06,2.82960058939352E-06,0,0,0,0
11.64,-2.99999904632568,1.6437976360321,3.04444169998169,-3.00000071525574,1.64379715919495,3.044442653656,2128.849,2128.788,2128.692,2128.752,0.000136682210722938,45.0000076293945,-2.50087996391812E-05,-3.43606029673538E-06,-1.10620453597221E-06,2.82960058939352E-06,0,0,0,0
11.66,-2.99999904632568,1.6437976360321,3.04444169998169,-3.00000071525574,1.64379715919495,3.044442653656,2128.765,2128.766,2128.775,2128.774,2.03463077923516E-05,45.0000076293945,8.1178613982047E-06,-3.03260594591848E-06,-8.40158406845148E-07,2.80762651527766E-06,0,0,0,0
11.68,-2.99999904632568,1.6437976360321,3.04444169998169,-3.00000071525574,1.64379715919495,3.044442653656,2128.698,2128.747,2128.842,2128.793,-8.95819830475375E-05,45.0000076293945,3.6250363336876E-05,-3.01506383948436E-06,-7.72915370816918E-07,2.76807327281858E-06,0,0,0,0
11.7,-2.99999904632568,1.6437976360321,3.04444169998169,-3.00000071525574,1.64379715919495,3.044442653656,2128.677,2128.744,2128.863,2128.796,-0.000134538917336613,45.0000076293945,4.29456231358927E-05,-3.2840321182448E-06,-9.16170392883942E-07,2.76367836704594E-06,0,0,0,0
11.72,-2.99999904632568,1.6437976360321,3.04444169998169,-3.00000071525574,1.64379715919495,3.044442653656,2128.714,2128.76,2128.826,2128.78,-9.64324499364011E-05,45.0000076293945,2.62248304352397E-05,-3.70502721125376E-06,-1.16759815682599E-06,2.76807327281858E-06,0,0,0,0
11.74,-2.99999904632568,1.6437976360321,3.04444169998169,-3.00000071525574,1.64379715919495,3.044442653656,2128.776,2128.778,2128.764,2128.762,-7.96021504356759E-06,45.0000076293945,2.22442807285006E-07,-3.99153850594303E-06,-1.39271423904574E-06,2.8120214210503E-06,0,0,0,0
11.76,-2.99999904632568,1.6437976360321,3.04444169998169,-3.00000071525574,1.64379715919495,3.044442653656,2128.829,2128.791,2128.712,2128.749,7.63658972573467E-05,45.0000076293945,-1.97492463485105E-05,-3.99738610212808E-06,-1.46288073210599E-06,2.84717998511042E-06,0,0,0,0
11.78,-2.99999904632568,1.6437976360321,3.04444169998169,-3.00000071525574,1.64379715919495,3.044442653656,2128.844,2128.79,2128.696,2128.75,0.000111268571345136,45.0000076293945,-2.22413691517431E-05,-3.75765307580878E-06,-1.3664030120708E-06,2.84278507933777E-06,0,0,0,0
11.8,-2.99999904632568,1.6437976360321,3.04444169998169,-3.00000071525574,1.64379715919495,3.044442653656,2128.818,2128.779,2128.723,2128.762,8.20950735942461E-05,45.0000076293945,-7.6779215305578E-06,-3.41851796292758E-06,-1.19098854156618E-06,2.83839017356513E-06,0,0,0,0
11.82,-2.99999904632568,1.6437976360321,3.04444169998169,-3.00000071525574,1.64379715919495,3.044442653656,2128.768,2128.765,2128.772,2128.775,1.24499674711842E-05,45.0000076293945,1.35287154989783E-05,-3.20217282023805E-06,-1.0594276318443E-06,2.84717975773674E-06,0,0,0,0
11.84,-2.99999904632568,1.6437976360321,3.04444169998169,-3.00000071525574,1.64379715919495,3.044442653656,2128.725,2128.755,2128.815,2128.785,-5.37086416443344E-05,45.0000076293945,2.90815605694661E-05,-3.20801973430207E-06,-1.01265004559536E-06,2.82960058939352E-06,0,0,0,0
11.86,-2.99999904632568,1.6437976360321,3.04444169998169,-3.00000071525574,1.64379715919495,3.044442653656,2128.716,2128.755,2128.824,2128.786,-7.90187041275203E-05,45.0000076293945,3.05470894090831E-05,-3.42436442224425E-06,-1.10620442228537E-06,2.82520568362088E-06,0,0,0,0
11.88,-2.99999904632568,1.6437976360321,3.04444169998169,-3.00000071525574,1.64379715919495,3.044442653656,2128.736,2128.765,2128.804,2128.775,-5.53764766664244E-05,45.0000076293945,1.75483855855418E-05,-3.6874864690617E-06,-1.28454303194303E-06,2.85596934190835E-06,0,0,0,0
11.9,-2.99999904632568,1.6437976360321,3.04444169998169,-3.00000071525574,1.64379715919495,3.044442653656,2128.775,2128.779,2128.765,2128.761,-5.44234239896468E-07,45.0000076293945,-5.38719518772268E-07,-3.86874853575137E-06,-1.38979180519527E-06,2.84717975773674E-06,0,0,0,0
11.92,-2.99999904632568,1.6437976360321,3.04444169998169,-3.00000071525574,1.64379715919495,3.044442653656,2128.809,2128.783,2128.731,2128.757,5.14611165272072E-05,45.0000076293945,-1.13701416921685E-05,-3.86874899049872E-06,-1.42487488119514E-06,2.86475892607996E-06,0,0,0,0
11.94,-2.99999904632568,1.6437976360321,3.04444169998169,-3.00000071525574,1.64379715919495,3.044442653656,2128.818,2128.781,2128.722,2128.759,7.10985841578804E-05,45.0000076293945,-1.18834286695346E-05,-3.72257045455626E-06,-1.36640358050499E-06,2.86036402030732E-06,0,0,0,0
11.96,-2.99999904632568,1.6437976360321,3.04444169998169,-3.00000071525574,1.64379715919495,3.044442653656,2128.797,2128.776,2128.743,2128.764,5.0075956096407E-05,45.0000076293945,-3.30355442201835E-06,-3.5062255392404E-06,-1.23484255709627E-06,2.84717953036306E-06,0,0,0,0
11.98,-2.99999904632568,1.6437976360321,3.04444169998169,-3.00000071525574,1.64379715919495,3.044442653656,2128.769,2128.767,2128.771,2128.773,6.3439965742873E-06,45.0000076293945,9.70510973274941E-06,-3.37758797286369E-06,-1.18221839784383E-06,2.82960036201985E-06,0,0,0,0
12,-2.99999904632568,1.6437976360321,3.04444169998169,-3.00000071525574,1.64379715919495,3.044442653656,2128.74,2128.763,2128.8,2128.777,-3.49851070495788E-05,45.0000076293945,1.91801609616959E-05,-3.40097653861449E-06,-1.15882960471936E-06,2.81202119367663E-06,0,0,0,0
12.02,-2.99999904632568,1.6437976360321,3.04444169998169,-3.00000071525574,1.64379715919495,3.044442653656,2128.736,2128.762,2128.804,2128.778,-4.85635864606593E-05,45.0000076293945,2.15408799704164E-05,-3.55300267074199E-06,-1.24946063806419E-06,2.79883670373238E-06,0,0,0,0
12.04,-2.99999904632568,1.6437976360321,3.04444169998169,-3.00000071525574,1.64379715919495,3.044442653656,2128.749,2128.766,2128.791,2128.774,-3.10934010485653E-05,45.0000076293945,1.58449693117291E-05,-3.70502857549582E-06,-1.31085550947319E-06,2.78125753538916E-06,0,0,0,0
12.06,-2.99999904632568,1.6437976360321,3.04444169998169,-3.00000071525574,1.64379715919495,3.044442653656,2128.78,2128.772,2128.761,2128.768,6.1650116549572E-06,45.0000076293945,5.81449876335682E-06,-3.84536087949527E-06,-1.32547290832008E-06,2.76367836704594E-06,0,0,0,0
12.08,-2.99999904632568,1.6437976360321,3.04444169998169,-3.00000071525574,1.64379715919495,3.044442653656,2128.797,2128.775,2128.744,2128.765,3.63562030543108E-05,45.0000076293945,-3.08521748593193E-06,-3.85120847568032E-06,-1.28161900647683E-06,2.74609919870272E-06,0,0,0,0
12.1,-2.99999904632568,1.6437976360321,3.04444169998169,-3.00000071525574,1.64379715919495,3.044442653656,2128.8,2128.779,2128.74,2128.762,4.4403423089534E-05,45.0000076293945,-8.59266856423346E-06,-3.74595970242808E-06,-1.27284897644131E-06,2.7856524411618E-06,0,0,0,0
12.12,-2.99999904632568,1.6437976360321,3.04444169998169,-3.00000071525574,1.64379715919495,3.044442653656,2128.783,2128.781,2128.757,2128.76,2.81865195574937E-05,45.0000076293945,-7.45693523640512E-06,-3.5997804843646E-06,-1.20268305181526E-06,2.83399526779249E-06,0,0,0,0
12.14,-2.99999904632568,1.6437976360321,3.04444169998169,-3.00000071525574,1.64379715919495,3.044442653656,2128.768,2128.771,2128.772,2128.769,2.5466481474723E-06,45.0000076293945,1.97100416698959E-06,-3.51792027686315E-06,-1.1705234328474E-06,2.83399526779249E-06,0,0,0,0
12.16,-2.99999904632568,1.6437976360321,3.04444169998169,-3.00000071525574,1.64379715919495,3.044442653656,2128.753,2128.765,2128.787,2128.775,-1.98423040274065E-05,45.0000076293945,1.18229818326654E-05,-3.51792027686315E-06,-1.20560662253411E-06,2.85596934190835E-06,0,0,0,0
12.18,-2.99999904632568,1.6437976360321,3.04444169998169,-3.00000071525574,1.64379715919495,3.044442653656,2128.752,2128.762,2128.788,2128.778,-2.59295266005211E-05,45.0000076293945,1.63038675964344E-05,-3.62316927748907E-06,-1.24068947116029E-06,2.8427848519641E-06,0,0,0,0
12.2,-2.99999904632568,1.6437976360321,3.04444169998169,-3.00000071525574,1.64379715919495,3.044442653656,2128.76,2128.764,2128.78,2128.776,-1.4678491425002E-05,45.0000076293945,1.32463856061804E-05,-3.75765421267715E-06,-1.24945995594317E-06,2.79004711956077E-06,0,0,0,0
12.22,-2.99999904632568,1.6437976360321,3.04444169998169,-3.00000071525574,1.64379715919495,3.044442653656,2128.776,2128.769,2128.764,2128.771,6.65511197439628E-06,45.0000076293945,4.3466661736602E-06,-3.82782036467688E-06,-1.26700138025626E-06,2.76367836704594E-06,0,0,0,0
12.24,-2.99999904632568,1.6437976360321,3.04444169998169,-3.00000071525574,1.64379715919495,3.044442653656,2128.787,2128.778,2128.753,2128.762,2.393684371782E-05,45.0000076293945,-6.24918629910098E-06,-3.83366750611458E-06,-1.22314747841301E-06,2.73291470875847E-06,0,0,0,0
12.26,-2.99999904632568,1.6437976360321,3.04444169998169,-3.00000071525574,1.64379715919495,3.044442653656,2128.789,2128.778,2128.752,2128.762,2.77908529824344E-05,45.0000076293945,-1.05787685242831E-05,-3.75765444005083E-06,-1.21437699363014E-06,2.72851980298583E-06,0,0,0,0
12.28,-2.99999904632568,1.6437976360321,3.04444169998169,-3.00000071525574,1.64379715919495,3.044442653656,2128.778,2128.779,2128.762,2128.761,1.74632968992228E-05,45.0000076293945,-8.83054417499807E-06,-3.67579423254938E-06,-1.18221760203596E-06,2.72851980298583E-06,0,0,0,0
12.3,-2.99999904632568,1.6437976360321,3.04444169998169,-3.00000071525574,1.64379715919495,3.044442653656,2128.768,2128.771,2128.773,2128.77,1.43484419368178E-06,45.0000076293945,-2.50667397949655E-07,-3.61732259079872E-06,-1.18514117275481E-06,2.78125753538916E-06,0,0,0,0
12.32,-2.99999904632568,1.6437976360321,3.04444169998169,-3.00000071525574,1.64379715919495,3.044442653656,2128.76,2128.767,2128.781,2128.774,-1.11542231024941E-05,45.0000076293945,7.90517424320569E-06,-3.61732236342505E-06,-1.22022436244151E-06,2.82081077784824E-06,0,0,0,0
12.34,-2.99999904632568,1.6437976360321,3.04444169998169,-3.00000071525574,1.64379715919495,3.044442653656,2128.761,2128.763,2128.78,2128.777,-1.32838022182113E-05,45.0000076293945,1.21033726827591E-05,-3.65825235348893E-06,-1.20852962481877E-06,2.79004711956077E-06,0,0,0,0
12.36,-2.99999904632568,1.6437976360321,3.04444169998169,-3.00000071525574,1.64379715919495,3.044442653656,2128.769,2128.768,2128.771,2128.773,-5.84907093070797E-06,45.0000076293945,9.56415260588983E-06,-3.69918211617914E-06,-1.19098785944516E-06,2.77246795121755E-06,0,0,0,0
12.38,-2.99999904632568,1.6437976360321,3.04444169998169,-3.00000071525574,1.64379715919495,3.044442653656,2128.777,2128.772,2128.764,2128.768,3.61159823114576E-06,45.0000076293945,4.05670016334625E-06,-3.71672354049224E-06,-1.23191841794323E-06,2.76807304544491E-06,0,0,0,0
12.4,-2.99999904632568,1.6437976360321,3.04444169998169,-3.00000071525574,1.64379715919495,3.044442653656,2128.778,2128.775,2128.762,2128.765,8.59635929373326E-06,45.0000076293945,-8.44252525666889E-08,-3.72257090930361E-06,-1.18806440241315E-06,2.7592834612733E-06,0,0,0,0
12.42,-2.99999904632568,1.6437976360321,3.04444169998169,-3.00000071525574,1.64379715919495,3.044442653656,2128.777,2128.772,2128.763,2128.768,7.69176767789759E-06,45.0000076293945,-6.91937657393282E-07,-3.71087685380189E-06,-1.19391165753768E-06,2.75049387710169E-06,0,0,0,0
12.44,-2.99999904632568,1.6437976360321,3.04444169998169,-3.00000071525574,1.64379715919495,3.044442653656,2128.77,2128.773,2128.77,2128.767,2.78241554951819E-06,45.0000076293945,-5.92728895298933E-07,-3.71672422261327E-06,-1.16467572297552E-06,2.71533531304158E-06,0,0,0,0
12.46,-2.99999904632568,1.6437976360321,3.04444169998169,-3.00000071525574,1.64379715919495,3.044442653656,2128.768,2128.771,2128.772,2128.769,-8.54836116559454E-07,45.0000076293945,1.06126913124172E-06,-3.71672422261327E-06,-1.19975891266222E-06,2.74609897132905E-06,0,0,0,0
12.48,-2.99999904632568,1.6437976360321,3.04444169998169,-3.00000071525574,1.64379715919495,3.044442653656,2128.767,2128.772,2128.773,2128.769,-1.47673983974528E-06,45.0000076293945,2.80949666375818E-06,-3.71672399523959E-06,-1.23484210234892E-06,2.80323160950502E-06,0,0,0,0
12.5,-2.99999904632568,1.6437976360321,3.04444169998169,-3.00000071525574,1.64379715919495,3.044442653656,2128.77,2128.771,2128.77,2128.77,1.67054179200932E-06,45.0000076293945,4.93464358441997E-06,-3.71672376786591E-06,-1.26992517834879E-06,2.83399526779249E-06,0,0,0,0
12.52,-2.99999904632568,1.6437976360321,3.04444169998169,-3.00000071525574,1.64379715919495,3.044442653656,2128.774,2128.769,2128.766,2128.772,5.80723508392111E-06,45.0000076293945,6.54152790957596E-06,-3.74011256099038E-06,-1.24068913009978E-06,2.82960036201985E-06,0,0,0,0
12.54,-2.99999904632568,1.6437976360321,3.04444169998169,-3.00000071525574,1.64379715919495,3.044442653656,2128.775,2128.77,2128.766,2128.771,7.25838299331372E-06,45.0000076293945,6.21670460532187E-06,-3.76934872292622E-06,-1.21145319553762E-06,2.80762628790399E-06,0,0,0,0
12.56,-2.99999904632568,1.6437976360321,3.04444169998169,-3.00000071525574,1.64379715919495,3.044442653656,2128.773,2128.768,2128.767,2128.772,5.83552764510387E-06,45.0000076293945,4.80824064652552E-06,-3.7810432331753E-06,-1.21730056434899E-06,2.80762628790399E-06,0,0,0,0
12.58,-2.99999904632568,1.6437976360321,3.04444169998169,-3.00000071525574,1.64379715919495,3.044442653656,2128.77,2128.773,2128.77,2128.767,3.14057319883432E-06,45.0000076293945,1.18537911930616E-06,-3.78689037461299E-06,-1.1734465488189E-06,2.77246772384387E-06,0,0,0,0
12.6,-2.99999904632568,1.6437976360321,3.04444169998169,-3.00000071525574,1.64379715919495,3.044442653656,2128.772,2128.771,2128.769,2128.769,1.81194764081738E-06,45.0000076293945,-6.94233733611327E-07,-3.78689037461299E-06,-1.2085297385056E-06,2.80323138213134E-06,0,0,0,0
12.62,-2.99999904632568,1.6437976360321,3.04444169998169,-3.00000071525574,1.64379715919495,3.044442653656,2128.768,2128.775,2128.772,2128.765,5.30436750523222E-07,45.0000076293945,-2.05558376364934E-06,-3.78689037461299E-06,-1.24361304187914E-06,2.82960013464617E-06,0,0,0,0
12.64,-2.99999904632568,1.6437976360321,3.04444169998169,-3.00000071525574,1.64379715919495,3.044442653656,2128.77,2128.773,2128.77,2128.767,2.26427346206037E-06,45.0000076293945,3.52252442326062E-07,-3.78689037461299E-06,-1.27869600419217E-06,2.86915337710525E-06,0,0,0,0
12.66,-2.99999904632568,1.6437976360321,3.04444169998169,-3.00000071525574,1.64379715919495,3.044442653656,2128.772,2128.77,2128.768,2128.77,5.364439857658E-06,45.0000076293945,4.40910753241042E-06,-3.78689037461299E-06,-1.31377919387887E-06,2.90431194116536E-06,0,0,0,0
12.68,-2.99999904632568,1.6437976360321,3.04444169998169,-3.00000071525574,1.64379715919495,3.044442653656,2128.774,2128.767,2128.765,2128.773,7.8992279668455E-06,45.0000076293945,7.80635491537396E-06,-3.79273751605069E-06,-1.26992517834879E-06,2.8823378670495E-06,0,0,0,0
12.7,-2.99999904632568,1.6437976360321,3.04444169998169,-3.00000071525574,1.64379715919495,3.044442653656,2128.773,2128.768,2128.767,2128.772,7.51289826439461E-06,45.0000076293945,7.71710620028898E-06,-3.77519586436392E-06,-1.26700183500361E-06,2.86915337710525E-06,0,0,0,0
12.72,-2.99999904632568,1.6437976360321,3.04444169998169,-3.00000071525574,1.64379715919495,3.044442653656,2128.771,2128.771,2128.769,2128.769,5.47755189472809E-06,45.0000076293945,5.50768936591339E-06,-3.81612653654884E-06,-1.24946029700368E-06,2.84278462459042E-06,0,0,0,0
12.74,-2.99999904632568,1.6437976360321,3.04444169998169,-3.00000071525574,1.64379715919495,3.044442653656,2128.77,2128.772,2128.77,2128.768,3.67777806786762E-06,45.0000076293945,3.15692886942998E-06,-3.82197367798653E-06,-1.20560616778675E-06,2.81202096630295E-06,0,0,0,0
12.76,-2.99999904632568,1.6437976360321,3.04444169998169,-3.00000071525574,1.64379715919495,3.044442653656,2128.77,2128.772,2128.77,2128.768,3.1501047033089E-06,45.0000076293945,2.17249771594652E-06,-3.79858488486207E-06,-1.19683522825653E-06,2.82081055047456E-06,0,0,0,0
12.78,-2.99999904632568,1.6437976360321,3.04444169998169,-3.00000071525574,1.64379715919495,3.044442653656,2128.773,2128.772,2128.768,2128.768,3.94164544559317E-06,45.0000076293945,2.60151159636735E-06,-3.7751960917376E-06,-1.18806428872631E-06,2.8252054562472E-06,0,0,0,0
12.8,-2.99999904632568,1.6437976360321,3.04444169998169,-3.00000071525574,1.64379715919495,3.044442653656,2128.773,2128.771,2128.767,2128.769,3.83800579584204E-06,45.0000076293945,4.30262525696889E-06,-3.75180729861313E-06,-1.17929346288292E-06,2.82081055047456E-06,0,0,0,0
12.82,-2.99999904632568,1.6437976360321,3.04444169998169,-3.00000071525574,1.64379715919495,3.044442653656,2128.772,2128.77,2128.768,2128.771,2.41515044763219E-06,45.0000076293945,6.00373823544942E-06,-3.7576546674245E-06,-1.13543944735284E-06,2.80323138213134E-06,0,0,0,0
12.84,-2.99999904632568,1.6437976360321,3.04444169998169,-3.00000071525574,1.64379715919495,3.044442653656,2128.771,2128.767,2128.769,2128.773,4.26917551976658E-07,45.0000076293945,6.95101471137605E-06,-3.78104346054897E-06,-1.10620339910383E-06,2.78565221378813E-06,0,0,0,0
12.86,-2.99999904632568,1.6437976360321,3.04444169998169,-3.00000071525574,1.64379715919495,3.044442653656,2128.769,2128.769,2128.771,2128.771,-1.18439606922038E-06,45.0000076293945,4.31756507168757E-06,-3.81612653654884E-06,-1.0886618611039E-06,2.75488855550066E-06,0,0,0,0
12.88,-2.99999904632568,1.6437976360321,3.04444169998169,-3.00000071525574,1.64379715919495,3.044442653656,2128.77,2128.774,2128.77,2128.767,-8.16887165910885E-07,45.0000076293945,8.22126864363781E-08,-3.83951510229963E-06,-1.0594258128549E-06,2.72851980298583E-06,0,0,0,0
12.9,-2.99999904632568,1.6437976360321,3.04444169998169,-3.00000071525574,1.64379715919495,3.044442653656,2128.772,2128.774,2128.769,2128.767,7.28492011603521E-07,45.0000076293945,-1.75028480953188E-06,-3.83951510229963E-06,-1.0945090025416E-06,2.7592834612733E-06,0,0,0,0
12.92,-2.99999904632568,1.6437976360321,3.04444169998169,-3.00000071525574,1.64379715919495,3.044442653656,2128.773,2128.772,2128.768,2128.768,2.27387045015348E-06,45.0000076293945,-1.22704125260498E-06,-3.83951510229963E-06,-1.1295921922283E-06,2.79004711956077E-06,0,0,0,0
12.94,-2.99999904632568,1.6437976360321,3.04444169998169,-3.00000071525574,1.64379715919495,3.044442653656,2128.773,2128.771,2128.768,2128.77,2.68849339590815E-06,45.0000076293945,2.38498643057028E-07,-3.83951510229963E-06,-1.16467549560184E-06,2.83399526779249E-06,0,0,0,0
12.96,-2.99999904632568,1.6437976360321,3.04444169998169,-3.00000071525574,1.64379715919495,3.044442653656,2128.77,2128.771,2128.77,2128.769,1.97236045096361E-06,45.0000076293945,1.32711954847764E-06,-3.83951510229963E-06,-1.19975879897538E-06,2.87354851025157E-06,0,0,0,0
12.98,-2.99999904632568,1.6437976360321,3.04444169998169,-3.00000071525574,1.64379715919495,3.044442653656,2128.772,2128.769,2128.768,2128.771,2.48121250479016E-06,45.0000076293945,2.69842917077767E-06,-3.83951510229963E-06,-1.23484198866208E-06,2.90431216853904E-06,0,0,0,0
13,-2.99999904632568,1.6437976360321,3.04444169998169,-3.00000071525574,1.64379715919495,3.044442653656,2128.772,2128.77,2128.768,2128.77,2.80160611509928E-06,45.0000076293945,2.27937584895699E-06,-3.83951510229963E-06,-1.26992540572246E-06,2.91749665848329E-06,0,0,0,0
13.02,-2.99999904632568,1.6437976360321,3.04444169998169,-3.00000071525574,1.64379715919495,3.044442653656,2128.771,2128.771,2128.768,2128.769,3.12199904328736E-06,45.0000076293945,1.01225566595531E-06,-3.81612608180149E-06,-1.26115457987908E-06,2.9262862426549E-06,0,0,0,0
13.04,-2.99999904632568,1.6437976360321,3.04444169998169,-3.00000071525574,1.64379715919495,3.044442653656,2128.771,2128.772,2128.768,2128.768,3.34816286340356E-06,45.0000076293945,-6.64055050947354E-08,-3.81612608180149E-06,-1.29623788325262E-06,2.93947073259915E-06,0,0,0,0
13.06,-2.99999904632568,1.6437976360321,3.04444169998169,-3.00000071525574,1.64379715919495,3.044442653656,2128.771,2128.772,2128.768,2128.768,3.4329823392909E-06,45.0000076293945,-5.32574063072389E-07,-3.81612608180149E-06,-1.33132118662616E-06,2.94826031677076E-06,0,0,0,0
13.08,-2.99999904632568,1.6437976360321,3.04444169998169,-3.00000071525574,1.64379715919495,3.044442653656,2128.771,2128.771,2128.769,2128.769,3.51780090568354E-06,45.0000076293945,-4.33364874652398E-07,-3.80443157155241E-06,-1.36055723487516E-06,2.93947073259915E-06,0,0,0,0
13.1,-2.99999904632568,1.6437976360321,3.04444169998169,-3.00000071525574,1.64379715919495,3.044442653656,2128.771,2128.773,2128.769,2128.767,3.74396427105239E-06,45.0000076293945,-4.35211822136239E-09,-3.79273706130334E-06,-1.38979328312416E-06,2.91310198008432E-06,0,0,0,0
13.12,-2.99999904632568,1.6437976360321,3.04444169998169,-3.00000071525574,1.64379715919495,3.044442653656,2128.771,2128.771,2128.769,2128.768,4.67684867544449E-06,45.0000076293945,2.07367929760949E-06,-3.76934826817887E-06,-1.38102234359394E-06,2.88673322756949E-06,0,0,0,0
13.14,-2.99999904632568,1.6437976360321,3.04444169998169,-3.00000071525574,1.64379715919495,3.044442653656,2128.773,2128.769,2128.768,2128.771,5.89242426940473E-06,45.0000076293945,4.62285925095784E-06,-3.74595947505441E-06,-1.37225151775056E-06,2.86915405922628E-06,0,0,0,0
13.16,-2.99999904632568,1.6437976360321,3.04444169998169,-3.00000071525574,1.64379715919495,3.044442653656,2128.772,2128.769,2128.768,2128.771,5.97724283579737E-06,45.0000076293945,5.3816756917513E-06,-3.7518066164921E-06,-1.32839750222047E-06,2.86036447505467E-06,0,0,0,0
13.18,-2.99999904632568,1.6437976360321,3.04444169998169,-3.00000071525574,1.64379715919495,3.044442653656,2128.773,2128.768,2128.767,2128.772,5.26111034560017E-06,45.0000076293945,4.49147319159238E-06,-3.7576537579298E-06,-1.28454348669038E-06,2.8296008167672E-06,0,0,0,0
13.2,-2.99999904632568,1.6437976360321,3.04444169998169,-3.00000071525574,1.64379715919495,3.044442653656,2128.772,2128.771,2128.768,2128.77,2.89595959657163E-06,45.0000076293945,1.48110450481909E-06,-3.7635008993675E-06,-1.24068958484713E-06,2.80762674265134E-06,0,0,0,0
13.22,-2.99999904632568,1.6437976360321,3.04444169998169,-3.00000071525574,1.64379715919495,3.044442653656,2128.77,2128.772,2128.77,2128.768,3.89464332783973E-07,45.0000076293945,-1.67060898093041E-06,-3.7635008993675E-06,-1.27577288822067E-06,2.83839040093881E-06,0,0,0,0
13.24,-2.99999904632568,1.6437976360321,3.04444169998169,-3.00000071525574,1.64379715919495,3.044442653656,2128.767,2128.776,2128.773,2128.764,-1.12761995296751E-06,45.0000076293945,-3.92714082408929E-06,-3.7635008993675E-06,-1.31085607790737E-06,2.87354896499892E-06,0,0,0,0
13.26,-2.99999904632568,1.6437976360321,3.04444169998169,-3.00000071525574,1.64379715919495,3.044442653656,2128.77,2128.773,2128.771,2128.767,1.26582528992003E-06,45.0000076293945,-1.4250751974032E-06,-3.7635008993675E-06,-1.32839738853363E-06,2.8559697966557E-06,0,0,0,0
13.27999,-2.99999904632568,1.6437976360321,3.04444169998169,-3.00000071525574,1.64379715919495,3.044442653656,2128.774,2128.769,2128.766,2128.771,5.30828810951789E-06,45.0000076293945,3.29138697452436E-06,-3.7635008993675E-06,-1.3634804645335E-06,2.87794387077156E-06,0,0,0,0
13.3,-2.99999904632568,1.6437976360321,3.04444169998169,-3.00000071525574,1.64379715919495,3.044442653656,2128.773,2128.769,2128.767,2128.771,7.27770020603202E-06,45.0000076293945,6.02902719037957E-06,-3.74011210624303E-06,-1.35470975237695E-06,2.87794387077156E-06,0,0,0,0
13.31999,-2.99999904632568,1.6437976360321,3.04444169998169,-3.00000071525574,1.64379715919495,3.044442653656,2128.774,2128.768,2128.766,2128.772,8.11635618447326E-06,45.0000076293945,7.16476279194467E-06,-3.7518066164921E-06,-1.36055712118832E-06,2.8559697966557E-06,0,0,0,0
13.34,-2.99999904632568,1.6437976360321,3.04444169998169,-3.00000071525574,1.64379715919495,3.044442653656,2128.772,2128.77,2128.768,2128.77,6.92907497068518E-06,45.0000076293945,5.80341202294221E-06,-3.79273706130334E-06,-1.34301569687523E-06,2.82960104414087E-06,0,0,0,0
13.35999,-2.99999904632568,1.6437976360321,3.04444169998169,-3.00000071525574,1.64379715919495,3.044442653656,2128.771,2128.772,2128.77,2128.768,5.03507271787385E-06,45.0000076293945,3.73533998754283E-06,-3.80443157155241E-06,-1.34886295199976E-06,2.82081145996926E-06,0,0,0,0
13.38,-2.99999904632568,1.6437976360321,3.04444169998169,-3.00000071525574,1.64379715919495,3.044442653656,2128.77,2128.772,2128.77,2128.768,3.65933397006302E-06,45.0000076293945,2.46821969085431E-06,-3.81027871299011E-06,-1.30500882278284E-06,2.79004780168179E-06,0,0,0,0
13.39999,-2.99999904632568,1.6437976360321,3.04444169998169,-3.00000071525574,1.64379715919495,3.044442653656,2128.771,2128.772,2128.77,2128.768,3.60280864697415E-06,45.0000076293945,2.61454442807008E-06,-3.78688991986564E-06,-1.29623788325262E-06,2.79444270745444E-06,0,0,0,0
13.42,-2.99999904632568,1.6437976360321,3.04444169998169,-3.00000071525574,1.64379715919495,3.044442653656,2128.771,2128.771,2128.769,2128.769,4.53569509772933E-06,45.0000076293945,3.46759156855114E-06,-3.76350112674118E-06,-1.28746694372239E-06,2.79444270745444E-06,0,0,0,0
13.43999,-2.99999904632568,1.6437976360321,3.04444169998169,-3.00000071525574,1.64379715919495,3.044442653656,2128.772,2128.771,2128.768,2128.77,5.46858109373716E-06,45.0000076293945,4.32063870903221E-06,-3.76934826817887E-06,-1.24361281450547E-06,2.78125821751019E-06,0,0,0,0
13.46,-2.99999904632568,1.6437976360321,3.04444169998169,-3.00000071525574,1.64379715919495,3.044442653656,2128.774,2128.768,2128.766,2128.772,5.78897561354097E-06,45.0000076293945,4.65542279926012E-06,-3.77519540961657E-06,-1.19975879897538E-06,2.76807372756593E-06,0,0,0,0
13.47999,-2.99999904632568,1.6437976360321,3.04444169998169,-3.00000071525574,1.64379715919495,3.044442653656,2128.773,2128.77,2128.768,2128.771,3.89497336072964E-06,45.0000076293945,2.77581011687289E-06,-3.78104255105427E-06,-1.15590489713213E-06,2.75928414339432E-06,0,0,0,0
13.5,-2.99999904632568,1.6437976360321,3.04444169998169,-3.00000071525574,1.64379715919495,3.044442653656,2128.771,2128.771,2128.769,2128.769,1.20001948289428E-06,45.0000076293945,-1.87443859545056E-07,-3.7576537579298E-06,-1.14713418497558E-06,2.75928414339432E-06,0,0,0,0
13.51999,-2.99999904632568,1.6437976360321,3.04444169998169,-3.00000071525574,1.64379715919495,3.044442653656,2128.769,2128.774,2128.772,2128.766,-9.29556733808568E-07,45.0000076293945,-2.77377876045648E-06,-3.7576537579298E-06,-1.18221737466229E-06,2.7988373858534E-06,0,0,0,0
13.54,-2.99999904632568,1.6437976360321,3.04444169998169,-3.00000071525574,1.64379715919495,3.044442653656,2128.77,2128.773,2128.77,2128.767,-4.20703486270213E-07,45.0000076293945,-2.25053577196377E-06,-3.7576537579298E-06,-1.19391154385085E-06,2.81641655419662E-06,0,0,0,0
13.56,-2.99999904632568,1.6437976360321,3.04444169998169,-3.00000071525574,1.64379715919495,3.044442653656,2128.772,2128.771,2128.768,2128.769,1.45447882005101E-06,45.0000076293945,-7.82733522441958E-08,-3.7576537579298E-06,-1.22899473353755E-06,2.85157511825673E-06,0,0,0,0
13.58,-2.99999904632568,1.6437976360321,3.04444169998169,-3.00000071525574,1.64379715919495,3.044442653656,2128.773,2128.77,2128.767,2128.771,3.18831666845654E-06,45.0000076293945,2.04687444238516E-06,-3.7576537579298E-06,-1.26407803691109E-06,2.87794387077156E-06,0,0,0,0
13.6,-2.99999904632568,1.6437976360321,3.04444169998169,-3.00000071525574,1.64379715919495,3.044442653656,2128.773,2128.769,2128.767,2128.771,3.88562966691097E-06,45.0000076293945,3.04126569972141E-06,-3.73426496480533E-06,-1.25530732475454E-06,2.86915428659995E-06,0,0,0,0
13.62,-2.99999904632568,1.6437976360321,3.04444169998169,-3.00000071525574,1.64379715919495,3.044442653656,2128.772,2128.77,2128.768,2128.77,3.54641611011175E-06,45.0000076293945,2.62221283264807E-06,-3.71087617168087E-06,-1.24653661259799E-06,2.84718021248409E-06,0,0,0,0
13.64,-2.99999904632568,1.6437976360321,3.04444169998169,-3.00000071525574,1.64379715919495,3.044442653656,2128.773,2128.772,2128.767,2128.768,2.78316929325229E-06,45.0000076293945,1.68489623320056E-06,-3.6874873785564E-06,-1.23776578675461E-06,2.82960104414087E-06,0,0,0,0
13.66,-2.99999904632568,1.6437976360321,3.04444169998169,-3.00000071525574,1.64379715919495,3.044442653656,2128.77,2128.771,2128.77,2128.769,8.42051804283983E-07,45.0000076293945,1.36007201945176E-06,-3.6874873785564E-06,-1.27284909012815E-06,2.85157511825673E-06,0,0,0,0
13.68,-2.99999904632568,1.6437976360321,3.04444169998169,-3.00000071525574,1.64379715919495,3.044442653656,2128.77,2128.771,2128.77,2128.769,2.20149345864229E-07,45.0000076293945,1.41216673910094E-06,-3.6874873785564E-06,-1.30793227981485E-06,2.8823387765442E-06,0,0,0,0
13.7,-2.99999904632568,1.6437976360321,3.04444169998169,-3.00000071525574,1.64379715919495,3.044442653656,2128.769,2128.773,2128.771,2128.767,9.17461477456527E-07,45.0000076293945,1.8411798237139E-06,-3.6874873785564E-06,-1.34301546950155E-06,2.91310243483167E-06,0,0,0,0
13.72,-2.99999904632568,1.6437976360321,3.04444169998169,-3.00000071525574,1.64379715919495,3.044442653656,2128.771,2128.771,2128.769,2128.769,3.40513611263304E-06,45.0000076293945,3.87209729524329E-06,-3.6874873785564E-06,-1.37809865918825E-06,2.93507650894753E-06,0,0,0,0
13.74,-2.99999904632568,1.6437976360321,3.04444169998169,-3.00000071525574,1.64379715919495,3.044442653656,2128.774,2128.769,2128.766,2128.771,6.03415674049756E-06,45.0000076293945,6.32704814051976E-06,-3.6874873785564E-06,-1.33424452997133E-06,2.9087077564327E-06,0,0,0,0
13.76,-2.99999904632568,1.6437976360321,3.04444169998169,-3.00000071525574,1.64379715919495,3.044442653656,2128.775,2128.767,2128.765,2128.773,6.44877900413121E-06,45.0000076293945,7.13298049959121E-06,-3.71672354049224E-06,-1.30500859540916E-06,2.86915451397363E-06,0,0,0,0
13.77999,-2.99999904632568,1.6437976360321,3.04444169998169,-3.00000071525574,1.64379715919495,3.044442653656,2128.771,2128.769,2128.769,2128.771,3.75382478523534E-06,45.0000076293945,4.54664359494927E-06,-3.74011233361671E-06,-1.28162002965837E-06,2.83839085568616E-06,0,0,0,0
13.8,-2.99999904632568,1.6437976360321,3.04444169998169,-3.00000071525574,1.64379715919495,3.044442653656,2128.77,2128.774,2128.771,2128.766,1.67136397521972E-06,45.0000076293945,3.11290222043681E-07,-3.74595947505441E-06,-1.23776601412828E-06,2.80762719739869E-06,0,0,0,0
13.81999,-2.99999904632568,1.6437976360321,3.04444169998169,-3.00000071525574,1.64379715919495,3.044442653656,2128.77,2128.774,2128.77,2128.766,1.19080664262583E-06,45.0000076293945,-8.14485019873246E-07,-3.74595947505441E-06,-1.27284909012815E-06,2.84718043985777E-06,0,0,0,0
13.84,-2.99999904632568,1.6437976360321,3.04444169998169,-3.00000071525574,1.64379715919495,3.044442653656,2128.771,2128.772,2128.769,2128.768,2.07657808459771E-06,45.0000076293945,8.39514257222618E-07,-3.74595947505441E-06,-1.30793216612801E-06,2.89112858808949E-06,0,0,0,0
13.85999,-2.99999904632568,1.6437976360321,3.04444169998169,-3.00000071525574,1.64379715919495,3.044442653656,2128.772,2128.77,2128.768,2128.77,3.19792411573872E-06,45.0000076293945,3.10600626107771E-06,-3.74595947505441E-06,-1.34301535581471E-06,2.90431307803374E-06,0,0,0,0
13.88,-2.99999904632568,1.6437976360321,3.04444169998169,-3.00000071525574,1.64379715919495,3.044442653656,2128.772,2128.769,2128.768,2128.771,3.89523620469845E-06,45.0000076293945,4.66577603219775E-06,-3.72257068192994E-06,-1.33424452997133E-06,2.89552349386213E-06,0,0,0,0
13.89999,-2.99999904632568,1.6437976360321,3.04444169998169,-3.00000071525574,1.64379715919495,3.044442653656,2128.772,2128.77,2128.768,2128.77,3.83871156373061E-06,45.0000076293945,5.00056012242567E-06,-3.72841782336764E-06,-1.29039051444124E-06,2.86475983557466E-06,0,0,0,0
13.92,-2.99999904632568,1.6437976360321,3.04444169998169,-3.00000071525574,1.64379715919495,3.044442653656,2128.771,2128.771,2128.769,2128.769,3.45238345289545E-06,45.0000076293945,4.53439179182169E-06,-3.73426496480533E-06,-1.24653649891115E-06,2.8427857614588E-06,0,0,0,0
13.93999,-2.99999904632568,1.6437976360321,3.04444169998169,-2.99999904632568,1.6437976360321,3.04444169998169,2128.771,2128.771,2128.769,2128.769,3.11317057821725E-06,45.0000076293945,3.73842044609773E-06,-3.74011210624303E-06,-1.20268236969423E-06,2.81202210317133E-06,2.96059473233375E-15,0,-2.96059473233375E-15,0
13.96,-2.99999904632568,1.6437976360321,3.04444169998169,-2.99999024548555,1.64379765268338,3.04443282586179,2128.502,2128.617,2129.031,2128.916,2.91530227514158E-06,45.0000076293945,3.1780236895429E-06,-3.74011210624303E-06,-1.15882824047731E-06,2.7856533506565E-06,0.00131567476097636,2.48927005482605E-06,-0.00132662966316191,0
13.97999,-2.99999904632568,1.6437976360321,3.04444169998169,-2.99992935004302,1.64379776789818,3.0443714233763,988.1176,1022.887,3178.297,3204.818,0.00023711369431112,45.0000076293945,-0.000129633626784198,-3.71670876120334E-06,-1.1500534355946E-06,2.47801654040813E-06,0.00519204998571738,9.82341148129699E-06,-0.00523528133849763,0
14,-2.99999904632568,1.6437976360321,3.04438591003418,-2.99976618386742,1.64379807661025,3.04420689860544,1445.916,1532.216,2602.862,2683.511,0.964496254920959,44.9960021972656,359.039276123047,-2.76416312772199E-06,-9.0205082869943E-07,-0.00278463191352785,0.0115249590109818,2.18053398910697E-05,-0.0116209210240887,0
14.01999,-2.99990892410278,1.64379787445068,3.04421377182007,-2.99945267175622,1.64379866977836,3.04389077605083,2044.54,2161.112,1912.701,2028.793,2.43773102760315,44.967601776123,357.571014404297,0.00452125864103436,7.90870126365917E-06,-0.00861200504004955,0.0202106903627233,3.82388321184018E-05,-0.0203789736973224,0
14.04,-2.99959325790405,1.64379811286926,3.04386520385742,-2.99894273804642,1.64379963457813,3.04337659640269,2602.163,2681.903,1335.318,1420.001,3.85242986679077,44.9207763671875,356.158996582031,0.0157877244055271,2.94560959446244E-05,-0.0174281578511,0.0311483805693002,5.89330534471228E-05,-0.0314077360517448,0
14.05999,-2.99892640113831,1.64379978179932,3.04328083992004,-2.9981924080157,1.6438010542102,3.0426200187853,2781.75,2778.464,1186.925,1188.56,4.71019172668457,44.8984375,355.302886962891,0.0333426520228386,5.99735940340906E-05,-0.0292225815355778,0.0442367233640064,8.36963313882875E-05,-0.0446050582989257,0
14.08,-2.99783635139465,1.64380145072937,3.04240489006042,-2.99715957512064,1.64380300834056,3.04157858605716,2511.428,2442.284,1476.747,1408.05,4.86775684356689,44.9270401000977,355.150207519531,0.0545117929577827,9.12501127459109E-05,-0.0438019409775734,0.0593781196756452,0.000112344007504632,-0.0598725287137286,0
14.09999,-2.99631452560425,1.64380359649658,3.04119110107422,-2.99580426814232,1.64380557259517,3.04021199418092,1965.827,1901.258,1977.393,1907.236,4.57056140899658,44.9841079711914,355.455017089844,0.0761071890592575,0.000119864183943719,-0.0606867931783199,0.0764737066934751,0.000144689032350797,-0.0771104613090055,0
14.12,-2.99439120292664,1.6438068151474,3.03960299491882,-2.99408821983876,1.64380881937605,3.03848165728426,1460.453,1463.881,2376.832,2371.625,4.2775764465332,45.0301971435547,355.756164550781,0.0961477234959602,0.000149960644193925,-0.0794037282466888,0.0954291120406531,0.000180552852428115,-0.0962236979208879,0
14.13999,-2.9920973777771,1.64381051063538,3.03760719299316,-2.99197536400943,1.64381281692081,3.03635120886318,1258.594,1343.72,2459.058,2536.4,4.3868088722229,45.0453643798828,355.655426025391,0.114697575569153,0.000188018719200045,-0.0997871458530426,0.11614795352596,0.000219753111648642,-0.117115053836509,0
14.16,-2.98942685127258,1.64381515979767,3.03516840934753,-2.98943114438214,1.64381763061027,3.03378580491436,1432.141,1557.806,2207.919,2329.888,5.02364015579224,45.0275955200195,355.027069091797,0.133516535162926,0.000236878782743588,-0.121937721967697,0.138539048845883,0.000262117292164958,-0.13969258752732,0
14.17999,-2.98633003234863,1.64382088184357,3.0322482585907,-2.98642329982487,1.64382332148282,3.03075291568504,1843.198,1937.045,1794.313,1890.619,6.00138807296753,44.984748840332,354.055938720703,0.154847756028175,0.000294321711407974,-0.146003887057304,0.162508532507216,0.000307467799507406,-0.163861651933632,0
14.2,-2.98272824287415,1.64382791519165,3.02880716323853,-2.98292085814677,1.64382994813817,3.02722131109592,2239.564,2240.88,1460.516,1467.82,6.95774412155151,44.9404754638672,353.103790283203,0.180091425776482,0.000353711802745238,-0.172057688236237,0.187968376743816,0.000355638084245417,-0.189533486330371,0
14.21999,-2.97854614257813,1.64383661746979,3.0248064994812,-2.97889526191302,1.64383756460727,3.02316219593007,2399.433,2301.366,1374.714,1280.638,7.57258462905884,44.9269752502441,352.494476318359,0.209101736545563,0.000406750477850437,-0.20003154873848,0.214827267753918,0.000406455379735539,-0.216616016595822,0
14.24,-2.9737377166748,1.64384531974792,3.02021336555481,-2.97431899752537,1.64384622294612,3.0185478274986,2251.382,2109.946,1544.614,1401.847,7.73808431625366,44.956657409668,352.339691162109,0.240416005253792,0.000450404681032524,-0.229652717709541,0.243000297857857,0.000459759039782617,-0.245023628070637,0
14.25999,-2.96829414367676,1.64385497570038,3.01500344276428,-2.96916710849686,1.64385597037266,3.01335304151557,1898.53,1798.179,1837.678,1730.662,7.59262371063232,45.008846282959,352.499450683594,0.272175520658493,0.000491456128656864,-0.260492742061615,0.272398738853665,0.000515381189724365,-0.274666853761772,0
14.27999,-2.96223115921021,1.64386606216431,3.0091598033905,-2.9634154156894,1.64386685263406,3.00755345751648,1550.926,1545.57,2071.686,2058.886,7.41872262954712,45.050235748291,352.687469482422,0.303132683038712,0.000541410699952394,-0.292182683944702,0.302940769782332,0.000573167023472555,-0.305463191431963,0
14.29999,-2.95556735992432,1.64387810230255,3.00266790390015,-2.95704245947993,1.64387891033216,3.00112743719574,1393.463,1476.885,2121.342,2200.507,7.47200012207031,45.0606689453125,352.6455078125,0.333200097084045,0.000607794907409698,-0.324597388505936,0.33454028086498,0.000632953620448073,-0.337325814313428,0
14.31999,-2.94830083847046,1.64389204978943,2.99551105499268,-2.95002727237107,1.64389218313765,2.99405383847113,1489.691,1602.585,1977.32,2091.021,7.84434270858765,45.0393447875977,352.280822753906,0.363313317298889,0.000688846688717604,-0.357837557792664,0.367118505582491,0.000694591953594096,-0.370175300041443,0
14.34,-2.94040560722351,1.64390754699707,2.9876697063446,-2.94235140419337,1.64390670595846,2.98631405754876,1757.492,1824.539,1739.064,1812.071,8.43102645874023,44.9997749328613,351.698272705078,0.394762367010117,0.000775478722061962,-0.392071425914764,0.400593600619005,0.000757927174523012,-0.403929123835741,0
14.35999,-2.93183755874634,1.64392447471619,2.97912192344666,-2.9339981236454,1.64392251045038,2.97789122381481,2030.259,2004.195,1546.954,1527.984,9.01036548614502,44.9647521972656,351.121215820313,0.428404062986374,0.000856564496643841,-0.42739263176918,0.434884973794506,0.000822806802008975,-0.438506022469422,0
14.38,-2.92255401611328,1.64394295215607,2.96984720230103,-2.92495105320493,1.64393962759985,2.96876882338043,2155.531,2043.661,1498.628,1390.494,9.37850475311279,44.9558525085449,350.757263183594,0.4642054438591,0.000923953601159155,-0.463741898536682,0.469918382132556,0.00088909036758401,-0.473831134785499,0
14.39999,-2.91252708435059,1.64396262168884,2.95982933044434,-2.91519701171222,1.64395808234575,2.95893356533357,2075.747,1935.304,1600.322,1458.58,9.45867824554443,44.9781646728516,350.685699462891,0.501330018043518,0.000978235737420619,-0.500891864299774,0.505614398425471,0.000956627594161796,-0.509824372229491,0
14.42,-2.9017539024353,1.64398336410522,2.94905877113342,-2.90472253169489,1.64397790016868,2.94837187006561,1854.767,1755.149,1774.572,1670.325,9.32924652099609,45.015811920166,350.826416015625,0.538653552532196,0.00102923263330013,-0.538523018360138,0.54190175818163,0.00102528364859798,-0.546413876929438,0
14.43999,-2.89024639129639,1.64400506019592,2.93753123283386,-2.89351755467826,1.64399910009938,2.93707359535045,1625.099,1607.632,1915.9,1893.918,9.16273975372314,45.0451431274414,351.003082275391,0.575373113155365,0.00108904368244112,-0.576371371746063,0.578703758953404,0.00109491340908003,-0.583522307778494,0
14.46,-2.87801909446716,1.64402830600739,2.92524433135986,-2.88157140467377,1.64402170233692,2.92502797630644,1514.008,1567.934,1949.115,2001.457,9.12220859527588,45.0512886047363,351.049987792969,0.611363530158997,0.00116372539196163,-0.614342212677002,0.615952086250974,0.00116538762389708,-0.62108078146955,0
14.47999,-2.86507654190063,1.64405333995819,2.91219425201416,-2.86887703633909,1.64404572021117,2.91222790892855,1567.131,1642.809,1868.151,1946.568,9.27194213867188,45.0341262817383,350.902374267578,0.64713329076767,0.00125059799756855,-0.652500033378601,0.653572790327245,0.00123656637937403,-0.659014732516522,0
14.5,-2.85140752792358,1.64408040046692,2.89837503433228,-2.85542644772113,1.6440711688619,2.89866532463581,1737.983,1776.835,1729.812,1774.677,9.55402278900146,45.0050735473633,350.619018554688,0.683438539505005,0.00134069356136024,-0.69096577167511,0.691500479296254,0.00130832595339631,-0.697258224551077,0
14.51999,-2.83699154853821,1.64410877227783,2.8837788105011,-2.84121549596125,1.64409805612744,2.88433604607427,1917.997,1887.936,1617.027,1593.305,9.83328056335449,44.9807662963867,350.337219238281,0.720807671546936,0.00142419780604541,-0.729806959629059,0.729663982966855,0.00138053169123701,-0.735739494786917,0
14.54,-2.82180643081665,1.64413857460022,2.86839938163757,-2.82623873676764,1.64412639230845,2.86923458362049,2007.721,1917.694,1588.261,1501.486,9.98120594024658,44.9745597839355,350.188049316406,0.759241044521332,0.0014953933423385,-0.768976867198944,0.768000805744062,0.00145306535059357,-0.77439552726251,0
14.55999,-2.80584192276001,1.64416968822479,2.85223317146301,-2.81049481806421,1.64415617996307,2.85335957394037,1965.951,1858.842,1649.39,1541.762,9.94514656066895,44.9883232116699,350.225494384766,0.798239529132843,0.00155550299677998,-0.808312237262726,0.806442582763022,0.00152579758444504,-0.813157387876268,0
14.58,-2.78909969329834,1.64420199394226,2.83528137207031,-2.79398073787707,1.64418742477107,2.83670799006425,1830.729,1754.752,1756.06,1677.287,9.76931476593018,45.0115013122559,350.404083251953,0.837101101875305,0.00161225046031177,-0.84759509563446,0.844929689491909,0.00159861558256962,-0.851964955635589,0
14.59999,-2.77159380912781,1.64423561096191,2.81754851341248,-2.77669782220242,1.64422012422364,2.81928116902916,1685.575,1667.649,1845.513,1824.933,9.5592737197876,45.0292510986328,350.615783691406,0.875296711921692,0.0016742266016081,-0.886646151542664,0.883396591077451,0.00167139535235709,-0.890752150014416,0
14.62,-2.75334000587463,1.64427018165588,2.79904055595398,-2.75864539702834,1.64425427959603,2.80107843121107,1613.009,1644.03,1871.356,1901.839,9.41819477081299,45.0322227478027,350.755737304688,0.912705481052399,0.00174570339731872,-0.925393402576447,0.921786509908233,0.00174402946998808,-0.929461720645303,0
14.63999,-2.73434782028198,1.64430689811707,2.77976322174072,-2.73982735274735,1.64428988352757,2.78210369939564,1643.606,1690.104,1828.226,1876.524,9.38998126983643,45.0206031799316,350.779754638672,0.949606120586395,0.00182463065721095,-0.963865458965302,0.960036764742774,0.00181639934191497,-0.968030464374448,0
