t,x_s1,x_s2,x_s3,x_s_d1,x_s_d2,x_s_d3,propellers_rpms1,propellers_rpms2,propellers_rpms3,propellers_rpms4,rollRad,pitchRad,yawRad,v_s1,v_s2,v_s3,v_s_d1,v_s_d2,v_s_d3,insideCount
0,-0.0599999986588955,2.94000005722046,1.17999994754791,-0.0599999986588955,2.94000005722046,1.17999994754791,0,0,0,0,0,45.0048027038574,0,0,0,0,-1.06581410364015E-15,4.44089209850063E-16,-7.105427357601E-16,0
0.0200042724609375,-0.0599999986588955,2.94000005722046,1.17999994754791,-0.0600018701838461,2.93999925195556,1.1800010908333,0,0,0,0,0,45.0048027038574,0,-2.84151169048591E-23,-8.77082051431444E-09,8.78962147510265E-09,-0.000280105751305916,-0.000120521679537258,0.000171112232507361,5
0.0399932861328125,-0.0599999986588955,2.94000005722046,1.17607593536377,-0.060014863945674,2.93999366110285,1.18000902851964,0,0,0,0,0,45.0048027038574,0,-2.97775756136619E-22,-8.77082051431444E-09,-0.1961999386549,-0.00111059898697896,-0.000477859717552347,0.000678447590588643,5
0.05999755859375,-0.0599999986588955,2.94000005722046,1.16822791099548,-0.0600498857373401,2.93997859220429,1.18003042278566,2482.856,2426.75,2294.068,2352.229,0,45.0048027038574,0,-5.67136414301041E-22,-8.77082051431444E-09,-0.392399907112122,-0.00247936261166862,-0.00106680046642749,0.00151460392977639,5
0.0800018310546875,-0.0599999986588955,2.94000005722046,1.16085958480835,-0.0601175574246769,2.93994947496775,1.18007176236346,2752.495,2696.777,2565.09,2622.664,359.916900634766,45.0049209594727,0.031831081956625,-4.56250237590439E-09,-2.06484642717442E-08,-0.368417859077454,-0.00437268608126799,-0.00188144466206175,0.00267120569262453,5
0.100006103515625,-0.0600069537758827,2.93999695777893,1.1544691324234,-0.0602282404704493,2.93990185114529,1.18013937690895,2804.35,2721.671,2513.983,2602.89,359.751312255859,45.0049934387207,0.0953190103173256,-0.000347673340002075,-0.000155122819705866,-0.319525361061096,-0.00677739276378709,-0.00291612276782231,0.00414020348026766,5
0.1199951171875,-0.0600347295403481,2.93998456001282,1.14905917644501,-0.0603918861403606,2.93983143898525,1.18023934549506,2689.202,2657.847,2565.169,2603.691,359.457916259766,45.0048828125,0.209544882178307,-0.00138882943429053,-0.000619225029367954,-0.270500034093857,-0.00967801353495435,-0.00416417885169243,0.00591214744607921,5
0.139999389648438,-0.0601074583828449,2.93995237350464,1.14457094669342,-0.0606185767455666,2.93973390035084,1.18037782724834,2543.161,2578.742,2642.208,2612.487,359.109924316406,45.0043334960938,0.346911460161209,-0.00363644049502909,-0.00161343207582831,-0.224410459399223,-0.0130660253322238,-0.00562194567796536,0.00798183098414958,5
0.160003662109375,-0.0602531842887402,2.93988800048828,1.14093995094299,-0.0609177895434042,2.93960515744296,1.18056061167741,2432.694,2512.102,2686.541,2609.158,358.805541992188,45.0036773681641,0.469873756170273,-0.0072863819077611,-0.00321573438122869,-0.181551575660706,-0.0169265510445065,-0.00728302204135792,0.0103401658994673,5
0.17999267578125,-0.0604958385229111,2.93978142738342,1.13810288906097,-0.0612985250199726,2.93944133760391,1.18079319703879,2396.744,2474.36,2659.264,2579.349,358.612884521484,45.0035934448242,0.551374733448029,-0.0121327079832554,-0.00532506126910448,-0.141854703426361,-0.0212433804254414,-0.00914043312572283,0.0129772496054864,5
0.199996948242188,-0.0608499422669411,2.93962693214417,1.13599908351898,-0.0617704296168641,2.93923829023936,1.1810814761931,2429.175,2464.993,2565.356,2525.309,358.535766601563,45.0043067932129,0.588014662265778,-0.0177051275968552,-0.00772685930132866,-0.105190917849541,-0.0260104776919234,-0.0111915819022102,0.0158893949364944,5
0.220001220703125,-0.061320573091507,2.93942260742188,1.13457083702087,-0.0623420644491781,2.93899233174064,1.18143067899198,2489.059,2469.902,2445.211,2462.07,358.518585205078,45.0053176879883,0.598884522914886,-0.0235315784811974,-0.0102136954665184,-0.0714129060506821,-0.03121219533433,-0.0134297356845702,0.0190670430730375,5
0.240005493164063,-0.0619079247117043,2.93916893005371,1.13376343250275,-0.0630219993990999,2.93869977472688,1.18184604064271,2523.77,2468.922,2352.327,2409.086,358.482116699219,45.0059814453125,0.613108694553375,-0.0293675046414137,-0.0126885771751404,-0.0403685122728348,-0.0368361158647881,-0.0158495515746756,0.0225026083655451,5
0.259994506835938,-0.0626134797930717,2.93886494636536,1.13352525234222,-0.0638179029240226,2.93835731967507,1.18233224568626,2502.678,2448.846,2318.819,2378.21,358.370208740234,45.0059089660645,0.652910590171814,-0.0352777242660522,-0.0151968467980623,-0.0119112562388182,-0.0428651747123285,-0.0184436871643672,0.0261856663338995,4
0.279998779296875,-0.0634442791342735,2.9385073184967,1.1338073015213,-0.0647390625194898,2.93796097043536,1.18289496770872,2428.857,2408.658,2342.927,2369.233,358.177337646484,45.0051307678223,0.722906947135925,-0.0415401123464108,-0.0178756639361382,0.0141012854874134,-0.0492963837173861,-0.0212108567320638,0.0301143915580518,4
0.300003051757813,-0.0644133165478706,2.93809008598328,1.13456356525421,-0.0657927507678135,2.93750759781875,1.18353864941714,2336.81,2359.788,2390.308,2370.623,357.946655273438,45.0039939880371,0.809762358665466,-0.048451766371727,-0.0208603497594595,0.0378110408782959,-0.0561132031658829,-0.0241439437008635,0.0342786801847687,4
0.319992065429688,-0.0655363202095032,2.9376060962677,1.13575088977814,-0.0669855955880233,2.93699435001684,1.18426733970383,2265.221,2316.42,2421.544,2368.746,357.739532470703,45.0030670166016,0.891991317272186,-0.0561501011252403,-0.0242026057094336,0.0593647547066212,-0.0632980253096114,-0.0272353719486164,0.0386677759154339,4
0.339996337890625,-0.066827304661274,2.93704915046692,1.13732922077179,-0.068326768706371,2.93641728069206,1.18508664143323,2239.445,2289.69,2409.699,2353.818,357.601196289063,45.0028877258301,0.951848030090332,-0.0645492300391197,-0.027847021818161,0.0789137035608292,-0.0708499516420146,-0.0304847548730522,0.0432811298664125,4
0.360000610351563,-0.0682953149080276,2.93641591072083,1.13926148414612,-0.0698225328270578,2.93577369517774,1.18600038039362,2259.41,2282.238,2353.437,2324.525,357.537811279297,45.0034828186035,0.984283745288849,-0.0734005868434906,-0.0316675566136837,0.096612960100174,-0.0787518717320621,-0.0338847303337087,0.0481082895423912,4
0.3800048828125,-0.069943979382515,2.93570518493652,1.14151382446289,-0.0714797725314022,2.93506063123087,1.18701276226829,2297.707,2285.387,2280.161,2289.374,357.515808105469,45.0043601989746,0.998645067214966,-0.0824333727359772,-0.0355388522148132,0.112618915736675,-0.0869921272359981,-0.0374302820709642,0.0531421330430943,4
0.399993896484375,-0.0717738792300224,2.93491721153259,1.14405536651611,-0.0733036822025899,2.9342758538535,1.18812696022487,2322.986,2287.854,2221.993,2258.673,357.486083984375,45.0048904418945,1.01131892204285,-0.0914951860904694,-0.0394016653299332,0.127078741788864,-0.0955525119207663,-0.0411135764513579,0.0583715384648505,4
0.419998168945313,-0.0737859979271889,2.93405151367188,1.14685785770416,-0.0753034649285836,2.93341540321397,1.18934859628618,2313.939,2280.014,2201.651,2240.376,357.411926269531,45.0047264099121,1.03648817539215,-0.100606024265289,-0.0432825237512589,0.140126183629036,-0.104434660908044,-0.0449353170220673,0.0637975046779765,4
0.44000244140625,-0.0759843215346336,2.93310618400574,1.1498955488205,-0.077483988232608,2.93247718495301,1.19068064394622,2274.013,2261.082,2216.341,2234.491,357.288330078125,45.0039138793945,1.07861948013306,-0.109916165471077,-0.0472653768956661,0.151882097125053,-0.113620829717891,-0.048887868829098,0.0694091918565748,4
0.460006713867188,-0.0783762708306313,2.93207740783691,1.15314483642578,-0.0798512213598696,2.93145863067119,1.19212674972372,2219.919,2234.901,2249.555,2236.691,357.139373779297,45.0028648376465,1.13212466239929,-0.119597651064396,-0.051433976739645,0.162462636828423,-0.123099793815011,-0.0529664022684887,0.0751997431071877,4
0.479995727539063,-0.0809711664915085,2.93096089363098,1.15658450126648,-0.0824088828700873,2.93035814037613,1.19368918522879,2177.663,2210.831,2274.049,2238.563,357.00341796875,45.0020751953125,1.18485736846924,-0.12974488735199,-0.0558240190148354,0.171981081366539,-0.132852887402757,-0.0571628859694044,0.0811577557859174,5
0.5,-0.0837776362895966,2.92975282669067,1.16019546985626,-0.085166398670376,2.92917165836334,1.195373708601,2162.828,2195.668,2272.911,2234.29,356.909912109375,45.0019035339355,1.22571623325348,-0.140323534607887,-0.0604045279324055,0.180551424622536,-0.142884000065179,-0.0614789935111996,0.0872856059789651,5
0.520004272460938,-0.08680160343647,2.9284508228302,1.16396117210388,-0.088127196023106,2.92789770997757,1.19718241350145,2178.158,2193.024,2242.046,2221.435,356.864837646484,45.0023460388184,1.25004661083221,-0.151198342442513,-0.0650991052389145,0.188286453485489,-0.153174893518032,-0.065906877469682,0.0935721522030874,5
0.539993286132813,-0.0900457948446274,2.92705416679382,1.16786706447601,-0.091293865515634,2.92653518056143,1.19911688247953,2205.371,2197.549,2200.065,2204.716,356.847900390625,45.0030059814453,1.26223075389862,-0.16220922768116,-0.0698289945721626,0.195297122001648,-0.163706645289342,-0.0704383960337938,0.100005835015435,5
0.55999755859375,-0.0935109704732895,2.92556309700012,1.17190074920654,-0.094676112580471,2.92507989413848,1.20118304443252,2224.623,2202.491,2167.398,2189.963,356.828643798828,45.0033950805664,1.27136766910553,-0.173259347677231,-0.0745561122894287,0.201683342456818,-0.17448465888317,-0.0750758741803766,0.106589955332319,5
0.580001831054688,-0.0971979945898056,2.92397713661194,1.17605137825012,-0.0982762614093182,2.92353085067394,1.20338231917284,2225.784,2203.433,2154.834,2180.775,356.784210205078,45.0032501220703,1.28588652610779,-0.184351161122322,-0.0792959108948708,0.20753088593483,-0.185490414529404,-0.0798113433697334,0.113313199715174,5
0.600006103515625,-0.10110929608345,2.92229509353638,1.18030965328217,-0.102098762959148,2.92188613504538,1.20571742572067,2205.023,2196.496,2167.365,2179.568,356.708526611328,45.002628326416,1.31011092662811,-0.195564910769463,-0.0840994715690613,0.212916642427444,-0.196713446836865,-0.0846403006364086,0.120169175019836,5
0.6199951171875,-0.105249404907227,2.92051458358765,1.18466782569885,-0.106144683970236,2.92014528826426,1.208189015731,2175.119,2184.761,2191.76,2183.457,356.616271972656,45.0018272399902,1.34157836437225,-0.207005754113197,-0.0890217125415802,0.217908710241318,-0.208134604141382,-0.0895545055543457,0.127146181793521,5
0.639999389648438,-0.109624117612839,2.9186327457428,1.18911921977997,-0.110424235525481,2.91830391678686,1.21080332699501,2150.551,2172.713,2212.834,2188.338,356.531341552734,45.0012245178223,1.37359249591827,-0.21873576939106,-0.0940870642662048,0.22257225215435,-0.219761081350814,-0.0945570538913933,0.134248615293163,5
0.660003662109375,-0.114238932728767,2.91664719581604,1.19365859031677,-0.114938248900541,2.91636166293851,1.21356086732604,2145.897,2167.01,2214.418,2189.012,356.473815917969,45.0010986328125,1.39890694618225,-0.230740994215012,-0.0992771461606026,0.226970210671425,-0.231574097577923,-0.0996398647564507,0.141465002567821,5
0.67999267578125,-0.119097739458084,2.91455626487732,1.19828188419342,-0.119686638739014,2.91431856344567,1.2164615845812,2157.44,2167.261,2200.123,2185.686,356.446441650391,45.0014038085938,1.41479754447937,-0.242940008640289,-0.104541853070259,0.231167510151863,-0.243554411173546,-0.104794659005432,0.14878358919428,5
0.699996948242188,-0.124202504754066,2.91235971450806,1.20298635959625,-0.124680083855354,2.91217002351282,1.2195120022816,2176.246,2171.963,2178.606,2179.845,356.437866210938,45.0018615722656,1.42280876636505,-0.25523778796196,-0.109831221401691,0.235223561525345,-0.255710395848158,-0.11002503961202,0.1562094905416,5
0.720001220703125,-0.129553899168968,2.91005730628967,1.20777010917664,-0.129918284978346,2.90991617190799,1.22271193760712,2193.928,2179.169,2158.277,2173.334,356.430358886719,45.002140045166,1.42746496200562,-0.267571151256561,-0.11511941999197,0.239188566803932,-0.268023157655716,-0.11532287703907,0.163731164592979,5
0.740005493164063,-0.135152533650398,2.90764904022217,1.21263229846954,-0.13540428105644,2.90755570105657,1.22606324700395,2197.418,2182.817,2153.681,2170.474,356.407135009766,45.0020523071289,1.43463659286499,-0.279931873083115,-0.12041349709034,0.243106633424759,-0.280482990349159,-0.120683994959631,0.171342681953548,5
0.759994506835938,-0.140999883413315,2.9051342010498,1.21757256984711,-0.14113644597991,2.90508931062815,1.22956493710703,2187.702,2182.076,2163.874,2171.857,356.364654541016,45.0016174316406,1.44710171222687,-0.292367160320282,-0.125746890902519,0.247011706233025,-0.293070637251543,-0.126100107763583,0.179032279019858,5
0.779998779296875,-0.147098675370216,2.90251111984253,1.22259116172791,-0.147126184485884,2.90251209348295,1.2332239748923,2170.351,2177.278,2183.376,2176.804,356.311706542969,45.0010528564453,1.46394085884094,-0.304939687252045,-0.131155073642731,0.25093200802803,-0.305795832832518,-0.131575403921268,0.186805902427515,5
0.800003051757813,-0.153452411293983,2.89977812767029,1.22768902778625,-0.153371683173492,2.89982482987671,1.23703925258147,2159.799,2173.78,2196.508,2181.182,356.264495849609,45.000659942627,1.48097252845764,-0.317687898874283,-0.136653795838356,0.254891842603683,-0.318639638509124,-0.13710173468952,0.194651982891718,5
0.819992065429688,-0.160064414143562,2.89693355560303,1.23286736011505,-0.159870162197751,2.89702871589906,1.24100907201063,2157.997,2171.748,2201.413,2184.498,356.233428955078,45.0005683898926,1.49482274055481,-0.330599963665009,-0.14222925901413,0.258918941020966,-0.33158286215529,-0.142670842232658,0.202558796242139,5
0.839996337890625,-0.16693702340126,2.89397644996643,1.23812818527222,-0.166633637018892,2.89411858163313,1.24514077323692,2165.534,2172.813,2196.728,2185.655,356.221466064453,45.0007667541504,1.50320887565613,-0.343629568815231,-0.14784999191761,0.263038486242294,-0.344636106234817,-0.148287288494656,0.210532819358465,5
0.860000610351563,-0.174071341753006,2.8909068107605,1.24347364902496,-0.173659158941841,2.89109569582005,1.24943255494854,2181.72,2178.643,2182.465,2183.687,356.223236083984,45.0010757446289,1.50610160827637,-0.356717169284821,-0.153482720255852,0.267271161079407,-0.357780475378537,-0.153942943326036,0.218562509354528,5
0.8800048828125,-0.181467652320862,2.88772463798523,1.24890637397766,-0.180948461186242,2.88795931270381,1.25388547594233,2193.691,2184.186,2172.787,2182.151,356.225341796875,45.0012702941895,1.50684833526611,-0.369816213846207,-0.159107580780983,0.271636992692947,-0.371007022483504,-0.159633957038354,0.226642400584755,5
0.899993896484375,-0.18912610411644,2.8844301700592,1.25442934036255,-0.18849723509595,2.8847112861788,1.25849690412748,2197.68,2188.293,2171.469,2182.057,356.218231201172,45.0012092590332,1.5084810256958,-0.382921367883682,-0.164729326963425,0.276147961616516,-0.384296738353309,-0.165352150505452,0.234760880627692,5
0.919998168945313,-0.197047248482704,2.88102269172668,1.26004552841187,-0.196318384305134,2.8813460641717,1.26327472213274,2191.669,2188.865,2181.092,2184.745,356.199615478516,45.0009269714355,1.51279163360596,-0.396058171987534,-0.170368924736977,0.28081077337265,-0.397661187980262,-0.171102499820431,0.242925014356675,5
0.94000244140625,-0.205232501029968,2.87750172615051,1.26575803756714,-0.204407453948074,2.87786556348678,1.26821620855017,2185.333,2189.325,2191.136,2187.718,356.176330566406,45.0005836486816,1.51886677742004,-0.409262210130692,-0.176048517227173,0.285626798868179,-0.411081631631503,-0.176876941799768,0.251123353961324,5
0.960006713867188,-0.213683485984802,2.87386631965637,1.27157008647919,-0.212765478812529,2.87426933888379,1.27332199551546,2179.007,2187.975,2201.914,2191.856,356.155609130859,45.0003280639648,1.52562165260315,-0.422549933195114,-0.181775510311127,0.290600955486298,-0.424549556012544,-0.182671813410681,0.259350698802886,5
0.979995727539063,-0.222401827573776,2.87011551856995,1.27748477458954,-0.22138664033507,2.87055989392801,1.27858852855901,2178.757,2187.749,2206.346,2195.147,356.144958496094,45.0002708435059,1.53070604801178,-0.435916900634766,-0.187541931867599,0.295735985040665,-0.438046240701377,-0.188479059778567,0.267595612867683,5
1,-0.231388509273529,2.86624908447266,1.2835054397583,-0.230284798736574,2.86673126495361,1.28402427467346,2183.161,2188.579,2205.835,2197.507,356.146453857422,45.0003967285156,1.53261852264404,-0.449334055185318,-0.19332692027092,0.301034569740295,-0.451584000205995,-0.194303979492187,0.275865618896484,5
1.02000427246094,-0.24064376950264,2.8622670173645,1.28963530063629,-0.239454009753966,2.86278600961093,1.28962560260127,2194.968,2193.269,2196.75,2197.143,356.157928466797,45.0005912780762,1.53071236610413,-0.462763071060181,-0.199108123779297,0.30649608373642,-0.465144357597929,-0.200138622445408,0.284149429622012,5
1.03999328613281,-0.250167161226273,2.85816955566406,1.29587769508362,-0.248887339851819,2.85872711120656,1.29538827675384,2203.24,2197.292,2191.415,2197.053,356.170166015625,45.0007171630859,1.52715599536896,-0.476169586181641,-0.204870000481606,0.312122404575348,-0.478708875293167,-0.205975055460915,0.292435781811908,5
1.05999755859375,-0.25995808839798,2.8539571762085,1.3022358417511,-0.258599401509697,2.85454828239877,1.3013212236669,2204.828,2199.65,2192.926,2198.124,356.17724609375,45.0006866455078,1.52371299266815,-0.489547193050385,-0.210614740848541,0.317909926176071,-0.492290296490434,-0.211818761581115,0.30073246008742,5
1.08000183105469,-0.270016252994537,2.84963011741638,1.30871284008026,-0.268583149539609,2.85025255453512,1.30742013954506,2205.169,2202.554,2195.259,2198.891,356.179046630859,45.0005187988281,1.52093100547791,-0.502908527851105,-0.216354787349701,0.323849439620972,-0.50587040849135,-0.217661904390701,0.309028338595312,5
1.10000610351563,-0.280341595411301,2.84518814086914,1.31531155109406,-0.278838480013141,2.84583997233313,1.31368496090006,2200.329,2202.601,2203.524,2201.455,356.176513671875,45.0002937316895,1.51971662044525,-0.516268014907837,-0.222101464867592,0.32993546128273,-0.519441457145546,-0.223501147495394,0.317318680446121,5
1.1199951171875,-0.290934413671494,2.84063100814819,1.32203471660614,-0.289357002179081,2.84131414609862,1.32011056195293,2196.188,2202.056,2210.997,2204.35,356.175384521484,45.0001373291016,1.51898849010468,-0.529639959335327,-0.227861508727074,0.336159735918045,-0.532985466132485,-0.229328756186667,0.32559250418615,5
1.13999938964844,-0.301794826984406,2.83595848083496,1.32888495922089,-0.300154365346813,2.83666834237095,1.32670650262257,2193.649,2200.865,2216.817,2207.448,356.180755615234,45.0000877380371,1.51727175712585,-0.543021500110626,-0.233630001544952,0.342514365911484,-0.546515580872639,-0.235150386571708,0.333857840147634,5
1.16000366210938,-0.312922686338425,2.83117055892944,1.33586478233337,-0.311222084148811,2.83190621216671,1.33346759933036,2199.893,2203.231,2212.641,2207.908,356.196350097656,45.000171661377,1.51273488998413,-0.556393146514893,-0.239392682909966,0.34898966550827,-0.560014026276883,-0.240958390526247,0.342103829805999,6
1.17999267578125,-0.324317097663879,2.82626795768738,1.3429764509201,-0.322550701230474,2.8270318247214,1.34038807472597,2206.017,2205.259,2208.633,2208.247,356.217529296875,45.0002937316895,1.50619637966156,-0.569721877574921,-0.245130971074104,0.355581521987915,-0.573463232144024,-0.246745208083563,0.350319739799517,6
1.19999694824219,-0.335976868867874,2.82125115394592,1.35022211074829,-0.334156660511822,2.8220381046756,1.34747797414352,2209.397,2206.669,2207.144,2208.876,356.239868164063,45.0003890991211,1.49838626384735,-0.58298796415329,-0.250835567712784,0.362282037734985,-0.58687652428584,-0.252516572968185,0.358513710658656,6
1.22000122070313,-0.347900539636612,2.81612110137939,1.35760366916656,-0.346030421585499,2.81692915700008,1.35473146949704,2214.138,2210.012,2203.437,2208.097,356.26123046875,45.0003700256348,1.48963868618011,-0.596184372901917,-0.256506323814392,0.36907884478569,-0.600236516861372,-0.258265004538453,0.366675121644476,6
1.24000549316406,-0.360086709260941,2.81087803840637,1.36512291431427,-0.358170848086624,2.8117054706409,1.36214786659896,2212.73,2210.792,2206.47,2208.853,356.277862548828,45.0002746582031,1.48171484470367,-0.609310686588287,-0.262147903442383,0.375964105129242,-0.613536214864368,-0.263987493038594,0.374799699616811,6
1.25999450683594,-0.372534334659576,2.80552268028259,1.37278139591217,-0.3705671011502,2.80637170925886,1.36972054415578,2209.041,2210.619,2211.719,2210.169,356.291778564453,45.000129699707,1.47462177276611,-0.622380137443542,-0.267769694328308,0.382926553487778,-0.626758665639206,-0.269676744214496,0.382877088462885,6
1.27999877929688,-0.385242342948914,2.80005526542664,1.38058054447174,-0.383236695417198,2.80092033679326,1.37746020158837,2203.481,2208.715,2218.978,2212.495,356.306823730469,45.0000228881836,1.46771883964539,-0.635400891304016,-0.273376315832138,0.389955013990402,-0.639917282339435,-0.275338529371412,0.39091548206889,6
1.30000305175781,-0.398209720849991,2.79447603225708,1.3885213136673,-0.396168722856641,2.79535604666509,1.38536017535082,2205.402,2209.717,2217.707,2212.629,356.328735351563,44.9999961853027,1.45919585227966,-0.648369669914246,-0.278963893651962,0.397036343812943,-0.652995275331231,-0.280965624398954,0.398904623909522,6
1.31999206542969,-0.411434978246689,2.78878569602966,1.39660465717316,-0.409351342777246,2.78968393359302,1.39341323214959,2207.432,2209.84,2216.518,2213.012,356.356018066406,45.0000534057617,1.44942319393158,-0.661264717578888,-0.284519076347351,0.404164463281631,-0.665976209205206,-0.286550957599616,0.406834473849655,6
1.33999633789063,-0.424916386604309,2.78298497200012,1.40483129024506,-0.422802873722428,2.78389611561957,1.401630562497,2208.76,2209.513,2215.749,2213.55,356.387329101563,45.000129699707,1.43829429149628,-0.674068629741669,-0.29003119468689,0.41133064031601,-0.678873453515705,-0.29210028151913,0.41471319914141,6
1.36000061035156,-0.438651710748672,2.77707505226135,1.41320168972015,-0.436511415158101,2.77799771321212,1.41000489654248,2214.475,2211.995,2209.527,2212.034,356.421722412109,45.0001907348633,1.42544329166412,-0.686767160892487,-0.295493245124817,0.418522506952286,-0.691670720740693,-0.297606588091785,0.422530849991739,6
1.3800048828125,-0.452638655900955,2.77105712890625,1.42171633243561,-0.450474904562636,2.77198961381608,1.41853497432376,2215.215,2212.481,2208.736,2211.64,356.453918457031,45.0001907348633,1.41257858276367,-0.699347794055939,-0.300901591777802,0.425733774900436,-0.704361775018035,-0.303067194200314,0.43028361700977,6
1.39999389648438,-0.466874957084656,2.76493191719055,1.43037545681,-0.464680216184654,2.76587746507559,1.42721277752413,2213.384,2212.286,2210.362,2211.66,356.483276367188,45.000114440918,1.40007781982422,-0.711815297603607,-0.306261569261551,0.432954221963882,-0.716930938559026,-0.308475354130225,0.437961922879032,6
1.41999816894531,-0.481358468532562,2.75870037078857,1.43917894363403,-0.47914673136562,2.75965292774086,1.43605014590267,2207.67,2210.255,2216.083,2212.758,356.511322021484,45.0000190734863,1.38784539699554,-0.724177181720734,-0.31157910823822,0.440173447132111,-0.729391385793766,-0.313836736470737,0.445573815653291,6
1.44000244140625,-0.496087193489075,2.75236320495605,1.44812655448914,-0.493861275572861,2.75332167044526,1.44503903134294,2207.918,2210.813,2214.921,2211.918,356.543029785156,44.9999542236328,1.37454259395599,-0.736436724662781,-0.316856652498245,0.447378545999527,-0.741727567798258,-0.319144650954242,0.453109796737511,6
1.45999145507813,-0.511058807373047,2.74592137336731,1.45721781253815,-0.508809800712713,2.74688973769103,1.45417085208374,2206.896,2209.87,2215.419,2211.819,356.577850341797,44.999942779541,1.36076426506042,-0.748581528663635,-0.322087228298187,0.454564124345779,-0.753924423002454,-0.324392617007921,0.460560665253582,6
1.47999572753906,-0.526270866394043,2.73937606811523,1.46645224094391,-0.524012471663969,2.74034845309416,1.46345792653486,2205.261,2208.135,2216.36,2212.173,356.616424560547,44.9999732971191,1.34615159034729,-0.760602235794067,-0.327264249324799,0.461722314357758,-0.765994882555672,-0.329586198544069,0.467934320638836,6
1.5,-0.541720569133759,2.73272848129272,1.47582912445068,-0.539455198877605,2.73370387899399,1.47289164761066,2209.845,2209.466,2210.023,2210.293,356.659851074219,45.0000305175781,1.32981336116791,-0.772486686706543,-0.332380086183548,0.4688421189785,-0.777924000354858,-0.334718964672088,0.475221632552146,6
1.52000427246094,-0.557404935359955,2.72598004341125,1.48534750938416,-0.555135099954955,2.72695725560613,1.48247025449879,2210.756,2209.098,2207.772,2209.367,356.703399658203,45.000057220459,1.31312310695648,-0.784218013286591,-0.337426632642746,0.475919336080551,-0.789706299681991,-0.339788558913217,0.482419255351937,6
1.53999328613281,-0.573320806026459,2.71913194656372,1.49500644207001,-0.571036956668503,2.72011513090874,1.49218445062151,2210.018,2208.486,2206.947,2208.578,356.74560546875,45.0000381469727,1.29632198810577,-0.79579484462738,-0.342404544353485,0.482946425676346,-0.801327600455846,-0.344788879974649,0.489518526647862,6
1.55999755859375,-0.589465200901031,2.7121856212616,1.50480473041534,-0.587181951496087,2.71316839067337,1.50204717602401,2205.081,2206.211,2210.512,2208.801,356.786468505859,44.9999847412109,1.27948307991028,-0.807219743728638,-0.34731712937355,0.489915192127228,-0.812800388649436,-0.349725300221754,0.496527073925997,6
1.58000183105469,-0.605835139751434,2.70514225959778,1.51474106311798,-0.60355483331529,2.70612359703193,1.51204911403357,2205.55,2206.676,2207.82,2206.967,356.829742431641,44.9999351501465,1.26153886318207,-0.818495571613312,-0.352167844772339,0.49681481719017,-0.824110582941666,-0.354591760855452,0.503436295127019,6
1.60000610351563,-0.622427403926849,2.69800329208374,1.52481389045715,-0.620152298932711,2.69898217125626,1.52218824678091,2203.317,2205.315,2208.335,2206.178,356.873992919922,44.9999084472656,1.24346828460693,-0.829613447189331,-0.356953263282776,0.503641724586487,-0.835253140422976,-0.35938609205264,0.510243109616171,5
1.6199951171875,-0.639238774776459,2.69076991081238,1.5350216627121,-0.636958033083316,2.69175113334911,1.53245460752521,2202.022,2204.024,2207.632,2205.325,356.920440673828,44.9999122619629,1.22502875328064,-0.840570390224457,-0.361671090126038,0.510389685630798,-0.846214826007804,-0.364102599125749,0.516939432286212,5
1.63999938964844,-0.656265914440155,2.68344354629517,1.54536271095276,-0.653994195024907,2.68442094880091,1.54286173301126,2198.831,2201.491,2208.878,2205.252,356.969390869141,44.9999313354492,1.20603239536285,-0.851359665393829,-0.366316676139832,0.51705265045166,-0.857007552155828,-0.368746407673381,0.523532540272869,5
1.66000366210938,-0.673505365848541,2.67602586746216,1.55583512783051,-0.671244443874359,2.67699864863716,1.55339964084857,2202.236,2202.195,2202.589,2202.773,357.022735595703,44.9999542236328,1.1854293346405,-0.861973404884338,-0.370885044336319,0.523621618747711,-0.867618167158098,-0.373311858882592,0.530014399402375,5
1.67999267578125,-0.690953314304352,2.66851854324341,1.5664370059967,-0.688691692550512,2.66949158495151,1.56405789280588,2202.01,2201.081,2200.406,2201.418,357.076263427734,44.9999656677246,1.1645804643631,-0.872396469116211,-0.375369131565094,0.530094861984253,-0.878034183119987,-0.377793579561193,0.536377381014768,5
1.69999694824219,-0.708605945110321,2.66092324256897,1.57716631889343,-0.706358800111611,2.66188992212981,1.57485045312518,2198.213,2198.622,2201.829,2201.003,357.129058837891,44.9999618530273,1.1435889005661,-0.882627904415131,-0.379769325256348,0.536467134952545,-0.888267004546665,-0.382196476749158,0.542628451944297,5
1.72000122070313,-0.726459324359894,2.65324139595032,1.58802092075348,-0.724228658537036,2.6542010212754,1.58576687078363,2199.447,2198.969,2197.454,2198.481,357.183441162109,44.9999351501465,1.12158215045929,-0.892668843269348,-0.384087473154068,0.542729616165161,-0.898304216251578,-0.386515208538549,0.548760027947228,5
1.74000549316406,-0.744509518146515,2.64547491073608,1.59899854660034,-0.742297311768984,2.64642658456943,1.59680472908726,2196.655,2197.266,2197.656,2197.273,357.236968994141,44.9999084472656,1.0997838973999,-0.902512907981873,-0.38832214474678,0.548880815505981,-0.908141534469281,-0.390747931744771,0.554769492138099,5
1.75999450683594,-0.762752771377563,2.63762545585632,1.61009681224823,-0.760546715064628,2.63857437616062,1.60795300478424,2193.877,2195.419,2197.673,2196.194,357.290954589844,44.9998817443848,1.07798314094543,-0.912162780761719,-0.392475217580795,0.554916203022003,-0.917767514700581,-0.394889722119545,0.560649853250941,4
1.77999877929688,-0.781185150146484,2.62969446182251,1.62131345272064,-0.779000609654483,2.63063418086074,1.61922620102184,2188.82,2192.178,2200.087,2196.065,357.346588134766,44.9998626708984,1.05585134029388,-0.921617448329926,-0.396545439958572,0.560831248760223,-0.927192788821983,-0.398945154262308,0.566407606133204,4
1.80000305175781,-0.799802601337433,2.62168383598328,1.63264584541321,-0.797640935141499,2.62261376955408,1.63061328498531,2191.256,2192.391,2194.186,2193.284,357.407165527344,44.9998817443848,1.03205847740173,-0.930871725082397,-0.400529533624649,0.566618621349335,-0.936405971974637,-0.402909329586356,0.572035795952272,4
1.81999206542969,-0.818600714206696,2.61359548568726,1.64409136772156,-0.816448984455027,2.61452119137054,1.64210282881713,2190.8,2190.931,2191.619,2191.594,357.469055175781,44.9999122619629,1.00788450241089,-0.9399094581604,-0.404419302940369,0.572278439998627,-0.945396434568188,-0.406777674475912,0.57752792925727,3
1.83999633789063,-0.837575256824493,2.60543131828308,1.65564751625061,-0.835449117627072,2.60634596486888,1.6537097136807,2187.415,2188.259,2191.988,2190.817,357.531311035156,44.999927520752,0.98342889547348,-0.94872659444809,-0.408212542533875,0.577807486057281,-0.954174163352093,-0.410554485950274,0.582890106797601,3
1.86000061035156,-0.856721818447113,2.59719324111938,1.66731142997742,-0.854622615239374,2.59809614449182,1.66542250417552,2189.604,2188.549,2186.089,2187.782,357.595550537109,44.9999198913574,0.95788186788559,-0.957321465015411,-0.411909103393555,0.58319878578186,-0.962728579444532,-0.414235212212131,0.588115866099442,0
1.8800048828125,-0.876035451889038,2.5888831615448,1.67908048629761,-0.873964974649439,2.58977366760063,1.67723844970756,2187.163,2186.693,2185.342,2186.262,357.658264160156,44.9999160766602,0.932662785053253,-0.965686738491058,-0.415506809949875,0.588452637195587,-0.971056158224177,-0.417818336715394,0.593203054026622,0
1.89999389648438,-0.895512044429779,2.58050298690796,1.69095182418823,-0.893456683142228,2.58138692997148,1.6891456302637,2184.046,2184.692,2185.165,2184.874,357.720184326172,44.9998970031738,0.907628953456879,-0.973827302455902,-0.419008731842041,0.593566000461578,-0.979147395688901,-0.421299770153459,0.598145864732551,0
1.91999816894531,-0.915146946907043,2.5720546245575,1.70292258262634,-0.913122862707269,2.57292512231409,1.7011593924753,2177.905,2181.102,2188.161,2184.665,357.782592773438,44.9998779296875,0.882516860961914,-0.981745779514313,-0.422416538000107,0.598535656929016,-0.987011339258123,-0.424683405378145,0.60294982514457,0
1.94000244140625,-0.934935688972473,2.56353998184204,1.71498966217041,-0.932943991899774,2.5643966441608,1.71326781099638,2179.505,2180.992,2182.744,2181.694,357.849487304688,44.9998779296875,0.855882287025452,-0.98944079875946,-0.425729274749756,0.603355467319489,-0.994638524886308,-0.427965170275055,0.607609153824943,0
1.95999145507813,-0.954873621463776,2.55496120452881,1.72715020179749,-0.952900013794853,2.55581012544606,1.7254586333645,2178.329,2179.216,2180.525,2179.891,357.917846679688,44.9998970031738,0.828948140144348,-0.99689781665802,-0.428939580917358,0.60802686214447,-1.00202031904361,-0.431141350077486,0.612118576685011,0
1.97999572753906,-0.974955976009369,2.54632019996643,1.73940110206604,-0.973016570682103,2.54715453300902,1.73774752405424,2174.679,2176.261,2180.771,2179.038,357.987152099609,44.9999122619629,0.80172598361969,-1.00411283969879,-0.432044804096222,0.612547934055328,-1.00916501115878,-0.434215511495054,0.616483157607448,0
2,-0.995177567005157,2.5376193523407,1.75173938274384,-0.993273599084619,2.53843849960327,1.75012222660065,2177.359,2176.467,2174.103,2175.679,358.059143066406,44.9999198913574,0.773319005966187,-1.01108300685883,-0.435043305158615,0.61691290140152,-1.01606400046349,-0.437183953857422,0.620697642517089,0
2.02000427246094,-1.01553344726563,2.52886080741882,1.76416182518005,-1.01366615605493,2.52966415204104,1.76257972143423,2175.451,2174.567,2172.469,2173.922,358.129699707031,44.9999237060547,0.745250403881073,-1.01779901981354,-0.437931686639786,0.621123552322388,-1.02271452148052,-0.440045487257004,0.624760342027063,0
2.03999328613281,-1.0360187292099,2.52004647254944,1.77666532993317,-1.03417354141348,2.52084039703127,1.77510736313833,2172.559,2172.471,2171.746,2172.367,358.198944091797,44.9999046325684,0.717457950115204,-1.0242657661438,-0.440712690353394,0.625177919864655,-1.02910913225408,-0.442796909628122,0.628666709962695,0
2.05999755859375,-1.05662846565247,2.51117873191833,1.78924679756165,-1.05482201812353,2.5119559343546,1.78772119534738,2166.105,2168.804,2174.715,2172.04,358.267852783203,44.9998817443848,0.68971049785614,-1.03048753738403,-0.443389117717743,0.629074037075043,-1.03525504859546,-0.445441325732794,0.632421154350513,0
2.08000183105469,-1.07735776901245,2.50225949287415,1.80190289020538,-1.07559088172821,2.50301967256038,1.80040857003175,2167.31,2168.523,2169.516,2168.93,358.340515136719,44.9998779296875,0.66058087348938,-1.03646552562714,-0.445961713790894,0.632806479930878,-1.04114485287423,-0.447975543971863,0.636019143875825,0
2.10000610351563,-1.09820151329041,2.49329090118408,1.81463038921356,-1.09647498538954,2.49403382618922,1.81316634306845,2165.49,2166.573,2167.715,2167.082,358.414184570313,44.9998893737793,0.631276845932007,-1.04218733310699,-0.448424816131592,0.636377513408661,-1.04677621342161,-0.450398561093403,0.639459254158576,0
2.1199951171875,-1.11915457248688,2.48427534103394,1.82742607593536,-1.11745308225396,2.48500753716864,1.82598153508617,2164.175,2164.802,2165.295,2165.125,358.488800048828,44.9998970031738,0.601756036281586,-1.04765069484711,-0.450776636600494,0.639786124229431,-1.0521429102862,-0.45270770082608,0.642737685527497,0
2.13999938964844,-1.14021170139313,2.47521495819092,1.84028673171997,-1.138551967509,2.47592927627801,1.83887051484687,2159.693,2161.549,2166.109,2164.392,358.563934326172,44.9999046325684,0.572097778320313,-1.0528529882431,-0.453015476465225,0.643031060695648,-1.05725102347782,-0.454905579228273,0.645858152165725,0
2.16000366210938,-1.16136753559113,2.46611213684082,1.85320889949799,-1.15975039167652,2.46680818657414,1.85182030137592,2162.169,2161.585,2159.55,2160.895,358.641906738281,44.9999046325684,0.541225731372833,-1.0577929019928,-0.455140560865402,0.64610743522644,-1.0620943502576,-0.456989527434725,0.648816864916866,0
2.17999267578125,-1.18261671066284,2.45696926116943,1.8661892414093,-1.18102676265167,2.45765355853653,1.86481770439342,2160.225,2159.635,2157.764,2159.018,358.718688964844,44.9999046325684,0.510649025440216,-1.06246113777161,-0.457148104906082,0.649017691612244,-1.06666760390386,-0.458957270716794,0.65161059420515,0
2.19999694824219,-1.20395398139954,2.44778847694397,1.87922441959381,-1.20240821395574,2.44845371736898,1.8778792993441,2154.726,2156.249,2159.551,2158.387,358.794403076172,44.9998970031738,0.480336099863052,-1.06686162948608,-0.459040403366089,0.651760995388031,-1.07097597819164,-0.460811043810786,0.654242512826705,0
2.22000122070313,-1.22537386417389,2.43857216835022,1.89231109619141,-1.22387315175433,2.43921795429519,1.89099189489151,2155.897,2155.926,2154.352,2155.133,358.872253417969,44.9998893737793,0.449110329151154,-1.07099807262421,-0.460819661617279,0.6543328166008,-1.07501419914593,-0.462548577472581,0.656709398992482,0
2.24000549316406,-1.24687123298645,2.42932224273682,1.90544581413269,-1.24541615591711,2.42994860144581,1.90415217996261,2153.122,2153.687,2153.4,2153.491,358.949401855469,44.9998970031738,0.418223112821579,-1.07486355304718,-0.46248322725296,0.656735897064209,-1.07878069424208,-0.464169195088763,0.659010292071722,0
2.25999450683594,-1.26844048500061,2.42004179954529,1.91862523555756,-1.26701526177039,2.4206551096063,1.91734673668097,2150.49,2151.517,2152.249,2151.821,359.026702880859,44.9998970031738,0.387419462203979,-1.07846105098724,-0.464031994342804,0.658969640731812,-1.08227143928024,-0.465671165158559,0.661142733743536,0
2.27999877929688,-1.29007625579834,2.41073250770569,1.93184590339661,-1.28869796983554,2.41132564607061,1.93059236468599,2145.215,2147.941,2153.756,2151.381,359.104766845703,44.9999046325684,0.35648575425148,-1.08179092407227,-0.465465694665909,0.661033272743225,-1.08549040888332,-0.467056197851165,0.663109152043028,0
2.30000305175781,-1.3117733001709,2.40139675140381,1.94510436058044,-1.31044231452835,2.40196966201596,1.94387564554502,2147.752,2147.916,2147.202,2147.778,359.186584472656,44.9999122619629,0.324082851409912,-1.0848513841629,-0.4667828977108,0.662922620773315,-1.08843358680109,-0.468322565086307,0.664907093505606,0
2.31999206542969,-1.33352589607239,2.39203715324402,1.95839715003967,-1.33222611841886,2.3925966997709,1.95718303141218,2146.437,2146.13,2144.73,2145.719,359.268157958984,44.9999122619629,0.291738331317902,-1.08763003349304,-0.467978209257126,0.664640665054321,-1.09109790637238,-0.469468947365361,0.666534684755819,0
2.33999633789063,-1.3553284406662,2.38265609741211,1.97172093391418,-1.35407709248145,2.38319483607731,1.97053145048929,2141.845,2143.046,2145.505,2144.842,359.348968505859,44.9999122619629,0.259569197893143,-1.09012818336487,-0.46905243396759,0.666187345981598,-1.09348640563071,-0.470496651869278,0.667993781680938,0
2.36000061035156,-1.37717545032501,2.37325596809387,1.98507213592529,-1.37597305876702,2.37377361348711,1.98390735461333,2143.739,2142.884,2139.646,2141.336,359.431396484375,44.9999122619629,0.226633369922638,-1.09234857559204,-0.470006972551346,0.667558670043945,-1.09559602313537,-0.471404361345641,0.669282514094601,0
2.3800048828125,-1.39906120300293,2.3638391494751,1.9984472990036,-1.39790843013262,2.36433543599182,1.99730733068585,2140.941,2140.662,2138.68,2139.712,359.512054443359,44.9999122619629,0.194358378648758,-1.09428596496582,-0.470840126276016,0.668757677078247,-1.09742594550583,-0.472191725819537,0.67040038511534,0
2.39999389648438,-1.42097997665405,2.35440802574158,2.01184296607971,-1.41986083522252,2.35488992936084,2.01071771239474,2137.832,2138.354,2138.006,2138.198,359.591674804688,44.9999122619629,0.162489265203476,-1.09594678878784,-0.47155487537384,0.669784307479858,-1.09897439291323,-0.472857979480329,0.671346307473475,0
2.41999816894531,-1.44292676448822,2.3449649810791,2.02525568008423,-1.44185817738692,2.34542508756209,2.02415554546122,2131.724,2134.728,2140.308,2137.896,359.671417236328,44.9999084472656,0.13068599998951,-1.09733498096466,-0.47215273976326,0.670638203620911,-1.10024313330221,-0.473403883025206,0.672121361178802,0
2.44000244140625,-1.46489572525024,2.33551216125488,2.03868198394775,-1.46387808506052,2.33595053645515,2.03760716344514,2133.774,2134.406,2134.385,2134.509,359.754913330078,44.9999084472656,0.0975286886096001,-1.09845089912415,-0.472633600234985,0.671315908432007,-1.10123038958312,-0.473828671822132,0.672724460634977,0
2.45999145507813,-1.48688137531281,2.32605266571045,2.0521183013916,-1.48589810917879,2.32647593524532,2.05105885256329,2132.47,2132.659,2131.929,2132.468,359.838684082031,44.9999122619629,0.0643273591995239,-1.09928262233734,-0.472991853952408,0.671820640563965,-1.10193535162022,-0.474131997292339,0.673155110942729,0
2.47999572753906,-1.50887799263,2.31658816337585,2.06556129455566,-1.50794623031618,2.31698924467309,2.06452770571198,2128.372,2129.654,2132.211,2131.621,359.922210693359,44.9999084472656,0.031207375228405,-1.09982991218567,-0.473227173089981,0.672152638435364,-1.10235882472314,-0.474314205938057,0.673413804053135,0
2.5,-1.53087973594666,2.30712127685547,2.07900738716125,-1.52999999932945,2.30750012397766,2.0780000090599,2130.852,2129.669,2125.935,2127.894,0.0074252593331039,44.9999160766602,-0.00275324424728751,-1.10009407997131,-0.473340094089508,0.672308564186096,-1.10250000050292,-0.474374949932098,0.673500046133994,0
2.52000427246094,-1.55288124084473,2.29765462875366,2.09245324134827,-1.55205376834272,2.29801100328223,2.09147231240783,2128.505,2127.684,2124.561,2126.132,0.0904833972454071,44.9999198913574,359.964050292969,-1.10006952285767,-0.473328799009323,0.672291696071625,-1.10235882472314,-0.474314205938057,0.673413804053136,0
2.53999328613281,-1.57487654685974,2.28819060325623,2.10589528083801,-1.57408507527774,2.28853154739156,2.10493089402267,2125.449,2125.403,2123.904,2124.684,0.17180722951889,44.9999160766602,359.931488037109,-1.09976363182068,-0.473196893930435,0.672102510929108,-1.10193578218388,-0.474132182551855,0.673155373967352,0
2.55999755859375,-1.59686017036438,2.27873158454895,2.11933016777039,-1.59612191359838,2.27904971150017,2.11839285467467,2119.105,2121.801,2126.459,2124.523,0.252452194690704,44.9999351501465,359.899261474609,-1.09918284416199,-0.472947210073471,0.671741127967834,-1.10123038958312,-0.473828671822132,0.672724460634977,0
2.58000183105469,-1.61882674694061,2.26927995681763,2.1327543258667,-1.61814182127198,2.26957516039323,2.13184447265859,2120.787,2121.379,2121.105,2121.233,0.336335033178329,44.999942779541,359.865875244141,-1.09833002090454,-0.472580879926682,0.671204566955566,-1.10024313330221,-0.473403883025206,0.672121361178803,0
2.60000610351563,-1.64077067375183,2.25983810424805,2.14616417884827,-1.64013916343638,2.26011031859448,2.14528230572506,2119.191,2119.528,2119.027,2119.423,0.420358270406723,44.9999351501465,359.83251953125,-1.09719491004944,-0.472093045711517,0.670496165752411,-1.09897439291323,-0.472857979480329,0.671346307473476,0
2.6199951171875,-1.66268622875214,2.25040817260742,2.15955638885498,-1.66209156852628,2.2506648119635,2.15869268743396,2117.97,2117.842,2116.604,2117.457,0.504311382770538,44.9999389648438,359.799255371094,-1.09577786922455,-0.471483498811722,0.669616520404816,-1.09742594550583,-0.472191725819537,0.67040038511534,0
2.63999938964844,-1.68456780910492,2.2409930229187,2.17292761802673,-1.68402693989188,2.24122663446822,2.17209266350648,2113.347,2114.918,2117.48,2116.737,0.587664783000946,44.999942779541,359.76611328125,-1.0940797328949,-0.470752447843552,0.668566107749939,-1.09559602313537,-0.471404361345641,0.669282514094601,0
2.66000366210938,-1.70640969276428,2.23159527778625,2.18627452850342,-1.70592290617745,2.23180541187802,2.18546856763052,2115.787,2114.757,2111.521,2113.202,0.672839939594269,44.9999351501465,359.732208251953,-1.09210276603699,-0.469901204109192,0.667342305183411,-1.09348640563071,-0.470496651869278,0.667993781680938,0
2.67999267578125,-1.72820663452148,2.22221660614014,2.19959354400635,-1.72775723139253,2.2224107117184,2.19880681618649,2113.755,2112.862,2109.958,2111.529,0.75613808631897,44.9999351501465,359.698974609375,-1.08984112739563,-0.468927443027496,0.665948569774628,-1.09109983431736,-0.469469776906228,0.666535862507326,0
2.69999694824219,-1.74995255470276,2.21286010742188,2.21288132667542,-1.74955768413056,2.21303058593937,2.21212437257479,2108.248,2109.768,2111.762,2111.084,0.83776718378067,44.9999504089355,359.666290283203,-1.08730161190033,-0.467834234237671,0.664385676383972,-1.08843358680109,-0.468322565086308,0.664907093505606,0
2.72000122070313,-1.77164244651794,2.20352745056152,2.22613430023193,-1.77130202882336,2.20367460188472,2.22540765343382,2109.775,2109.283,2106.825,2107.912,0.920943677425385,44.9999580383301,359.633056640625,-1.0844898223877,-0.466624468564987,0.662651479244232,-1.08549040888332,-0.467056197851165,0.663109152043028,0
2.74000549316406,-1.79327034950256,2.19422173500061,2.23934936523438,-1.79298473688851,2.19434513834902,2.23865328143884,2107.211,2107.281,2105.853,2106.449,1.00282287597656,44.9999694824219,359.600402832031,-1.08140134811401,-0.465295970439911,0.660749435424805,-1.08227143928024,-0.465671165158559,0.661142733743536,0
2.75999450683594,-1.81483125686646,2.18494462966919,2.25252294540405,-1.81458384274179,2.18505164650952,2.2518478381572,2105.104,2105.274,2104.489,2104.978,1.0841052532196,44.9999771118164,359.568115234375,-1.07804095745087,-0.463850647211075,0.658680737018585,-1.07878069424208,-0.464169195088763,0.659010292071722,0
2.77999877929688,-1.83631944656372,2.17569875717163,2.26565194129944,-1.83612684690458,2.17578229366013,2.2650081232283,2100.04,2102.249,2105.921,2104.619,1.16511714458466,44.9999885559082,359.535919189453,-1.07441139221191,-0.462289303541183,0.656446099281311,-1.07501419914593,-0.462548577472581,0.656709398992482,0
2.80000305175781,-1.85772967338562,2.16648626327515,2.27873277664185,-1.85759178470316,2.16654653058634,2.2781207187757,2102.637,2102.119,2100.087,2101.146,1.24872088432312,44.9999885559082,359.502746582031,-1.07051420211792,-0.460612505674362,0.654043674468994,-1.07097597819164,-0.460811043810786,0.654242512826704,0
2.81999206542969,-1.87905621528625,2.15731024742126,2.29176235198975,-1.87895695992541,2.1573536925621,2.29117237092199,2101.348,2100.586,2097.966,2099.326,1.33120274543762,44.9999771118164,359.469970703125,-1.06634104251862,-0.45881661772728,0.651476800441742,-1.06667099276523,-0.458958728849171,0.651612664407684,0
2.83999633789063,-1.90029442310333,2.14817190170288,2.30473732948303,-1.90024960698239,2.14819206138118,2.30417971674389,2097.15,2097.863,2098.639,2098.753,1.41219770908356,44.9999771118164,359.437744140625,-1.06189608573914,-0.456903517246246,0.648746848106384,-1.06209435025759,-0.456989527434725,0.648816864916866,0
2.86000061035156,-1.9214380979538,2.13907432556152,2.3176543712616,-1.9214480311499,2.13907097167731,2.31712950327294,2098.884,2097.592,2093.796,2095.494,1.49384927749634,44.9999809265137,359.405120849609,-1.05718457698822,-0.45487567782402,0.645852148532867,-1.05725102347782,-0.454905579228273,0.645858152165725,0
2.8800048828125,-1.94248223304749,2.13001990318298,2.33051037788391,-1.94254691640495,2.12999271078668,2.33001848303364,2096.517,2095.715,2092.842,2094.132,1.57326471805573,44.9999961853027,359.373382568359,-1.05220437049866,-0.452732652425766,0.642796516418457,-1.0521429102862,-0.45270770082608,0.642737685527497,0
2.89999389648438,-1.96342146396637,2.12101030349731,2.34330201148987,-1.96352501326936,2.1209664217661,2.34283367505136,2093.907,2093.693,2092.192,2092.921,1.65106391906738,45.0000076293945,359.342346191406,-1.04696333408356,-0.450477778911591,0.639581441879272,-1.04677621342161,-0.450398561093403,0.639459254158576,0
2.91999816894531,-1.98425078392029,2.11204791069031,2.35602617263794,-1.98440911693069,2.11198057539494,2.35559144808806,2088.49,2090.747,2094.15,2092.791,1.72810995578766,45.0000305175781,359.311614990234,-1.0414674282074,-0.448113411664963,0.636208295822144,-1.04114485287423,-0.447975543971863,0.636019143875825,0
2.94000244140625,-2.00496506690979,2.10313534736633,2.3686797618866,-2.00517798053537,2.10304431360073,2.36827882277243,2090.601,2090.453,2089.115,2089.659,1.80764818191528,45.0000305175781,359.280029296875,-1.03571951389313,-0.445640802383423,0.632675766944885,-1.03525504859546,-0.445441325732794,0.632421154350513,0
2.95999145507813,-2.025559425354,2.09427428245544,2.38125944137573,-2.02581075424974,2.0941666074844,2.38088306226645,2089.568,2088.962,2086.974,2088.06,1.88653516769409,45.0000267028809,359.248779296875,-1.02971196174622,-0.44305619597435,0.628987491130829,-1.02911391720548,-0.442798968459032,0.628669633014836,0
2.97999572753906,-2.04602813720703,2.08546710014343,2.3937623500824,-2.04633384260397,2.08533609591429,2.39342029668558,2085.881,2086.618,2087.35,2087.422,1.96428155899048,45.0000228881836,359.217895507813,-1.02344727516174,-0.440360516309738,0.625145077705383,-1.02271452148052,-0.440045487257004,0.624760342027062,0
3,-2.06636667251587,2.07671594619751,2.40618538856506,-2.06672639957428,2.07656174835205,2.40587779151916,2088.361,2086.551,2082.137,2084.114,2.04267716407776,45.0000152587891,359.186676025391,-1.01692974567413,-0.43755578994751,0.621147632598877,-1.01606400046349,-0.437183953857422,0.620697642517089,0
3.02000427246094,-2.08656978607178,2.06802320480347,2.4185254573822,-2.0869834279768,2.06784571494631,2.41825249406557,2086.323,2084.895,2081.111,2082.817,2.11833477020264,45.0000267028809,359.156494140625,-1.01015710830688,-0.434641361236572,0.616998910903931,-1.00916501115878,-0.434215511495054,0.616483157607448,0
3.03999328613281,-2.10663270950317,2.05939078330994,2.43077945709229,-2.10708469520508,2.05919670122237,2.43053204454123,2083.857,2083.058,2080.603,2081.695,2.19169902801514,45.0000495910645,359.127197265625,-1.00313878059387,-0.431621372699738,0.612700939178467,-1.00202586176059,-0.431143734953757,0.612121962644322,0
3.05999755859375,-2.12655019760132,2.05082058906555,2.44294452667236,-2.12705600675913,2.05060360379452,2.44273220712343,2078.469,2080.213,2082.776,2081.805,2.26363325119019,45.0000762939453,359.098510742188,-0.995882451534271,-0.428499341011047,0.608255624771118,-0.994638524886308,-0.427965170275055,0.607609153824944,0
3.08000183105469,-2.14631795883179,2.04231524467468,2.45501780509949,-2.14687713595163,2.04207512564123,2.45484062564451,2080.158,2079.918,2078.508,2078.917,2.33746290206909,45.0000762939453,359.069091796875,-0.988393247127533,-0.425277411937714,0.603662550449371,-0.987011339258122,-0.424683405378145,0.60294982514457,0
3.09999084472656,-2.165931224823,2.03387594223022,2.46699619293213,-2.16652837486666,2.03361974652815,2.46684526084616,2078.993,2078.476,2076.77,2077.601,2.41056728363037,45.000072479248,359.040130615234,-0.980665326118469,-0.421952843666077,0.598925352096558,-0.979153483542501,-0.421302389586788,0.598149583707317,0
3.1199951171875,-2.18538522720337,2.02550554275513,2.47887706756592,-2.18603502400946,2.02522658035469,2.47876156841225,2075.639,2076.434,2077.091,2077.011,2.48269414901733,45.000072479248,359.011535644531,-0.972701668739319,-0.418526440858841,0.594046115875244,-0.971056158224178,-0.417818336715394,0.593203054026623,0
3.13999938964844,-2.20467567443848,2.01720523834229,2.49065756797791,-2.20537738341953,2.01690410346351,2.49057751394429,2078.286,2076.291,2072.094,2074.026,2.55546355247498,45.0000648498535,358.982696533203,-0.964505732059479,-0.414999753236771,0.589024543762207,-0.962728579444533,-0.414235212212131,0.588115866099442,0
3.16000366210938,-2.223797082901,2.00897789001465,2.50233483314514,-2.22455088103183,2.00865428308644,2.50229030443911,2076.691,2074.95,2070.942,2072.742,2.62550663948059,45.0000648498535,358.954803466797,-0.956075608730316,-0.411371946334839,0.583864569664001,-0.954174163352092,-0.410554485950274,0.582890106797601,0
3.17999267578125,-2.2427453994751,2.00082516670227,2.51390624046326,-2.24353658854737,2.00048526354177,2.51388837689424,2074.791,2073.398,2070.22,2071.641,2.69302082061768,45.0000762939453,358.927886962891,-0.947420239448547,-0.407647222280502,0.578568696975708,-0.945403214201559,-0.406780591562751,0.577532070829503,0
3.19999694824219,-2.26151609420776,1.99274873733521,2.5253689289093,-2.2623590635174,1.99238647840124,2.5253867331345,2069.887,2070.882,2072.224,2071.788,2.75852513313293,45.0001029968262,358.901702880859,-0.938547968864441,-0.403829544782639,0.573139369487762,-0.936405971974636,-0.402909329586355,0.572035795952272,0
3.22000122070313,-2.28010559082031,1.98475003242493,2.53672051429749,-2.28099938900442,1.98436606709459,2.53677381709797,2071.245,2070.561,2068.662,2069.237,2.82506012916565,45.0001068115234,358.875122070313,-0.929465591907501,-0.399921894073486,0.567576706409454,-0.927192788821982,-0.398945154262308,0.566407606133204,0
3.24000549316406,-2.298508644104,1.97683167457581,2.54795813560486,-2.29945328359428,1.9764258717947,2.54804701333557,2069.742,2069.311,2067.569,2068.118,2.89045691490173,45.0001106262207,358.84912109375,-0.92016988992691,-0.395922780036926,0.561884760856628,-0.91776751470058,-0.394889722119544,0.560649853250941,0
3.25999450683594,-2.31672191619873,1.96899509429932,2.55907940864563,-2.31770268688992,1.96857366338589,2.55919528903255,2069.039,2068.163,2065.871,2066.806,2.95490026473999,45.0000991821289,358.823608398438,-0.910664975643158,-0.391833662986755,0.55606597661972,-0.90814153446928,-0.390747931744771,0.554769492138098,0
3.27999877929688,-2.33474111557007,1.96124172210693,2.57008194923401,-2.33577134012187,1.96079922667992,2.57023314733618,2065.782,2066.164,2066.491,2066.606,3.01795268058777,45.0001068115234,358.798675537109,-0.900954306125641,-0.387655675411224,0.550122737884521,-0.898304216251578,-0.386515208538549,0.548760027947228,0
3.30000305175781,-2.35256195068359,1.95357394218445,2.58096313476563,-2.35364119854729,1.95311032582551,2.58114956499463,2068.012,2066.115,2062.351,2063.918,3.08131885528564,45.0001106262207,358.773559570313,-0.89104288816452,-0.383390784263611,0.544055581092834,-0.888267004546666,-0.382196476749158,0.542628451944297,0
3.31999206542969,-2.37018036842346,1.94599342346191,2.59172058105469,-2.37129490830989,1.94551442770222,2.59193394080789,2066.912,2064.958,2061.146,2062.852,3.14219331741333,45.0001029968262,358.749389648438,-0.880929529666901,-0.379038751125336,0.537868618965149,-0.878042061913513,-0.37779696958594,0.536382194046788,0
3.33999633789063,-2.38759303092957,1.93850135803223,2.60235190391541,-2.38875555478454,1.93800159931817,2.60260037727124,2063.33,2063.044,2062.252,2062.748,3.20053052902222,45.000114440918,358.726104736328,-0.870622336864471,-0.37460321187973,0.531564712524414,-0.867618167158097,-0.373311858882592,0.530014399402376,0
3.36000061035156,-2.40479564666748,1.93109941482544,2.61285471916199,-2.406005803634,1.93057929915441,2.61313828510855,2064.473,2062.748,2059.313,2060.542,3.25839614868164,45.0001335144043,358.702941894531,-0.860129594802856,-0.370088249444962,0.52514511346817,-0.857007552155826,-0.36874640767338,0.523532540272868,0
3.3800048828125,-2.42178440093994,1.92378962039948,2.62322688102722,-2.42304196557559,1.92324911460621,2.6235454105946,2062.707,2061.599,2058.882,2059.715,3.31398987770081,45.0001335144043,358.680725097656,-0.849452674388885,-0.365494549274445,0.518614113330841,-0.846214826007803,-0.364102599125748,0.516939432286212,0
3.39999389648438,-2.43855667114258,1.91657304763794,2.63346648216248,-2.43984769972619,1.91601807669906,2.63381177133889,2061.299,2060.39,2058.24,2058.917,3.36790204048157,45.0001449584961,358.659301757813,-0.8385990858078,-0.360825151205063,0.5119748711586,-0.835253140422974,-0.35938609205264,0.510243109616171,0
3.41999816894531,-2.45510792732239,1.90945148468018,2.64357113838196,-2.45644516534361,1.90887665092339,2.64395090408624,2057.895,2058.516,2059.365,2059.061,3.42046904563904,45.0001487731934,358.638519287109,-0.827574670314789,-0.356082230806351,0.505230247974396,-0.824110582941664,-0.354591760855451,0.503436295127018,0
3.44000244140625,-2.471435546875,1.90242600440979,2.65353870391846,-2.47281804716281,1.90183185728196,2.6539528420958,2060.134,2058.51,2055.634,2056.742,3.47368407249451,45.000129699707,358.617523193359,-0.816384136676788,-0.351267486810684,0.498381525278091,-0.812800388649434,-0.349725300221754,0.496527073925997,0
3.45999145507813,-2.48753619194031,1.89549827575684,2.66336727142334,-2.48895081463434,1.8948903781363,2.66380809799729,2059.557,2057.729,2054.308,2055.742,3.52492046356201,45.000114440918,358.597229003906,-0.805025458335876,-0.346379905939102,0.491432785987854,-0.80133641229185,-0.344792671461508,0.489523909660973,0
3.47999572753906,-2.50340604782104,1.88866984844208,2.67305493354797,-2.50486489870395,1.88804299234919,2.67352976362102,2057.067,2056.29,2054.795,2055.562,3.57384729385376,45.000114440918,358.577819824219,-0.793504893779755,-0.341422349214554,0.484387397766113,-0.789706299681989,-0.339788558913217,0.482419255351936,0
3.5,-2.51904296875,1.8819420337677,2.68259978294373,-2.5205447997813,1.88129636896134,2.68310837050915,2058.773,2056.248,2051.784,2053.478,3.62177228927612,45.0001029968262,358.558715820313,-0.78182989358902,-0.336398333311081,0.477247178554535,-0.777924000354857,-0.334718964672089,0.475221632552147,0
3.52000427246094,-2.53444290161133,1.87531590461731,2.69200015068054,-2.53598752699493,1.87465179486116,2.69254209158495,2057.245,2055.206,2051.564,2052.973,3.66662192344666,45.000114440918,358.540771484375,-0.770003437995911,-0.331309348344803,0.47001650929451,-0.765994882555673,-0.32958619854407,0.467934320638837,0
3.53999328613281,-2.5496039390564,1.86879277229309,2.70125412940979,-2.55117869390181,1.86811546013321,2.70182213839487,2055.73,2054.288,2051.471,2052.334,3.70897173881531,45.000129699707,358.523803710938,-0.758035361766815,-0.326159805059433,0.462699204683304,-0.753933682518821,-0.324396601119134,0.46056632174764,0
3.55999755859375,-2.56452226638794,1.86237359046936,2.71036005020142,-2.56613872308604,1.86167857751006,2.71096098677687,2052.426,2052.676,2052.948,2052.683,3.74944829940796,45.0001487731934,358.507659912109,-0.745933592319489,-0.320953279733658,0.455298751592636,-0.741727567798258,-0.319144650954242,0.45310979673751,0
3.58000183105469,-2.57919645309448,1.85605990886688,2.71931648254395,-2.58085326729328,1.85534732021446,2.71994987221714,2054.101,2052.749,2050.184,2050.803,3.79015398025513,45.0001373291016,358.491516113281,-0.733704566955566,-0.315692186355591,0.447817176580429,-0.729391385793765,-0.313836736470737,0.44557381565329,0
3.59999084472656,-2.59362363815308,1.8498523235321,2.72812175750732,-2.59530884290342,1.84912748987145,2.72878055778257,2053.715,2052.011,2049.119,2050.235,3.8291380405426,45.0001182556152,358.476226806641,-0.721347451210022,-0.310375839471817,0.440258741378784,-0.716940488958392,-0.308479463400265,0.437967757068975,0
3.6199951171875,-2.60780096054077,1.8437522649765,2.7367742061615,-2.60952509409627,1.84301063413925,2.73746504379605,2051.982,2050.992,2049.343,2050.094,3.86609888076782,45.0001068115234,358.461669921875,-0.708868086338043,-0.305006384849548,0.432627171278,-0.704361775018033,-0.303067194200314,0.43028361700977,0
3.63999938964844,-2.62172651290894,1.83776044845581,2.74527263641357,-2.6234885835008,1.83700253474321,2.74599512157732,2053.934,2051.115,2046.555,2048.334,3.90190100669861,45.0000991821289,358.447479248047,-0.696272969245911,-0.299586713314056,0.4249247610569,-0.691670720740692,-0.297606588091786,0.422530849991739,0
3.66000366210938,-2.63539791107178,1.83187818527222,2.75361585617065,-2.63719712493647,1.83110413233575,2.75436945562281,2053.044,2050.51,2046.218,2047.842,3.93445491790771,45.0000991821289,358.434509277344,-0.683565378189087,-0.294118463993073,0.417156279087067,-0.678873453515702,-0.29210028151913,0.414713199141411,0
3.67999267578125,-2.64881300926208,1.82610607147217,2.76180243492126,-2.65063849381582,1.82532068681534,2.76258057812278,2051.898,2049.766,2046.266,2047.502,3.9640052318573,45.0001220703125,358.422637939453,-0.670755505561829,-0.288606494665146,0.409325927495956,-0.665986083416798,-0.286555206197011,0.406840505851433,0
3.69999694824219,-2.6619701385498,1.82044506072998,2.76983118057251,-2.66383127580226,1.81964420129024,2.77063984276899,2049.114,2048.62,2047.764,2047.85,3.99107718467712,45.0001373291016,358.411773681641,-0.657852828502655,-0.283054918050766,0.401437669992447,-0.65299527533123,-0.280965624398954,0.398904623909523,0
