t,x_s1,x_s2,x_s3,x_s_d1,x_s_d2,x_s_d3,propellers_rpms1,propellers_rpms2,propellers_rpms3,propellers_rpms4,rollRad,pitchRad,yawRad,v_s1,v_s2,v_s3,v_s_d1,v_s_d2,v_s_d3,insideCount
1.93999910354614,-0.934914112091064,2.55525970458984,2.27903437614441,-0.932940855499332,2.55612778302634,2.27808336058773,2159.257,2159.564,2160.675,2160.614,357.8134765625,44.9998931884766,0.850915193557739,-0.989399492740631,-0.435087263584137,0.36161682009697,-0.994637527999733,-0.437387881385992,0.363214964431747,6
1.95999908447266,-0.954851448535919,2.54649233818054,2.28632092475891,-0.952907847311445,2.54734737810444,2.28537477079164,2158.719,2158.679,2159.036,2159.418,357.883758544922,44.999885559082,0.823753237724304,-0.996860265731812,-0.438366949558258,0.36433082818985,-1.00202334816257,-0.440635766311283,0.365912067981759,5
1.97999954223633,-0.974933087825775,2.5376615524292,2.29366016387939,-0.973020614214797,2.53850286916825,2.29271941415143,2157.581,2157.672,2157.997,2158.307,357.954162597656,44.999885559082,0.796276569366455,-1.00407826900482,-0.441539287567139,0.366957306861877,-1.00916660984792,-0.443776987114632,0.368520595677463,5
1.99999952316284,-0.995154142379761,2.52876949310303,2.30104994773865,-0.993273313668165,2.52959682545193,2.30011515712767,2156.148,2156.677,2157.246,2157.159,358.024749755859,44.9998817443848,0.768529772758484,-1.01105260848999,-0.444604843854904,0.369495153427124,-1.0160641003188,-0.446810131007767,0.371039374313419,4
2.01999950408936,-1.01550960540771,2.51981830596924,2.3084888458252,-1.01366148370065,2.52063120908938,2.30756037032816,2154.356,2155.492,2156.876,2156.145,358.095855712891,44.999870300293,0.740577936172485,-1.017782330513,-0.447563886642456,0.371943265199661,-1.02271322909565,-0.449734058837654,0.373467457915938,4
2.03999948501587,-1.03599500656128,2.51080989837646,2.31597495079041,-1.0341801303494,2.51160821615581,2.31505323009156,2152.928,2154.343,2156.115,2155.091,358.168029785156,44.999870300293,0.712347030639648,-1.02426600456238,-0.450415909290314,0.37430065870285,-1.02911134086883,-0.452547602942482,0.375803876837111,0
2.05999946594238,-1.05660486221313,2.5017466545105,2.32350635528564,-1.05482420762922,2.50253006560306,2.32259189375932,2151.81,2153.169,2155.031,2154.046,358.241607666016,44.9998741149902,0.683796286582947,-1.03050029277802,-0.453158855438232,0.376566261053085,-1.03525588870848,-0.45524964332001,0.37804770100642,0
2.0799994468689,-1.07733464241028,2.49263095855713,2.33108115196228,-1.07558861970018,2.49339899830641,2.33017450046728,2151.18,2152.1,2153.42,2152.911,358.316619873047,44.999885559082,0.654871702194214,-1.03648138046265,-0.455790191888809,0.378739207983017,-1.04114443406451,-0.457839107627572,0.380198039930736,0
2.09999942779541,-1.09817862510681,2.48346471786499,2.33869743347168,-1.09646822303516,2.48421727611136,2.33779917193721,2150.583,2150.967,2151.76,2151.833,358.392639160156,44.9998931884766,0.625601351261139,-1.04220509529114,-0.458307385444641,0.380818754434586,-1.04677464676658,-0.460314971182073,0.382254042694317,0
2.11999940872192,-1.11913216114044,2.47425055503845,2.34635353088379,-1.1174578285875,2.47498718088046,2.34546401326836,2149.837,2150.01,2150.236,2150.574,358.469146728516,44.9998970031738,0.595961809158325,-1.04766833782196,-0.460709124803543,0.382804125547409,-1.05214430502417,-0.462676256959994,0.384214897958808,0
2.13999938964844,-1.14018952846527,2.46499061584473,2.35404753684998,-1.13855220395856,2.46571101354012,2.35316711372901,2148.701,2148.907,2149.1,2149.444,358.545837402344,44.9998970031738,0.566081285476685,-1.05286920070648,-0.462994992733002,0.384694516658783,-1.05725129542649,-0.464922035597385,0.386079833963247,0
2.15999937057495,-1.16134548187256,2.4556872844696,2.36177730560303,-1.15974607556531,2.45639109312741,2.36090654754798,2147.317,2147.86,2148.21,2148.242,358.622711181641,44.9998931884766,0.535972714424133,-1.05780696868896,-0.465165287256241,0.386489063501358,-1.06209361294255,-0.467051425389875,0.387848118524057,0
2.17999935150146,-1.18259513378143,2.44634294509888,2.36954092979431,-1.18103413080796,2.4470297558369,2.36868037470623,2145.828,2146.729,2147.43,2147.107,358.699951171875,44.9998817443848,0.505701422691345,-1.06248092651367,-0.467220306396484,0.38818696141243,-1.06666936092114,-0.469063592292659,0.389519059035051,0
2.19999933242798,-1.20393300056458,2.43695974349976,2.37733674049377,-1.20241102023751,2.4376293540674,2.37648664172838,2144.42,2145.5,2146.572,2146.059,358.777923583984,44.999885559082,0.475268959999084,-1.06688988208771,-0.469159603118896,0.389787614345551,-1.07097675109079,-0.470957749920512,0.391092002467431,0
2.21999931335449,-1.22535347938538,2.42754006385803,2.3851625919342,-1.22387135972337,2.42819225546886,2.38432338247425,2143.289,2144.345,2145.423,2144.938,358.856842041016,44.9998970031738,0.44459792971611,-1.07103192806244,-0.470981925725937,0.391290456056595,-1.07501410355985,-0.472733159547776,0.392566335369785,0
2.23999929428101,-1.24685168266296,2.4180862903595,2.39301657676697,-1.24540973262093,2.41872084198911,2.39218861893043,2142.45,2143.249,2143.971,2143.763,358.936706542969,44.9998970031738,0.413673609495163,-1.07490456104279,-0.472685724496841,0.392694801092148,-1.07877984681641,-0.47438913010837,0.393941483868093,0
2.25999927520752,-1.26842176914215,2.40860080718994,2.40089654922485,-1.26702069193919,2.40921750892069,2.4000803620018,2141.619,2142.102,2142.509,2142.636,359.017211914063,44.9998970031738,0.382530331611633,-1.07850515842438,-0.474269300699234,0.394000142812729,-1.08227251772834,-0.475925018195785,0.395216913665722,0
2.27999925613403,-1.29005837440491,2.39908623695374,2.40880060195923,-1.28869876250833,2.39968466394767,2.4079966123031,2140.76,2141.035,2141.069,2141.432,359.09814453125,44.9999084472656,0.351159244775772,-1.08183181285858,-0.475731760263443,0.395205974578857,-1.08549076154331,-0.477340228063084,0.396392130043428,0
2.29999923706055,-1.31175589561462,2.38954472541809,2.41672682762146,-1.31043844314728,2.39012472619245,2.41593536095048,2139.692,2139.921,2139.843,2140.274,359.17919921875,44.9999084472656,0.319618701934814,-1.08488321304321,-0.477072834968567,0.396311849355698,-1.08843333188873,-0.478634211622906,0.397466677859354,0
2.31999921798706,-1.33350920677185,2.37997889518738,2.42467308044434,-1.33223420883137,2.38054012526258,2.423894590353,2138.395,2138.853,2138.848,2139.066,359.260314941406,44.9999122619629,0.28792878985405,-1.0876590013504,-0.47829270362854,0.397317349910736,-1.09109909077181,-0.479806468447459,0.398440141549033,0
2.33999919891357,-1.35531234741211,2.37039113044739,2.43263745307922,-1.35408051285987,2.37093330029755,2.43187227500425,2136.991,2137.662,2137.969,2137.979,359.341613769531,44.9999160766602,0.256148308515549,-1.09015893936157,-0.479391723871231,0.398222029209137,-1.09348700857951,-0.480856545768528,0.399312145125387,0
2.35999917984009,-1.37716007232666,2.36078381538391,2.44061803817749,-1.37597178902363,2.36130669901562,2.43986638227383,2135.722,2136.544,2136.955,2136.822,359.423370361328,44.9999122619629,0.224232316017151,-1.09238243103027,-0.480369716882706,0.399025499820709,-1.0955961640786,-0.481784038477468,0.400082352178726,0
2.3799991607666,-1.39904642105103,2.35115933418274,2.44861268997192,-1.39790245377262,2.35166277676061,2.44787487319895,2134.589,2135.395,2135.811,2135.698,359.505676269531,44.9999160766602,0.192198365926743,-1.09432864189148,-0.481226056814194,0.399727463722229,-1.09742574441558,-0.482588589125208,0.400750465876747,0
2.39999914169312,-1.42096638679504,2.34152007102966,2.45661926269531,-1.41986690838357,2.34200399554872,2.45589570327594,2133.661,2134.312,2134.465,2134.513,359.588500976563,44.9999198913574,0.16003455221653,-1.09599602222443,-0.481959879398346,0.40032759308815,-1.09897504511677,-0.483269887922252,0.401316228964539,0
2.41999912261963,-1.44291400909424,2.33186864852905,2.46463584899902,-1.44185954112755,2.33233282311534,2.46392682325181,2132.714,2133.172,2133.145,2133.392,359.671691894531,44.9999198913574,0.127784967422485,-1.09738349914551,-0.482570350170135,0.400825679302216,-1.10024347008822,-0.483827672738675,0.401779423764577,0
2.43999910354614,-1.46488380432129,2.3222074508667,2.47266030311584,-1.46387472943755,2.32265173196188,2.47196617991579,2131.789,2132.064,2131.808,2132.246,359.755065917969,44.9999198913574,0.0954406559467316,-1.09849011898041,-0.483056902885437,0.401221573352814,-1.1012305316158,-0.484261729104124,0.402139872176724,0
2.45999908447266,-1.48687016963959,2.31253910064697,2.48069071769714,-1.48590684207609,2.31296319840251,2.48001171689091,2130.716,2130.962,2130.627,2131.102,359.838470458984,44.999927520752,0.0630180612206459,-1.09931552410126,-0.483419477939606,0.401515036821365,-1.10193585036511,-0.484571890207823,0.402397435678235,0
2.47999906539917,-1.50886726379395,2.30286598205566,2.48872494697571,-1.5079502413028,2.30326970161107,2.4880613754255,2129.541,2129.844,2129.557,2129.982,359.921813964844,44.9999237060547,0.0305347219109535,-1.09985971450806,-0.483658283948898,0.401705980300903,-1.10235915538156,-0.484758036898565,0.402552015323749,0
2.49999904632568,-1.53086984157562,2.29319047927856,2.49676084518433,-1.52999928504202,2.29357372266779,2.49611309518475,2128.334,2128.779,2128.529,2128.818,0.00515980599448085,44.9999313354492,-0.00200804718770087,-1.10012316703796,-0.483773738145828,0.40179431438446,-1.10250028409032,-0.484820097684719,0.402603551745298,0
2.5199990272522,-1.55287194252014,2.28351521492004,2.50479650497437,-1.55204832905039,2.28387774360615,2.5041648150423,2127.082,2127.657,2127.56,2127.72,0.0886031910777092,44.9999313354492,359.965423583984,-1.10010588169098,-0.483766138553619,0.401780009269714,-1.10235918229632,-0.484758048734224,0.402552025152299,0
2.53999900817871,-1.57486808300018,2.27384257316589,2.51282978057861,-1.57409172908446,2.27418424645967,2.51221447387171,2126.02,2126.58,2126.412,2126.587,0.172258511185646,44.9999313354492,359.932830810547,-1.0998078584671,-0.483635455369949,0.401663154363632,-1.1019359041843,-0.484571913874597,0.40239745533156,0
2.55999898910522,-1.59685254096985,2.2641749382019,2.52085876464844,-1.59612384306826,2.26449571230873,2.52026001133809,2125.031,2125.498,2125.205,2125.472,0.25608703494072,44.9999351501465,359.900268554688,-1.09922885894775,-0.483381241559982,0.401443690061569,-1.10123061231874,-0.484261764592922,0.402139901647276,0
2.57999897003174,-1.61881995201111,2.25451493263245,2.52888131141663,-1.61813903326091,2.25481462032738,2.52829936868956,2124.106,2124.434,2123.949,2124.347,0.339994788169861,44.9999465942383,359.86767578125,-1.09836864471436,-0.483003348112106,0.401121705770493,-1.10024357764391,-0.48382772003586,0.401779463041032,0
2.59999895095825,-1.64076459407806,2.24486494064331,2.53689527511597,-1.64013166842419,2.24514344683012,2.5363304895489,2123.144,2123.323,2122.744,2123.282,0.423834413290024,44.9999465942383,359.835113525391,-1.09722745418549,-0.482501626014709,0.400697350502014,-1.09897517948386,-0.483269947009645,0.4013162780318,0
2.61999893188477,-1.66268074512482,2.23522734642029,2.54489874839783,-1.66209612599018,2.23548466431877,2.54435132070498,2122.117,2122.252,2121.617,2122.195,0.507498979568481,44.9999542236328,359.802612304688,-1.0958057641983,-0.481876254081726,0.400170713663101,-1.0974259055424,-0.482588659980084,0.400750524715943,0
2.63999891281128,-1.68456268310547,2.22560453414917,2.552889585495,-1.68402679422879,2.22584074052921,2.55235981290442,2121.033,2121.226,2120.563,2121.08,0.590944886207581,44.9999580383301,359.770111083984,-1.09410440921783,-0.481127828359604,0.3995421230793,-1.09559635190312,-0.481784121072554,0.400082420767209,0
2.65999889373779,-1.70640516281128,2.21599960327148,2.56086587905884,-1.70591807441541,2.21621413747824,2.56035392164305,2119.92,2120.229,2119.551,2119.953,0.674185216426849,44.9999580383301,359.737670898438,-1.09212422370911,-0.480256825685501,0.398811727762222,-1.0934872230294,-0.480856640072008,0.399312223436737,0
2.67999887466431,-1.72820258140564,2.20641422271729,2.56882548332214,-1.72776438299848,2.20660731051036,2.5683316079575,2118.883,2119.081,2118.483,2118.991,0.757264196872711,44.9999618530273,359.705322265625,-1.08986604213715,-0.479263842105865,0.397979855537415,-1.09109933176436,-0.479806574422973,0.398440229553054,0
2.69999885559082,-1.74994921684265,2.19685125350952,2.57676649093628,-1.74956015376708,2.1970227073446,2.57629083921675,2117.791,2118.096,2117.489,2117.884,0.840169608592987,44.9999580383301,359.673034667969,-1.08733081817627,-0.478149026632309,0.397046804428101,-1.08843359933093,-0.478634329229546,0.397466775522077,0
2.71999883651733,-1.771639585495,2.18731307983398,2.58468675613403,-1.77129984001851,2.18746276712131,2.58422958991365,2116.869,2117.072,2116.345,2116.831,0.922943651676178,44.9999694824219,359.640838623047,-1.0845193862915,-0.476912826299667,0.396012932062149,-1.0854910553318,-0.477340357255399,0.396392237327109,0
2.73999881744385,-1.79326820373535,2.17780208587646,2.59258437156677,-1.79297791672593,2.17792991944901,2.59214584245649,2115.964,2116.065,2115.207,2115.777,1.00548923015594,44.9999771118164,359.608764648438,-1.08143258094788,-0.475555539131165,0.394878625869751,-1.08227283774942,-0.475925158923778,0.395217030528843,0
2.75999879837036,-1.8148295879364,2.16832065582275,2.60045719146729,-1.81458888270591,2.16842658345112,2.60003758796054,2115.04,2115.069,2114.106,2114.734,1.08770227432251,44.9999771118164,359.576782226563,-1.07807147502899,-0.474077522754669,0.393644362688065,-1.07878019294605,-0.474389282317498,0.393941610265361,0
2.77999925613403,-1.83631837368011,2.15887117385864,2.60830330848694,-1.83612777539286,2.15895494139606,2.60790301422987,2114.081,2114.077,2113.063,2113.706,1.16950523853302,44.9999809265137,359.544952392578,-1.07443726062775,-0.472479462623596,0.392310589551926,-1.07501438263796,-0.47273328227126,0.39256643728163,0
2.79999923706055,-1.85772907733917,2.14945602416992,2.6161208152771,-1.85758812065418,2.14951784025778,2.61573975708479,2113.164,2113.123,2112,2112.662,1.25086116790771,44.9999885559082,359.513275146484,-1.07053172588348,-0.470762014389038,0.390877842903137,-1.07097704954102,-0.470957881162806,0.391092111453453,0
2.81999921798706,-1.87905597686768,2.14007759094238,2.62390780448914,-1.87896501624549,2.14011743577868,2.62354602635705,2112.028,2112.089,2111.167,2111.727,1.33170604705811,44.9999961853027,359.481811523438,-1.06635642051697,-0.468926072120667,0.389346748590469,-1.0666696786272,-0.469063732002633,0.38951917505279,0
2.83999919891357,-1.90029430389404,2.13073825836182,2.63166213035583,-1.90025307803379,2.13075609560974,2.63131985590559,2111.102,2111.167,2110.156,2110.693,1.41217339038849,44.9999961853027,359.450469970703,-1.06191337108612,-0.466972500085831,0.387717843055725,-1.06209394978043,-0.467051573512984,0.38784824152822,0
2.85999917984009,-1.92143833637238,2.12144017219543,2.63938188552856,-1.92144695656752,2.12143617215093,2.63905929225411,2110.144,2110.162,2109.195,2109.77,1.49222433567047,45,359.419342041016,-1.05720400810242,-0.464901834726334,0.385991662740707,-1.05725165126439,-0.46492219207568,0.386079963905709,0
2.8799991607666,-1.94248294830322,2.11218595504761,2.64706516265869,-1.94254133924417,2.11216000159798,2.64676239538256,2109.303,2109.273,2108.145,2108.75,1.57185840606689,45.0000038146973,359.388397216797,-1.0522301197052,-0.462714821100235,0.384168952703476,-1.05214467972256,-0.462676421732113,0.384215034788616,0
2.89999914169312,-1.96342265605927,2.10297775268555,2.65471005439758,-1.96353095247786,2.10292990298924,2.65442723951874,2108.499,2108.324,2107.089,2107.809,1.65098416805267,45.0000038146973,359.357666015625,-1.04699325561523,-0.46041214466095,0.38225045800209,-1.04677504017817,-0.460315144183249,0.382254186357684,0
2.91999912261963,-1.98425257205963,2.09381794929504,2.66231489181519,-1.98441056386691,2.09374817725244,2.6620519139298,2107.69,2107.453,2106.063,2106.814,1.72949135303497,45.0000152587891,359.3271484375,-1.04149544239044,-0.457994610071182,0.380236983299255,-1.04114484603426,-0.457839288789626,0.380198190371048,0
2.93999910354614,-2.00496768951416,2.08470869064331,2.66987752914429,-2.00517498436148,2.08461710625154,2.66963452371384,2106.791,2106.517,2105.144,2105.915,1.80728340148926,45.0000228881836,359.296905517578,-1.03573894500732,-0.455463200807571,0.378129154443741,-1.03525631907361,-0.455249832571356,0.378047858164229,0
2.95999908447266,-2.02556228637695,2.07565212249756,2.67739605903625,-2.02581907043114,2.0755389518335,2.67717319059141,2105.831,2105.591,2104.311,2105.032,1.8843537569046,45.0000305175781,359.266906738281,-1.02972626686096,-0.45281907916069,0.375927805900574,-1.02911178945879,-0.452547800208125,0.37580404065014,0
2.97999906539917,-2.04603123664856,2.06665110588074,2.68486881256104,-2.04633772623245,2.06651595487513,2.68466605369707,2104.974,2104.788,2103.409,2104.047,1.96075880527496,45.0000343322754,359.237152099609,-1.02345991134644,-0.450063496828079,0.373633861541748,-1.02271369573214,-0.449734264039189,0.373467628319078,0
2.99999904632568,-2.06637024879456,2.05770707130432,2.69229388237,-2.06672590577657,2.05755033432987,2.69211127037097,2104.239,2103.898,2102.413,2103.173,2.03647613525391,45.0000381469727,359.207733154297,-1.01694226264954,-0.447197496891022,0.371248215436935,-1.01606458481578,-0.44681034406338,0.371039551238731,0
3.0199990272522,-2.08657383918762,2.0488224029541,2.6996693611145,-2.08697861509687,2.04864428627461,2.69950701695034,2103.299,2103.033,2101.635,2102.315,2.11139178276062,45.0000495910645,359.178588867188,-1.01017582416534,-0.444222182035446,0.368771880865097,-1.0091671120116,-0.443777207939102,0.368520779054177,0
3.03999900817871,-2.10663676261902,2.03999996185303,2.7069935798645,-2.10709091441647,2.0397999829565,2.70685148956108,2102.525,2102.227,2100.733,2101.413,2.18557405471802,45.0000457763672,359.149780273438,-1.0031635761261,-0.441138744354248,0.366205722093582,-1.00202404100126,-0.440636070984333,0.36591232098788,0
3.05999898910522,-2.1265549659729,2.03124070167542,2.71426463127136,-2.1270579203159,2.03101957183977,2.71414290490929,2101.906,2101.358,2099.713,2100.594,2.25896716117859,45.0000457763672,359.121307373047,-0.995908081531525,-0.437948286533356,0.363550841808319,-0.994638243846213,-0.437388196176623,0.363215225839694,0
3.07999897003174,-2.14632320404053,2.02254796028137,2.72148084640503,-2.14687480790063,2.0223051746525,2.72137950107284,2100.974,2100.586,2099.009,2099.732,2.33139848709106,45.000057220459,359.093139648438,-0.988412201404572,-0.434651911258698,0.360808283090591,-0.98701270098766,-0.434034894153093,0.360430581986861,0
3.09999895095825,-2.1659369468689,2.01392292976379,2.72864031791687,-2.16653681296873,2.01365888643348,2.72855953829286,2100.327,2099.702,2098.076,2098.985,2.4029643535614,45.0000610351563,359.065368652344,-0.980679214000702,-0.43125119805336,0.35797917842865,-0.979150501246597,-0.430577523210441,0.357559517384011,0
3.11999893188477,-2.18539094924927,2.00536799430847,2.73574161529541,-2.18603923417839,2.005082774579,2.73568129976535,2099.491,2098.977,2097.344,2098.13,2.47354102134705,45.0000648498535,359.037872314453,-0.972712218761444,-0.427747488021851,0.355064690113068,-0.971054841823785,-0.427017489304937,0.354603199563165,0
3.13999891281128,-2.20468139648438,1.99688518047333,2.74278283119202,-2.20537743521558,1.99657887788964,2.74274309243269,2098.822,2098.288,2096.491,2097.251,2.54317426681519,45.0000762939453,359.010772705078,-0.964514374732971,-0.424142450094223,0.352066040039063,-0.962729028299764,-0.423356246052423,0.35156283563373,0
3.15999889373779,-2.22380328178406,1.98847627639771,2.74976253509521,-2.2245468469616,1.9881492056171,2.74974324777522,2098.045,2097.489,2095.762,2096.528,2.61178135871887,45.0000686645508,358.984100341797,-0.956088900566101,-0.420437514781952,0.34898442029953,-0.954176474634846,-0.419595294728314,0.348439672282503,0
3.17999887466431,-2.24275207519531,1.98014354705811,2.75667905807495,-2.24354296966069,1.97979573651101,2.75668012260275,2097.355,2096.795,2094.984,2095.722,2.67938733100891,45.0000801086426,358.957824707031,-0.947439432144165,-0.416634142398834,0.345821142196655,-0.945400703169116,-0.415736184267599,0.345234995773668,0
3.19999885559082,-2.26152324676514,1.97188901901245,2.76353049278259,-2.26236137508763,1.97152041786573,2.76355209984611,2096.742,2096.049,2094.165,2094.994,2.74595069885254,45.0000877380371,358.932006835938,-0.93856942653656,-0.412733733654022,0.342577427625656,-0.936405344622437,-0.41178051126484,0.3419501319488,0
3.21999883651733,-2.28011322021484,1.96371412277222,2.77031564712524,-2.28099770871531,1.96332516456717,2.77035758934873,2096.166,2095.322,2093.346,2094.277,2.81138181686401,45.0000877380371,358.906646728516,-0.929482638835907,-0.408737868070602,0.33925461769104,-0.927194138094444,-0.407729919974172,0.33858644622686,0
3.23999881744385,-2.29851675033569,1.95562136173248,2.77703261375427,-2.29944769188234,1.95521185813958,2.77709502865816,2095.371,2094.591,2092.754,2093.616,2.8755738735199,45.0000839233398,358.881713867188,-0.920182824134827,-0.404648095369339,0.335854172706604,-0.917770931064551,-0.403586102309303,0.3351453436042,0
3.25999879837036,-2.316730260849,1.94761204719543,2.78368020057678,-2.31770712396066,1.9471823457924,2.78376288381762,2094.862,2093.943,2091.94,2092.875,2.93861699104309,45.0000991821289,358.857208251953,-0.910674154758453,-0.400466412305832,0.332377463579178,-0.908139679391938,-0.399350797843513,0.331628268654559,0
3.27999877929688,-2.33474969863892,1.93968796730042,2.79025673866272,-2.33577188452309,1.93923843946701,2.79035965015757,2094.15,2093.323,2091.336,2092.167,3.00037312507629,45.0001068115234,358.833160400391,-0.900960385799408,-0.396194636821747,0.328826040029526,-0.898304447315565,-0.395025793809657,0.328036705529064,0
3.29999876022339,-2.35257053375244,1.93185126781464,2.79676079750061,-2.35363793551097,1.93138191488359,2.7968838530872,2093.487,2092.712,2090.721,2091.474,3.06089162826538,45.000114440918,358.809600830078,-0.891045749187469,-0.391834676265717,0.3252013027668,-0.88826940745417,-0.390612925100161,0.324372177956232,0
3.3199987411499,-2.37018918991089,1.92410349845886,2.80319094657898,-2.37130132340172,1.9236145105879,2.80333404888605,2093.01,2092.106,2089.97,2090.795,3.120197057724,45.0001220703125,358.786560058594,-0.880934357643127,-0.387388467788696,0.321504831314087,-0.878038840806258,-0.386114074267027,0.320636249241969,0
3.33999872207642,-2.38760185241699,1.91644620895386,2.80954575538635,-2.38875818137644,1.91593792699812,2.8097088254955,2092.461,2091.484,2089.311,2090.18,3.17816400527954,45.0001220703125,358.764099121094,-0.870630383491516,-0.38285756111145,0.317738205194473,-0.867617136750113,-0.381531171521827,0.316830522269568,0
3.35999870300293,-2.40480470657349,1.90888142585754,2.81582379341125,-2.40600473148752,1.90835382545163,2.81600680331036,2091.91,2090.878,2088.691,2089.581,3.23474597930908,45.0001182556152,358.7421875,-0.860138475894928,-0.378243863582611,0.313903003931046,-0.857008793043791,-0.376866194735706,0.31295663949971,0
3.37999868392944,-2.42179369926453,1.9014105796814,2.82202386856079,-2.42303728682623,1.90086382725182,2.82222663597038,2091.417,2090.241,2088.053,2089.041,3.28991341590881,45.0001258850098,358.720794677734,-0.849463224411011,-0.373549371957779,0.310000896453857,-0.846218415825124,-0.372121169439386,0.309016282970468,0
3.39999866485596,-2.43856620788574,1.89403510093689,2.82814455032349,-2.43985225369027,1.89346951271491,2.8283670111518,2090.94,2089.737,2087.434,2088.405,3.34360122680664,45.000129699707,358.699951171875,-0.838609337806702,-0.368776082992554,0.306033551692963,-0.83525071961172,-0.367298168823158,0.305011174297301,0
3.41999864578247,-2.45511770248413,1.88675653934479,2.83418464660645,-2.45644613375144,1.88617242021678,2.83442665135895,2090.301,2089.15,2086.993,2087.906,3.39574646949768,45.000129699707,358.679656982422,-0.827581524848938,-0.363926410675049,0.302002787590027,-0.824110527300959,-0.362399313736889,0.300943074673056,0
3.43999862670898,-2.47144556045532,1.87957620620728,2.84014296531677,-2.47281552622316,1.87897404523973,2.84040431471571,2089.87,2088.754,2086.401,2087.231,3.44643592834473,45.000129699707,358.659912109375,-0.816384851932526,-0.359002619981766,0.297910392284393,-0.812802770169997,-0.357426772690017,0.29681378486797,0
3.4599986076355,-2.48754572868347,1.87249648571014,2.84601807594299,-2.48895713002813,1.87187583941934,2.84629879575715,2089.333,2088.256,2085.933,2086.711,3.49560070037842,45.0001335144043,358.640808105469,-0.805023908615112,-0.354006886482239,0.29375809431076,-0.801332487875762,-0.352382761851551,0.292625145229668,0
3.47999858856201,-2.50341606140137,1.86551737785339,2.85180902481079,-2.50486774596586,1.86487920959124,2.85210892622098,2089.126,2087.723,2085.212,2086.224,3.54326939582825,45.000129699707,358.622344970703,-0.793503940105438,-0.348941296339035,0.289547771215439,-0.78970482845496,-0.34726954505008,0.288379035683163,0
3.49999856948853,-2.51905250549316,1.85864126682281,2.85751461982727,-2.5205442788803,1.85798551683795,2.8578335758392,2088.51,2087.274,2084.879,2085.746,3.58921885490417,45.0001373291016,358.604522705078,-0.781830012798309,-0.343807816505432,0.285281360149384,-0.77792504832407,-0.34208943377376,0.28407737573086,0
3.51999855041504,-2.53445267677307,1.85186910629272,2.86313390731812,-2.53598373982743,1.85119607553567,2.86347165312957,2088.26,2086.806,2084.271,2085.272,3.63356924057007,45.000129699707,358.587371826172,-0.770007729530334,-0.338608950376511,0.28096079826355,-0.765998512279344,-0.336844787170321,0.279722124452547,0
3.53999853134155,-2.54961371421814,1.84520220756531,2.86866569519043,-2.55118324824284,1.84451215240108,2.86902210618716,2087.821,2086.346,2083.854,2084.859,3.6761646270752,45.0001335144043,358.570861816406,-0.758042395114899,-0.333346992731094,0.276588052511215,-0.753930693496811,-0.331538012047068,0.275315280505403,0
3.55999851226807,-2.56453227996826,1.83864176273346,2.8741090297699,-2.56614003410936,1.83793496553819,2.87448392347596,2087.418,2085.927,2083.447,2084.439,3.71701455116272,45.000129699707,358.554992675781,-0.745939612388611,-0.328024566173553,0.272165149450302,-0.74172717353227,-0.326171562870878,0.270858882123999,0
3.57999897003174,-2.5792064666748,1.83218884468079,2.8794629573822,-2.58085178792651,1.8314655305406,2.87985626162831,2087.12,2085.633,2082.983,2083.92,3.75611782073975,45.0001258850098,358.539764404297,-0.73370498418808,-0.322644233703613,0.267694175243378,-0.729393346762699,-0.320747811797486,0.266354899190209,0
3.59999895095825,-2.5936336517334,1.82584476470947,2.88472652435303,-2.59531526573016,1.82510527392859,2.88513793603544,2086.76,2085.267,2082.604,2083.528,3.79340386390686,45.000129699707,358.525238037109,-0.72134405374527,-0.317208588123322,0.263177156448364,-0.716935599729168,-0.315269567282827,0.261805663897646,0
3.61999893188477,-2.60781097412109,1.81961011886597,2.88989877700806,-2.60952839583613,1.81885510671701,2.89032819017383,2086.386,2084.862,2082.277,2083.214,3.82885980606079,45.0001220703125,358.511474609375,-0.708862841129303,-0.311720132827759,0.258616238832474,-0.704359546601808,-0.309739298135798,0.257213226390756,0
3.63999891281128,-2.6217360496521,1.81348657608032,2.89497900009155,-2.6234888720949,1.81271604302589,2.8954261818995,2086.123,2084.618,2081.891,2082.769,3.86251163482666,45.000129699707,358.498413085938,-0.696267366409302,-0.306181520223618,0.254013627767563,-0.691671202458095,-0.304159649462702,0.252579783214603,0
3.65999889373779,-2.63540744781494,1.80747485160828,2.89996647834778,-2.63719450974215,1.80668904359663,2.90043111339507,2085.995,2084.276,2081.422,2082.446,3.89430069923401,45.0001220703125,358.486145019531,-0.683563470840454,-0.300595223903656,0.249371483922005,-0.678876690755292,-0.29853331402942,0.247907570491642,0
3.67999887466431,-2.64882278442383,1.80157542228699,2.90486025810242,-2.65064324756642,1.80077501483874,2.90534223196137,2085.704,2083.896,2081.129,2082.23,3.924076795578,45.000129699707,358.474639892578,-0.670757293701172,-0.294963747262955,0.244692072272301,-0.665982243330431,-0.292863032261403,0.243198863921716,0
3.69999885559082,-2.66197943687439,1.79578971862793,2.90965986251831,-2.66383315007664,1.79497480787667,2.91015883080893,2085.417,2083.678,2080.878,2081.886,3.9518415927887,45.0001220703125,358.4638671875,-0.65785539150238,-0.289289951324463,0.239977717399597,-0.652994200400325,-0.287151592243678,0.238455978782057,0
3.71999883651733,-2.67487692832947,1.79011821746826,2.91436457633972,-2.67676240966976,1.78928921759667,2.91488024984958,2085.326,2083.48,2080.493,2081.539,3.97760891914368,45.000129699707,358.453857421875,-0.644864082336426,-0.283576935529709,0.235230773687363,-0.639919010561551,-0.281401829720839,0.233681269927285,0
3.73999881744385,-2.68751239776611,1.78456163406372,2.91897368431091,-2.68942934879834,1.78371898169351,2.91950587648796,2084.973,2083.183,2080.369,2081.377,4.00124883651733,45.000129699707,358.444641113281,-0.631789863109589,-0.277827441692352,0.230453506112099,-0.626763230790464,-0.27561662809706,0.228877131789409,0
3.75999879837036,-2.69988536834717,1.77912056446075,2.92348670959473,-2.70183242213814,1.77826477971736,2.92403514641307,2084.872,2083.071,2080.072,2081.035,4.02286338806152,45.000129699707,358.436248779297,-0.618639528751373,-0.272044569253922,0.22564834356308,-0.6135335264432,-0.269798918436084,0.224045998377825,0
3.77999877929688,-2.71199321746826,1.77379608154297,2.927903175354,-2.7139702187557,1.77292723212057,2.92846754438985,2084.622,2082.829,2079.933,2080.897,4.04236650466919,45.000129699707,358.428680419922,-0.60541957616806,-0.266231179237366,0.220817744731903,-0.600236671255663,-0.263951679461229,0.219190343279321,0
3.79999876022339,-2.72383642196655,1.76858854293823,2.93222236633301,-2.72584146427595,1.76770689930449,2.93280260505066,2084.703,2082.706,2079.552,2080.638,4.05980730056763,45.0001220703125,358.421966552734,-0.592136919498444,-0.260390222072601,0.215964257717133,-0.586879547343532,-0.258077937555385,0.21431267965807,0
3.8199987411499,-2.73541212081909,1.76349782943726,2.93644428253174,-2.73744502304982,1.76260428066628,2.93703991368691,2084.463,2082.407,2079.481,2080.654,4.07498264312744,45.0001220703125,358.416107177734,-0.578798294067383,-0.2545245885849,0.211090356111526,-0.573469145202262,-0.252180766761015,0.209415560255636,0
3.83999872207642,-2.74672031402588,1.75852525234222,2.94056820869446,-2.74877990032178,1.75761981364569,2.94117910704054,2084.441,2082.502,2079.274,2080.279,4.08796501159668,45.0001182556152,358.411010742188,-0.565410971641541,-0.248637393116951,0.206198692321777,-0.560012563707081,-0.246263288780156,0.204501577390971,0
3.85999870300293,-2.7577600479126,1.75367069244385,2.94459414482117,-2.75984524439749,1.75275387277192,2.94521987409562,2084.403,2082.303,2079.117,2080.254,4.09867572784424,45.000114440918,358.406860351563,-0.551981806755066,-0.242731913924217,0.201291725039482,-0.546517010112997,-0.240328672974418,0.199573362960413,0
3.87999868392944,-2.76853060722351,1.74893438816071,2.94852161407471,-2.77064034881136,1.74800676871039,2.94916195686984,2084.317,2082.243,2079.04,2080.146,4.10706043243408,45.0001068115234,358.403594970703,-0.538518190383911,-0.236811310052872,0.1963721960783,-0.532989800054784,-0.234380136364981,0.194633588437692,0
3.89999866485596,-2.7790310382843,1.74431657791138,2.9523503780365,-2.78116465449414,1.74337874730956,2.9530051512061,2084.258,2082.215,2078.984,2080.05,4.11312198638916,45.0001029968262,358.401214599609,-0.525027632713318,-0.230878919363022,0.191442772746086,-0.519438357546993,-0.228420943632603,0.189684964873926,0
3.91999864578247,-2.78926110267639,1.73981821537018,2.95608043670654,-2.79141775194056,1.73886998864774,2.95674930756405,2084.301,2082.248,2078.885,2079.93,4.11686229705811,45.0000991821289,358.399749755859,-0.511517524719238,-0.224938035011292,0.186506196856499,-0.505870214983957,-0.222454407117614,0.18473024289762,0
3.93999862670898,-2.79922103881836,1.73543810844421,2.95971179008484,-2.80139938337685,1.73448060607993,2.96039433181162,2084.454,2082.141,2078.728,2079.987,4.11822128295898,45.0000991821289,358.399291992188,-0.497995406389236,-0.218991830945015,0.181565225124359,-0.492293013139776,-0.216483886819913,0.17977221271467,0
3.9599986076355,-2.80891060829163,1.73117709159851,2.96324419975281,-2.8111094449284,1.73021064528456,2.96394018601659,2084.323,2082.211,2078.856,2079.959,4.11706161499023,45.0000915527344,358.399749755859,-0.484469056129456,-0.213043555617332,0.176622629165649,-0.478714501168317,-0.210512790398976,0.174813704108356,0
3.97999858856201,-2.81832933425903,1.72703528404236,2.96667790412903,-2.82054798878732,1.72606008331037,2.96738688923811,2084.413,2082.195,2078.849,2080.031,4.11349582672119,45.0000877380371,358.401153564453,-0.470946460962296,-0.207096934318542,0.171681344509125,-0.465142536603243,-0.204544573173851,0.169857586439354,0
3.99999856948853,-2.82747793197632,1.72301244735718,2.9700129032135,-2.82971522538004,1.72202882762317,2.97073451831829,2084.625,2082.289,2078.774,2080.033,4.10748243331909,45.0000801086426,358.403503417969,-0.4574353992939,-0.201155304908752,0.166744217276573,-0.451585085357973,-0.198582738123159,0.164906768645722,0
4.01999855041504,-2.83635687828064,1.71910786628723,2.97324919700623,-2.83861152553489,1.71811671515268,2.97398320867367,2084.743,2082.376,2078.822,2080.113,4.0988941192627,45.000072479248,358.406799316406,-0.443943679332733,-0.195222184062004,0.161814138293266,-0.438050221725709,-0.192630835885092,0.159964199242908,0
4.03999853134155,-2.84496641159058,1.71532189846039,2.97638702392578,-2.84723742264974,1.71432351133932,2.97713315508688,2084.783,2082.573,2078.984,2080.145,4.08770036697388,45.000072479248,358.411071777344,-0.430479496717453,-0.189301282167435,0.156893983483315,-0.424546128379422,-0.186692464757422,0.155032866323751,0
4.05999851226807,-2.85330772399902,1.71165370941162,2.97942686080933,-2.85559361485952,1.71064890918105,2.98018461249806,2085.008,2082.716,2079.04,2080.256,4.0739541053772,45.0000686645508,358.416381835938,-0.417051076889038,-0.183396339416504,0.151986837387085,-0.411081096371861,-0.180771270697486,0.150115797558475,0
4.07999849319458,-2.86138105392456,1.7081036567688,2.98236870765686,-2.86368096720387,1.70709252828012,2.98313789679652,2085.11,2082.887,2079.244,2080.417,4.05758094787598,45.000057220459,358.422729492188,-0.403666794300079,-0.177510932087898,0.147095799446106,-0.397663525135552,-0.174870947322198,0.145216060194696,0
4.09999847412109,-2.86918783187866,1.70467066764832,2.98521327972412,-2.87150051379473,1.70365391388996,2.98599338561222,2085.488,2083.041,2079.259,2080.615,4.03862762451172,45.0000457763672,358.430145263672,-0.39033517241478,-0.171648606657982,0.142223834991455,-0.384301922482791,-0.168995235908046,0.140336761057418,0
4.11999845504761,-2.87672901153564,1.70135426521301,2.98796081542969,-2.8790534599839,1.70033253596191,2.98875151910731,2085.701,2083.273,2079.455,2080.822,4.01693630218506,45.0000343322754,358.438598632813,-0.377064645290375,-0.165812894701958,0.137374117970467,-0.371004904605645,-0.163147925391086,0.13548104654903,0
4.13999843597412,-2.88400626182556,1.69815421104431,2.99061179161072,-2.88634118453067,1.6971277881921,2.99141280076774,2085.991,2083.559,2079.645,2081.015,3.99249410629272,45.0000343322754,358.448089599609,-0.363863945007324,-0.160007804632187,0.132549867033958,-0.357781196075965,-0.157332852366953,0.130652102649314,0
4.15999841690063,-2.89102077484131,1.6950695514679,2.99316692352295,-2.89336524176939,1.69403898706818,2.99397779819475,2086.287,2083.786,2079.88,2081.327,3.96525955200195,45.0000228881836,358.458648681641,-0.350741893053055,-0.154237315058708,0.127754166722298,-0.344639629845373,-0.151553901090851,0.125853154915438,0
4.17999839782715,-2.89777517318726,1.69209957122803,2.99562668800354,-2.90012736377707,1.69106537091621,2.99644714389644,2086.607,2084.154,2080.145,2081.554,3.93520665168762,45.0000190734863,358.470275878906,-0.337707489728928,-0.148505285382271,0.122990310192108,-0.331589147245264,-0.14581500347756,0.121087468481962,0
4.19999837875366,-2.9042706489563,1.6892431974411,2.99799180030823,-2.90662946254097,1.68820609894743,2.9988215360793,2086.84,2084.417,2080.538,2081.963,3.90230870246887,45.0000114440918,358.483001708984,-0.324769765138626,-0.142815828323364,0.118261523544788,-0.318638797986811,-0.140120139101435,0.116358348060829,0
4.21999835968018,-2.91050910949707,1.68649983406067,3.00026321411133,-2.91287363212621,1.68546025030507,3.00110173943978,2087.231,2084.872,2080.848,2082.222,3.86663675308228,44.9999961853027,358.496795654297,-0.311937868595123,-0.137173101305962,0.113571263849735,-0.30579774016095,-0.134473335196394,0.111669137941373,0
4.23999834060669,-2.9164936542511,1.68386793136597,3.00244164466858,-2.91886215084333,1.68282682311115,3.00328858595583,2087.753,2085.316,2081.093,2082.543,3.82815837860107,44.9999847412109,358.51171875,-0.299220710992813,-0.131581008434296,0.108922846615314,-0.293075240238407,-0.128878666655941,0.107023221990322,0
4.2599983215332,-2.92222595214844,1.68134713172913,3.0045280456543,-2.92459748341594,1.68030473351333,3.00538297567844,2088.107,2085.738,2081.535,2082.979,3.78674793243408,44.9999809265137,358.527801513672,-0.286627471446991,-0.126043483614922,0.10431956499815,-0.280480673069672,-0.123340256033143,0.102424023651781,0
4.27999830245972,-2.92770957946777,1.67893588542938,3.0065233707428,-2.93008228314823,1.67789281473166,3.00738587752319,2088.743,2086.165,2081.798,2083.43,3.74244379997253,44.9999694824219,358.545074462891,-0.274167776107788,-0.120564565062523,0.0997648984193802,-0.268023521885009,-0.117862273540646,0.0978750059472553,0
4.29999828338623,-2.93294644355774,1.67663264274597,3.0084285736084,-2.93531939409266,1.67558981610544,3.00929833006178,2089.149,2086.568,2082.311,2084.012,3.69508504867554,44.9999580383301,358.563507080078,-0.261851131916046,-0.115148231387138,0.0952623188495636,-0.255713378294473,-0.112448937050667,0.0933796714756316,0
4.31999826431274,-2.9379403591156,1.67443680763245,3.01024484634399,-2.94031185321747,1.67339440214002,3.01112144231363,2089.694,2087.211,2082.77,2084.398,3.64471793174744,44.999942779541,358.583038330078,-0.249687373638153,-0.109798967838287,0.0908153206110001,-0.243559942287868,-0.107104512094997,0.0889415624131891,0
4.33999824523926,-2.94269418716431,1.6723461151123,3.01197338104248,-2.94506289257431,1.67130515155357,3.01285639453736,2090.242,2087.67,2083.284,2085.041,3.59130501747131,44.999927520752,358.603759765625,-0.237686142325401,-0.104521214962006,0.0864274799823761,-0.231573022234796,-0.101833311864999,0.0845642605135923,0
4.35999822616577,-2.94721126556396,1.67035984992981,3.01361536979675,-2.94957594146586,1.66932055632396,3.01450443902239,2090.766,2088.382,2083.88,2085.508,3.53483080863953,44.9999198913574,358.625610351563,-0.225857391953468,-0.0993193089962006,0.0821024924516678,-0.219762534884612,-0.0966396972116064,0.0802513871078947,0
4.37999868392944,-2.95149517059326,1.66847586631775,3.01517224311829,-2.95385472786147,1.66743897709153,3.0160669371232,2091.49,2088.991,2084.364,2086.128,3.47532653808594,44.9999084472656,358.648681640625,-0.21421092748642,-0.0941977724432945,0.0778438523411751,-0.208138230530862,-0.0915279557874751,0.0760065027419476,0
4.39999866485596,-2.95555019378662,1.66669285297394,3.01664543151855,-2.95790287812335,1.66565881917798,3.01754521309006,2092.161,2089.723,2084.954,2086.71,3.4126877784729,44.9999046325684,358.673004150391,-0.202756732702255,-0.0891609266400337,0.0736553221940994,-0.196710797162439,-0.0865027875930409,0.0718335103828065,0
4.41999864578247,-2.95938038825989,1.66500854492188,3.01803612709045,-2.96172453110849,1.66397826253749,3.01894077832261,2092.838,2090.339,2085.605,2087.483,3.34687900543213,44.9998970031738,358.698577880859,-0.191505134105682,-0.0842132121324539,0.0695405155420303,-0.185490197269122,-0.0815685735934064,0.0677360480646989,0
4.43999862670898,-2.96298980712891,1.66342091560364,3.01934623718262,-2.96532392680441,1.66239544265247,3.02025518115065,2093.487,2091.077,2086.352,2088.216,3.27788805961609,44.9998817443848,358.725372314453,-0.180466622114182,-0.0793590992689133,0.0655031874775887,-0.174486781121972,-0.076729865278943,0.0637178954291837,0
4.4599986076355,-2.9663827419281,1.6619291305542,3.02057719230652,-2.96870551328767,1.66090840349901,3.02149004589249,2094.213,2091.906,2087.099,2088.93,3.20575904846191,44.9998626708984,358.753387451172,-0.169651612639427,-0.0746031552553177,0.061547189950943,-0.163711007371813,-0.071991261799587,0.0597828716952016,0
4.47999858856201,-2.96956443786621,1.66052997112274,3.02173066139221,-2.97187394889145,1.6595150965937,3.02264707364655,2095.207,2092.627,2087.676,2089.807,3.13049674034119,44.9998435974121,358.782684326172,-0.159070432186127,-0.0699501186609268,0.0576764084398746,-0.153173443049232,-0.0673574099648464,0.0559348356590759,0
4.49999856948853,-2.97253894805908,1.65922212600708,3.02280855178833,-2.97483410437312,1.65821338004042,3.02372804308288,2095.934,2093.542,2088.558,2090.608,3.05192303657532,44.9998359680176,358.813171386719,-0.148733571171761,-0.0654042214155197,0.0538945682346821,-0.142884763564606,-0.062833004243811,0.0521776856945335,0
4.51999855041504,-2.97531199455261,1.65800261497498,3.02381277084351,-2.97759106508186,1.6570010175772,3.02473481123467,2096.967,2094.467,2089.249,2091.445,2.97010278701782,44.9998207092285,358.844940185547,-0.138651728630066,-0.060970526188612,0.0502056255936623,-0.132855752708075,-0.0584227867651306,0.0485153597526748,0
4.53999853134155,-2.97788882255554,1.65686964988708,3.02474498748779,-2.98015013312625,1.65587567762295,3.02566931428986,2097.766,2095.464,2090.223,2092.324,2.88488864898682,44.9998054504395,358.877960205078,-0.128835633397102,-0.0566539093852043,0.0466135628521442,-0.123097302649571,-0.0541315473170432,0.0449518353619984,0
4.55999851226807,-2.98027515411377,1.65582036972046,3.0256073474884,-2.98251682954183,1.65483493232433,3.02653356838264,2098.713,2096.408,2091.148,2093.329,2.79635691642761,44.9997940063477,358.912322998047,-0.119296491146088,-0.0524593032896519,0.0431223176419735,-0.113620413938778,-0.0499641233473485,0.041491129628386,0
4.57999849319458,-2.98247575759888,1.65485239028931,3.02640199661255,-2.98469689645876,1.65387625660254,3.02732967038502,2099.622,2097.427,2092.181,2094.362,2.70449805259705,44.9997711181641,358.947998046875,-0.110045462846756,-0.0483914501965046,0.0397359617054462,-0.104436195505166,-0.0459253999634219,0.0381372992351112,0
4.59999847412109,-2.98449754714966,1.65396356582642,3.02713108062744,-2.98669629926934,1.65299702720013,3.02805979869839,2100.793,2098.586,2093.058,2095.323,2.60936331748962,44.9997520446777,358.984985351563,-0.101093702018261,-0.0444552600383759,0.0364585891366005,-0.0955558646579888,-0.0420203099322176,0.0348944404428364,0
4.61999845504761,-2.98634672164917,1.6531503200531,3.02779698371887,-2.98852122879566,1.65219452172781,3.02872621404502,2101.917,2099.571,2094.058,2096.565,2.51082634925842,44.9997329711914,359.023376464844,-0.092452272772789,-0.0406554266810417,0.0332942642271519,-0.086990747086249,-0.0382538336802511,0.0317666890896096,0
4.63999843597412,-2.98802924156189,1.65241050720215,3.02840185165405,-2.99017810345716,1.65146591771125,3.02933126025965,2102.955,2100.766,2095.226,2097.698,2.40883231163025,44.9997177124023,359.063049316406,-0.0841327831149101,-0.0369968935847282,0.0302471965551376,-0.0787522768587543,-0.0346309992936256,0.028758220590869,0
4.65999841690063,-2.98955202102661,1.65174055099487,3.02894830703735,-2.99167357143824,1.65080829163793,3.02987736508102,2104.213,2101.979,2096.287,2098.889,2.30343651771545,44.9997024536133,359.10400390625,-0.0761466324329376,-0.0334848240017891,0.0273214522749186,-0.070851996424059,-0.0311568825180055,0.0258732499394405,0
4.67999839782715,-2.99092245101929,1.65113830566406,3.02943873405457,-2.99301451285583,1.65021861800387,3.03036704094342,2105.367,2103.323,2097.531,2100.067,2.19455337524414,44.999683380127,359.146301269531,-0.0685053616762161,-0.0301244240254164,0.0245213024318218,-0.0633015566105168,-0.0278366067586333,0.0231160317055421,0
4.69999837875366,-2.99214673042297,1.65059971809387,3.02987575531006,-2.99420804192704,1.64969376836053,3.03080288576823,2106.642,2104.509,2098.76,2101.497,2.08222341537476,44.9996604919434,359.189971923828,-0.0612206496298313,-0.0269209891557693,0.0218510422855616,-0.0561127166262381,-0.0246753430803262,0.0204908600367784,0
4.71999835968018,-2.99323320388794,1.65012228488922,3.0302619934082,-2.99526150913668,1.64923051036155,3.0311875837555,2107.974,2106.048,2100.029,2102.681,1.96642661094666,44.999641418457,359.234924316406,-0.0543044060468674,-0.0238795317709446,0.0193149503320456,-0.0492973440591076,-0.0216783102074691,0.0180020686581361,0
4.73999834060669,-2.99418830871582,1.64970207214355,3.03060030937195,-2.99618250340489,1.6488255068096,3.03152390617543,2109.333,2107.344,2101.372,2104.217,1.84713697433472,44.9996223449707,359.281341552734,-0.0477682501077652,-0.0210054814815521,0.01691734790802,-0.0428674148768007,-0.0188507745240267,0.0156540308720023,0
4.7599983215332,-2.99502086639404,1.64933609962463,3.03089356422424,-2.99697885425476,1.64847531470317,3.03181471215999,2110.835,2108.973,2102.685,2105.523,1.72434604167938,44.9996070861816,359.329040527344,-0.0416243337094784,-0.0183038823306561,0.0146626383066177,-0.0368350134267512,-0.0161980500735295,0.0134511595581435,0
4.77999830245972,-2.99573826789856,1.64902055263519,3.03114461898804,-2.99765863397986,1.64817638428339,3.03206294949442,2112.289,2110.391,2104.144,2107.161,1.59796929359436,44.9995880126953,359.378265380859,-0.0358846783638,-0.0157801881432533,0.0125552956014872,-0.0312123324361782,-0.0137254985590864,0.0113979071737207,0
4.79999828338623,-2.99634981155396,1.64875173568726,3.03135657310486,-2.99823015981189,1.64792505808084,3.03227165540879,2113.84,2112.023,2105.622,2108.697,1.46800827980042,44.999568939209,359.428833007813,-0.0305619016289711,-0.0134396236389875,0.0105997631326318,-0.0260116730120643,-0.011438529343379,0.00949876575327835,0
4.81999826431274,-2.99686312675476,1.64852571487427,3.03153252601624,-2.99870199608825,1.64771756996233,3.03244395736957,2115.286,2113.565,2107.31,2110.45,1.33443057537079,44.9995422363281,359.480804443359,-0.0256683081388474,-0.0112877227365971,0.00880051404237747,-0.0212454446411741,-0.00934259944865801,0.00775826690875103,0
4.83999824523926,-2.99728751182556,1.6483393907547,3.03167581558228,-2.99908295641962,1.64755004417777,3.03258307387112,2116.958,2115.37,2108.901,2112.049,1.19734418392181,44.9995231628418,359.534149169922,-0.0212165638804436,-0.00932995416224003,0.00716210249811411,-0.0169261651900516,-0.00744321355675481,0.00618098182946536,0
4.85999822616577,-2.99763202667236,1.64818787574768,3.03178954124451,-2.9993821058576,1.64741849440692,3.03269231522731,2118.748,2117.05,2110.49,2113.901,1.05671453475952,44.9995079040527,359.5888671875,-0.0172189027070999,-0.00757190585136414,0.0056891068816185,-0.013066460904998,-0.00574592400906138,0.00477152128213199,0
4.87999820709229,-2.99790525436401,1.64806747436523,3.03187727928162,-2.99960876306224,1.64731882280621,3.03277508436301,2120.471,2118.972,2112.267,2115.642,0.912452578544617,44.9994812011719,359.644958496094,-0.0136878537014127,-0.00601893709972501,0.00438615074381232,-0.00967906641210448,-0.00425633080655619,0.00353453561085271,0
4.8999981880188,-2.99811816215515,1.64797401428223,3.03194236755371,-2.99977250246967,1.64724681905559,3.03283487760564,2122.422,2120.973,2113.948,2117.426,0.76458078622818,44.9994659423828,359.702453613281,-0.0106361107900739,-0.00467696180567145,0.00325794564560056,-0.00677682471723884,-0.00298008160978469,0.0024747147371178,0
4.91999816894531,-2.9982795715332,1.64790272712708,3.03198862075806,-2.99988315645972,1.64719815940531,3.03287528547678,2124.187,2122.806,2115.936,2119.523,0.612982213497162,44.9994468688965,359.761444091797,-0.00807656440883875,-0.0035515776835382,0.00230915867723525,-0.00437268720602191,-0.00192287173886641,0.00159678815980691,0
4.93999814987183,-2.99840021133423,1.64785015583038,3.03201961517334,-2.99995081752344,1.6471684057227,3.03289999348362,2126.118,2124.919,2117.891,2121.475,0.457753777503967,44.9994163513184,359.821868896484,-0.00602264422923326,-0.00264843250624835,0.00154448789544404,-0.00247971364387922,-0.0010904441734878,0.000905524955181924,0
4.95999813079834,-2.99848985671997,1.64781057834625,3.03203892707825,-2.99998584043075,1.64715300453906,3.0329127829106,2128.177,2126.85,2119.855,2123.75,0.298907190561295,44.9993934631348,359.883758544922,-0.00448740646243095,-0.00197340408340096,0.000968741253018379,-0.00111107217598416,-0.000488589552918306,0.000405733776901229,0
4.97999811172485,-2.99855947494507,1.64777982234955,3.03205060958862,-2.99999884439805,1.64714728609637,3.03291753161089,2130.229,2129.169,2121.966,2125.783,0.136400938034058,44.9993667602539,359.946929931641,-0.00348411314189434,-0.00153203075751662,0.000586695969104767,-0.000280039327307691,-0.000123146175995181,0.000102262856009894,0
4.99999809265137,-2.99862003326416,1.64775335788727,3.03205871582031,-3.00000071525574,1.64714646339417,3.03291821479798,2132.404,2131.411,2124.102,2128.037,359.970245361328,44.9993438720703,0.0115911373868585,-0.00302580930292606,-0.00133039359934628,0.000403225771151483,-2.56861198977276E-12,-1.12976294985856E-12,9.39692768042732E-13,0
5.01999807357788,-2.99868249893188,1.64772582054138,3.03206729888916,-2.99999883910673,1.64714646339417,3.03291630684984,2134.682,2133.695,2126.279,2130.402,359.800476074219,44.9993171691895,0.0776786729693413,-0.00312588317319751,-0.00137437507510185,0.00042331003351137,0.00028088503566936,0,-0.000285645797902589,0
5.03999805450439,-2.9987587928772,1.64769220352173,3.03208041191101,-2.9999857940921,1.64714646339417,3.03290304073331,1557.832,1758.958,2687.643,2494.161,359.626983642578,44.9992866516113,0.145173847675323,-0.00379788316786289,-0.00166982691735029,0.000651875336188823,0.00111464016023744,0,-0.00113353236204782,0
5.05999803543091,-2.99885940551758,1.64764809608459,3.03208565711975,-2.99995065730616,1.64714646339417,3.03286730840876,1808.508,1927.94,2418.622,2313.397,359.950775146484,45.0002365112305,359.898620605469,-0.00505012832581997,-0.00222052959725261,0.000267232884652913,0.00248783492712717,0,-0.00253000161122153,0
5.07999801635742,-2.99895811080933,1.64759624004364,3.03206944465637,-2.99988277336448,1.64714646339417,3.03279827389207,2131.328,2129.667,2081.928,2097.138,0.543147623538971,44.9988059997559,359.487426757813,-0.00492454925552011,-0.002583161694929,-0.000807184260338545,0.00438714763557295,0,-0.00446150605317107,0
5.09999799728394,-2.99900579452515,1.64754605293274,3.03201842308044,-2.99977175222892,1.64714646339417,3.03268537104277,2418.571,2302.285,1787.151,1905.121,1.11374580860138,44.9942817687988,359.090057373047,-0.0023908861912787,-0.00250976532697678,-0.00255226762965322,0.00679936533319639,0,-0.00691460878722355,0
5.11999797821045,-2.99895668029785,1.64750552177429,3.03191924095154,-2.99960746703264,1.64714646339417,3.03251830135227,2501.59,2345.615,1699.347,1840.109,1.40641975402832,44.9916648864746,358.8623046875,0.00244991295039654,-0.00202216790057719,-0.00496246991679072,0.00971138381600629,0,-0.00987598350428585,0
5.13999795913696,-2.99878668785095,1.6474781036377,3.0317587852478,-2.99938005190514,1.64714646339417,3.03228703173196,2354.859,2252.245,1837.26,1916.766,1.34601473808289,44.9944458007813,358.850616455078,0.00851591117680073,-0.00138126546517015,-0.00801773276180029,0.0131102076283986,0,-0.0133324144868446,0
5.15999841690063,-2.99849772453308,1.64745998382568,3.03152561187744,-2.99907989169919,1.64714646339417,3.03198178406605,2079.668,2087.073,2095.523,2075.081,1.05779325962067,44.9999351501465,358.982269287109,0.0144477766007185,-0.000914008473046124,-0.0116568468511105,0.0169830479445399,0,-0.0172708961493558,0
5.17999839782715,-2.99811029434204,1.64744353294373,3.03120923042297,-2.99869765014179,1.64714646339417,3.03159306383965,1837.635,1944.142,2315.451,2217.647,0.776524186134338,45.0037498474121,359.118988037109,0.0193678513169289,-0.000819491222500801,-0.0158151425421238,0.0213169418858299,0,-0.0216782459034622,0
5.19999837875366,-2.99764442443848,1.64742207527161,3.03079986572266,-2.99822422505627,1.64714646339417,3.03111161460197,1754.745,1892.567,2378.159,2267.506,0.705552637577057,45.0045509338379,359.138824462891,0.0232866555452347,-0.00106704735662788,-0.0204683989286423,0.0260993069794519,0,-0.0265416680141447,0
5.21999835968018,-2.99710512161255,1.6473935842514,3.03028750419617,-2.99765077281387,1.64714646339417,3.03052844283225,1856.011,1944.65,2264.355,2206.832,0.908979296684265,45.0027618408203,358.998443603516,0.0269810799509287,-0.00143451022449881,-0.025622071698308,0.0313175827659437,0,-0.0318483891328457,0
5.23999834060669,-2.99647545814514,1.64736020565033,3.0296618938446,-2.99696869990728,1.64714646339417,3.02983480937055,2062.929,2056.325,2053.917,2078.817,1.29214262962341,44.9988098144531,358.746063232422,0.0314744636416435,-0.00165276310872287,-0.031279593706131,0.0369593175342297,0,-0.0375857465025875,0
5.2599983215332,-2.99572682380676,1.64732933044434,3.02891325950623,-2.99616966077571,1.64714646339417,3.02902222720592,2248.21,2157.882,1870.901,1956.209,1.67134010791779,44.9944267272949,358.484008789063,0.0374477803707123,-0.00156378175597638,-0.0374354459345341,0.043012168321622,0,-0.0437411879579721,0
5.27999830245972,-2.99482846260071,1.64730501174927,3.02803182601929,-2.99524555562987,1.64714646339417,3.02808245926457,2310.438,2193.515,1810.143,1900.95,1.8844838142395,44.9928779602051,358.30810546875,0.0449076592922211,-0.00120089971460402,-0.0440774075686932,0.0494639009138196,0,-0.0503022719251812,0
5.29999828338623,-2.99376344680786,1.64729022979736,3.0270082950592,-2.99418852827708,1.64714646339417,3.02700751619801,2226.368,2151.604,1888.356,1931.281,1.8774516582489,44.9957580566406,358.257354736328,0.0532588623464108,-0.000752096646465361,-0.0511754788458347,0.0563023898449087,0,-0.0572566674219765,0
5.31999826431274,-2.99252963066101,1.64728140830994,3.02583479881287,-2.99299096394625,1.64714646339417,3.02578965417126,2055.646,2062.175,2043.998,2019.367,1.72164487838745,45.0009841918945,358.300750732422,0.061694223433733,-0.000439500348875299,-0.058679137378931,0.0635156183973629,0,-0.0645921540576992,0
5.33999824523926,-2.9911367893219,1.64727377891541,3.02450394630432,-2.99164548711291,1.64714646339417,3.02442137265102,1898.911,1977.289,2180.63,2108.809,1.56067478656769,45.005012512207,358.362396240234,0.0696497410535812,-0.000389348540920764,-0.066540502011776,0.0710916786020427,0,-0.0722966220332705,0
5.35999822616577,-2.98959517478943,1.64726209640503,3.02300906181335,-2.99014495932429,1.64714646339417,3.02289541219379,1838.529,1938.715,2223.397,2150.036,1.52366864681244,45.0058326721191,358.367736816406,0.077073723077774,-0.000570146192330867,-0.0747387334704399,0.079018771238196,0,-0.0803580721411912,0
5.37999820709229,-2.98790717124939,1.64724588394165,3.02134346961975,-2.9884824770243,1.64714646339417,3.02120475223411,1894.839,1958.929,2157.696,2124.865,1.65604996681213,45.0035247802734,358.282775878906,0.0843859910964966,-0.000823935435619205,-0.0832776874303818,0.0872852058334578,0,-0.0887646157655421,0
5.3999981880188,-2.98606395721436,1.64722633361816,3.01950001716614,-2.98665136937863,1.64714646339417,3.01934260887269,2022.364,2017.213,2029.943,2053.251,1.90413451194763,44.9993858337402,358.126831054688,0.0921877920627594,-0.000967673724517226,-0.0921671390533447,0.0958794006638503,0,-0.0975044748819835,0
5.41999816894531,-2.98404550552368,1.64720845222473,3.01747179031372,-2.98464519609971,1.64714646339417,3.01730243266456,2141.248,2075.921,1915.939,1976.83,2.15557599067688,44.9956130981445,357.955505371094,0.100908681750298,-0.00089841999579221,-0.101409837603569,0.104789882753783,0,-0.106565982057756,0
5.43999814987183,-2.98183345794678,1.64719557762146,3.01525187492371,-2.98245774527179,1.64714646339417,3.0150779064073,2186.291,2102.133,1874.476,1934.748,2.30788326263428,44.9945335388184,357.826568603516,0.110589377582073,-0.000644904328510165,-0.11099599301815,0.114005287876052,0,-0.115937580451678,0
5.45999813079834,-2.97941541671753,1.64718890190125,3.01283383369446,-2.98008303117596,1.64714646339417,3.01266294292918,2138.756,2084.669,1918.701,1943.778,2.32297563552856,44.9968795776367,357.769256591797,0.120901867747307,-0.00033836395596154,-0.120899721980095,0.123514360551842,0,-0.125607823814152,0
5.47999811172485,-2.97678804397583,1.64718627929688,3.01021218299866,-2.97751529211522,1.64714646339417,3.0100516828773,2033.449,2037.226,2012.693,1991.437,2.24120855331421,45.0010643005371,357.772186279297,0.131365552544594,-0.000129938329337165,-0.131082743406296,0.133305954050723,0,-0.135565376487155,0
5.49999809265137,-2.9739556312561,1.64718413352966,3.00738191604614,-2.97474898823944,1.64714646339417,3.0072384925058,1932.906,1987.599,2097.672,2046.129,2.1502673625946,45.0044136047363,357.794647216797,0.141620680689812,-0.000103305850643665,-0.141510173678398,0.143369030390654,0,-0.145799013404247,0
5.51999807357788,-2.97092342376709,1.64717936515808,3.00433850288391,-2.97177879937046,1.64714646339417,3.00421796146405,1890.256,1960.769,2126.685,2076.581,2.13180589675903,45.0051574707031,357.792022705078,0.15160283446312,-0.00023396810865961,-0.152165070176125,0.15369266033798,0,-0.156297620090568,0
5.53999805450439,-2.96769309043884,1.64717149734497,3.00107765197754,-2.9685996228271,1.64714646339417,3.00098490058475,1921.152,1966.554,2088.851,2068.198,2.21738791465759,45.0032234191895,357.739807128906,0.161536425352097,-0.000412845693062991,-0.163048461079597,0.164266023407434,0,-0.167050192662836,0
5.55999803543091,-2.96425795555115,1.64716076850891,2.99759435653687,-2.9652065712502,1.64714646339417,2.99753433967215,1999.149,1996.087,2011.352,2029.163,2.37678861618042,44.9998321533203,357.644104003906,0.1717728972435,-0.000515313760843128,-0.174168303608894,0.175078407862134,0,-0.17804583782935,0
5.57999801635742,-2.96060585975647,1.64715147018433,2.99388384819031,-2.96159497042764,1.64714646339417,2.99386152529024,2075.029,2029.764,1940.122,1982.346,2.54158973693848,44.9969100952148,357.534301757813,0.182579666376114,-0.000472207000711933,-0.185528382658958,0.186119210713589,0,-0.189273772889988,0
5.59999799728394,-2.95672607421875,1.64714550971985,2.98994135856628,-2.95776035711938,1.64714646339417,2.98996191855086,2106.75,2047.663,1912.086,1952.71,2.64704990386963,44.9961090087891,357.44482421875,0.194000586867332,-0.000303979322779924,-0.197121426463127,0.197377937721692,0,-0.200723325736209,0
5.61999845504761,-2.95260882377625,1.64714360237122,2.98576283454895,-2.95369837729778,1.64714646339417,2.98583109162929,2080.123,2041.475,1937.074,1952.917,2.66685390472412,44.997802734375,357.39599609375,0.205853492021561,-9.99522162601352E-05,-0.208927676081657,0.208844479164286,0,-0.21238421529467,0
5.63999795913696,-2.94825172424316,1.64714407920837,2.98134446144104,-2.94940528189631,1.64714646339417,2.98146523191552,2015.634,2016.904,1993.91,1977.975,2.62369060516357,45.0008277893066,357.385070800781,0.217851012945175,3.72919894289225E-05,-0.22091917693615,0.220507730989355,0,-0.224245149309128,0
5.65999841690063,-2.94365644454956,1.64714527130127,2.97668313980103,-2.94487681799,1.64714646339417,2.97686001440112,1951.653,1988.452,2046.944,2010.657,2.57093214988708,45.0033264160156,357.390747070313,0.22976453602314,5.07972945342772E-05,-0.233070626854897,0.232358637201969,0,-0.236296918293248,0
