t,x_s1,x_s2,x_s3,x_s_d1,x_s_d2,x_s_d3,propellers_rpms1,propellers_rpms2,propellers_rpms3,propellers_rpms4,rollRad,pitchRad,yawRad,v_s1,v_s2,v_s3,v_s_d1,v_s_d2,v_s_d3,insideCount
44.09998,-2.66223764419556,1.90784192085266,2.10699963569641,-2.66223955154419,1.90784227848053,2.10699987411499,2128.774,2128.771,2128.767,2128.769,7.53876611270243E-06,44.9999771118164,5.84945655646152E-06,-2.88997443931294E-06,1.38717598474614E-06,7.5749778716272E-07,0,0,0,0
44.11998,-2.66223764419556,1.90784192085266,2.10699963569641,-2.66223955154419,1.90784227848053,2.10699987411499,2128.773,2128.772,2128.767,2128.768,7.34064542484703E-06,44.9999771118164,5.96150357523584E-06,-2.87827992906386E-06,1.37840515890275E-06,7.66287428177748E-07,0,0,0,0
44.13998,-2.66223764419556,1.90784192085266,2.10699963569641,-2.66223955154419,1.90784227848053,2.10699987411499,2128.774,2128.772,2128.767,2128.768,7.75501575844828E-06,44.9999771118164,5.64951506021316E-06,-2.86658541881479E-06,1.36963433305937E-06,7.70682220263552E-07,0,0,0,0
44.15998,-2.66223764419556,1.90784192085266,2.10699963569641,-2.66223955154419,1.90784227848053,2.10699987411499,2128.774,2128.773,2128.766,2128.768,8.35784703667741E-06,44.9999771118164,5.52598794456571E-06,-2.85489090856572E-06,1.36086350721598E-06,7.70682220263552E-07,0,0,0,0
44.17999,-2.66223764419556,1.90784192085266,2.10699963569641,-2.66223955154419,1.90784227848053,2.10699987411499,2128.774,2128.772,2128.766,2128.768,8.67798917170148E-06,44.9999771118164,5.87360864301445E-06,-2.84319639831665E-06,1.3520926813726E-06,7.70682220263552E-07,0,0,0,0
44.19999,-2.66223764419556,1.90784192085266,2.10699963569641,-2.66223955154419,1.90784227848053,2.10699987411499,2128.774,2128.772,2128.766,2128.768,8.38563846627949E-06,44.9999771118164,6.55103258395684E-06,-2.82565474662988E-06,1.34332185552921E-06,7.88261445450189E-07,0,0,0,0
44.21999,-2.66223764419556,1.90784192085266,2.10699963569641,-2.66223955154419,1.90784227848053,2.10699987411499,2128.773,2128.772,2128.767,2128.768,7.76348497311119E-06,44.9999771118164,7.27557198842987E-06,-2.80811309494311E-06,1.33455102968583E-06,7.75077012349357E-07,0,0,0,0
44.23998,-2.66223764419556,1.90784192085266,2.10699963569641,-2.66223955154419,1.90784227848053,2.10699987411499,2128.773,2128.772,2128.767,2128.768,7.61247838454437E-06,44.9999771118164,7.52896357880672E-06,-2.82565474662988E-06,1.31408580728021E-06,7.75077012349357E-07,0,0,0,0
44.25998,-2.66223764419556,1.90784192085266,2.10699963569641,-2.66223955154419,1.90784227848053,2.10699987411499,2128.773,2128.772,2128.767,2128.768,8.02685008238768E-06,44.9999771118164,7.31120553609799E-06,-2.84319639831665E-06,1.29362058487459E-06,7.79471804435161E-07,0,0,0,0
44.27998,-2.66223764419556,1.90784192085266,2.10699963569641,-2.66223955154419,1.90784227848053,2.10699987411499,2128.774,2128.773,2128.766,2128.768,8.86525322130183E-06,44.9999771118164,7.14056250217254E-06,-2.86073805000342E-06,1.27315536246897E-06,7.70682163420133E-07,0,0,0,0
44.29998,-2.66223764419556,1.90784192085266,2.10699963569641,-2.66223955154419,1.90784227848053,2.10699987411499,2128.773,2128.773,2128.767,2128.768,9.56231451709755E-06,44.9999771118164,7.39395227355999E-06,-2.81980760519218E-06,1.30239141071797E-06,7.53102938233496E-07,0,0,0,0
44.31998,-2.66223764419556,1.90784192085266,2.10699963569641,-2.66223955154419,1.90784227848053,2.10699987411499,2128.778,2128.773,2128.762,2128.768,1.09660977614112E-05,44.9999771118164,8.16560532257427E-06,-2.77887716038094E-06,1.33162757265382E-06,7.31128864117636E-07,0,0,0,0
44.33998,-2.66223764419556,1.90784192085266,2.10699963569641,-2.66223955154419,1.90784227848053,2.10699987411499,2128.776,2128.772,2128.764,2128.768,8.36512026580749E-06,44.9999771118164,9.45552255871007E-06,-2.75548859463015E-06,1.32285663312359E-06,7.22339223102608E-07,0,0,0,0
44.35999,-2.66223764419556,1.90784192085266,2.10699963569641,-2.66223955154419,1.90784227848053,2.10699987411499,2128.77,2128.771,2128.77,2128.769,3.17282842843269E-06,44.9999771118164,1.02271797004505E-05,-2.75548859463015E-06,1.37255779009138E-06,6.91575564815139E-07,0,0,0,0
44.37999,-2.66223764419556,1.90784192085266,2.10699963569641,-2.66223955154419,1.90784227848053,2.10699987411499,2128.772,2128.77,2128.768,2128.771,7.13194992840727E-07,44.9999771118164,9.67961932474282E-06,-2.77887738775462E-06,1.4105647778706E-06,6.78391131714307E-07,0,0,0,0
44.39998,-2.66223764419556,1.90784192085266,2.10699963569641,-2.66223955154419,1.90784227848053,2.10699987411499,2128.771,2128.771,2128.769,2128.769,-2.85878428485375E-07,44.9999771118164,7.01189173923922E-06,-2.80226618087909E-06,1.39009955546499E-06,7.00365205830167E-07,0,0,0,0
44.41998,-2.66223764419556,1.90784192085266,2.10699963569641,-2.66223955154419,1.90784227848053,2.10699987411499,2128.772,2128.776,2128.768,2128.765,9.7655856734491E-07,44.9999771118164,3.68455562238523E-06,-2.79641881206771E-06,1.3462455399349E-06,7.00365205830167E-07,0,0,0,0
44.43998,-2.66223764419556,1.90784192085266,2.10699963569641,-2.66223955154419,1.90784227848053,2.10699987411499,2128.773,2128.777,2128.767,2128.763,3.46398132933246E-06,44.9999771118164,3.65525602319394E-06,-2.79057167063002E-06,1.30239163809165E-06,7.26734072031832E-07,0,0,0,0
44.45998,-2.66223764419556,1.90784192085266,2.10699963569641,-2.66223955154419,1.90784227848053,2.10699987411499,2128.775,2128.773,2128.766,2128.767,6.752359240636E-06,44.9999771118164,8.10186338640051E-06,-2.79641903944139E-06,1.31700983274641E-06,7.04759997915971E-07,0,0,0,0
44.47998,-2.66223764419556,1.90784192085266,2.10699963569641,-2.66223955154419,1.90784227848053,2.10699987411499,2128.778,2128.767,2128.763,2128.773,9.28689860302256E-06,44.9999771118164,1.33965377244749E-05,-2.81396069112816E-06,1.29654461034079E-06,7.09154790001776E-07,0,0,0,0
44.49998,-2.66223764419556,1.90784192085266,2.10699963569641,-2.66223955154419,1.90784227848053,2.10699987411499,2128.775,2128.769,2128.765,2128.771,8.61762873682892E-06,44.9999771118164,1.40739639391541E-05,-2.82565497400356E-06,1.33455114337266E-06,7.09154790001776E-07,0,0,0,0
44.51999,-2.66223764419556,1.90784192085266,2.10699963569641,-2.66223955154419,1.90784227848053,2.10699987411499,2128.774,2128.77,2128.766,2128.771,6.62914408167126E-06,44.9999771118164,1.20187278298545E-05,-2.81396046375448E-06,1.39302312618383E-06,7.1354958208758E-07,0,0,0,0
44.53999,-2.66223764419556,1.90784192085266,2.10699963569641,-2.66223955154419,1.90784227848053,2.10699987411499,2128.775,2128.773,2128.766,2128.767,3.93393565900624E-06,44.9999771118164,7.46640853321878E-06,-2.82565474662988E-06,1.48657841236854E-06,6.87180715885916E-07,0,0,0,0
44.55999,-2.66223764419556,1.90784192085266,2.10699963569641,-2.66223955154419,1.90784227848053,2.10699987411499,2128.774,2128.772,2128.767,2128.768,3.43545394798639E-07,44.9999771118164,3.71504143004131E-06,-2.82565474662988E-06,1.47780758652516E-06,6.65206641770055E-07,0,0,0,0
44.57998,-2.66223764419556,1.90784192085266,2.10699963569641,-2.66223955154419,1.90784227848053,2.10699987411499,2128.769,2128.778,2128.771,2128.762,-2.96415555567364E-06,44.9999771118164,-1.30555619648476E-07,-2.81980760519218E-06,1.43395345730823E-06,6.87180715885916E-07,0,0,0,0
44.59998,-2.66223764419556,1.90784192085266,2.10699963569641,-2.66223955154419,1.90784227848053,2.10699987411499,2128.77,2128.777,2128.771,2128.763,-1.93729101738427E-06,44.9999771118164,1.20647484891379E-06,-2.81980760519218E-06,1.42518297252536E-06,6.69601490699279E-07,0,0,0,0
44.61998,-2.66223764419556,1.90784192085266,2.10699963569641,-2.66223955154419,1.90784227848053,2.10699987411499,2128.775,2128.77,2128.765,2128.77,2.81164579973847E-06,44.9999771118164,7.11364009475801E-06,-2.81980760519218E-06,1.41641248774249E-06,6.65206698613474E-07,0,0,0,0
44.63998,-2.66223764419556,1.90784192085266,2.10699963569641,-2.66223955154419,1.90784227848053,2.10699987411499,2128.777,2128.769,2128.764,2128.772,6.47694059807691E-06,44.9999771118164,1.13717896965682E-05,-2.81980760519218E-06,1.40764154821227E-06,6.6081190652767E-07,0,0,0,0
44.65998,-2.66223764419556,1.90784192085266,2.10699963569641,-2.66223955154419,1.90784227848053,2.10699987411499,2128.777,2128.769,2128.764,2128.771,7.7393788160407E-06,44.9999771118164,1.24732441690867E-05,-2.83150211544125E-06,1.50119672071014E-06,6.6081190652767E-07,0,0,0,0
44.67999,-2.66223764419556,1.90784192085266,2.10699963569641,-2.66223955154419,1.90784227848053,2.10699987411499,2128.779,2128.767,2128.762,2128.774,6.69319024382276E-06,44.9999771118164,1.05122408058378E-05,-2.84319662569033E-06,1.53920336742885E-06,6.6081190652767E-07,0,0,0,0
44.69999,-2.66223764419556,1.90784192085266,2.10699963569641,-2.66223955154419,1.90784227848053,2.10699987411499,2128.772,2128.774,2128.768,2128.767,8.88401302745478E-07,44.9999771118164,3.32149147652672E-06,-2.8607382773771E-06,1.58305704189843E-06,6.78391131714307E-07,0,0,0,0
44.71999,-2.66223764419556,1.90784192085266,2.10699963569641,-2.66223955154419,1.90784227848053,2.10699987411499,2128.77,2128.776,2128.77,2128.764,-3.502942263367E-06,44.9999771118164,-2.36158325606084E-06,-2.8548911359394E-06,1.53920302636834E-06,6.87180772729334E-07,0,0,0,0
44.73998,-2.66223764419556,1.90784192085266,2.10699963569641,-2.66223955154419,1.90784227848053,2.10699987411499,2128.768,2128.781,2128.772,2128.76,-4.59624652648927E-06,44.9999771118164,-4.74662192573305E-06,-2.87243278762617E-06,1.47780758652516E-06,7.09154846845195E-07,0,0,0,0
44.75998,-2.66223764419556,1.90784192085266,2.10699963569641,-2.66223955154419,1.90784227848053,2.10699987411499,2128.77,2128.775,2128.77,2128.765,-8.8383757201882E-07,44.9999771118164,3.12476515773596E-07,-2.89582180812431E-06,1.38717621211981E-06,7.31128920961055E-07,0,0,0,0
44.77998,-2.66223764419556,1.90784192085266,2.10699963569641,-2.66223955154419,1.90784227848053,2.10699987411499,2128.773,2128.771,2128.767,2128.77,6.0323795878503E-06,44.9999771118164,8.01000442152144E-06,-2.89582180812431E-06,1.3784056136501E-06,7.2673412887525E-07,0,0,0,0
44.79998,-2.66223764419556,1.90784192085266,2.10699963569641,-2.66223955154419,1.90784227848053,2.10699987411499,2128.782,2128.765,2128.759,2128.775,1.35139734993572E-05,44.9999771118164,1.41998543767841E-05,-2.91336345981108E-06,1.35794027755765E-06,7.31128920961055E-07,0,0,0,0
44.81998,-2.66223764419556,1.90784192085266,2.10699963569641,-2.66223955154419,1.90784227848053,2.10699987411499,2128.778,2128.768,2128.763,2128.773,1.41639175126329E-05,44.9999771118164,1.4311899576569E-05,-2.89582180812431E-06,1.422259060746E-06,7.31128920961055E-07,0,0,0,0
44.83998,-2.66223764419556,1.90784192085266,2.10699963569641,-2.66223955154419,1.90784227848053,2.10699987411499,2128.779,2128.77,2128.761,2128.771,1.13744790724013E-05,44.9999771118164,1.05134167824872E-05,-2.90166894956201E-06,1.52166137468157E-06,7.2673412887525E-07,0,0,0,0
44.85999,-2.66223764419556,1.90784192085266,2.10699963569641,-2.66223955154419,1.90784227848053,2.10699987411499,2128.774,2128.771,2128.766,2128.769,3.49663901033637E-06,44.9999771118164,4.35919673691387E-06,-2.90751631837338E-06,1.57136241796252E-06,7.00365262673586E-07,0,0,0,0
44.87999,-2.66223764419556,1.90784192085266,2.10699963569641,-2.66223955154419,1.90784227848053,2.10699987411499,2128.768,2128.777,2128.773,2128.763,-4.52254698757315E-06,44.9999771118164,-2.31328726840729E-06,-2.91336345981108E-06,1.5859803852436E-06,6.87180829572753E-07,0,0,0,0
44.89998,-2.66223764419556,1.90784192085266,2.10699963569641,-2.66223955154419,1.90784227848053,2.10699987411499,2128.767,2128.779,2128.774,2128.762,-6.93506672178046E-06,44.9999771118164,-4.79255595564609E-06,-2.93675225293555E-06,1.50119615227595E-06,7.35523769890278E-07,0,0,0,0
44.91998,-2.66223764419556,1.90784192085266,2.10699963569641,-2.66223955154419,1.90784227848053,2.10699987411499,2128.767,2128.777,2128.773,2128.763,-3.31688784172002E-06,44.9999771118164,-1.90073694739112E-06,-2.93675225293555E-06,1.48657852605538E-06,7.35523769890278E-07,0,0,0,0
44.93998,-2.66223764419556,1.90784192085266,2.10699963569641,-2.66223955154419,1.90784227848053,2.10699987411499,2128.778,2128.77,2128.762,2128.771,6.23776122665731E-06,44.9999771118164,5.4198712859943E-06,-2.94844653581094E-06,1.43103045502357E-06,7.35523769890278E-07,0,0,0,0
44.95998,-2.66223764419556,1.90784192085266,2.10699963569641,-2.66223955154419,1.90784227848053,2.10699987411499,2128.778,2128.769,2128.762,2128.772,1.21174516607425E-05,44.9999771118164,1.01962796179578E-05,-2.95429390462232E-06,1.44564819493098E-06,7.2673412887525E-07,0,0,0,0
44.97998,-2.66223764419556,1.90784192085266,2.10699963569641,-2.66223955154419,1.90784227848053,2.10699987411499,2128.78,2128.767,2128.76,2128.773,1.39923795359209E-05,44.9999771118164,1.14390804810682E-05,-2.95429390462232E-06,1.49534923821193E-06,6.78391188557725E-07,0,0,0,0
44.99998,-2.66223764419556,1.90784192085266,2.10699963569641,-2.66223955154419,1.90784227848053,2.10699987411499,2128.778,2128.769,2128.763,2128.771,1.06846782728098E-05,44.9999771118164,8.53577785164816E-06,-2.93090511149785E-06,1.52458494540042E-06,6.73996396471921E-07,0,0,0,0
45.01999,-2.66223764419556,1.90784192085266,2.10699963569641,-2.66223955154419,1.90784227848053,2.10699987411499,2128.773,2128.775,2128.768,2128.765,3.56067471329879E-06,44.9999771118164,2.47578577727836E-06,-2.93090511149785E-06,1.57428598868137E-06,6.47627530270256E-07,0,0,0,0
45.03999,-2.66223764419556,1.90784192085266,2.10699963569641,-2.66223955154419,1.90784227848053,2.10699987411499,2128.77,2128.775,2128.771,2128.766,-2.6210311716568E-06,44.9999771118164,-9.45776889693661E-07,-2.91336345981108E-06,1.60352215061721E-06,6.25653456154396E-07,0,0,0,0
45.05998,-2.66223764419556,1.90784192085266,2.10699963569641,-2.66223955154419,1.90784227848053,2.10699987411499,2128.768,2128.776,2128.773,2128.764,-4.98643521495978E-06,44.9999771118164,-1.96448536371463E-06,-2.91336345981108E-06,1.5947515521475E-06,6.25653456154396E-07,0,0,0,0
45.07998,-2.66223764419556,1.90784192085266,2.10699963569641,-2.66223955154419,1.90784227848053,2.10699987411499,2128.772,2128.773,2128.769,2128.767,-2.02786304726033E-06,44.9999771118164,4.56185233588258E-07,-2.93675225293555E-06,1.50996731917985E-06,6.87180829572753E-07,0,0,0,0
45.09998,-2.66223764419556,1.90784192085266,2.10699963569641,-2.66223955154419,1.90784227848053,2.10699987411499,2128.771,2128.773,2128.769,2128.767,2.95664654004213E-06,44.9999771118164,3.96049654227681E-06,-2.93675225293555E-06,1.5011966070233E-06,6.73996396471921E-07,0,0,0,0
45.11998,-2.66223764419556,1.90784192085266,2.10699963569641,-2.66223955154419,1.90784227848053,2.10699987411499,2128.78,2128.769,2128.761,2128.772,1.03911288533709E-05,44.9999771118164,8.50133255880792E-06,-2.92505774268648E-06,1.50119672071014E-06,7.17944487860223E-07,0,0,0,0
45.13998,-2.66223764419556,1.90784192085266,2.10699963569641,-2.66223955154419,1.90784227848053,2.10699987411499,2128.78,2128.769,2128.761,2128.772,1.25016331367078E-05,44.9999771118164,9.50855883274926E-06,-2.92505774268648E-06,1.55089765030425E-06,6.73996396471921E-07,0,0,0,0
45.15998,-2.66223764419556,1.90784192085266,2.10699963569641,-2.66223955154419,1.90784227848053,2.10699987411499,2128.778,2128.769,2128.762,2128.771,9.28816189116333E-06,44.9999771118164,6.98217672834289E-06,-2.92505774268648E-06,1.60059857989836E-06,6.30048305083619E-07,0,0,0,0
45.17999,-2.66223764419556,1.90784192085266,2.10699963569641,-2.66223955154419,1.90784227848053,2.10699987411499,2128.773,2128.773,2128.768,2128.767,2.54107771979761E-06,44.9999771118164,1.67602183864801E-06,-2.90166894956201E-06,1.61521631980577E-06,5.94889797866927E-07,0,0,0,0
45.19999,-2.66223764419556,1.90784192085266,2.10699963569641,-2.66223955154419,1.90784227848053,2.10699987411499,2128.768,2128.778,2128.773,2128.763,-3.16948035106179E-06,44.9999771118164,-2.68783719548082E-06,-2.89582180812431E-06,1.57136230427568E-06,6.03679438881954E-07,0,0,0,0
45.21998,-2.66223764419556,1.90784192085266,2.10699963569641,-2.66223955154419,1.90784227848053,2.10699987411499,2128.768,2128.778,2128.773,2128.763,-3.50894674738811E-06,44.9999771118164,-2.6229060949845E-06,-2.90751609099971E-06,1.51581411955704E-06,6.25653512997815E-07,0,0,0,0
45.23998,-2.66223764419556,1.90784192085266,2.10699963569641,-2.66223955154419,1.90784227848053,2.10699987411499,2128.771,2128.773,2128.769,2128.767,1.4755632946617E-06,44.9999771118164,2.01216039386054E-06,-2.92505774268648E-06,1.45441879340069E-06,6.38837946098647E-07,0,0,0,0
45.25998,-2.66223764419556,1.90784192085266,2.10699963569641,-2.66223955154419,1.90784227848053,2.10699987411499,2128.775,2128.77,2128.765,2128.771,8.67447215568973E-06,44.9999771118164,7.44817816666909E-06,-2.9192103738751E-06,1.4105647778706E-06,6.43232738184452E-07,0,0,0,0
45.27998,-2.66223764419556,1.90784192085266,2.10699963569641,-2.66223955154419,1.90784227848053,2.10699987411499,2128.78,2128.77,2128.761,2128.771,1.40830115924473E-05,44.9999771118164,1.04342252598144E-05,-2.9192103738751E-06,1.42518263146485E-06,6.43232738184452E-07,0,0,0,0
45.29998,-2.66223764419556,1.90784192085266,2.10699963569641,-2.66223955154419,1.90784227848053,2.10699987411499,2128.779,2128.769,2128.761,2128.772,1.40262382046785E-05,44.9999771118164,1.04991568150581E-05,-2.92505774268648E-06,1.43980037137226E-06,6.38837946098647E-07,0,0,0,0
45.31998,-2.66223764419556,1.90784192085266,2.10699963569641,-2.66223955154419,1.90784227848053,2.10699987411499,2128.774,2128.772,2128.766,2128.768,8.83394295669859E-06,44.9999771118164,7.12470955477329E-06,-2.93090511149785E-06,1.45441811127967E-06,6.30048305083619E-07,0,0,0,0
45.33998,-2.66223764419556,1.90784192085266,2.10699963569641,-2.66223955154419,1.90784227848053,2.10699987411499,2128.771,2128.775,2128.77,2128.766,3.26472991218907E-06,44.9999771118164,3.56180203198164E-06,-2.88997466668661E-06,1.48365415952867E-06,6.25653512997815E-07,0,0,0,0
45.35999,-2.66223764419556,1.90784192085266,2.10699963569641,-2.66223955154419,1.90784227848053,2.10699987411499,2128.773,2128.775,2128.768,2128.765,7.57981638344063E-07,44.9999771118164,2.21328991756309E-06,-2.87243301499984E-06,1.4485710835288E-06,6.7399645331534E-07,0,0,0,0
45.37999,-2.66223764419556,1.90784192085266,2.10699963569641,-2.66223955154419,1.90784227848053,2.10699987411499,2128.769,2128.775,2128.771,2128.765,-8.06468960945494E-07,44.9999771118164,3.69166673408472E-06,-2.87243301499984E-06,1.43980037137226E-06,6.69601661229535E-07,0,0,0,0
45.39998,-2.66223764419556,1.90784192085266,2.10699963569641,-2.66223955154419,1.90784227848053,2.10699987411499,2128.773,2128.77,2128.767,2128.771,1.68095584740513E-06,44.9999771118164,7.99693043518346E-06,-2.88412729787524E-06,1.39009932809131E-06,7.00365319517005E-07,0,0,0,0
45.41998,-2.66223764419556,1.90784192085266,2.10699963569641,-2.66223955154419,1.90784227848053,2.10699987411499,2128.773,2128.771,2128.768,2128.77,4.96933216709294E-06,44.9999771118164,1.05589442682685E-05,-2.88412729787524E-06,1.38132850224792E-06,6.78391245401144E-07,0,0,0,0
45.43998,-2.66223764419556,1.90784192085266,2.10699963569641,-2.66223955154419,1.90784227848053,2.10699987411499,2128.777,2128.77,2128.763,2128.771,8.77597176440759E-06,44.9999771118164,1.12834823084995E-05,-2.90166894956201E-06,1.42518251777801E-06,6.91575678501977E-07,0,0,0,0
45.45998,-2.66223764419556,1.90784192085266,2.10699963569641,-2.66223955154419,1.90784227848053,2.10699987411499,2128.778,2128.769,2128.762,2128.772,9.56726125878049E-06,44.9999771118164,9.840739039646E-06,-2.91336345981108E-06,1.46318916449673E-06,6.87180886416172E-07,0,0,0,0
45.47998,-2.66223764419556,1.90784192085266,2.10699963569641,-2.66223955154419,1.90784227848053,2.10699987411499,2128.775,2128.773,2128.766,2128.768,6.40090320302988E-06,44.9999771118164,5.0057319640473E-06,-2.91336345981108E-06,1.51289020777767E-06,6.60812020214507E-07,0,0,0,0
45.49998,-2.66223764419556,1.90784192085266,2.10699963569641,-2.66223955154419,1.90784227848053,2.10699987411499,2128.773,2128.775,2128.767,2128.766,2.24513655666669E-06,44.9999771118164,5.94758262195683E-07,-2.91921082862245E-06,1.52750817505876E-06,6.56417228128703E-07,0,0,0,0
45.51999,-2.66223764419556,1.90784192085266,2.10699963569641,-2.66223955154419,1.90784227848053,2.10699987411499,2128.77,2128.777,2128.771,2128.763,-1.29813736293727E-06,44.9999771118164,-1.31913043333043E-06,-2.91921082862245E-06,1.51873746290221E-06,6.34443154012843E-07,0,0,0,0
45.53999,-2.66223764419556,1.90784192085266,2.10699963569641,-2.66223955154419,1.90784227848053,2.10699987411499,2128.771,2128.774,2128.769,2128.767,-8.36649576285708E-07,44.9999771118164,9.60198121902067E-07,-2.91921082862245E-06,1.50996697811934E-06,6.25653512997815E-07,0,0,0,0
45.55998,-2.66223764419556,1.90784192085266,2.10699963569641,-2.66223955154419,1.90784227848053,2.10699987411499,2128.774,2128.771,2128.767,2128.77,1.98057932720985E-06,44.9999771118164,4.74719990961603E-06,-2.91921082862245E-06,1.50119626596279E-06,6.25653512997815E-07,0,0,0,0
45.57998,-2.66223764419556,1.90784192085266,2.10699963569641,-2.66223955154419,1.90784227848053,2.10699987411499,2128.776,2128.77,2128.765,2128.771,4.75069373351289E-06,44.9999771118164,7.3563314799685E-06,-2.91336345981108E-06,1.45734213674586E-06,6.52022379199479E-07,0,0,0,0
45.59998,-2.66223764419556,1.90784192085266,2.10699963569641,-2.66223955154419,1.90784227848053,2.10699987411499,2128.774,2128.772,2128.767,2128.768,6.01313286097138E-06,44.9999771118164,7.79818037699442E-06,-2.93090511149785E-06,1.43687668696657E-06,6.60812020214507E-07,0,0,0,0
45.61998,-2.66223764419556,1.90784192085266,2.10699963569641,-2.66223955154419,1.90784227848053,2.10699987411499,2128.774,2128.771,2128.767,2128.77,7.0871128627914E-06,44.9999771118164,8.42849112814292E-06,-2.94844676318462E-06,1.41641146456095E-06,6.959705274312E-07,0,0,0,0
45.63998,-2.66223764419556,1.90784192085266,2.10699963569641,-2.66223955154419,1.90784227848053,2.10699987411499,2128.775,2128.772,2128.765,2128.769,8.16109150036937E-06,44.9999771118164,7.64535616326611E-06,-2.96598841487139E-06,1.39594612846849E-06,7.13549752617837E-07,0,0,0,0
45.65998,-2.66223764419556,1.90784192085266,2.10699963569641,-2.66223955154419,1.90784227848053,2.10699987411499,2128.774,2128.773,2128.766,2128.768,7.39759298085119E-06,44.9999771118164,5.96703921473818E-06,-2.96598841487139E-06,1.41056409574958E-06,7.04760111602809E-07,0,0,0,0
45.67999,-2.66223764419556,1.90784192085266,2.10699963569641,-2.66223955154419,1.90784227848053,2.10699987411499,2128.773,2128.773,2128.767,2128.767,5.97448433836689E-06,44.9999771118164,4.57141231891001E-06,-2.95429413199599E-06,1.40179326990619E-06,7.09154903688614E-07,0,0,0,0
45.69999,-2.66223764419556,1.90784192085266,2.10699963569641,-2.66223955154419,1.90784227848053,2.10699987411499,2128.773,2128.773,2128.768,2128.767,5.21098581884871E-06,44.9999771118164,4.21231152358814E-06,-2.96014127343369E-06,1.41641135087411E-06,6.91575678501977E-07,0,0,0,0
45.71998,-2.66223764419556,1.90784192085266,2.10699963569641,-2.66223955154419,1.90784227848053,2.10699987411499,2128.773,2128.773,2128.767,2128.768,5.43689839105355E-06,44.9999771118164,4.93685092806118E-06,-2.96598841487139E-06,1.43102943184203E-06,6.87180886416172E-07,0,0,0,0
45.73998,-2.66223764419556,1.90784192085266,2.10699963569641,-2.66223955154419,1.90784227848053,2.10699987411499,2128.774,2128.772,2128.767,2128.769,6.32241926723509E-06,44.9999771118164,6.03830812906381E-06,-2.97183555630909E-06,1.44564751280996E-06,6.78391245401144E-07,0,0,0,0
45.75998,-2.66223764419556,1.90784192085266,2.10699963569641,-2.66223955154419,1.90784227848053,2.10699987411499,2128.774,2128.771,2128.766,2128.769,7.34928335077711E-06,44.9999771118164,6.71573252475355E-06,-2.97768269774679E-06,1.46026548009104E-06,6.7399645331534E-07,0,0,0,0
45.77998,-2.66223764419556,1.90784192085266,2.10699963569641,-2.66223955154419,1.90784227848053,2.10699987411499,2128.774,2128.772,2128.766,2128.769,7.85788415669231E-06,44.9999771118164,6.68643406243064E-06,-2.96598818749771E-06,1.45149465424765E-06,6.91575678501977E-07,0,0,0,0
45.79998,-2.66223764419556,1.90784192085266,2.10699963569641,-2.66223955154419,1.90784227848053,2.10699987411499,2128.774,2128.772,2128.766,2128.768,7.94245170254726E-06,44.9999771118164,6.1388741414703E-06,-2.95429367724864E-06,1.44272382840427E-06,7.09154903688614E-07,0,0,0,0
45.81998,-2.66223764419556,1.90784192085266,2.10699963569641,-2.66223955154419,1.90784227848053,2.10699987411499,2128.774,2128.773,2128.767,2128.768,7.55587097955868E-06,44.9999771118164,5.40285373062943E-06,-2.94259916699957E-06,1.43395300256088E-06,7.39918561976083E-07,0,0,0,0
45.83998,-2.66223764419556,1.90784192085266,2.10699963569641,-2.66223955154419,1.90784227848053,2.10699987411499,2128.773,2128.773,2128.767,2128.767,7.31063573766733E-06,44.9999771118164,4.99663747177692E-06,-2.9309046567505E-06,1.4251821767175E-06,7.5749778716272E-07,0,0,0,0
45.85999,-2.66223764419556,1.90784192085266,2.10699963569641,-2.66223955154419,1.90784227848053,2.10699987411499,2128.773,2128.773,2128.767,2128.768,7.53654649088276E-06,44.9999771118164,5.15579768034513E-06,-2.91921014650143E-06,1.41641135087411E-06,7.44313354061887E-07,0,0,0,0
45.87998,-2.66223764419556,1.90784192085266,2.10699963569641,-2.66223955154419,1.90784227848053,2.10699987411499,2128.774,2128.772,2128.766,2128.768,8.23360733193113E-06,44.9999771118164,5.69187841392704E-06,-2.90751563625236E-06,1.40764052503073E-06,7.39918561976083E-07,0,0,0,0
45.89998,-2.66223764419556,1.90784192085266,2.10699963569641,-2.66223955154419,1.90784227848053,2.10699987411499,2128.774,2128.772,2128.766,2128.768,8.78932587511372E-06,44.9999771118164,6.36930235486943E-06,-2.89582112600328E-06,1.39886969918734E-06,7.35523769890278E-07,0,0,0,0
45.91998,-2.66223764419556,1.90784192085266,2.10699963569641,-2.66223955154419,1.90784227848053,2.10699987411499,2128.774,2128.772,2128.766,2128.768,8.77966249390738E-06,44.9999771118164,6.66980713504017E-06,-2.87827947431651E-06,1.39009887334396E-06,7.53102995076915E-07,0,0,0,0
45.93998,-2.66223764419556,1.90784192085266,2.10699963569641,-2.66223955154419,1.90784227848053,2.10699987411499,2128.774,2128.773,2128.766,2128.767,8.25173901830567E-06,44.9999771118164,6.64050958221196E-06,-2.86073782262974E-06,1.38132804750057E-06,7.75077069192776E-07,0,0,0,0
45.95998,-2.66223764419556,1.90784192085266,2.10699963569641,-2.66223955154419,1.90784227848053,2.10699987411499,2128.773,2128.772,2128.767,2128.769,7.25266636436572E-06,44.9999771118164,7.55350811232347E-06,-2.84904353975435E-06,1.37255722165719E-06,7.88261502293608E-07,0,0,0,0
45.97998,-2.66223764419556,1.90784192085266,2.10699963569641,-2.66223955154419,1.90784227848053,2.10699987411499,2128.773,2128.772,2128.767,2128.769,6.8189701778465E-06,44.9999771118164,7.99535882833879E-06,-2.86658519144112E-06,1.35209199925157E-06,7.92656294379412E-07,0,0,0,0
45.99998,-2.66223764419556,1.90784192085266,2.10699963569641,-2.66223955154419,1.90784227848053,2.10699987411499,2128.772,2128.772,2128.768,2128.768,7.09199912307668E-06,44.9999771118164,7.91894581197994E-06,-2.88412684312789E-06,1.33162677684595E-06,7.7947186127858E-07,0,0,0,0
46.01999,-2.66223764419556,1.90784192085266,2.10699963569641,-2.66223955154419,1.90784227848053,2.10699987411499,2128.775,2128.772,2128.765,2128.768,9.29673205973813E-06,44.9999771118164,7.41849862606614E-06,-2.90166849481466E-06,1.31116155444033E-06,7.88261502293608E-07,0,0,0,0
46.03998,-2.66223764419556,1.90784192085266,2.10699963569641,-2.66223955154419,1.90784227848053,2.10699987411499,2128.775,2128.773,2128.765,2128.767,1.05120552689186E-05,44.9999771118164,6.8709368861164E-06,-2.86073805000342E-06,1.34039760268934E-06,7.70682277106971E-07,0,0,0,0
46.05998,-2.66223764419556,1.90784192085266,2.10699963569641,-2.66223955154419,1.90784227848053,2.10699987411499,2128.778,2128.773,2128.762,2128.767,1.05495109892217E-05,44.9999771118164,7.03009845892666E-06,-2.83734925687895E-06,1.33162677684595E-06,7.53103051920334E-07,0,0,0,0
46.07998,-2.66223764419556,1.90784192085266,2.10699963569641,-2.66223955154419,1.90784227848053,2.10699987411499,2128.772,2128.772,2128.768,2128.768,7.14758016329142E-06,44.9999771118164,8.36712933960371E-06,-2.81396069112816E-06,1.32285583731573E-06,7.39918618819502E-07,0,0,0,0
46.09998,-2.66223764419556,1.90784192085266,2.10699963569641,-2.66223955154419,1.90784227848053,2.10699987411499,2128.771,2128.771,2128.769,2128.769,5.48890011486947E-06,44.9999771118164,9.28012923395727E-06,-2.83150234281493E-06,1.30239061491011E-06,7.4870825983453E-07,0,0,0,0
46.11998,-2.66223764419556,1.90784192085266,2.10699963569641,-2.66223955154419,1.90784227848053,2.10699987411499,2128.772,2128.772,2128.768,2128.769,6.09172957410919E-06,44.9999771118164,9.53351991483942E-06,-2.84904376712802E-06,1.28192539250449E-06,7.4870825983453E-07,0,0,0,0
46.13998,-2.66223764419556,1.90784192085266,2.10699963569641,-2.66223955154419,1.90784227848053,2.10699987411499,2128.774,2128.772,2128.766,2128.768,7.87242879596306E-06,44.9999771118164,9.36287688091397E-06,-2.86658541881479E-06,1.26146017009887E-06,7.57497900849557E-07,0,0,0,0
46.15998,-2.66223764419556,1.90784192085266,2.10699963569641,-2.66223955154419,1.90784227848053,2.10699987411499,2128.773,2128.773,2128.767,2128.768,8.75794830790255E-06,44.9999771118164,8.76820013218094E-06,-2.86658541881479E-06,1.31116144075349E-06,7.26734242562088E-07,0,0,0,0
46.17999,-2.66223764419556,1.90784192085266,2.10699963569641,-2.66223955154419,1.90784227848053,2.10699987411499,2128.778,2128.771,2128.763,2128.77,9.54923871177016E-06,44.9999771118164,8.36198341858108E-06,-2.86658541881479E-06,1.36086271140812E-06,7.00365376360423E-07,0,0,0,0
46.19999,-2.66223764419556,1.90784192085266,2.10699963569641,-2.66223955154419,1.90784227848053,2.10699987411499,2128.775,2128.772,2128.765,2128.769,6.47711249257554E-06,44.9999771118164,6.259635938477E-06,-2.86658541881479E-06,1.41056375468906E-06,6.69601718072954E-07,0,0,0,0
46.21998,-2.66223764419556,1.90784192085266,2.10699963569641,-2.66223955154419,1.90784227848053,2.10699987411499,2128.771,2128.775,2128.77,2128.765,2.41557472691056E-06,44.9999771118164,3.6390251807461E-06,-2.87243256025249E-06,1.42518172197015E-06,6.56417284972122E-07,0,0,0,0
46.23998,-2.66223764419556,1.90784192085266,2.10699963569641,-2.66223955154419,1.90784227848053,2.10699987411499,2128.771,2128.774,2128.77,2128.766,1.41650127716275E-06,44.9999771118164,3.7039574181108E-06,-2.85489090856572E-06,1.39009864597028E-06,7.09155017375451E-07,0,0,0,0
46.25998,-2.66223764419556,1.90784192085266,2.10699963569641,-2.66223955154419,1.90784227848053,2.10699987411499,2128.773,2128.772,2128.767,2128.768,3.15008855977794E-06,44.9999771118164,5.84194003749872E-06,-2.84904376712802E-06,1.34624474412703E-06,7.39918675662921E-07,0,0,0,0
46.27998,-2.66223764419556,1.90784192085266,2.10699963569641,-2.66223955154419,1.90784227848053,2.10699987411499,2128.775,2128.771,2128.766,2128.769,5.54328107682522E-06,44.9999771118164,8.35684113553725E-06,-2.84904376712802E-06,1.33747391828365E-06,7.13549809461256E-07,0,0,0,0
46.29998,-2.66223764419556,1.90784192085266,2.10699963569641,-2.66223955154419,1.90784227848053,2.10699987411499,2128.775,2128.771,2128.765,2128.77,7.08840843799408E-06,44.9999771118164,9.74098747974494E-06,-2.86658541881479E-06,1.31700858219119E-06,7.1794460154706E-07,0,0,0,0
46.31998,-2.66223764419556,1.90784192085266,2.10699963569641,-2.66223955154419,1.90784227848053,2.10699987411499,2128.775,2128.771,2128.766,2128.769,6.70182816975284E-06,44.9999771118164,9.19342619454255E-06,-2.86658541881479E-06,1.33162643578544E-06,7.22339393632865E-07,0,0,0,0
46.33998,-2.66223764419556,1.90784192085266,2.10699963569641,-2.66223955154419,1.90784227848053,2.10699987411499,2128.773,2128.773,2128.767,2128.768,5.46717910765437E-06,44.9999771118164,7.79779929871438E-06,-2.88412707050156E-06,1.31116109969298E-06,7.22339393632865E-07,0,0,0,0
46.35999,-2.66223764419556,1.90784192085266,2.10699963569641,-2.66223955154419,1.90784227848053,2.10699987411499,2128.773,2128.773,2128.767,2128.767,4.75079423267744E-06,44.9999771118164,6.73197610012721E-06,-2.90166872218833E-06,1.29069587728736E-06,7.22339393632865E-07,0,0,0,0
46.37998,-2.66223764419556,1.90784192085266,2.10699963569641,-2.66223955154419,1.90784227848053,2.10699987411499,2128.771,2128.773,2128.769,2128.767,4.78824586025439E-06,44.9999771118164,6.60844807498506E-06,-2.9133632324374E-06,1.28192516513082E-06,7.61892692935362E-07,0,0,0,0
46.39998,-2.66223764419556,1.90784192085266,2.10699963569641,-2.66223955154419,1.90784227848053,2.10699987411499,2128.774,2128.772,2128.766,2128.768,6.75740602673613E-06,44.9999771118164,7.56856070438516E-06,-2.9250575153128E-06,1.27315445297427E-06,8.01445992237859E-07,0,0,0,0
46.41998,-2.66223764419556,1.90784192085266,2.10699963569641,-2.66223955154419,1.90784227848053,2.10699987411499,2128.775,2128.771,2128.765,2128.769,8.01984515419463E-06,44.9999771118164,8.67001836013515E-06,-2.94259916699957E-06,1.25268923056865E-06,8.10235633252887E-07,0,0,0,0
46.43998,-2.66223764419556,1.90784192085266,2.10699963569641,-2.66223955154419,1.90784227848053,2.10699987411499,2128.773,2128.771,2128.767,2128.769,7.915950845927E-06,44.9999771118164,8.78206628840417E-06,-2.94259916699957E-06,1.26730719784973E-06,7.9265640806625E-07,0,0,0,0
46.45998,-2.66223764419556,1.90784192085266,2.10699963569641,-2.66223955154419,1.90784227848053,2.10699987411499,2128.775,2128.771,2128.765,2128.769,8.09474749985384E-06,44.9999771118164,7.85758584243013E-06,-2.94259916699957E-06,1.28192516513082E-06,7.61892749778781E-07,0,0,0,0
46.47998,-2.66223764419556,1.90784192085266,2.10699963569641,-2.66223955154419,1.90784227848053,2.10699987411499,2128.773,2128.773,2128.767,2128.767,6.76586978443083E-06,44.9999771118164,5.89658156968653E-06,-2.94259916699957E-06,1.2965431324119E-06,7.39918675662921E-07,0,0,0,0
46.49998,-2.66223764419556,1.90784192085266,2.10699963569641,-2.66223955154419,1.90784227848053,2.10699987411499,2128.773,2128.774,2128.768,2128.767,5.95525489188731E-06,44.9999771118164,5.01921795148519E-06,-2.94844630843727E-06,1.31116121337982E-06,7.31129034647893E-07,0,0,0,0
46.51999,-2.66223764419556,1.90784192085266,2.10699963569641,-2.66223955154419,1.90784227848053,2.10699987411499,2128.773,2128.773,2128.767,2128.767,6.0869369917782E-06,44.9999771118164,5.5552977755724E-06,-2.95429344987497E-06,1.32577929434774E-06,7.26734242562088E-07,0,0,0,0
46.53998,-2.66223764419556,1.90784192085266,2.10699963569641,-2.66223955154419,1.90784227848053,2.10699987411499,2128.774,2128.772,2128.767,2128.768,7.01957151250099E-06,44.9999771118164,6.8923291109968E-06,-2.96014059131267E-06,1.34039737531566E-06,6.91575735345396E-07,0,0,0,0
46.55998,-2.66223764419556,1.90784192085266,2.10699963569641,-2.66223955154419,1.90784227848053,2.10699987411499,2128.774,2128.771,2128.766,2128.769,8.14066606835695E-06,44.9999771118164,7.8524435593863E-06,-2.97768224299944E-06,1.31993215291004E-06,7.00365376360423E-07,0,0,0,0
46.57998,-2.66223764419556,1.90784192085266,2.10699963569641,-2.66223955154419,1.90784227848053,2.10699987411499,2128.773,2128.772,2128.767,2128.769,8.50792093842756E-06,44.9999771118164,7.68180052546086E-06,-2.97768224299944E-06,1.33455012019112E-06,6.82786151173786E-07,0,0,0,0
46.59998,-2.66223764419556,1.90784192085266,2.10699963569641,-2.66223955154419,1.90784227848053,2.10699987411499,2128.775,2128.772,2128.765,2128.768,9.11075221665669E-06,44.9999771118164,6.61597732687369E-06,-2.97768224299944E-06,1.34916808747221E-06,6.60812077057926E-07,0,0,0,0
46.61998,-2.66223764419556,1.90784192085266,2.10699963569641,-2.66223955154419,1.90784227848053,2.10699987411499,2128.774,2128.773,2128.766,2128.767,8.62993965711212E-06,44.9999771118164,5.78572735321359E-06,-2.96014059131267E-06,1.34039726162882E-06,6.52022436042898E-07,0,0,0,0
46.63998,-2.66223764419556,1.90784192085266,2.10699963569641,-2.66223955154419,1.90784227848053,2.10699987411499,2128.774,2128.774,2128.767,2128.767,7.67797882872401E-06,44.9999771118164,5.80354435442132E-06,-2.94844630843727E-06,1.33162643578544E-06,6.78391302244563E-07,0,0,0,0
46.65998,-2.66223764419556,1.90784192085266,2.10699963569641,-2.66223955154419,1.90784227848053,2.10699987411499,2128.773,2128.772,2128.767,2128.769,6.96159668223117E-06,44.9999771118164,7.28192208043765E-06,-2.93675202556187E-06,1.32285572362889E-06,7.04760168446228E-07,0,0,0,0
46.67999,-2.66223764419556,1.90784192085266,2.10699963569641,-2.66223955154419,1.90784227848053,2.10699987411499,2128.773,2128.771,2128.767,2128.769,7.18750743544661E-06,44.9999771118164,8.2891501733684E-06,-2.95429367724864E-06,1.30239050122327E-06,7.00365376360423E-07,0,0,0,0
46.69998,-2.66223764419556,1.90784192085266,2.10699963569641,-2.66223955154419,1.90784227848053,2.10699987411499,2128.774,2128.772,2128.767,2128.769,7.93168328527827E-06,44.9999771118164,8.4954263002146E-06,-2.97183532893541E-06,1.28192527881765E-06,6.95970584274619E-07,0,0,0,0
46.71998,-2.66223764419556,1.90784192085266,2.10699963569641,-2.66223955154419,1.90784227848053,2.10699987411499,2128.774,2128.772,2128.766,2128.768,8.29893815534888E-06,44.9999771118164,7.75940588937374E-06,-2.97183532893541E-06,1.29654324609874E-06,6.91575792188814E-07,0,0,0,0
46.73998,-2.66223764419556,1.90784192085266,2.10699963569641,-2.66223955154419,1.90784227848053,2.10699987411499,2128.774,2128.773,2128.766,2128.768,7.81812832428841E-06,44.9999771118164,6.36378081253497E-06,-2.97183532893541E-06,1.31116121337982E-06,6.82786151173786E-07,0,0,0,0
46.75998,-2.66223764419556,1.90784192085266,2.10699963569641,-2.66223955154419,1.90784227848053,2.10699987411499,2128.773,2128.773,2128.767,2128.767,7.1959711931413E-06,44.9999771118164,5.58064584765816E-06,-2.96014081868634E-06,1.30239038753643E-06,6.91575792188814E-07,0,0,0,0
46.77998,-2.66223764419556,1.90784192085266,2.10699963569641,-2.66223955154419,1.90784227848053,2.10699987411499,2128.773,2128.773,2128.767,2128.767,7.23342463970766E-06,44.9999771118164,5.73980742046842E-06,-2.94844630843727E-06,1.29361967537989E-06,6.91575792188814E-07,0,0,0,0
46.79998,-2.66223764419556,1.90784192085266,2.10699963569641,-2.66223955154419,1.90784227848053,2.10699987411499,2128.774,2128.772,2128.767,2128.768,7.97760003479198E-06,44.9999771118164,6.60569048704929E-06,-2.9367517981882E-06,1.28484896322334E-06,7.00365433203842E-07,0,0,0,0
46.81998,-2.66223764419556,1.90784192085266,2.10699963569641,-2.66223955154419,1.90784227848053,2.10699987411499,2128.774,2128.773,2128.766,2128.768,9.0044622993446E-06,44.9999771118164,7.75426269683521E-06,-2.92505728793913E-06,1.27607813737995E-06,7.0915507421887E-07,0,0,0,0
46.83998,-2.66223764419556,1.90784192085266,2.10699963569641,-2.66223955154419,1.90784227848053,2.10699987411499,2128.774,2128.771,2128.766,2128.769,9.04191620065831E-06,44.9999771118164,8.94995082489913E-06,-2.92505728793913E-06,1.29069610466104E-06,6.95970641118038E-07,0,0,0,0
46.85998,-2.66223764419556,1.90784192085266,2.10699963569641,-2.66223955154419,1.90784227848053,2.10699987411499,2128.774,2128.771,2128.767,2128.769,7.94861261965707E-06,44.9999771118164,8.73219596542185E-06,-2.92505728793913E-06,1.34039737531566E-06,6.69601774916373E-07,0,0,0,0
46.87998,-2.66223764419556,1.90784192085266,2.10699963569641,-2.66223955154419,1.90784227848053,2.10699987411499,2128.775,2128.77,2128.765,2128.77,6.43127623334294E-06,44.9999771118164,7.5250277404848E-06,-2.92505728793913E-06,1.35501534259674E-06,6.65206982830568E-07,0,0,0,0
46.89998,-2.66223764419556,1.90784192085266,2.10699963569641,-2.66223955154419,1.90784227848053,2.10699987411499,2128.771,2128.774,2128.769,2128.766,3.87741329177516E-06,44.9999771118164,4.5274982767296E-06,-2.9425989396259E-06,1.33455000650429E-06,6.65206982830568E-07,0,0,0,0
46.91998,-2.66223764419556,1.90784192085266,2.10699963569641,-2.66223955154419,1.90784227848053,2.10699987411499,2128.772,2128.775,2128.769,2128.766,3.4437173326296E-06,44.9999771118164,3.46167462339508E-06,-2.94844608106359E-06,1.34916820115905E-06,6.43232908714708E-07,0,0,0,0
46.93998,-2.66223764419556,1.90784192085266,2.10699963569641,-2.66223955154419,1.90784227848053,2.10699987411499,2128.773,2128.773,2128.767,2128.767,5.03595947520807E-06,44.9999771118164,4.61024728792836E-06,-2.95429322250129E-06,1.3637863958138E-06,6.38838116628904E-07,0,0,0,0
46.95998,-2.66223764419556,1.90784192085266,2.10699963569641,-2.66223955154419,1.90784227848053,2.10699987411499,2128.775,2128.772,2128.766,2128.769,7.24069468560629E-06,44.9999771118164,6.7482305894373E-06,-2.96014036393899E-06,1.37840447678172E-06,6.38838116628904E-07,0,0,0,0
46.97998,-2.66223764419556,1.90784192085266,2.10699963569641,-2.66223955154419,1.90784227848053,2.10699987411499,2128.775,2128.771,2128.765,2128.77,8.64447883941466E-06,44.9999771118164,8.27372150524752E-06,-3.00107080875023E-06,1.35793914068927E-06,6.56417341815541E-07,0,0,0,0
46.99998,-2.66223764419556,1.90784192085266,2.10699963569641,-2.66223955154419,1.90784227848053,2.10699987411499,2128.772,2128.77,2128.768,2128.77,8.30501267046202E-06,44.9999771118164,8.05596664577024E-06,-3.00107080875023E-06,1.37255699428351E-06,6.60812133901345E-07,0,0,0,0
47.01999,-2.66223764419556,1.90784192085266,2.10699963569641,-2.66223955154419,1.90784227848053,2.10699987411499,2128.775,2128.773,2128.765,2128.768,9.19052945391741E-06,44.9999771118164,5.57669773115776E-06,-3.00107058137655E-06,1.3871749615646E-06,6.60812133901345E-07,0,0,0,0
47.03998,-2.66223764419556,1.90784192085266,2.10699963569641,-2.66223955154419,1.90784227848053,2.10699987411499,2128.774,2128.774,2128.766,2128.766,9.08663696463918E-06,44.9999771118164,3.70992324860708E-06,-2.98352892968978E-06,1.37840413572121E-06,6.6520692598715E-07,0,0,0,0
47.05998,-2.66223764419556,1.90784192085266,2.10699963569641,-2.66223955154419,1.90784227848053,2.10699987411499,2128.774,2128.774,2128.767,2128.767,8.51159711601213E-06,44.9999771118164,3.53928066942899E-06,-2.97183464681439E-06,1.36963330987783E-06,6.82786151173786E-07,0,0,0,0
47.07998,-2.66223764419556,1.90784192085266,2.10699963569641,-2.66223955154419,1.90784227848053,2.10699987411499,2128.773,2128.773,2128.767,2128.768,8.12501730251824E-06,44.9999771118164,4.78208403364988E-06,-2.96014036393899E-06,1.36086259772128E-06,6.91575792188814E-07,0,0,0,0
47.09998,-2.66223764419556,1.90784192085266,2.10699963569641,-2.66223955154419,1.90784227848053,2.10699987411499,2128.773,2128.771,2128.767,2128.769,8.30381395644508E-06,44.9999771118164,6.3075749494601E-06,-2.94844585368992E-06,1.35209177187789E-06,6.95970584274619E-07,0,0,0,0
47.11998,-2.66223764419556,1.90784192085266,2.10699963569641,-2.66223955154419,1.90784227848053,2.10699987411499,2128.774,2128.771,2128.767,2128.769,9.14221982384333E-06,44.9999771118164,7.26768848835491E-06,-2.93675134344085E-06,1.34332094603451E-06,6.91575792188814E-07,0,0,0,0
47.13998,-2.66223764419556,1.90784192085266,2.10699963569641,-2.66223955154419,1.90784227848053,2.10699987411499,2128.774,2128.772,2128.766,2128.769,1.01219684438547E-05,44.9999771118164,7.42685051591252E-06,-2.89582089862961E-06,1.37255699428351E-06,6.69601718072954E-07,0,0,0,0
47.15998,-2.66223764419556,1.90784192085266,2.10699963569641,-2.66223955154419,1.90784227848053,2.10699987411499,2128.778,2128.773,2128.763,2128.768,1.07719124571304E-05,44.9999771118164,7.0677474468539E-06,-2.85489045381837E-06,1.37840413572121E-06,6.60812077057926E-07,0,0,0,0
47.17999,-2.66223764419556,1.90784192085266,2.10699963569641,-2.66223955154419,1.90784227848053,2.10699987411499,2128.773,2128.772,2128.768,2128.768,8.17093769001076E-06,44.9999771118164,7.22691174814827E-06,-2.8315016606939E-06,1.36963319619099E-06,6.65206869143731E-07,0,0,0,0
47.19998,-2.66223764419556,1.90784192085266,2.10699963569641,-2.66223955154419,1.90784227848053,2.10699987411499,2128.772,2128.772,2128.768,2128.768,6.04110800850322E-06,44.9999771118164,7.10338508724817E-06,-2.8315016606939E-06,1.38425127715891E-06,6.60812077057926E-07,0,0,0,0
47.21998,-2.66223764419556,1.90784192085266,2.10699963569641,-2.66223955154419,1.90784227848053,2.10699987411499,2128.772,2128.772,2128.768,2128.768,5.60741136723664E-06,44.9999771118164,7.07408844391466E-06,-2.84904331238067E-06,1.36378605475329E-06,6.69601718072954E-07,0,0,0,0
47.23998,-2.66223764419556,1.90784192085266,2.10699963569641,-2.66223955154419,1.90784227848053,2.10699987411499,2128.773,2128.772,2128.767,2128.768,6.6813909143093E-06,44.9999771118164,7.32747957954416E-06,-2.86658496406744E-06,1.34332083234767E-06,6.95970584274619E-07,0,0,0,0
47.25998,-2.66223764419556,1.90784192085266,2.10699963569641,-2.66223955154419,1.90784227848053,2.10699987411499,2128.774,2128.772,2128.766,2128.768,8.27363237476675E-06,44.9999771118164,7.81644394010073E-06,-2.88412661575421E-06,1.32285560994205E-06,7.00365376360423E-07,0,0,0,0
47.27998,-2.66223764419556,1.90784192085266,2.10699963569641,-2.66223955154419,1.90784227848053,2.10699987411499,2128.775,2128.772,2128.765,2128.768,8.64088997332146E-06,44.9999771118164,7.64580181566998E-06,-2.88412661575421E-06,1.33747357722314E-06,6.73996510158759E-07,0,0,0,0
47.29998,-2.66223764419556,1.90784192085266,2.10699963569641,-2.66223955154419,1.90784227848053,2.10699987411499,2128.774,2128.773,2128.766,2128.768,7.59469958211412E-06,44.9999771118164,6.81555275150458E-06,-2.88412661575421E-06,1.35209154450422E-06,6.65206869143731E-07,0,0,0,0
47.31998,-2.66223764419556,1.90784192085266,2.10699963569641,-2.66223955154419,1.90784227848053,2.10699987411499,2128.773,2128.773,2128.767,2128.767,6.26582277618581E-06,44.9999771118164,6.36222148386878E-06,-2.87243210550514E-06,1.34332071866083E-06,6.69601661229535E-07,0,0,0,0
47.33998,-2.66223764419556,1.90784192085266,2.10699963569641,-2.66223955154419,1.90784227848053,2.10699987411499,2128.773,2128.773,2128.768,2128.768,5.50232380192028E-06,44.9999771118164,6.56849897495704E-06,-2.88412661575421E-06,1.33454989281745E-06,7.04760168446228E-07,0,0,0,0
47.35998,-2.66223764419556,1.90784192085266,2.10699963569641,-2.66223955154419,1.90784227848053,2.10699987411499,2128.773,2128.772,2128.767,2128.768,5.53977588424459E-06,44.9999771118164,7.38726839699666E-06,-2.89582112600328E-06,1.3257791806609E-06,7.4870825983453E-07,0,0,0,0
47.37998,-2.66223764419556,1.90784192085266,2.10699963569641,-2.66223955154419,1.90784227848053,2.10699987411499,2128.774,2128.772,2128.767,2128.769,6.23683581579826E-06,44.9999771118164,8.20603781903628E-06,-2.91336277769005E-06,1.30531395825528E-06,7.53103051920334E-07,0,0,0,0
47.39998,-2.66223764419556,1.90784192085266,2.10699963569641,-2.66223955154419,1.90784227848053,2.10699987411499,2128.774,2128.772,2128.766,2128.769,7.21658625479904E-06,44.9999771118164,8.55365942697972E-06,-2.93090442937682E-06,1.28484873584966E-06,7.53103051920334E-07,0,0,0,0
47.41998,-2.66223764419556,1.90784192085266,2.10699963569641,-2.66223955154419,1.90784227848053,2.10699987411499,2128.774,2128.772,2128.766,2128.768,7.91364527685801E-06,44.9999771118164,8.52436187415151E-06,-2.94844608106359E-06,1.26438351344405E-06,7.57497844006139E-07,0,0,0,0
47.43998,-2.66223764419556,1.90784192085266,2.10699963569641,-2.66223955154419,1.90784227848053,2.10699987411499,2128.774,2128.772,2128.766,2128.768,7.62129366194131E-06,44.9999771118164,7.78834237280535E-06,-2.94844608106359E-06,1.27900148072513E-06,7.44313410905306E-07,0,0,0,0
47.45998,-2.66223764419556,1.90784192085266,2.10699963569641,-2.66223955154419,1.90784227848053,2.10699987411499,2128.773,2128.773,2128.767,2128.767,6.99913880453096E-06,44.9999771118164,7.19366607881966E-06,-2.96598773275036E-06,1.25853625831951E-06,7.39918618819502E-07,0,0,0,0
47.47998,-2.66223764419556,1.90784192085266,2.10699963569641,-2.66223955154419,1.90784227848053,2.10699987411499,2128.771,2128.773,2128.769,2128.767,6.89524540575803E-06,44.9999771118164,7.11725624569226E-06,-2.98352938443713E-06,1.23807103591389E-06,7.31128977804474E-07,0,0,0,0
47.49998,-2.66223764419556,1.90784192085266,2.10699963569641,-2.66223955154419,1.90784227848053,2.10699987411499,2128.774,2128.772,2128.766,2128.768,8.81729010870913E-06,44.9999771118164,7.55910605221288E-06,-3.0010710361239E-06,1.21760592719511E-06,7.17944544703641E-07,0,0,0,0
47.51998,-2.66223764419556,1.90784192085266,2.10699963569641,-2.66223955154419,1.90784227848053,2.10699987411499,2128.775,2128.772,2128.765,2128.768,9.74992508417927E-06,44.9999771118164,7.6711530709872E-06,-3.0010710361239E-06,1.23222389447619E-06,7.04760111602809E-07,0,0,0,0
47.53998,-2.66223764419556,1.90784192085266,2.10699963569641,-2.66223955154419,1.90784227848053,2.10699987411499,2128.774,2128.772,2128.766,2128.768,9.69314532994758E-06,44.9999771118164,7.5476264100871E-06,-2.96014059131267E-06,1.23807103591389E-06,6.95970470587781E-07,0,0,0,0
47.55998,-2.66223764419556,1.90784192085266,2.10699963569641,-2.66223955154419,1.90784227848053,2.10699987411499,2128.776,2128.774,2128.765,2128.767,9.21233549888711E-06,44.9999771118164,7.18852425052319E-06,-2.91921014650143E-06,1.24391817735159E-06,6.87180829572753E-07,0,0,0,0
47.57998,-2.66223764419556,1.90784192085266,2.10699963569641,-2.66223955154419,1.90784227848053,2.10699987411499,2128.772,2128.772,2128.768,2128.769,7.17673674444086E-06,44.9999771118164,8.28998327051522E-06,-2.87827970169019E-06,1.27315422560059E-06,6.91575621658558E-07,0,0,0,0
47.59998,-2.66223764419556,1.90784192085266,2.10699963569641,-2.66223955154419,1.90784227848053,2.10699987411499,2128.775,2128.772,2128.765,2128.768,6.88438558427151E-06,44.9999771118164,8.96740766620496E-06,-2.89582135337696E-06,1.25268900319497E-06,7.00365262673586E-07,0,0,0,0
47.61998,-2.66223764419556,1.90784192085266,2.10699963569641,-2.66223955154419,1.90784227848053,2.10699987411499,2128.77,2128.772,2128.77,2128.769,5.6497387959098E-06,44.9999771118164,9.36214473767905E-06,-2.91336300506373E-06,1.23222366710252E-06,7.09154903688614E-07,0,0,0,0
47.63998,-2.66223764419556,1.90784192085266,2.10699963569641,-2.66223955154419,1.90784227848053,2.10699987411499,2128.774,2128.772,2128.767,2128.768,7.76024262449937E-06,44.9999771118164,9.33284718485083E-06,-2.93090442937682E-06,1.21175855838374E-06,7.17944544703641E-07,0,0,0,0
47.65998,-2.66223764419556,1.90784192085266,2.10699963569641,-2.66223955154419,1.90784227848053,2.10699987411499,2128.775,2128.772,2128.765,2128.768,9.4467131930287E-06,44.9999771118164,8.87951409822563E-06,-2.93090442937682E-06,1.26145982903836E-06,6.87180886416172E-07,0,0,0,0
47.67998,-2.66223764419556,1.90784192085266,2.10699963569641,-2.66223955154419,1.90784227848053,2.10699987411499,2128.777,2128.771,2128.763,2128.77,9.53128164837835E-06,44.9999771118164,8.14349550637417E-06,-2.93090442937682E-06,1.31116109969298E-06,6.60812020214507E-07,0,0,0,0
47.69998,-2.66223764419556,1.90784192085266,2.10699963569641,-2.66223955154419,1.90784227848053,2.10699987411499,2128.775,2128.772,2128.766,2128.768,6.27069493930321E-06,44.9999771118164,5.66422932024579E-06,-2.93090442937682E-06,1.36086225666077E-06,6.2125872091201E-07,0,0,0,0
47.71998,-2.66223764419556,1.90784192085266,2.10699963569641,-2.66223955154419,1.90784227848053,2.10699987411499,2128.772,2128.773,2128.768,2128.767,2.06781282940938E-06,44.9999771118164,2.99650469059998E-06,-2.93675157081452E-06,1.37548022394185E-06,6.12469079896982E-07,0,0,0,0
47.73998,-2.66223764419556,1.90784192085266,2.10699963569641,-2.66223955154419,1.90784227848053,2.10699987411499,2128.77,2128.775,2128.771,2128.766,-3.91820066170112E-07,44.9999771118164,1.22396079405007E-06,-2.93090442937682E-06,1.33162620841176E-06,6.25653512997815E-07,0,0,0,0
47.75998,-2.66223764419556,1.90784192085266,2.10699963569641,-2.66223955154419,1.90784227848053,2.10699987411499,2128.77,2128.777,2128.771,2128.764,9.64848823059583E-07,44.9999771118164,1.85427097676438E-06,-2.93090442937682E-06,1.32285560994205E-06,6.25653512997815E-07,0,0,0,0
47.77998,-2.66223764419556,1.90784192085266,2.10699963569641,-2.66223955154419,1.90784227848053,2.10699987411499,2128.775,2128.771,2128.765,2128.77,5.76089996684459E-06,44.9999771118164,6.48933882985148E-06,-2.93090442937682E-06,1.31408512515918E-06,6.38837946098647E-07,0,0,0,0
47.79998,-2.66223764419556,1.90784192085266,2.10699963569641,-2.66223955154419,1.90784227848053,2.10699987411499,2128.777,2128.769,2128.763,2128.771,9.04927946976386E-06,44.9999771118164,1.00878824014217E-05,-2.9425989396259E-06,1.30531418562896E-06,6.82786037486949E-07,0,0,0,0
47.81998,-2.66223764419556,1.90784192085266,2.10699963569641,-2.66223955154419,1.90784227848053,2.10699987411499,2128.776,2128.77,2128.764,2128.771,9.03961608855752E-06,44.9999771118164,1.06710776890395E-05,-2.9425989396259E-06,1.35501522890991E-06,6.47627530270256E-07,0,0,0,0
47.83998,-2.66223764419556,1.90784192085266,2.10699963569641,-2.66223955154419,1.90784227848053,2.10699987411499,2128.774,2128.772,2128.767,2128.769,6.4386413214379E-06,44.9999771118164,8.38027244753903E-06,-2.9425989396259E-06,1.40471638587769E-06,6.21258664068591E-07,0,0,0,0
47.85998,-2.66223764419556,1.90784192085266,2.10699963569641,-2.66223955154419,1.90784227848053,2.10699987411499,2128.774,2128.772,2128.767,2128.769,3.97900794268935E-06,44.9999771118164,5.66543258173624E-06,-2.96014059131267E-06,1.38425116347207E-06,6.38837889255228E-07,0,0,0,0
47.87998,-2.66223764419556,1.90784192085266,2.10699963569641,-2.66223955154419,1.90784227848053,2.10699987411499,2128.769,2128.776,2128.771,2128.765,1.51937513237499E-06,44.9999771118164,2.66790448222309E-06,-2.96598773275036E-06,1.37548033762869E-06,6.56417114441865E-07,0,0,0,0
47.89998,-2.66223764419556,1.90784192085266,2.10699963569641,-2.66223955154419,1.90784227848053,2.10699987411499,2128.772,2128.775,2128.768,2128.766,3.44142131325498E-06,44.9999771118164,2.73283671958779E-06,-2.96014036393899E-06,1.33162654947228E-06,6.65206755456893E-07,0,0,0,0
47.91998,-2.66223764419556,1.90784192085266,2.10699963569641,-2.66223955154419,1.90784227848053,2.10699987411499,2128.774,2128.774,2128.767,2128.766,6.8240274231357E-06,44.9999771118164,4.917934347759E-06,-2.94259871225222E-06,1.36086271140812E-06,6.38837889255228E-07,0,0,0,0
47.93998,-2.66223764419556,1.90784192085266,2.10699963569641,-2.66223955154419,1.90784227848053,2.10699987411499,2128.779,2128.769,2128.761,2128.771,1.039509606926E-05,44.9999771118164,9.08185666048666E-06,-2.94844608106359E-06,1.37548079237604E-06,6.34443097169424E-07,0,0,0,0
47.95998,-2.66223764419556,1.90784192085266,2.10699963569641,-2.66223955154419,1.90784227848053,2.10699987411499,2128.776,2128.769,2128.765,2128.772,8.64218600327149E-06,44.9999771118164,1.00890865724068E-05,-2.94844608106359E-06,1.42518172197015E-06,6.03679438881954E-07,0,0,0,0
47.97998,-2.66223764419556,1.90784192085266,2.10699963569641,-2.66223955154419,1.90784227848053,2.10699987411499,2128.775,2128.77,2128.766,2128.771,4.91045193484752E-06,44.9999771118164,7.79828133090632E-06,-2.94844608106359E-06,1.47488287893793E-06,5.86100213695318E-07,0,0,0,0
47.99998,-2.66223764419556,1.90784192085266,2.10699963569641,-2.66223955154419,1.90784227848053,2.10699987411499,2128.772,2128.773,2128.769,2128.768,5.66225537568243E-07,44.9999771118164,3.38730842486257E-06,-2.96598773275036E-06,1.45441754284548E-06,6.16863871982787E-07,0,0,0,0
48.01998,-2.66223764419556,1.90784192085266,2.10699963569641,-2.66223955154419,1.90784227848053,2.10699987411499,2128.769,2128.777,2128.771,2128.764,-1.94052222468599E-06,44.9999771118164,-2.22712159825278E-07,-2.96014059131267E-06,1.41056352731539E-06,6.38837946098647E-07,0,0,0,0
48.03998,-2.66223764419556,1.90784192085266,2.10699963569641,-2.66223955154419,1.90784227848053,2.10699987411499,2128.772,2128.775,2128.769,2128.765,-1.59820046974346E-07,44.9999771118164,7.77948017116614E-08,-2.96014059131267E-06,1.40179304253252E-06,6.25653512997815E-07,0,0,0,0
48.05998,-2.66223764419556,1.90784192085266,2.10699963569641,-2.66223955154419,1.90784227848053,2.10699987411499,2128.775,2128.772,2128.766,2128.768,3.64682068720867E-06,44.9999771118164,2.96961616186309E-06,-2.96014059131267E-06,1.39302244406281E-06,6.16863871982787E-07,0,0,0,0
48.07998,-2.66223764419556,1.90784192085266,2.10699963569641,-2.66223955154419,1.90784227848053,2.10699987411499,2128.776,2128.771,2128.764,2128.77,6.51116397420992E-06,44.9999771118164,5.95566734773456E-06,-2.9425989396259E-06,1.42225849231181E-06,5.94889797866927E-07,0,0,0,0
48.09998,-2.66223764419556,1.90784192085266,2.10699963569641,-2.66223955154419,1.90784227848053,2.10699987411499,2128.776,2128.77,2128.765,2128.77,7.11399752617581E-06,44.9999771118164,7.24558594811242E-06,-2.94844608106359E-06,1.43687634590606E-06,5.94889797866927E-07,0,0,0,0
48.11998,-2.66223764419556,1.90784192085266,2.10699963569641,-2.66223955154419,1.90784227848053,2.10699987411499,2128.774,2128.771,2128.766,2128.769,6.02069576416397E-06,44.9999771118164,6.74514285492478E-06,-2.96598773275036E-06,1.4164110098136E-06,6.25653456154396E-07,0,0,0,0
48.13998,-2.66223764419556,1.90784192085266,2.10699963569641,-2.66223955154419,1.90784227848053,2.10699987411499,2128.773,2128.773,2128.767,2128.768,4.45624618805596E-06,44.9999771118164,5.67932238482172E-06,-2.97768224299944E-06,1.40764018397022E-06,6.73996396471921E-07,0,0,0,0
48.15998,-2.66223764419556,1.90784192085266,2.10699963569641,-2.66223955154419,1.90784227848053,2.10699987411499,2128.773,2128.773,2128.768,2128.767,3.59851810571854E-06,44.9999771118164,4.94330470246496E-06,-2.98352938443713E-06,1.39886935812683E-06,6.78391188557725E-07,0,0,0,0
48.17998,-2.66223764419556,1.90784192085266,2.10699963569641,-2.66223955154419,1.90784227848053,2.10699987411499,2128.773,2128.773,2128.767,2128.768,3.87154659620137E-06,44.9999771118164,5.14958355779527E-06,-2.98937652587483E-06,1.41348743909475E-06,6.69601547542698E-07,0,0,0,0
48.19998,-2.66223764419556,1.90784192085266,2.10699963569641,-2.66223955154419,1.90784227848053,2.10699987411499,2128.774,2128.772,2128.767,2128.768,4.8984124987328E-06,44.9999771118164,5.921239790041E-06,-2.99522366731253E-06,1.42810552006267E-06,6.47627473426837E-07,0,0,0,0
48.21998,-2.66223764419556,1.90784192085266,2.10699963569641,-2.66223955154419,1.90784227848053,2.10699987411499,2128.774,2128.772,2128.766,2128.769,6.11373707215535E-06,44.9999771118164,6.59866600472014E-06,-3.00107080875023E-06,1.41933469421929E-06,6.65206698613474E-07,0,0,0,0
48.23998,-2.66223764419556,1.90784192085266,2.10699963569641,-2.66223955154419,1.90784227848053,2.10699987411499,2128.775,2128.772,2128.766,2128.769,6.76368381391512E-06,44.9999771118164,6.71071438773652E-06,-3.0127653189993E-06,1.4105638683759E-06,7.09154790001776E-07,0,0,0,0
48.25998,-2.66223764419556,1.90784192085266,2.10699963569641,-2.66223955154419,1.90784227848053,2.10699987411499,2128.773,2128.772,2128.767,2128.768,6.6597931436263E-06,44.9999771118164,6.25738584858482E-06,-3.02445982924837E-06,1.40179304253252E-06,7.44313297218469E-07,0,0,0,0
48.27998,-2.66223764419556,1.90784192085266,2.10699963569641,-2.66223955154419,1.90784227848053,2.10699987411499,2128.773,2128.772,2128.767,2128.768,6.97993436915567E-06,44.9999771118164,5.66271228308324E-06,-3.03030697068607E-06,1.41641112350044E-06,7.39918505132664E-07,0,0,0,0
48.29998,-2.66223764419556,1.90784192085266,2.10699963569641,-2.66223955154419,1.90784227848053,2.10699987411499,2128.774,2128.773,2128.766,2128.768,7.86545660957927E-06,44.9999771118164,5.35072740603937E-06,-3.018612460437E-06,1.40764029765705E-06,7.44313297218469E-07,0,0,0,0
48.31998,-2.66223764419556,1.90784192085266,2.10699963569641,-2.66223955154419,1.90784227848053,2.10699987411499,2128.774,2128.772,2128.766,2128.768,8.27982785267523E-06,44.9999771118164,5.32143121745321E-06,-3.00691795018793E-06,1.39886947181367E-06,7.57497730319301E-07,0,0,0,0
48.33998,-2.66223764419556,1.90784192085266,2.10699963569641,-2.66223955154419,1.90784227848053,2.10699987411499,2128.774,2128.772,2128.766,2128.768,8.22305264591705E-06,44.9999771118164,5.48059506400023E-06,-2.99522343993885E-06,1.39009864597028E-06,7.75076955505938E-07,0,0,0,0
48.35998,-2.66223764419556,1.90784192085266,2.10699963569641,-2.66223955154419,1.90784227848053,2.10699987411499,2128.773,2128.772,2128.767,2128.768,8.02493195806164E-06,44.9999771118164,5.78110257265507E-06,-2.98352892968978E-06,1.3813278201269E-06,7.70682163420133E-07,0,0,0,0
