t,x_s1,x_s2,x_s3,x_s_d1,x_s_d2,x_s_d3,propellers_rpms1,propellers_rpms2,propellers_rpms3,propellers_rpms4,rollRad,pitchRad,yawRad,v_s1,v_s2,v_s3,v_s_d1,v_s_d2,v_s_d3,insideCount
0,-0.059999980032444,2.94000005722046,1.95999836921692,-0.059999980032444,2.94000005722046,1.95999836921692,2128.77,2128.774,2128.775,2128.771,4.19592561229365E-06,45.0000228881836,7.7244503700058E-06,5.342318587509E-08,-3.59584987563721E-07,2.72720512839442E-06,7.105427357601E-16,8.88178419700125E-16,0,7
0.0199999809265137,-0.059999980032444,2.94000005722046,1.95999836921692,-0.0600018503560348,2.93999923184782,1.95999905808623,2128.766,2128.764,2128.768,2128.769,7.02283114151214E-06,45.0000228881836,9.18751084100222E-06,4.75760195683961E-08,-3.88820978969306E-07,2.95573522635095E-06,-0.000279986133969949,-0.000123557707334242,0.000103123254949943,7
0.0400004386901855,-0.059999980032444,2.94000005722046,1.95999836921692,-0.0600148532679674,2.93999349367084,1.96000384726127,2461.619,2262.344,1799.538,2000.991,1.13102969407919E-05,45.0000228881836,8.68456572789E-06,4.17289527376852E-08,-4.1805702721831E-07,2.6656775844458E-06,-0.00111099334343808,-0.000490280673663724,0.000409196156175108,7
0.0600004196166992,-0.059999980032444,2.94000005722046,1.96000277996063,-0.0600498742171906,2.93997803894766,1.96001674602245,2300.991,2200.738,1963.499,2069.521,359.708587646484,44.9998779296875,0.111643239855766,1.98750829127903E-08,-4.39828284015675E-07,0.000219567169551738,-0.00247959682418745,-0.00109424454121006,0.000913274139142208,7
0.0800004005432129,-0.0600195452570915,2.93999123573303,1.96001613140106,-0.0601175325725011,2.93994818135741,1.96004166564873,2105.412,2128.224,2163.251,2148.232,359.268615722656,44.9988975524902,0.279335647821426,-0.000978201045654714,-0.000436771137174219,0.000669846136588603,-0.00437253334093903,-0.00192959625246757,0.00161047214767455,7
0.100000381469727,-0.060088224709034,2.93996047973633,1.96004295349121,-0.0602281831225827,2.93989935133826,1.96008241997012,1940.368,2066.015,2334.609,2214.256,358.854125976563,44.9973182678223,0.438501328229904,-0.00343404989689589,-0.00153520703315735,0.00134368031285703,-0.00677663474085645,-0.00299052470975356,0.00249594014594034,7
0.12000036239624,-0.0602339878678322,2.93989539146423,1.96008741855621,-0.0603919183771101,2.93982709507195,1.96014272621513,1901.681,2049.914,2380.877,2232.361,358.613128662109,44.9966087341309,0.534341394901276,-0.00728817656636238,-0.00325607159174979,0.00222402694635093,-0.00967884125087703,-0.0042712666433123,0.00356486801606684,6
0.140000343322754,-0.0604733228683472,2.93978881835938,1.96015346050262,-0.0606185707343425,2.93972707352723,1.96022620580924,1996.278,2083.614,2293.042,2201.114,358.583068847656,44.9976425170898,0.552213728427887,-0.011966684833169,-0.00533223990350962,0.00330402562394738,-0.0130662014777117,-0.00576610661131494,0.00481248555814035,6
0.160000324249268,-0.0608086660504341,2.93964004516602,1.96024537086487,-0.0609177146487173,2.93959506150328,1.96033638517317,2158.344,2144.563,2135.258,2144.967,358.683624267578,44.9995994567871,0.519875824451447,-0.0167671069502831,-0.00744027644395828,0.00459318188950419,-0.0169258724078452,-0.00746937699985959,0.00623406249020624,6
0.180000305175781,-0.0612336359918118,2.93945240974426,1.96036744117737,-0.061298668798443,2.93942694667319,1.96047669652127,2292.486,2198.189,2003.145,2098.137,358.774017333984,45.0011367797852,0.487377226352692,-0.0212484430521727,-0.00938393734395504,0.00610082177445292,-0.0212451194075357,-0.00937545802297127,0.00782490844826893,6
0.200000286102295,-0.0617423206567764,2.93922853469849,1.96052384376526,-0.061770498253093,2.93921872862737,1.96065047865988,2329.644,2217.963,1967.5,2085.226,358.737091064453,45.0015983581543,0.497638046741486,-0.0254342425614595,-0.0111880945041776,0.00781971588730812,-0.0260113162228152,-0.0114787777226019,0.00958037298629187,6
0.220000267028809,-0.0623371116816998,2.93896746635437,1.96071839332581,-0.0623420166411988,2.93896651791703,1.96086097778571,2261.762,2198.739,2038.27,2109.591,358.540710449219,45.0009651184082,0.564621925354004,-0.0297396127134562,-0.0130592454224825,0.00972847826778889,-0.0312119449794894,-0.0137738119686304,0.0114958455761976,6
0.240000247955322,-0.063030980527401,2.9386625289917,1.96095442771912,-0.0630217883178436,2.93866653509758,1.96111134828415,2139.387,2156.563,2165.798,2154.461,358.246002197266,44.9995231628418,0.669712960720062,-0.0346933752298355,-0.0152486404404044,0.0118038924410939,-0.0368345961831376,-0.0162550844588626,0.0135667556078677,6
0.260000228881836,-0.0638435930013657,2.93830442428589,1.96123492717743,-0.0638181305322555,2.93831510977207,1.96140465352766,2037.013,2117.678,2274.989,2194.139,357.962890625,44.9980735778809,0.775715231895447,-0.0406307764351368,-0.0179044175893068,0.0140274772420526,-0.0428669687191127,-0.0189171667190311,0.0157885723891427,6
0.28000020980835,-0.0647941306233406,2.93788456916809,1.96156275272369,-0.0647391155954009,2.9379086796347,1.96174386667413,2009.651,2103.185,2309.01,2209.233,357.784545898438,44.9976348876953,0.849032998085022,-0.047526940703392,-0.0209965165704489,0.016389261931181,-0.0492968698525414,-0.0217546781027957,0.0181568051458225,6
0.300000190734863,-0.0658950507640839,2.93739748001099,1.96194052696228,-0.0657925730475782,2.93744378951418,1.96213187146522,2064.701,2118.775,2258.52,2196.049,357.737945556641,44.998607635498,0.87700366973877,-0.0550461113452911,-0.0243486221879721,0.0188915617763996,-0.056112215228324,-0.0247622857917428,0.0206670030216656,6
0.320000171661377,-0.0671501383185387,2.93684244155884,1.96237146854401,-0.0669860918260108,2.93691709041722,1.96257146302474,2163.398,2153.523,2161.585,2166.313,357.776672363281,45.0003280639648,0.871939361095428,-0.0627543926239014,-0.0277489814907312,0.021546458825469,-0.0633010288711345,-0.0279347047953861,0.0233147550783899,6
0.340000152587891,-0.0685573667287827,2.9362211227417,1.9628586769104,-0.0683270224324408,2.93632533857195,1.96306534865699,2247.594,2187.458,2077.383,2138.929,357.814575195313,45.0016670227051,0.861427187919617,-0.0703613609075546,-0.0310690887272358,0.0243628080934286,-0.0708514431854204,-0.0312666979511659,0.0260956902956722,6
0.360000133514404,-0.0701144710183144,2.93553471565247,1.96340537071228,-0.0698224791007223,2.93566539447139,1.96361614864513,2273.68,2203.49,2051.573,2128.869,357.777587890625,45.0019721984863,0.871683597564697,-0.0778550952672958,-0.0343242473900318,0.0273354891687632,-0.078751698955403,-0.0347530759244495,0.0290054775711484,6
0.380000114440918,-0.0718238800764084,2.93478178977966,1.96401429176331,-0.0714793419644148,2.93493422191687,1.96422639704953,2234.887,2196.177,2092.636,2139.898,357.642852783203,45.0012130737305,0.913856148719788,-0.0854704827070236,-0.0376474633812904,0.030446482822299,-0.0869901453450775,-0.0383886972085313,0.0320398257204135,6
0.400000095367432,-0.0736944079399109,2.93395781517029,1.96468782424927,-0.0733042592243766,2.93412888706146,1.96489854250614,2160.801,2173.073,2171.381,2164.135,357.445465087891,44.9998664855957,0.980097472667694,-0.0935265868902206,-0.0412008203566074,0.0336742959916592,-0.0955552398982123,-0.0421684681246325,0.0351944834770214,6
0.420000076293945,-0.0757391527295113,2.93305611610413,1.9654278755188,-0.0753036493163584,2.93324655745345,1.96563494902483,2096.967,2149.118,2241.193,2187.698,357.252777099609,44.9986839294434,1.05015778541565,-0.10223713517189,-0.0450793355703354,0.0370021387934685,-0.10443554853835,-0.0460873428219011,0.0384652394924852,6
0.440000057220459,-0.0779711678624153,2.93207097053528,1.96623635292053,-0.0774837030785962,2.93228450107977,1.96643789678778,2078.011,2137.868,2265.572,2198.861,357.12353515625,44.9984016418457,1.10370278358459,-0.111600711941719,-0.0492623448371887,0.0404230691492558,-0.113619745568806,-0.0501403232774124,0.041847922336277,6
0.460000038146973,-0.0803995802998543,2.9309983253479,1.9671151638031,-0.0798503859194055,2.93124008540942,1.96730958294779,2110.001,2144.385,2236.878,2194.153,357.076843261719,44.9991760253906,1.13114500045776,-0.121420592069626,-0.0536343604326248,0.0439412109553814,-0.12309661367267,-0.0543224592961681,0.045338400495828,6
0.480000019073486,-0.0830281600356102,2.92983722686768,1.96806645393372,-0.0824094399847739,2.93011077643694,1.9682521224267,2170.19,2163.815,2177.534,2178.795,357.086029052734,45.00048828125,1.13730299472809,-0.131429150700569,-0.0580561310052872,0.0475667603313923,-0.132855043912806,-0.0586288485110972,0.0489325823765283,6
0.5,-0.0858568772673607,2.92858839035034,1.96909260749817,-0.0851663863259549,2.92889413772583,1.96926754871368,2223.068,2184.839,2124.108,2163.037,357.098419189453,45.001522064209,1.13707637786865,-0.141436070203781,-0.0624423027038574,0.0513065867125988,-0.142884035731851,-0.0630546363830556,0.0526264163017273,6
0.519999980926514,-0.0888852328062057,2.92725229263306,1.97019577026367,-0.0881265270670613,2.92758782945201,1.97035781466366,2241.128,2196.706,2105.872,2155.84,357.067260742188,45.0017280578613,1.14620411396027,-0.151417285203934,-0.0668005868792534,0.0551571436226368,-0.153172696952214,-0.067595016200826,0.0564158905127332,6
0.539999961853027,-0.0921152904629707,2.9258279800415,1.97137784957886,-0.0912949475726587,2.92618960744725,1.97152479329561,2219.076,2194.842,2129.494,2160.42,356.976593017578,45.001106262207,1.17283141613007,-0.161503151059151,-0.0712154060602188,0.059104923158884,-0.163710243776082,-0.0722452290811182,0.0602970331688134,6
0.559999942779541,-0.0955529659986496,2.92431211471558,1.97264051437378,-0.0946765186153586,2.92469732224262,1.97277027859098,2174.238,2182.48,2177.865,2173.353,356.846496582031,45.0000343322754,1.21418738365173,-0.171883881092072,-0.0757906287908554,0.0631328970193863,-0.17448600078541,-0.0770005639685686,0.0642659123471943,6
0.579999923706055,-0.0992068350315094,2.92270040512085,1.97398507595062,-0.098275898543412,2.92310891811192,1.974095986292,2134.361,2168.054,2222.283,2187.161,356.717987060547,44.9991569519043,1.25943672657013,-0.182693287730217,-0.0805873274803162,0.0672277584671974,-0.185489400941932,-0.0818563576357408,0.0683186360430614,6
0.599999904632568,-0.103085577487946,2.9209885597229,1.97541272640228,-0.102097535448303,2.92142243211513,1.97550355470005,2121.357,2159.965,2239.315,2194.946,356.628143310547,44.9989547729492,1.29649043083191,-0.193937242031097,-0.0855919867753983,0.0713841840624809,-0.196709985587152,-0.0868079946831254,0.0724513521695592,6
0.619999885559082,-0.107195571064949,2.91917395591736,1.97692477703094,-0.106145669332341,2.91963599314187,1.97699454547403,2139.783,2162.257,2223.23,2193.844,356.590240478516,44.9995040893555,1.31856000423431,-0.205499842762947,-0.0907290130853653,0.0756050944328308,-0.208137404442349,-0.0918509075391396,0.0766602485577914,6
0.639999866485596,-0.111539870500565,2.91725587844849,1.97852277755737,-0.110424334276258,2.91774782095481,1.97857044442874,2176.471,2172.884,2186.992,2186.123,356.589080810547,45.0004272460938,1.32711565494537,-0.217215582728386,-0.095907099545002,0.0798976123332977,-0.219761415608576,-0.0969805764601278,0.0809415529568204,6
0.659999847412109,-0.11611907184124,2.91523456573486,1.98020815849304,-0.114937360606794,2.91575622523314,1.98023266233318,2209.686,2185.614,2153.172,2177.174,356.592529296875,45.0011672973633,1.33002686500549,-0.228960052132607,-0.101068638265133,0.0842663124203682,-0.23157188556666,-0.102192529530361,0.0852915330336681,6
0.679999828338623,-0.12093323469162,2.91311025619507,1.98198235034943,-0.119688377064301,2.91365960461598,1.98198253570894,2222.042,2193.833,2140.482,2172.281,356.571136474609,45.0013160705566,1.3365786075592,-0.240707486867905,-0.106216110289097,0.0887085571885109,-0.2435587891772,-0.107482342662038,0.0897064963733151,6
0.699999809265137,-0.125983774662018,2.91088223457336,1.98384666442871,-0.124680812970328,2.91145644574587,1.98382132762859,2209.575,2194.134,2153.886,2173.856,356.513824462891,45.0008583068848,1.35237264633179,-0.252528220415115,-0.111402101814747,0.0932146012783051,-0.255712209680569,-0.112845639595283,0.0941827904787012,6
0.71999979019165,-0.131274446845055,2.90854835510254,1.98580205440521,-0.129917900395216,2.90914532231216,1.98575022851398,2182.367,2187.708,2183.457,2180.564,356.432006835938,45.0001029968262,1.37684762477875,-0.264533847570419,-0.11669248342514,0.0977718606591225,-0.268022338696916,-0.118278091898149,0.0987168027707253,6
0.739999771118164,-0.136810570955276,2.90610575675964,1.98784947395325,-0.135402676325697,2.9067248940945,1.98777035693463,2157.385,2179.15,2211.531,2188.512,356.350677490234,44.9994812011719,1.40436816215515,-0.276806473731995,-0.122126556932926,0.102370254695415,-0.28047947622616,-0.123775418966614,0.103304960588245,6
0.759999752044678,-0.142597615718842,2.90355181694031,1.98998963832855,-0.141137984832479,2.90419390600624,1.98988276040609,2148.445,2173.614,2223.193,2193.632,356.293182373047,44.9993286132813,1.42786240577698,-0.289352387189865,-0.127695426344872,0.107005380094051,-0.293074030647998,-0.129333388024585,0.107943731188078,6
0.779999732971191,-0.148639664053917,2.90088486671448,1.99222326278687,-0.147126479237846,2.9015511871379,1.9920884161883,2158.963,2173.959,2214.18,2193.915,356.2685546875,44.9996948242188,1.44277203083038,-0.302102446556091,-0.133349969983101,0.11167848110199,-0.305796518721896,-0.134947814123893,0.112629621745,6
0.799999713897705,-0.154938727617264,2.89810419082642,1.99455118179321,-0.153370624283247,2.89879564980062,1.99438823208393,2181.26,2179.567,2192.045,2190.116,356.268249511719,45.000316619873,1.44914186000824,-0.314953655004501,-0.139029711484909,0.116393744945526,-0.318637565587097,-0.140614560144299,0.117359179351745,7
0.819999694824219,-0.161495208740234,2.89521026611328,1.99697422981262,-0.159872698296894,2.89592628856956,1.99678304723675,2202.03,2187.091,2170.667,2185.011,356.272705078125,45.0008087158203,1.45101356506348,-0.327824354171753,-0.144695490598679,0.121153675019741,-0.331587904762617,-0.14632953679349,0.122128991019009,7
0.840000152587891,-0.168309047818184,2.89220333099365,1.99949336051941,-0.16663495969781,2.89294210680581,1.99927369345767,2210.356,2192.48,2161.868,2181.742,356.263366699219,45.000919342041,1.45379841327667,-0.340691417455673,-0.150346636772156,0.125956043601036,-0.344638690416658,-0.152088840411377,0.126935798689133,7
0.860000133514404,-0.175380855798721,2.88908314704895,2.00210928916931,-0.17365899808397,2.88984240302077,2.00186075622039,2203.341,2193.4,2169.246,2181.944,356.232666015625,45.0006141662598,1.46119689941406,-0.353591024875641,-0.156015112996101,0.130793929100037,-0.357780250353559,-0.157888202664012,0.131776039941776,7
0.880000114440918,-0.182712614536285,2.8858482837677,2.00482249259949,-0.180946703658673,2.88662634306889,2.00454493171624,2186.691,2190.047,2187.229,2185.29,356.186950683594,45.0001029968262,1.4735027551651,-0.366587340831757,-0.16174228489399,0.135658159852028,-0.371003953224582,-0.163723814542548,0.136646535716733,7
0.900000095367432,-0.190307185053825,2.88249731063843,2.00763320922852,-0.188499630768891,2.88329324101783,2.00732679243541,2170.907,2185.003,2204.835,2189.684,356.141510009766,44.9996795654297,1.48783588409424,-0.379729509353638,-0.167553156614304,0.14054112136364,-0.38430096607042,-0.169591778067519,0.141544032697486,7
0.920000076293945,-0.198167622089386,2.87902855873108,2.01054191589355,-0.196319158186378,2.87984248841645,2.01020684620102,2164.736,2181.259,2212.578,2192.872,356.110961914063,44.9995727539063,1.50014865398407,-0.39302185177803,-0.17344206571579,0.145439088344574,-0.397662564311541,-0.175488243087386,0.146465317485475,7
0.940000057220459,-0.206296056509018,2.87544107437134,2.01354885101318,-0.20440649127526,2.87627355333832,2.01318553696746,2170.577,2180.811,2207.5,2193.417,356.101501464844,44.9997940063477,1.507479429245,-0.406422078609467,-0.179376810789108,0.150351986289024,-0.411080131748188,-0.181409407278539,0.151407216600101,7
0.960000038146973,-0.214693367481232,2.87173461914063,2.01665449142456,-0.212762664159627,2.87258597942512,2.01626324561874,2184.017,2183.605,2193.898,2191.495,356.108276367188,45.0001945495605,1.50941300392151,-0.419865369796753,-0.185317367315292,0.155281707644463,-0.424545160560374,-0.187351516145293,0.156366596478723,7
0.980000019073486,-0.223359331488609,2.86790990829468,2.01985907554626,-0.221388541891131,2.86877938493009,2.01944029076686,2196.915,2187.849,2180.289,2188.52,356.119384765625,45.0005149841309,1.50798225402832,-0.433297783136368,-0.191236704587936,0.160229220986366,-0.438049251307889,-0.19331086301989,0.16134036347666,7
1,-0.232293307781219,2.86396718025208,2.02316284179688,-0.230284822616576,2.86485346176148,2.02271692955017,2202.396,2191.134,2174.137,2186.313,356.123199462891,45.0005874633789,1.50628125667572,-0.446699887514114,-0.197132259607315,0.16519233584404,-0.451584112930296,-0.199283789062499,0.166325463867187,7
1.01999998092651,-0.241495087742805,2.8599066734314,2.02656626701355,-0.23945203974551,2.86080797452598,2.02609335843171,2198.31,2191.953,2178.067,2185.91,356.114593505859,45.0003929138184,1.50665783882141,-0.460088908672333,-0.203022837638855,0.170165881514549,-0.465141562746931,-0.205266683261217,0.171318883841543,7
1.03999996185303,-0.250965088605881,2.85572791099548,2.03006911277771,-0.248890564117823,2.85664275957218,2.02956971399758,2188.064,2190.164,2188.758,2187.366,356.097045898438,45.0000610351563,1.50962495803833,-0.473500669002533,-0.208934128284454,0.175143301486969,-0.478713526456904,-0.211255982432066,0.176317649508923,7
1.05999994277954,-0.260704338550568,2.8514301776886,2.03367137908936,-0.258600606171337,2.85235772403401,2.03314607375533,2177.978,2187.099,2199.606,2189.637,356.079833984375,44.9997940063477,1.51378309726715,-0.486963450908661,-0.214881658554077,0.180118799209595,-0.492292038139098,-0.217248171218997,0.18131882689648,7
1.07999992370605,-0.270713925361633,2.84701299667358,2.03737306594849,-0.268582218109399,2.84795284487416,2.03682245693225,2173.589,2184.535,2204.604,2191.421,356.072113037109,44.9997138977051,1.51684498786926,-0.500479280948639,-0.220861673355103,0.185089096426964,-0.505869240252172,-0.223239782093886,0.186319521949328,7
1.09999990463257,-0.280994355678558,2.84247589111328,2.0411741733551,-0.278835296068479,2.84342816792753,2.04059882527378,2176.652,2183.738,2201.615,2191.83,356.078063964844,44.9998474121094,1.51694977283478,-0.514021575450897,-0.226853057742119,0.190053284168243,-0.519437383634554,-0.229227395356539,0.19131688053054,7
1.11999988555908,-0.291545331478119,2.83781933784485,2.04507446289063,-0.289359582285756,2.8387838069447,2.04447508384187,2184.584,2184.92,2193.153,2190.722,356.095001220703,45.0000915527344,1.51359152793884,-0.527548909187317,-0.23282915353775,0.195011630654335,-0.532988827504451,-0.235207639134684,0.196308088421148,7
1.1399998664856,-0.302365869283676,2.83304381370544,2.04907369613647,-0.30015466726672,2.83401994263535,2.04845108181331,2192.471,2187.096,2184.349,2188.872,356.115692138672,45.0002937316895,1.50775671005249,-0.541025161743164,-0.23877127468586,0.199963927268982,-0.54651603945984,-0.241177189383981,0.201290371320141,7
1.15999984741211,-0.313454538583755,2.82815027236938,2.05317187309265,-0.311219991952756,2.8291368217117,2.0525266132781,2195.874,2188.955,2180.02,2187.212,356.132843017578,45.0003395080566,1.5011739730835,-0.554434657096863,-0.244676023721695,0.204908147454262,-0.560011595478474,-0.247132769888014,0.206260994844471,7
1.17999982833862,-0.324810206890106,2.82313919067383,2.05736875534058,-0.322554849888747,2.82413475593195,2.05670141803781,2193.415,2189.413,2181.833,2186.539,356.142974853516,45.0002250671387,1.49534821510315,-0.567784130573273,-0.250554174184799,0.209840342402458,-0.573468179917878,-0.253071152258294,0.211217264529045,7
1.19999980926514,-0.336432099342346,2.81801080703735,2.06166386604309,-0.334158389390659,2.81901412114373,2.06097518240395,2186.942,2188.318,2188.02,2186.926,356.148040771484,45.0000228881836,1.49075567722321,-0.581092655658722,-0.256421148777008,0.214755654335022,-0.586878585515351,-0.25898915593426,0.216156525826732,7
1.21999979019165,-0.348319590091705,2.81276512145996,2.06605696678162,-0.346029615713141,2.81377535632755,2.06534753999631,2180.342,2186.305,2194.525,2187.91,356.153564453125,44.9998359680176,1.4867559671402,-0.594375669956207,-0.262286335229874,0.219649687409401,-0.600235713387966,-0.264883648183278,0.221076164108358,7
1.23999977111816,-0.360472291707993,2.80740213394165,2.07054734230042,-0.358167393217114,2.80841896264024,2.06981807254132,2177.129,2184.449,2197.539,2188.713,356.165344238281,44.9997901916504,1.48206293582916,-0.607633352279663,-0.268147051334381,0.224519655108452,-0.613532573032571,-0.270751544100639,0.22597360466271,7
1.25999975204468,-0.372889280319214,2.80192232131958,2.07513451576233,-0.370570447537367,2.80294550245837,2.07438631067043,2178.474,2183.53,2195.666,2188.781,356.186096191406,44.9998664855957,1.47553908824921,-0.62084823846817,-0.273989379405975,0.229364022612572,-0.626762282325784,-0.276589806609564,0.230846312696532,7
1.27999973297119,-0.385569095611572,2.79632639884949,2.07981824874878,-0.383237367750148,2.79735559842173,2.07905173471843,2183.004,2183.75,2190.211,2187.988,356.214416503906,45.0000114440918,1.46676814556122,-0.63399338722229,-0.279795587062836,0.234182193875313,-0.639918067524,-0.282395446461198,0.235691793334528,7
1.29999971389771,-0.398510009050369,2.79061532020569,2.08459782600403,-0.396166608540759,2.79164993247672,2.08381377552184,2187.657,2184.663,2184.37,2186.639,356.245941162109,45.0001373291016,1.45618855953217,-0.647044241428375,-0.285552352666855,0.238973274827003,-0.652993263263387,-0.288165522234614,0.240507591619361,7
1.31999969482422,-0.411709725856781,2.78479027748108,2.08947253227234,-0.409356492371151,2.78582924491984,2.08867181521728,2189.638,2185.458,2181.163,2185.326,356.275970458984,45.0001640319824,1.44477152824402,-0.659988343715668,-0.291256219148636,0.243735253810883,-0.665981312559885,-0.293897140336813,0.245291292511654,7
1.33999967575073,-0.42516627907753,2.7788519859314,2.09444189071655,-0.422805211647513,2.77989433344114,2.09362518803978,2187.981,2185.521,2181.733,2184.489,356.302307128906,45.0000953674316,1.43341791629791,-0.672827005386353,-0.296912848949432,0.248465046286583,-0.678875766809211,-0.299587455002722,0.250040520889988,7
1.35999965667725,-0.438877642154694,2.77280139923096,2.09950518608093,-0.43651083088787,2.77384605216759,2.09867318112117,2183.691,2184.678,2185.144,2184.235,356.325897216797,44.9999732971191,1.42250823974609,-0.68556946516037,-0.302531212568283,0.253159075975418,-0.691670285786852,-0.305233668295194,0.254752941550903,7
1.37999963760376,-0.452842116355896,2.76663899421692,2.10466146469116,-0.450471288889674,2.76768531070662,2.10381503528845,2179.233,2183.219,2188.816,2184.39,356.35009765625,44.9998626708984,1.41178750991821,-0.69822359085083,-0.308117061853409,0.257813930511475,-0.70435863764807,-0.310833030105011,0.259426259208898,8
1.39999961853027,-0.467057913541794,2.7603657245636,2.1099100112915,-0.464684400897397,2.76141307318947,2.10904994586213,2176.719,2181.747,2190.487,2184.505,356.378540039063,44.9998321533203,1.40056133270264,-0.710788071155548,-0.31366828083992,0.262427121400833,-0.716934698927902,-0.316382838150879,0.264058218496432,8
1.41999959945679,-0.481522917747498,2.75398230552673,2.11524987220764,-0.479147860770126,2.75503035731471,2.11437706345456,2177.089,2180.725,2189.06,2184.277,356.413024902344,44.999870300293,1.38815188407898,-0.723251044750214,-0.319175541400909,0.266997039318085,-0.729392454541157,-0.321880437979435,0.268646603963922,8
1.4399995803833,-0.496234774589539,2.74748969078064,2.12068033218384,-0.493859243149155,2.74853823339162,2.11979549476837,2179.47,2180.395,2185.375,2183.498,356.452789306641,44.9999542236328,1.37422323226929,-0.735594570636749,-0.32462677359581,0.271522611379623,-0.741725997782418,-0.327323222965239,0.273189240079744,8
1.45999956130981,-0.511190891265869,2.74088954925537,2.12620043754578,-0.508816005625579,2.74193782338369,2.12530430339474,2181.992,2180.512,2181.375,2182.34,356.495147705078,45.0000228881836,1.35896933078766,-0.747801721096039,-0.330012619495392,0.276002585887909,-0.753929530326043,-0.332708634310781,0.277683991230235,8
1.47999954223633,-0.526388108730316,2.73418307304382,2.13180923461914,-0.524015490907889,2.735230299952,2.13090251061182,2182.972,2180.563,2178.861,2181.203,356.537231445313,45.0000419616699,1.34293854236603,-0.75986260175705,-0.335329830646515,0.280434995889664,-0.765997362226162,-0.338034161046475,0.282128761719688,8
1.49999952316284,-0.54182356595993,2.72737145423889,2.13750553131104,-0.539454928989562,2.72841688549872,2.13658909618304,2181.685,2180.295,2178.681,2180.219,356.577545166016,45.0000076293945,1.32663726806641,-0.771776020526886,-0.340581089258194,0.284817457199097,-0.777923911916679,-0.343297340030664,0.286521495770357,8
1.51999950408936,-0.557494461536407,2.72045612335205,2.14328837394714,-0.555131439316657,2.72149885121051,2.14236299915552,2178.687,2179.484,2180.32,2179.575,356.616485595703,44.9999351501465,1.31037139892578,-0.783545672893524,-0.345771551132202,0.289147257804871,-0.789703706211271,-0.348495755949617,0.290860177522456,8
1.53999948501587,-0.573397994041443,2.71343803405762,2.14915680885315,-0.571042032955407,2.714477516102,2.14822311865839,2175.488,2178.242,2182.206,2179.222,356.656158447266,44.9998626708984,1.29406702518463,-0.795174896717072,-0.35090434551239,0.293421745300293,-0.801331380303392,-0.353627041317531,0.295142831034155,8
1.55999946594238,-0.589531242847443,2.70631837844849,2.15510964393616,-0.587183614759814,2.70735424605919,2.15416831470115,2173.433,2176.955,2182.902,2178.868,356.698822021484,44.9998397827148,1.27734208106995,-0.80666172504425,-0.355977743864059,0.297638863325119,-0.812801677766265,-0.358688876476529,0.299367520281585,8
1.5799994468689,-0.605891168117523,2.69909858703613,2.16114568710327,-0.603552985539241,2.70013045288293,2.16019740897206,2173.156,2175.907,2181.689,2178.314,356.74560546875,44.9998626708984,1.25979697704315,-0.817997813224792,-0.360985398292542,0.301796913146973,-0.824109450552891,-0.36367898959666,0.303532349158837,8
1.59999942779541,-0.622474491596222,2.69178009033203,2.16726350784302,-0.620146844226007,2.69280759333234,2.16630918563646,2174.2,2175.203,2178.999,2177.487,356.796173095703,44.9999084472656,1.2412234544754,-0.829170823097229,-0.36591911315918,0.305894643068314,-0.835249658996041,-0.368595156675903,0.307635461477959,8
1.61999940872192,-0.639277875423431,2.68436455726624,2.17346215248108,-0.636961790042976,2.68538716816826,2.17250239213516,2175.398,2174.783,2176.042,2176.406,356.848846435547,44.9999542236328,1.22167539596558,-0.840168833732605,-0.370772063732147,0.309930682182312,-0.846217371808261,-0.373435201540161,0.311675040968959,8
1.6399998664856,-0.656297624111176,2.6768536567688,2.17974019050598,-0.653994733324367,2.67787054085829,2.17877589049611,2175.648,2174.371,2173.99,2175.279,356.901824951172,44.9999618530273,1.20143580436707,-0.850984334945679,-0.37554144859314,0.313903391361237,-0.857008021193625,-0.378197108423923,0.315649405241437,8
1.65999984741211,-0.673529922962189,2.66924905776978,2.18609642982483,-0.671241268128964,2.67025965574155,2.18512805794253,2174.553,2173.814,2173.298,2174.207,356.954040527344,44.999942779541,1.18081033229828,-0.861614882946014,-0.380228370428085,0.317810863256454,-0.867616378005369,-0.382878569707964,0.319556628319177,7
1.67999982833862,-0.690971076488495,2.66155242919922,2.19252943992615,-0.688698111062591,2.66255596177785,2.19155768514919,2172.194,2172.885,2173.935,2173.361,357.005737304688,44.9999008178711,1.16001904010773,-0.872061371803284,-0.384835511445999,0.321650981903076,-0.878038095493936,-0.3874776671744,0.3233951092266,7
1.69999980926514,-0.708617627620697,2.6537652015686,2.19903779029846,-0.706361484184097,2.65476112617029,2.19806338064151,2169.763,2171.759,2174.639,2172.643,357.058166503906,44.9998664855957,1.1390243768692,-0.882324755191803,-0.389364719390869,0.325421690940857,-0.888268675893552,-0.391992415961983,0.327163191366503,7
1.71999979019165,-0.726465702056885,2.6458888053894,2.20562028884888,-0.724227520680898,2.64687685534086,2.20464372021218,2167.989,2170.548,2174.669,2171.958,357.112762451172,44.9998435974121,1.11765158176422,-0.892402768135071,-0.393814623355865,0.329121202230453,-0.898303729818216,-0.396420879037393,0.330859258059641,7
1.73999977111816,-0.744511425495148,2.63792514801025,2.21227526664734,-0.742292267036569,2.6389048939739,2.2112972477195,2167.329,2169.486,2173.501,2171.137,357.170288085938,44.9998550415039,1.09567642211914,-0.902289211750031,-0.39818087220192,0.332748144865036,-0.908138976261699,-0.400761167195235,0.334481732544728,7
1.75999975204468,-0.762750923633575,2.62987589836121,2.21900129318237,-0.760551685198442,2.63084702405956,2.21802247588577,2167.55,2168.574,2171.355,2170.196,357.230560302734,44.9998741149902,1.07299590110779,-0.911975383758545,-0.402457714080811,0.336301177740097,-0.917770242597549,-0.405011439058042,0.338029077978437,7
1.77999973297119,-0.781180024147034,2.62174320220947,2.2257969379425,-0.779001654745191,2.62270506393721,2.22481788709562,2167.875,2167.809,2169.039,2169.115,357.29248046875,44.9999046325684,1.04962396621704,-0.92145299911499,-0.406640231609344,0.339779108762741,-0.927193464579084,-0.409169901076273,0.341499797435399,7
1.79999971389771,-0.799794256687164,2.61352872848511,2.23266053199768,-0.797637975054437,2.61448086733891,2.2316819341944,2167.654,2167.04,2167.23,2168.013,357.354919433594,44.9999198913574,1.02569544315338,-0.930716335773468,-0.410726070404053,0.343180537223816,-0.936404686339397,-0.413234807528316,0.344892433908206,7
1.81999969482422,-0.818589508533478,2.60523438453674,2.23959064483643,-0.816456367470329,2.60617632243283,2.23861304128649,2166.506,2166.256,2166.352,2166.866,357.417175292969,44.9999122619629,1.00135266780853,-0.939762771129608,-0.414715319871902,0.346503853797913,-0.945400060391357,-0.417204460520483,0.348205570307409,7
1.83999967575073,-0.837561428546906,2.59686207771301,2.24658560752869,-0.835452477471147,2.5977933508667,2.24560960453371,2164.63,2165.279,2166.222,2165.836,357.479339599609,44.9998970031738,0.976750910282135,-0.948591947555542,-0.418609589338303,0.349747508764267,-0.954175847627601,-0.421077209987015,0.351437829461516,7
1.85999965667725,-0.856705486774445,2.58841395378113,2.25364375114441,-0.854621876836892,2.58933390681126,2.25266999295366,2162.609,2164.16,2166.24,2164.892,357.542236328125,44.999870300293,0.951911747455597,-0.957203507423401,-0.42240971326828,0.35290989279747,-0.962728417320546,-0.42485145369008,0.354587874116995,7
1.87999963760376,-0.876017391681671,2.57989168167114,2.26076364517212,-0.873960065816878,2.5807999760037,2.25979254921804,2161.079,2162.968,2165.74,2163.997,357.606719970703,44.999870300293,0.926759898662567,-0.965595245361328,-0.426114559173584,0.355989664793015,-0.97105424712238,-0.428525637219771,0.357654406938275,6
1.89999961853027,-0.895492613315582,2.57129716873169,2.26794338226318,-0.893462475297325,2.57219357479111,2.26697559045108,2160.189,2161.833,2164.558,2163.039,357.673248291016,44.9998741149902,0.901168048381805,-0.973762631416321,-0.429721027612686,0.358985602855682,-0.979149923065063,-0.432098253994111,0.360636170507741,6
1.91999959945679,-0.91512656211853,2.56263256072998,2.27518129348755,-0.913124468968959,2.56351674917388,2.27421740902784,2159.832,2160.803,2162.79,2161.984,357.741729736328,44.9998893737793,0.875061213970184,-0.981699705123901,-0.433225274085999,0.361896634101868,-0.98701213956033,-0.435567845259046,0.363531947325739,6
1.9399995803833,-0.934914648532867,2.55390000343323,2.28247570991516,-0.932941345494595,2.55477157384921,2.28151627337259,2159.587,2159.842,2160.866,2160.863,357.811492919922,44.9999084472656,0.848450720310211,-0.989400625228882,-0.436623871326447,0.364721685647964,-0.994637699399693,-0.438933000088453,0.366340559810573,6
1.95999956130981,-0.954851865768433,2.54510164260864,2.28982496261597,-0.952908340676738,2.54596015125449,2.28887042875719,2158.99,2158.886,2159.27,2159.719,357.881805419922,44.9999122619629,0.821404457092285,-0.996861159801483,-0.439914911985397,0.367459625005722,-1.00202351375443,-0.442192355384133,0.369060870298507,5
1.97999954223633,-0.974933445453644,2.53623962402344,2.29722714424133,-0.973020629625177,2.53708461061078,2.29627809809939,2157.869,2157.924,2158.196,2158.547,357.952239990234,44.9999046325684,0.794002890586853,-1.00407910346985,-0.443098247051239,0.370109379291534,-1.0091666021756,-0.445344595875816,0.371691781043764,5
1.99999952316284,-0.995154440402985,2.52731609344482,2.30468058586121,-0.993273328924571,2.52814710696625,2.30373748276126,2156.275,2156.871,2157.598,2157.427,358.022857666016,44.9998893737793,0.766336679458618,-1.01105332374573,-0.446174412965775,0.372669607400894,-1.01606409259403,-0.448388454121156,0.374232234218525,4
2.01999950408936,-1.01550996303558,2.51833319664001,2.31218338012695,-1.01366149880205,2.5191498202396,2.31124676334748,2154.592,2155.751,2157.088,2156.342,358.094024658203,44.999870300293,0.738432466983795,-1.01778304576874,-0.449143886566162,0.37513929605484,-1.02271322132033,-0.451322710505738,0.376681211912931,4
2.03999948501587,-1.03599536418915,2.50929307937622,2.31973361968994,-1.0341801452948,2.51009495426353,2.31880410050376,2153.138,2154.584,2156.337,2155.286,358.166290283203,44.9998664855957,0.71027547121048,-1.02426660060883,-0.452005863189697,0.377517312765121,-1.02911133304488,-0.45414619324307,0.379037736135081,3
2.05999946594238,-1.05660533905029,2.50019788742065,2.32732963562012,-1.05482422241768,2.50098473582814,2.32640763571516,2152.062,2153.375,2155.19,2154.266,358.239990234375,44.999870300293,0.68181848526001,-1.03050076961517,-0.454758435487747,0.379802823066711,-1.03525588083781,-0.456857778374589,0.381300868811035,0
2.0799994468689,-1.07733511924744,2.49105000495911,2.33496952056885,-1.07558863433077,2.49182141372444,2.33405549210444,2151.384,2152.283,2153.615,2153.129,358.315032958984,44.9998779296875,0.652981698513031,-1.03648161888123,-0.457398861646652,0.381994962692261,-1.04114442614907,-0.459456389769659,0.383469711784811,0
2.09999942779541,-1.09817910194397,2.48185157775879,2.3426513671875,-1.09646823750701,2.48260725778772,2.34174577523047,2150.782,2151.17,2151.943,2152.012,358.391082763672,44.9998779296875,0.623784184455872,-1.04220509529114,-0.459924906492233,0.384092897176743,-1.04677463880834,-0.46194099912557,0.385543406818385,0
2.11999940872192,-1.11913251876831,2.47260499000549,2.35037326812744,-1.11745784289978,2.47334455794105,2.34947657388654,2150.026,2150.188,2150.408,2150.762,358.467651367188,44.9998893737793,0.594227135181427,-1.04766821861267,-0.462335020303726,0.386095762252808,-1.0521442970251,-0.46431062596754,0.387521135591693,0
2.13999938964844,-1.14018988609314,2.46331238746643,2.35813331604004,-1.13855221811046,2.46403562323869,2.35724596089871,2148.871,2149.092,2149.276,2149.602,358.544372558594,44.9998893737793,0.564425528049469,-1.0528689622879,-0.464629054069519,0.388002842664719,-1.0572512873886,-0.466564337648712,0.38940211970263,0
2.15999937057495,-1.16134595870972,2.45397615432739,2.36592960357666,-1.15974608955609,2.45468278090954,2.36505199392424,2147.437,2148.031,2148.421,2148.393,358.621276855469,44.999885559082,0.534406423568726,-1.0578066110611,-0.466807216405869,0.389813214540482,-1.06209360486785,-0.468701249350159,0.391185620667051,0
2.17999935150146,-1.18259561061859,2.44459867477417,2.37376022338867,-1.18103414463689,2.44528837540057,2.37289271624985,2145.927,2146.883,2147.641,2147.257,358.698608398438,44.9998779296875,0.504232585430145,-1.0624805688858,-0.468869805335999,0.391526132822037,-1.06666935281164,-0.470720524080879,0.392870939918768,0
2.19999933242798,-1.20393347740173,2.43518209457397,2.38162302970886,-1.20241103390392,2.4358547674203,2.38076615759017,2144.545,2145.666,2146.733,2146.179,358.776702880859,44.999885559082,0.473898768424988,-1.06688952445984,-0.470816195011139,0.393140912055969,-1.07097674294855,-0.472621372677796,0.394457418809554,0
2.21999931335449,-1.22535395622253,2.42572927474976,2.3895161151886,-1.22387137322662,2.4263843329822,2.38867033488603,2143.435,2144.493,2145.547,2145.056,358.855743408203,44.9998931884766,0.443345278501511,-1.07103157043457,-0.47264501452446,0.394656926393509,-1.07501409538691,-0.474403053805762,0.39594443860914,0
2.23999929428101,-1.24685204029083,2.41624236106873,2.39743757247925,-1.24540974596044,2.41687946244815,2.39660325310286,2142.657,2143.316,2144.013,2143.946,358.935729980469,44.9998970031738,0.412551879882813,-1.07490408420563,-0.47435462474823,0.39607360959053,-1.07877983861484,-0.476064873957557,0.397331420505216,0
2.25999927520752,-1.26842212677002,2.4067234992981,2.40538549423218,-1.2670207051144,2.4073425595719,2.40456290602903,2141.828,2142.174,2142.531,2142.795,359.016326904297,44.9999008178711,0.381489455699921,-1.07850456237793,-0.47594341635704,0.397390484809875,-1.08227250950022,-0.477606187453887,0.398617825603432,0
2.27999925613403,-1.29005873203278,2.39717531204224,2.41335773468018,-1.28869877551872,2.39777604054247,2.41254727707421,2140.858,2141.13,2141.184,2141.548,359.097198486328,44.9998970031738,0.350162386894226,-1.08183109760284,-0.477410703897476,0.398606956005096,-1.08549075329072,-0.479026396443384,0.399803154927396,0
2.29999923706055,-1.31175637245178,2.38760018348694,2.42135214805603,-1.31043845599239,2.38818233302763,2.42055434006774,2139.712,2140.056,2140.014,2140.329,359.178253173828,44.9998970031738,0.318658143281937,-1.08488249778748,-0.478756546974182,0.399722546339035,-1.08843332361377,-0.480324950902608,0.400886949418676,0
2.31999921798706,-1.33350956439972,2.37800025939941,2.42936682701111,-1.33223422151078,2.37856387521733,2.42858206005696,2138.391,2138.96,2139.021,2139.132,359.259429931641,44.9999008178711,0.287036657333374,-1.08765840530396,-0.479981124401093,0.400736778974533,-1.09109908247658,-0.481501348636045,0.401868789936797,0
2.33999919891357,-1.35531258583069,2.36837887763977,2.43739986419678,-1.35408052537319,2.36892311486714,2.43662839410561,2136.997,2137.837,2138.113,2137.957,359.340850830078,44.9998970031738,0.255341649055481,-1.09015834331512,-0.48108446598053,0.4016492664814,-1.09348700026613,-0.48255513527611,0.402748297259245,0
2.35999917984009,-1.37716031074524,2.35873746871948,2.44544911384583,-1.37597180137052,2.3592625083417,2.44469129209215,2135.871,2136.581,2136.938,2136.918,359.422821044922,44.9999046325684,0.223594948649406,-1.09238195419312,-0.482066333293915,0.402459740638733,-1.09559615574918,-0.483485904283143,0.403525132081466,0
2.3799991607666,-1.39904689788818,2.3490788936615,2.45351243019104,-1.39790246595278,2.34958451965815,2.45276869750814,2134.664,2135.425,2135.853,2135.776,359.505218505859,44.9999046325684,0.19170455634594,-1.09432804584503,-0.482925683259964,0.403167754411697,-1.09742573607226,-0.484293296945411,0.404198995016863,0
2.39999914169312,-1.42096674442291,2.33940553665161,2.46158790588379,-1.41986692039674,2.33989161952957,2.4608585482566,2133.723,2134.286,2134.5,2134.631,359.588165283203,44.9999046325684,0.159664124250412,-1.09599542617798,-0.483661830425262,0.403773039579391,-1.09897503676166,-0.484977002379108,0.404769626596799,0
2.41999912261963,-1.44291436672211,2.32972025871277,2.46967339515686,-1.44185955297352,2.33018628440846,2.46895877745036,2132.806,2133.2,2133.127,2133.439,359.671417236328,44.9999160766602,0.127475842833519,-1.09738290309906,-0.484274119138718,0.404275506734848,-1.10024346172348,-0.485536757528356,0.405236807270594,0
2.4399995803833,-1.46488416194916,2.3200249671936,2.47776699066162,-1.46387526622379,2.32047076380044,2.47706750761572,2131.852,2132.061,2131.801,2132.306,359.754852294922,44.9999198913574,0.0951850265264511,-1.09848940372467,-0.484762072563171,0.404674857854843,-1.10123054341952,-0.48597235606885,0.405600364836657,0
2.45999956130981,-1.48687028884888,2.31032228469849,2.48586630821228,-1.48590737903114,2.31074800607805,2.48518227799345,2130.791,2131.057,2130.589,2131.046,359.838226318359,44.9999198913574,0.0627893283963203,-1.09931480884552,-0.485125809907913,0.404970943927765,-1.10193585544254,-0.486283609827325,0.405860142242549,0
2.47999954223633,-1.50886750221252,2.30061531066895,2.49396967887878,-1.50795077829211,2.30102026765068,2.49330120534786,2129.439,2129.934,2129.68,2129.911,359.921539306641,44.9999160766602,0.030397716909647,-1.09985899925232,-0.485365778207779,0.405163705348969,-1.10235915372966,-0.486470411098997,0.406016049596117,0
2.49999952316284,-1.53086996078491,2.29090571403503,2.50207471847534,-1.52999982193099,2.29129003836283,2.5014222116146,2128.241,2128.711,2128.624,2128.886,0.00496638333424926,44.999927520752,-0.0019839524757117,-1.10012269020081,-0.485482186079025,0.405252993106842,-1.10250027570865,-0.486532688140833,0.406068027019471,0
2.51999950408936,-1.55287218093872,2.28119611740112,2.51017951965332,-1.55204886570445,2.2815598090156,2.5095432179309,2127.03,2127.638,2127.596,2127.717,0.0885526612401009,44.9999198913574,359.965545654297,-1.10010588169098,-0.48547500371933,0.405238717794418,-1.10235916718704,-0.486470417037731,0.40601605455268,0
2.53999948501587,-1.57486820220947,2.27148914337158,2.51828193664551,-1.57409226536909,2.27183207041008,2.517662145434,2125.963,2126.543,2126.431,2126.585,0.172389820218086,44.999927520752,359.933074951172,-1.09980821609497,-0.485344052314758,0.405120939016342,-1.10193588235213,-0.486283621702513,0.405860152153772,0
2.55999946594238,-1.59685277938843,2.26178741455078,2.52637982368469,-1.59612437884908,2.26210931239086,2.52577691605946,2125.078,2125.49,2125.101,2125.42,0.256434470415115,44.9999313354492,359.900543212891,-1.0992294549942,-0.485089004039764,0.404899716377258,-1.101230583771,-0.48597237387593,0.405600379698733,0
2.5799994468689,-1.61882019042969,2.25209331512451,2.53447127342224,-1.6181395684037,2.25239402288941,2.53388545333956,2124.155,2124.353,2123.825,2124.351,0.340490400791168,44.999942779541,359.868072509766,-1.09836912155151,-0.484709501266479,0.404575079679489,-1.10024354239048,-0.485536793126657,0.40523683698151,0
2.59999942779541,-1.64076471328735,2.24240922927856,2.54255414009094,-1.64013220279496,2.24268868696756,2.54198568320162,2123.175,2123.274,2122.62,2123.236,0.424402147531509,44.9999351501465,359.835601806641,-1.09722769260406,-0.484205573797226,0.404147207736969,-1.09897513753722,-0.4849770468513,0.404769663714007,0
2.61999940872192,-1.6626809835434,2.23273777961731,2.55062651634216,-1.6620966594552,2.23299578586095,2.55007553476637,2122.08,2122.226,2121.541,2122.109,0.508071601390839,44.9999504089355,359.803131103516,-1.0958057641983,-0.483577728271484,0.40361624956131,-1.09742585691761,-0.48429335027439,0.404199039526089,0
2.63999938964844,-1.68456304073334,2.22308135032654,2.55868625640869,-1.68402732665469,2.22331779602242,2.55815294114632,2120.908,2121.134,2120.554,2121.04,0.591505467891693,44.999942779541,359.770721435547,-1.09410429000854,-0.482826620340347,0.402982413768768,-1.09559629661782,-0.483485966448383,0.403525183965578,0
2.65999937057495,-1.70640540122986,2.21344232559204,2.56673121452332,-1.70591860566917,2.21365718816551,2.56621584024413,2119.786,2120.117,2119.534,2119.911,0.674783825874329,44.9999542236328,359.738342285156,-1.09212422370911,-0.481952875852585,0.402245908975601,-1.09348716110378,-0.482555206253665,0.402748356498257,0
2.67999935150146,-1.72820281982422,2.20382308959961,2.57475924491882,-1.72776491294751,2.20401642630787,2.57426217555092,2118.703,2119.091,2118.492,2118.809,0.757951378822327,44.9999580383301,359.7060546875,-1.08986628055573,-0.480956852436066,0.40140700340271,-1.09109926322123,-0.481501428398548,0.401868856507867,0
2.69999933242798,-1.74994945526123,2.19422626495361,2.58276867866516,-1.74956068227928,2.19439796681473,2.58228989694467,2117.669,2118.022,2117.42,2117.768,0.841028273105621,44.9999656677246,359.673889160156,-1.08733129501343,-0.479838758707047,0.400466024875641,-1.08843352419566,-0.480325039419269,0.400887023296108,0
2.71999931335449,-1.77163982391357,2.18465423583984,2.59075713157654,-1.77130036696232,2.1848042574423,2.59029696148857,2116.784,2116.968,2116.223,2116.722,0.923996031284332,44.9999656677246,359.641815185547,-1.08451998233795,-0.478598535060883,0.399423331022263,-1.08549097363232,-0.479026493679996,0.39980323608264,0
2.73999929428101,-1.79326844215393,2.17510938644409,2.59872269630432,-1.79297844197036,2.17523773638125,2.59828133422937,2115.908,2115.928,2115.037,2115.683,1.00671887397766,44.9999771118164,359.60986328125,-1.08143305778503,-0.477236479520798,0.398279339075089,-1.08227274951627,-0.477606293372818,0.39861791400508,0
2.75999927520752,-1.81482982635498,2.16559457778931,2.60666346549988,-1.81458940612061,2.16570083130013,2.60624098899576,2114.973,2114.926,2113.929,2114.625,1.08906018733978,44.9999809265137,359.578002929688,-1.07807183265686,-0.475752890110016,0.397034466266632,-1.0787800982123,-0.476064988517757,0.397331516119006,0
2.77999925613403,-1.8363184928894,2.15611171722412,2.614577293396,-1.83612778424135,2.15619595838884,2.61417390919667,2114.025,2113.866,2112.854,2113.646,1.17094373703003,44.9999771118164,359.546264648438,-1.07443761825562,-0.474148690700531,0.395689189434052,-1.07501437446502,-0.474403176962758,0.395944541397954,0
2.79999923706055,-1.85772931575775,2.14666318893433,2.62246227264404,-1.85758812933952,2.14672552140203,2.62207808861973,2112.943,2112.938,2111.933,2112.562,1.25231373310089,44.9999961853027,359.5146484375,-1.07053208351135,-0.47242471575737,0.394244074821472,-1.07097704139878,-0.472621504383695,0.394457528733421,0
2.81999921798706,-1.87905621528625,2.13725161552429,2.63031625747681,-1.87896502476831,2.13729191070258,2.62995153222952,2111.832,2111.969,2111.057,2111.541,1.33323979377747,45,359.483154296875,-1.06635689735413,-0.470582127571106,0.392699688673019,-1.06666967051771,-0.470720664284367,0.39287105693486,0
2.83999919891357,-1.90029454231262,2.12787914276123,2.63813734054565,-1.90025308639476,2.12789750230502,2.637792256966,2110.932,2111.065,2110.001,2110.471,1.41382718086243,45,359.451873779297,-1.06191372871399,-0.468621671199799,0.391056507825851,-1.06209394170572,-0.468701397996503,0.391185744729686,0
2.85999917984009,-1.92143869400024,2.11854791641235,2.64592361450195,-1.92144696476736,2.11854465691899,2.64559829254283,2109.972,2110.064,2109.024,2109.527,1.49400615692139,45,359.420806884766,-1.05720412731171,-0.466543883085251,0.38931530714035,-1.05725164322649,-0.466564494679755,0.38940225076327,0
2.8799991607666,-1.9424831867218,2.10926127433777,2.65367317199707,-1.94254134728364,2.10923571899268,2.65336768224577,2109.103,2109.126,2107.988,2108.537,1.57377052307129,45.0000152587891,359.390014648438,-1.05222988128662,-0.464349269866943,0.387476831674576,-1.05214467172349,-0.464310791321704,0.387521273598945,0
2.89999914169312,-1.96342301368713,2.10002017021179,2.66138410568237,-1.96353096035775,2.09997301575624,2.66109848373099,2108.424,2108.067,2106.795,2107.68,1.65304362773895,45.0000228881836,359.359436035156,-1.04699277877808,-0.462038278579712,0.385541647672653,-1.04677503221993,-0.461941172737859,0.385543551718,0
2.91999912261963,-1.98425281047821,2.09082818031311,2.66905426979065,-1.98441057158806,2.09075885626527,2.66878876982346,2107.449,2107.223,2105.905,2106.65,1.73160195350647,45.0000305175781,359.329040527344,-1.04149484634399,-0.459611713886261,0.383510589599609,-1.04114483811882,-0.459456571571655,0.383469863519688,0
2.93999910354614,-2.00496768951416,2.0816867351532,2.67668199539185,-2.00517499192477,2.08159553044423,2.6764366293153,2106.646,2106.232,2104.884,2105.78,1.80948185920715,45.0000305175781,359.298889160156,-1.03573834896088,-0.45707094669342,0.381384372711182,-1.03525631120294,-0.456857968294451,0.381301027321215,0
2.95999908447266,-2.02556228637695,2.07259845733643,2.68426537513733,-2.02581907783748,2.0724853081299,2.68404016776413,2105.622,2105.39,2104.094,2104.802,1.88658916950226,45.0000381469727,359.268920898438,-1.0297257900238,-0.454417139291763,0.379163950681686,-1.02911178163483,-0.454146391205539,0.37903790135775,0
2.97999906539917,-2.04603123664856,2.06356549263,2.69180226325989,-2.04633773348279,2.0634304381148,2.69159750829144,2104.721,2104.536,2103.213,2103.855,1.96302473545074,45.0000419616699,359.239196777344,-1.02345955371857,-0.451651632785797,0.376850157976151,-1.02271368795683,-0.451322916432132,0.376681383782419,0
2.99999904632568,-2.06637001037598,2.05458998680115,2.69929122924805,-2.06672591287191,2.05443314719067,2.69910679238095,2103.914,2103.739,2102.27,2102.878,2.03879880905151,45.0000495910645,359.209777832031,-1.01694202423096,-0.44877564907074,0.374443799257278,-1.01606457709102,-0.448388667929374,0.37423241266631,0
3.0199990272522,-2.08657360076904,2.04567384719849,2.70673012733459,-2.08697862203824,2.04549563919187,2.70656618067696,2103.069,2102.857,2101.386,2102.015,2.11385059356689,45.0000534057617,359.180725097656,-1.01017570495605,-0.44579017162323,0.371945977210999,-1.00916710433927,-0.445344817480333,0.371691965998467,0
3.03999900817871,-2.10663676261902,2.03681993484497,2.71411728858948,-2.10709092120493,2.03662009403885,2.71397385378271,2102.25,2102.004,2100.509,2101.149,2.1881639957428,45.0000648498535,359.152008056641,-1.00316345691681,-0.442696064710617,0.369357615709305,-1.00202403338324,-0.442192584696006,0.369061061685893,0
3.05999898910522,-2.1265549659729,2.02803015708923,2.72145080566406,-2.12705792695255,2.02780866678159,2.72132801305873,2101.615,2101.081,2099.493,2100.365,2.26171255111694,45.0000648498535,359.123687744141,-0.995907962322235,-0.439494371414185,0.366679817438126,-0.994638236284343,-0.438933237015318,0.366340757553553,0
3.07999897003174,-2.14632320404053,2.01930642127991,2.7287290096283,-2.14687481438663,2.01906348664303,2.72862688142123,2100.86,2100.208,2098.613,2099.575,2.33432793617249,45.0000648498535,359.095642089844,-0.988412141799927,-0.436186164617538,0.363913595676422,-0.987012693483767,-0.435568089705115,0.363532151344369,0
3.09999895095825,-2.1659369468689,2.01065111160278,2.73595023155212,-2.16653681930524,2.01038665606252,2.73586870414043,2100.067,2099.454,2097.801,2098.694,2.40595650672913,45.0000762939453,359.06787109375,-0.980679094791412,-0.432773023843765,0.361060202121735,-0.979150493802477,-0.432098505860178,0.360636380719221,0
3.11999893188477,-2.18539094924927,2.00206613540649,2.74311256408691,-2.18603924036664,2.00178024973926,2.74305174963891,2099.259,2098.673,2097.028,2097.874,2.4765887260437,45.0000762939453,359.040435791016,-0.97271192073822,-0.429256618022919,0.358120650053024,-0.971054834441214,-0.428525896403209,0.357654623256951,0
3.13999891281128,-2.20468139648438,1.9935530424118,2.75021457672119,-2.2053774412568,1.99324631367575,2.75017431029,2098.531,2098.02,2096.212,2096.952,2.54623937606812,45.0000801086426,359.013336181641,-0.964513957500458,-0.425638675689697,0.355096191167831,-0.962729020980491,-0.424851720084839,0.354588096454356,0
3.15999889373779,-2.22380304336548,1.98511457443237,2.75725436210632,-2.22454685285709,1.98478686422122,2.75723470321611,2097.639,2097.293,2095.573,2096.149,2.61487007141113,45.0000839233398,358.986694335938,-0.956088423728943,-0.421920776367188,0.351988077163696,-0.954176467380594,-0.421077483483627,0.351438057726197,0
3.17999887466431,-2.24275159835815,1.97675251960754,2.76423025131226,-2.24354297541176,1.97640388711508,2.76423127108712,2097.065,2096.52,2094.676,2095.396,2.68259239196777,45.0000877380371,358.960510253906,-0.947438955307007,-0.418104410171509,0.348797529935837,-0.945400695981583,-0.417204741006056,0.34820580440519,0
3.19999885559082,-2.26152324676514,1.96846866607666,2.77114081382751,-2.26236138069562,1.96809933653037,2.77116238291869,2096.452,2095.738,2093.843,2094.691,2.74926567077637,45.0000877380371,358.934844970703,-0.938569068908691,-0.4141905605793,0.345525920391083,-0.936405337503294,-0.413235094886539,0.344892673742013,0
3.21999931335449,-2.28011298179626,1.96026515960693,2.77798438072205,-2.28099815630218,1.95987493900964,2.77802659771055,2095.741,2094.913,2093.13,2094.07,2.81479287147522,45.0000953674316,358.909606933594,-0.929482400417328,-0.410180568695068,0.342174559831619,-0.927193908890037,-0.40917009715042,0.341499961082044,0
3.23999929428101,-2.29851675033569,1.95214343070984,2.7847592830658,-2.29944813483561,1.95173297492148,2.78482201223034,2095.248,2094.244,2092.255,2093.301,2.8791720867157,45.0000953674316,358.884704589844,-0.920182943344116,-0.40607625246048,0.338744848966599,-0.917770696924021,-0.405011639552032,0.338029245313953,0
3.25999927520752,-2.31673002243042,1.94410610198975,2.79146409034729,-2.31770756218257,1.94367510095377,2.79154724377962,2094.436,2093.62,2091.696,2092.557,2.94223570823669,45.0001029968262,358.860229492188,-0.910674333572388,-0.401879549026489,0.335238188505173,-0.908139440412473,-0.400761372024684,0.334481903498689,0
3.27999925613403,-2.33474922180176,1.93615412712097,2.79809713363647,-2.33577231791786,1.93570313544759,2.7982007747416,2093.903,2092.984,2090.924,2091.825,3.00409507751465,45.0001106262207,358.836212158203,-0.900960683822632,-0.397592604160309,0.331656128168106,-0.898304203596912,-0.396421088115638,0.330859432559715,0
3.29999923706055,-2.35257005691528,1.92828965187073,2.80465722084045,-2.35363836398482,1.92781886039485,2.80478111783711,2093.158,2092.416,2090.367,2091.091,3.06464385986328,45.000114440918,358.812683105469,-0.891045987606049,-0.393217206001282,0.328000068664551,-0.88826915909862,-0.39199262920008,0.327163369338456,0
3.31999921798706,-2.37018895149231,1.92051482200623,2.81114268302917,-2.37130174686297,1.92002402048169,2.81128681692295,2092.588,2091.791,2089.688,2090.424,3.12396621704102,45.000129699707,358.789703369141,-0.880934655666351,-0.38875538110733,0.324271738529205,-0.878038587918658,-0.387477884481124,0.323395290594295,0
3.33999919891357,-2.38760137557983,1.91283059120178,2.81755208969116,-2.38875859973552,1.91232032213196,2.81771644779027,2092.067,2091.048,2088.997,2089.91,3.18201398849487,45.0001258850098,358.767333984375,-0.870630979537964,-0.384208738803864,0.320472598075867,-0.867616879437855,-0.382878790989809,0.319556813004572,0
3.35999917984009,-2.40480422973633,1.90523898601532,2.82388424873352,-2.40600514465703,1.90470943255063,2.8240686189629,2091.567,2090.548,2088.316,2089.191,3.2387113571167,45.0001220703125,358.745422363281,-0.860139429569244,-0.379578948020935,0.316604346036911,-0.857008531416827,-0.378197333585105,0.31564959316459,0
3.3799991607666,-2.42179346084595,1.8977415561676,2.83013772964478,-2.42303769472098,1.89719297876726,2.83034197249575,2091.025,2089.898,2087.708,2088.66,3.29398131370544,45.0001258850098,358.72412109375,-0.849464297294617,-0.374868035316467,0.31266862154007,-0.846218149995946,-0.373435544953903,0.311675327587605,0
3.39999914169312,-2.43856596946716,1.89034008979797,2.83631110191345,-2.43985265622738,1.88977254667945,2.83653518477311,2090.54,2089.365,2087.086,2088.04,3.34779143333435,45.0001258850098,358.703308105469,-0.838610470294952,-0.37007811665535,0.308667182922363,-0.83525044969537,-0.368595505611027,0.307635752704839,0
3.41999912261963,-2.45511770248413,1.88303565979004,2.84240317344666,-2.45644653085034,1.88244968009623,2.84264696730706,2089.997,2088.761,2086.55,2087.535,3.40008497238159,45.000129699707,358.683074951172,-0.827582657337189,-0.365211367607117,0.304601728916168,-0.82411025341503,-0.363679343899225,0.303532644865469,0
3.43999910354614,-2.47144508361816,1.87583065032959,2.84841275215149,-2.47281591780566,1.87522587978156,2.8486760675358,2089.494,2088.355,2086.011,2086.867,3.45086121559143,45.0001220703125,358.663391113281,-0.816385805606842,-0.360270023345947,0.300474017858505,-0.812802492434623,-0.358689235989169,0.299367820336632,0
3.45999908447266,-2.48754549026489,1.86872553825378,2.85433840751648,-2.48895751601844,1.86810260249774,2.85462126962203,2089.167,2087.827,2085.35,2086.339,3.50010514259338,45.000129699707,358.644317626953,-0.805024743080139,-0.355256408452988,0.29628598690033,-0.80133220641363,-0.353627405879466,0.295143135303424,0
3.47999906539917,-2.50341558456421,1.86172199249268,2.86017918586731,-2.50486812629071,1.86108126004887,2.86048139525128,2088.577,2087.374,2084.953,2085.811,3.54767084121704,45.000129699707,358.625885009766,-0.793504595756531,-0.350172728300095,0.29203936457634,-0.789704543391292,-0.348496125396641,0.290860485868899,0
3.49999904632568,-2.51905226707458,1.85482144355774,2.86593389511108,-2.52054465346893,1.85416321832427,2.86625530443029,2088.105,2086.889,2084.494,2085.332,3.59364438056946,45.000129699707,358.608093261719,-0.781830847263336,-0.345021337270737,0.287736177444458,-0.777924759786642,-0.343297714195152,0.286521808054073,0
3.5199990272522,-2.53445267677307,1.84802556037903,2.87160134315491,-2.53598410861166,1.84734979634196,2.87194189628537,2087.707,2086.402,2084.002,2084.891,3.63802933692932,45.000129699707,358.591003417969,-0.77000880241394,-0.339804500341415,0.283378452062607,-0.76599822039847,-0.338034539757381,0.282129077797916,0
3.53999900817871,-2.54961347579956,1.8413348197937,2.87718081474304,-2.55118361115713,1.84064226529204,2.87754010986073,2087.399,2085.886,2083.464,2084.509,3.68078303337097,45.000129699707,358.574523925781,-0.758043766021729,-0.334524363279343,0.278968065977097,-0.753930398405346,-0.332709017393638,0.277684310957364,0
3.55999898910522,-2.56453227996826,1.83475112915039,2.88267087936401,-2.56614039109084,1.83404184758022,2.8830489249169,2087.056,2085.612,2082.99,2083.93,3.72180604934692,45.000129699707,358.558654785156,-0.74594110250473,-0.329183280467987,0.274507135152817,-0.741726875365613,-0.327323610242159,0.273189563307306,0
3.57999897003174,-2.5792064666748,1.82827520370483,2.88807082176208,-2.58085179111314,1.82754971587117,2.88846736272899,2086.764,2085.182,2082.513,2083.54,3.76104021072388,45.0001220703125,358.543487548828,-0.733706176280975,-0.323783963918686,0.269997656345367,-0.729393341217394,-0.321880829269108,0.268646930540591,0
3.59999895095825,-2.59363317489624,1.82190895080566,2.89337968826294,-2.59531526880683,1.82116699213203,2.89379448688517,2086.374,2084.853,2082.156,2083.104,3.79840612411499,45.0001220703125,358.529022216797,-0.721344947814941,-0.318328857421875,0.265441745519638,-0.716935594278572,-0.316383233268576,0.264058548268031,0
3.61999893188477,-2.60781049728394,1.81565260887146,2.89859652519226,-2.60952839880474,1.81489474667582,2.89902940408491,2086.153,2084.433,2081.691,2082.774,3.83391714096069,45.0001182556152,358.515319824219,-0.708863377571106,-0.312820672988892,0.260841578245163,-0.704359541246822,-0.31083342886258,0.259426592018394,0
3.63999891281128,-2.6217360496521,1.80950713157654,2.90372061729431,-2.62348887495737,1.8087339972049,2.90417126493742,2085.711,2084.114,2081.451,2082.42,3.86746525764465,45.0001220703125,358.502319335938,-0.696267604827881,-0.307262063026428,0.256199330091476,-0.691671197199575,-0.305234070501064,0.254753277238406,0
3.65999889373779,-2.63540720939636,1.80347406864166,2.90875101089478,-2.63719451250043,1.80268570785438,2.90921926475998,2085.339,2083.832,2081.192,2082.057,3.89914107322693,45.0001182556152,358.490020751953,-0.683563768863678,-0.301655918359756,0.251517236232758,-0.678876685594044,-0.2995878604619,0.250040859292755,0
3.67999935150146,-2.64882206916809,1.79755401611328,2.91368699073792,-2.65064356778746,1.79675064809438,2.91417276134044,2085.214,2083.54,2080.754,2081.718,3.92899131774902,45.0001220703125,358.478515625,-0.670758008956909,-0.296004980802536,0.24679759144783,-0.665981929698162,-0.293897412679552,0.245291519813294,0
