t,x_s1,x_s2,x_s3,x_s_d1,x_s_d2,x_s_d3,propellers_rpms1,propellers_rpms2,propellers_rpms3,propellers_rpms4,rollRad,pitchRad,yawRad,v_s1,v_s2,v_s3,v_s_d1,v_s_d2,v_s_d3,insideCount
0,-0.0599999986588955,2.94000005722046,1.17999994754791,-0.0599999986588955,2.94000005722046,1.17999994754791,0,0,0,0,0,45.0048027038574,0,0,0,0,-1.06581410364015E-15,4.44089209850063E-16,4.44089209850063E-16,0
0.0199999921023846,-0.0599999986588955,2.94000005722046,1.17999994754791,-0.0600018689851485,2.93999925247132,1.18000110536896,0,0,0,0,-4.71187853179345E-08,45.0048027038574,4.57171331902373E-08,-3.68531795724258E-15,-8.77082051431444E-09,8.78962147510265E-09,-0.000279986375734238,-0.000120470315563732,0.000173324904179954,5
0.0399999842047691,-0.0599999986588955,2.94000005722046,1.17607593536377,-0.0600148713857818,2.93999365790158,1.18000915447434,0,0,0,0,-9.42375706358689E-08,45.0048027038574,9.14342663804746E-08,-3.68531838075906E-15,-8.77082051431444E-09,-0.1961999386549,-0.00111096802362334,-0.000478018503710732,0.000687742129368719,5
0.059999980032444,-0.0599999986588955,2.94000005722046,1.16822791099548,-0.060049891741204,2.93997858962099,1.1800308337426,2483.177,2426.947,2293.967,2352.254,-1.41356366611944E-07,45.0048027038574,1.37151431545135E-07,-3.68531880427553E-15,-8.77082051431444E-09,-0.392399907112122,-0.00247956031385756,-0.00106688553215623,0.00153496595211551,5
0.0799999684095383,-0.0599999986588955,2.94000005722046,1.16085970401764,-0.0601175492801009,2.93994947847214,1.18007271698215,2752.472,2696.867,2565.458,2622.914,359.916717529297,45.0049209594727,0.0319045893847942,-4.572782152934E-09,-2.06533758984051E-08,-0.368407666683197,-0.00437248577996248,-0.00188135847800576,0.00270677698817921,5
0.0999999642372131,-0.0600069686770439,2.93999695777893,1.15446972846985,-0.0602281988646503,2.9399018690471,1.18014121434596,2804.378,2721.816,2514.405,2603.191,359.751129150391,45.0049896240234,0.0953977629542351,-0.000348418863723055,-0.000155468820594251,-0.319499403238297,-0.00677657765502183,-0.00291577204929212,0.00419502438161857,5
0.119999960064888,-0.0600347779691219,2.93998456001282,1.14906060695648,-0.0603919330116387,2.93983141881785,1.18024257358268,2689.34,2658.063,2565.583,2604.017,359.457885742188,45.0048828125,0.209562122821808,-0.00139052513986826,-0.000619960948824883,-0.270453423261642,-0.0096787755294144,-0.00416450671662093,0.00599162311672447,5
0.139999955892563,-0.0601075477898121,2.93995237350464,1.14457380771637,-0.0606185841441557,2.93973389716743,1.1803828814306,2543.783,2579.188,2642.231,2612.7,359.110168457031,45.0043296813965,0.346820563077927,-0.00363856507465243,-0.00161434011533856,-0.22433865070343,-0.0130661279819148,-0.00562198984525972,0.00808855564679666,5
0.159999936819077,-0.06025330722332,2.93988800048828,1.14094483852386,-0.0609177264885074,2.93960518457372,1.18056806479188,2433.023,2512.443,2686.963,2609.55,358.805786132813,45.0036697387695,0.469774216413498,-0.00728793162852526,-0.0032164016738534,-0.181449726223946,-0.0169257889229127,-0.00728269412172734,0.0104778696304222,5
0.179999932646751,-0.0604959838092327,2.93978142738342,1.13811051845551,-0.0612986791863105,2.93944127127045,1.18080389265912,2397.127,2474.761,2659.712,2579.774,358.613189697266,45.0035972595215,0.55124431848526,-0.0121338777244091,-0.00532564055174589,-0.141718626022339,-0.0212450294505367,-0.0091411426551529,0.013151685270981,5
0.199999928474426,-0.0608501024544239,2.93962693214417,1.13601016998291,-0.0617705071352352,2.93923825688537,1.18109597663578,2429.962,2465.609,2565.469,2525.635,358.536163330078,45.0043106079102,0.587843358516693,-0.0177058707922697,-0.00772725278511643,-0.105016708374023,-0.026011220582377,-0.0111919015472184,0.0161021846267596,5
0.219999924302101,-0.0613207370042801,2.93942260742188,1.13458621501923,-0.0623420239858836,2.93899234915087,1.18144977279146,2489.34,2470.304,2445.945,2462.654,358.518798828125,45.0053215026855,0.598796010017395,-0.0235318075865507,-0.0102138854563236,-0.0711961537599564,-0.031211844417406,-0.0134295846948213,0.0193216185207115,5
0.239999920129776,-0.0619080998003483,2.93916893005371,1.13378405570984,-0.0630217941146897,2.93869986305502,1.18187058288313,2524.071,2469.36,2353.113,2409.713,358.482330322266,45.0059814453125,0.613024950027466,-0.0293681174516678,-0.0126889757812023,-0.0401056632399559,-0.0368344914346654,-0.0158488526277751,0.0228023048682162,5
0.25999990105629,-0.0626136735081673,2.93886494636536,1.13355207443237,-0.0638181341527546,2.93835722018381,1.18236355530163,2503.081,2449.345,2319.573,2378.848,358.37060546875,45.0059051513672,0.652751326560974,-0.0352788642048836,-0.0151974940672517,-0.01159886457026,-0.0428668558492025,-0.0184444105105986,0.026536625802182,4
0.279999911785126,-0.0634444952011108,2.9385073184967,1.13384139537811,-0.0647391183472776,2.93796094641423,1.1829336883906,2429.952,2409.485,2343.031,2369.667,358.178100585938,45.0051307678223,0.72261244058609,-0.0415412560105324,-0.0178764015436172,0.0144665706902742,-0.0492967588323918,-0.0212110181335712,0.0305170420475318,4
0.299999892711639,-0.0644135326147079,2.93809008598328,1.13460600376129,-0.0657925735053613,2.93750767408983,1.18358582731648,2337.338,2360.366,2391.1,2371.316,357.947326660156,45.0039901733398,0.809500277042389,-0.048451840877533,-0.0208605602383614,0.0382330305874348,-0.0561120968528548,-0.0241434676852743,0.0347360609417709,4
0.319999873638153,-0.0655365288257599,2.9376060962677,1.13580298423767,-0.066986089843436,2.93699413735254,1.18432467078482,2265.791,2317.042,2422.341,2369.472,357.740234375,45.0030784606934,0.891712009906769,-0.0561497919261456,-0.0242025386542082,0.0598464980721474,-0.0633009032247692,-0.0272366102351091,0.0391862745363232,4
0.339999884366989,-0.0668275058269501,2.93704915046692,1.13739216327667,-0.0683270199764796,2.93641717257755,1.18515477041453,2240.627,2290.626,2409.902,2354.362,357.60205078125,45.0028839111328,0.951506316661835,-0.0645487532019615,-0.0278468653559685,0.0794580653309822,-0.0708513218684839,-0.0304853444432222,0.0438603433531013,4
0.359999865293503,-0.0682955011725426,2.93641591072083,1.13933658599854,-0.0698224741524531,2.93577372042378,1.18608052778782,2259.812,2282.824,2354.56,2325.392,357.538360595703,45.003475189209,0.984047055244446,-0.073399655520916,-0.0316672287881374,0.0972234308719635,-0.0787515710530303,-0.0338846009599213,0.0487509739393939,4
0.379999876022339,-0.0699441656470299,2.93570518493652,1.14160251617432,-0.0714793369853421,2.93506081863418,1.1871062048087,2298.163,2286.031,2281.265,2290.252,357.516387939453,45.0043601989746,0.998393654823303,-0.0824333056807518,-0.0355389639735222,0.113298051059246,-0.086990023450842,-0.0374293768709845,0.0538509684255509,4
0.399999856948853,-0.0717740878462791,2.93491721153259,1.14415907859802,-0.0733042517476919,2.93427560879415,1.18823591397934,2323.581,2288.566,2223.002,2259.536,357.486968994141,45.0048866271973,1.01095259189606,-0.0914960280060768,-0.0394022464752197,0.127828985452652,-0.0955551120403749,-0.0411146952101866,0.059153166274223,4
0.419999837875366,-0.0737862214446068,2.93405151367188,1.14697802066803,-0.0753036392233569,2.93341532821979,1.18947363007081,2315.5,2281.185,2201.677,2240.934,357.413299560547,45.0047264099121,1.03594243526459,-0.10060677677393,-0.0432831533253193,0.140949830412865,-0.104435414773886,-0.0449356413894786,0.0646504966937494,4
0.439999848604202,-0.0759845301508904,2.93310618400574,1.15003371238708,-0.0774836936378566,2.9324773117089,1.19082318760378,2274.716,2261.831,2217.384,2235.403,357.289520263672,45.0039138793945,1.07815563678741,-0.109915383160114,-0.0472653694450855,0.152782306075096,-0.11361961986258,-0.0488873482621572,0.0703359571480111,4
0.459999829530716,-0.0783764570951462,2.93207740783691,1.15330255031586,-0.0798503739108672,2.93145899530482,1.19228827543339,2220.614,2235.688,2250.617,2237.636,357.140533447266,45.0028533935547,1.13167381286621,-0.119596302509308,-0.051433689892292,0.163441479206085,-0.123096482606157,-0.0529649775478235,0.0762025866318629,4
0.479999840259552,-0.080971322953701,2.93096089363098,1.15676331520081,-0.0824094292610639,2.93035790527936,1.19387245259987,2178.357,2211.634,2275.15,2239.533,357.004699707031,45.002067565918,1.1843523979187,-0.129743427038193,-0.0558236464858055,0.173040464520454,-0.132854922276536,-0.0571637615187439,0.0822435256467739,5
0.499999821186066,-0.0837777554988861,2.92975282669067,1.16039717197418,-0.0851663731207339,2.92917166935664,1.19557913218046,2164.496,2196.964,2272.992,2234.938,356.911499023438,45.001895904541,1.22508573532104,-0.140321791172028,-0.0604040324687958,0.181693241000175,-0.142883909221989,-0.0614789544239126,0.0884519463129095,5
0.519999802112579,-0.0868016630411148,2.9284508228302,1.16418743133545,-0.0881265112831755,2.92789800460203,1.19741159871394,2178.724,2193.77,2243.428,2222.507,356.866058349609,45.0023345947266,1.24956738948822,-0.151195526123047,-0.0650981366634369,0.189513579010963,-0.153172565600841,-0.0659058758319492,0.0948211147280901,5
0.539999783039093,-0.0900457948446274,2.92705416679382,1.16811966896057,-0.0912949291136132,2.92653472292494,1.19937300028366,2205.964,2198.348,2201.413,2205.803,356.849090576172,45.0029983520508,1.26176261901855,-0.162206828594208,-0.069828175008297,0.196611076593399,-0.163710107617,-0.0704398857766591,0.101344355208831,5
0.559999823570251,-0.0935109555721283,2.92556309700012,1.17218136787415,-0.0946765077855201,2.92507972409279,1.2014663585685,2226.278,2203.823,2167.612,2190.704,356.830108642578,45.0033950805664,1.27078866958618,-0.173257648944855,-0.0745556205511093,0.203085601329803,-0.174485892312833,-0.0750764048907026,0.108015079257362,5
0.579999804496765,-0.0971979349851608,2.92397713661194,1.17636179924011,-0.0982758855033902,2.92353101241576,1.203694544838,2226.289,2204.164,2156.418,2181.955,356.785308837891,45.0032577514648,1.28544843196869,-0.18434938788414,-0.0792953446507454,0.209024146199226,-0.185489288397106,-0.0798108588264658,0.114826705597972,5
0.599999785423279,-0.101109221577644,2.92229509353638,1.18065178394318,-0.102097520116728,2.92188666980575,1.20606031871336,2205.673,2197.332,2168.78,2180.719,356.709777832031,45.0026245117188,1.30962240695953,-0.19556437432766,-0.0840993374586105,0.21450212597847,-0.196709868977879,-0.0846387611836407,0.121772779487847,5
0.619999766349792,-0.105249345302582,2.92051458358765,1.18504357337952,-0.106145651628018,2.92014487190815,1.20856630495809,2175.985,2185.698,2192.966,2184.547,356.618011474609,45.001823425293,1.34090447425842,-0.207006141543388,-0.0890219360589981,0.219587713479996,-0.208137283778369,-0.0895556585272806,0.128846893612608,5
0.639999747276306,-0.109624058008194,2.9186327457428,1.18953049182892,-0.110424314118205,2.91830388297061,1.21121500086048,2152.789,2174.346,2212.547,2188.958,356.53369140625,45.0012359619141,1.37266802787781,-0.218735679984093,-0.0940870493650436,0.224345967173576,-0.219761290901539,-0.0945571440552161,0.136042707750099,5
0.659999787807465,-0.114238828420639,2.91664719581604,1.19410729408264,-0.114937351717038,2.91636204897151,1.21400878611995,2146.719,2167.915,2215.797,2190.153,356.475677490234,45.001106262207,1.39816391468048,-0.230738580226898,-0.099276028573513,0.228841170668602,-0.231571792295924,-0.0996388728580087,0.143353970725426,5
0.679999768733978,-0.119097575545311,2.9145565032959,1.19877004623413,-0.119688366274122,2.91431782013557,1.21694989045299,2158.158,2168.182,2201.569,2186.882,356.448089599609,45.0014114379883,1.41413581371307,-0.242936998605728,-0.104540444910526,0.233136564493179,-0.243558692403314,-0.104796501098997,0.150774432907138,5
0.699999749660492,-0.124202266335487,2.91235995292664,1.20351588726044,-0.124680800209538,2.91216971528562,1.22004044488162,2178.121,2173.453,2178.775,2180.692,356.439605712891,45.0018653869629,1.42211091518402,-0.255235135555267,-0.109829910099506,0.237291440367699,-0.25571210939136,-0.11002577690179,0.158297976970277,5
0.719999730587006,-0.129553645849228,2.91005754470825,1.20834302902222,-0.129917885593406,2.90991634375217,1.22328245021121,2194.221,2179.878,2160.322,2174.699,356.431396484375,45.0021553039551,1.42700445652008,-0.267568707466125,-0.115118287503719,0.241357609629631,-0.268022234882335,-0.115322479995463,0.165918531061789,5
0.739999711513519,-0.135152280330658,2.90764927864075,1.21325051784515,-0.135402659412275,2.90755639880475,1.2266777864811,2197.876,2183.648,2155.506,2171.794,356.408264160156,45.0020599365234,1.43413376808167,-0.279931992292404,-0.120413579046726,0.245377391576767,-0.280479368878259,-0.120682436741875,0.173630090420851,5
0.759999752044678,-0.140999674797058,2.9051342010498,1.21823823451996,-0.141137983205286,2.90508864920302,1.23022822512034,2188.529,2183.056,2165.311,2173.067,356.366516113281,45.0016288757324,1.44634807109833,-0.292369544506073,-0.125748082995415,0.249384626746178,-0.29307395749094,-0.126101536369839,0.181426740735557,5
0.779999732971191,-0.147098511457443,2.90251111984253,1.22330641746521,-0.147126476115806,2.90251196800275,1.23393538750343,2172.967,2179.171,2182.842,2177.378,356.314514160156,45.0010757446289,1.46283626556396,-0.304942101240158,-0.131156325340271,0.253407806158066,-0.305796442389055,-0.131575666196417,0.189302564943491,5
0.799999713897705,-0.153452262282372,2.89977812767029,1.22845590114594,-0.153370619602546,2.89982528750158,1.23780080977152,2160.832,2174.751,2197.85,2182.402,356.266876220703,45.0006828308105,1.48008167743683,-0.317687332630157,-0.136653751134872,0.257472962141037,-0.318637486048877,-0.137100808546009,0.19725178267266,5
0.819999694824219,-0.160064220428467,2.89693355560303,1.23368799686432,-0.159872691993147,2.89702762739878,1.24182590231796,2158.882,2172.737,2202.836,2185.773,356.235534667969,45.0005798339844,1.49404013156891,-0.330598026514053,-0.142228469252586,0.261605679988861,-0.331587821991737,-0.142672976311719,0.205268657531342,5
0.839999675750732,-0.16693677008152,2.89397668838501,1.23900461196899,-0.16663478736965,2.89411808666934,1.24601196147929,2167.666,2174.503,2196.733,2186.489,356.223541259766,45.0007820129395,1.50241100788116,-0.34362730383873,-0.147848904132843,0.265830904245377,-0.344638292118709,-0.148288229019428,0.213347520220043,5
0.859999716281891,-0.174071058630943,2.89090704917908,1.24440801143646,-0.173658839061432,2.89109583345565,1.25036018407849,2181.916,2179.287,2184.755,2185.225,356.224334716797,45.0010757446289,1.50565445423126,-0.356714755296707,-0.153481587767601,0.270171284675598,-0.357779886002355,-0.15394268973393,0.221482792854951,5
0.879999697208405,-0.181467399001122,2.88772487640381,1.24990093708038,-0.180946537299623,2.88796014049848,1.25487161644914,2193.97,2185.003,2174.919,2183.585,356.226379394531,45.0012664794922,1.50636899471283,-0.369817018508911,-0.159107804298401,0.274644643068314,-0.371003583951354,-0.159632477534032,0.229668891817471,5
0.899999678134918,-0.189125895500183,2.8844301700592,1.25548624992371,-0.188499456976537,2.88471033016565,1.25954723352461,2198.38,2189.268,2173.154,2183.355,356.220031738281,45.0012245178223,1.50770461559296,-0.382925450801849,-0.164731219410896,0.279263079166412,-0.384300592040009,-0.165353808639179,0.237900373248685,5
0.919999659061432,-0.197047159075737,2.88102269172668,1.26116693019867,-0.196318976867224,2.88134580920878,1.26438788883233,2194.513,2190.931,2180.395,2185.271,356.202606201172,45.0009498596191,1.51158142089844,-0.396062910556793,-0.17037133872509,0.284033417701721,-0.397662185688703,-0.1711029291065,0.2461718362182,5
0.939999639987946,-0.205232441425323,2.87750172615051,1.2669460773468,-0.204406302339104,2.87786605899195,1.26939432855217,2186.413,2190.323,2192.54,2188.97,356.178955078125,45.0005950927734,1.51788067817688,-0.409263730049133,-0.176049634814262,0.288959205150604,-0.411079748697569,-0.1768761316259,0.254477946887852,5
0.959999680519104,-0.213683426380157,2.87386631965637,1.27282691001892,-0.212762492824401,2.87427062367106,1.27456720852312,2179.992,2189.009,2203.306,2193.163,356.157989501953,45.0003395080566,1.52475154399872,-0.422549664974213,-0.181775689125061,0.294042855501175,-0.424544813437776,-0.18266977281325,0.262813463392024,5
0.979999661445618,-0.222401723265648,2.87011551856995,1.27881264686584,-0.221388363573279,2.87055915246675,1.27990703342388,2179.588,2188.745,2207.877,2196.489,356.147277832031,45.0002822875977,1.52983582019806,-0.435915738344193,-0.187541484832764,0.299286991357803,-0.438048900190371,-0.188480204082383,0.271173136380742,5
0.999999642372131,-0.231388360261917,2.86624908447266,1.28490650653839,-0.230284637237593,2.86673133444211,1.28541425061038,2185.698,2190.497,2205.441,2198.225,356.149047851563,45.0004043579102,1.5315990447998,-0.44933208823204,-0.193325981497765,0.30469423532486,-0.451583757957464,-0.194303875259412,0.27955185809326,5
1.01999962329865,-0.240643560886383,2.8622670173645,1.29111182689667,-0.239451847229689,2.86278694008471,1.29108919029025,2195.267,2194.003,2199.007,2198.615,356.159484863281,45.0005874633789,1.53005695343018,-0.462759435176849,-0.199106380343437,0.310266315937042,-0.465141204058494,-0.200137265565489,0.287944563060517,5
1.03999960422516,-0.250166893005371,2.85816955566406,1.29743182659149,-0.248890364392249,2.85872580983131,1.2969320820328,2203.591,2198.125,2193.511,2198.506,356.171569824219,45.0007171630859,1.52654910087585,-0.476167678833008,-0.20486918091774,0.316002577543259,-0.478713164192651,-0.205976900854545,0.296346252905679,5
1.05999958515167,-0.259957849979401,2.8539571762085,1.30386984348297,-0.258600399165891,2.85454785313518,1.30294305611079,2207.188,2201.503,2192.756,2198.887,356.179229736328,45.0006866455078,1.52288889884949,-0.489547461271286,-0.210615038871765,0.321899235248566,-0.492291672438868,-0.211819353613287,0.304751996344136,5
1.07999956607819,-0.270015984773636,2.84963011741638,1.31042885780334,-0.268582003756762,2.85025304753347,1.3091221448423,2205.544,2203.26,2197.468,2200.38,356.180541992188,45.0005226135254,1.52035486698151,-0.502909064292908,-0.216355293989182,0.327949792146683,-0.505868871255825,-0.2176612429612,0.313156929183504,5
1.09999966621399,-0.280341416597366,2.84518814086914,1.31711173057556,-0.278835136225848,2.84584141107139,1.3154693222651,2201.025,2203.519,2205.259,2202.843,356.178314208984,45.0003051757813,1.51905453205109,-0.516270637512207,-0.222102791070938,0.334146082401276,-0.519437092312213,-0.22349926942955,0.32155630436141,5
1.1199996471405,-0.290934324264526,2.84063076972961,1.32392132282257,-0.289359416585141,2.84131310724714,1.3219843531485,2197.234,2203.122,2212.323,2205.609,356.177917480469,45.0001335144043,1.51803958415985,-0.529643595218658,-0.227863147854805,0.340479731559753,-0.532988533043588,-0.229330075792835,0.329945291718775,5
1.13999962806702,-0.301794767379761,2.83595824241638,1.33086013793945,-0.3001544956463,2.83666828630672,1.32866702132829,2196.901,2203.124,2215.646,2207.877,356.184173583984,45.0000915527344,1.51595389842987,-0.543023526668549,-0.23363071680069,0.346943020820618,-0.546515741955651,-0.235150455881228,0.338319278425664,5
1.15999960899353,-0.312922596931458,2.83117032051086,1.33793067932129,-0.311219814352623,2.8319071887966,1.33551698072173,2200.637,2204.111,2214.401,2209.254,356.198699951172,45.0001640319824,1.51183044910431,-0.556390523910522,-0.239391267299652,0.353528827428818,-0.560011295026715,-0.240957215345602,0.346673668658998,6
1.17999958992004,-0.324316918849945,2.8262677192688,1.34513533115387,-0.32255466625091,2.82703011868387,1.34253379400064,2206.484,2206.129,2210.554,2209.668,356.219268798828,45.0002861022949,1.50550734996796,-0.569718241691589,-0.245129093527794,0.360230058431625,-0.573467876614841,-0.246747206469604,0.355003933687925,6
1.19999957084656,-0.335976660251617,2.82125115394592,1.35247611999512,-0.334158199659061,2.82203744242354,1.34971693393324,2211.687,2208.511,2206.981,2209.651,356.241607666016,45.0003662109375,1.49767506122589,-0.582985281944275,-0.250834077596664,0.367038577795029,-0.586878279457835,-0.252517328169661,0.363305611873816,6
1.21999955177307,-0.347900301218033,2.81612110137939,1.35995507240295,-0.346029419833664,2.81692958802591,1.35706578472596,2213.969,2210.448,2206.181,2209.783,356.261901855469,45.0003547668457,1.4893616437912,-0.596182644367218,-0.256505340337753,0.373944878578186,-0.60023540467325,-0.258264525994975,0.37157430867027,6
1.23999953269958,-0.360086530447006,2.81087803840637,1.36757385730743,-0.358167191137591,2.8117070441239,1.36457964336532,2212.885,2211.5,2208.74,2210.353,356.278778076172,45.0002632141113,1.48133778572083,-0.609313547611237,-0.262148916721344,0.380938321352005,-0.613532261758385,-0.263985792127526,0.379805696623111,6
1.2599995136261,-0.372534275054932,2.80552268028259,1.37533402442932,-0.370570239207589,2.80637035904043,1.37225772095976,2209.834,2211.583,2213.269,2211.434,356.293823242188,45.000129699707,1.47380590438843,-0.622386634349823,-0.267772346735001,0.388007521629333,-0.626761968590286,-0.269678165382072,0.387995515370391,6
1.27999949455261,-0.385242402553558,2.80005502700806,1.3832368850708,-0.383237153121874,2.80092013985572,1.38009914408149,2207.096,2211.072,2217.361,2212.773,356.310363769531,45.0000305175781,1.46633529663086,-0.635406911373138,-0.273378729820251,0.3951416015625,-0.639917751425747,-0.275338731206147,0.396139571642386,6
1.29999959468842,-0.398209810256958,2.7944757938385,1.39128351211548,-0.396166465410552,2.79535701798107,1.38810300429674,2206.384,2210.697,2219.156,2213.793,356.331451416016,44.9999961853027,1.45813393592834,-0.648370087146759,-0.27896374464035,0.402330309152603,-0.652993022582349,-0.280964655104045,0.404233787349864,6
1.31999957561493,-0.411435008049011,2.78878545761108,1.39947474002838,-0.409356344400193,2.78968178153439,1.3962681677124,2208.163,2210.772,2218.058,2214.314,356.358123779297,45.0000381469727,1.44860529899597,-0.661262333393097,-0.284517616033554,0.409564256668091,-0.665981069175534,-0.286553048709076,0.412274006897505,6
1.33999955654144,-0.424916356801987,2.78298497200012,1.40781140327454,-0.422805058782351,2.78389517544933,1.40459356256606,2211.261,2211.411,2215.25,2214.216,356.389190673828,45.0001029968262,1.4375616312027,-0.674065470695496,-0.290029317140579,0.416834473609924,-0.678875520783022,-0.292101171006504,0.420256286690452,6
1.35999953746796,-0.438651621341705,2.77707505226135,1.4162939786911,-0.43651067307629,2.77799803250919,1.41307799070296,2213.999,2212.274,2212.488,2213.768,356.421997070313,45.0001564025879,1.42532122135162,-0.686764061450958,-0.295491337776184,0.424131751060486,-0.691670037181239,-0.297606293975249,0.428176701828286,6
1.37999951839447,-0.452638626098633,2.77105712890625,1.42492294311523,-0.45047112608072,2.77199123959129,1.4217201761413,2214.939,2212.985,2211.347,2213.217,356.454132080078,45.0001525878906,1.41244626045227,-0.69935005903244,-0.300902128219604,0.431446492671967,-0.704358386526357,-0.303065736227009,0.436031394502814,6
1.39999949932098,-0.466875076293945,2.76493191719055,1.43369829654694,-0.464684233041386,2.76587573673435,1.43051876641413,2213.805,2213.079,2212.187,2212.955,356.484680175781,45.0000991821289,1.39947509765625,-0.711822926998138,-0.306264579296112,0.438768535852432,-0.716934445354295,-0.30847686300626,0.443816573998067,6
1.4199994802475,-0.481358796358109,2.75870037078857,1.44262003898621,-0.47914768781867,2.75965251620584,1.43947233391117,2211.333,2212.599,2214.299,2212.923,356.514556884766,45.0000076293945,1.38655912876129,-0.724185764789581,-0.311582714319229,0.446087747812271,-0.729392198580716,-0.313837086190255,0.451528516690305,6
1.43999946117401,-0.496087551116943,2.75236320495605,1.45168793201447,-0.493859065055175,2.75332262156927,1.44857937722065,2208.936,2211.717,2216.207,2213.024,356.545684814453,44.999942779541,1.37350404262543,-0.736440002918243,-0.316857874393463,0.453394502401352,-0.741725739501034,-0.319143864289024,0.459163566048012,6
1.45999944210052,-0.511059165000916,2.74592137336731,1.46090149879456,-0.508815822343323,2.7468871467516,1.45783832247117,2207.729,2210.81,2216.712,2212.978,356.580047607422,44.9999313354492,1.35988759994507,-0.74858146905899,-0.322086960077286,0.460679888725281,-0.753929269790406,-0.324394702445373,0.466718132631899,6
1.47999942302704,-0.526271164417267,2.73937606811523,1.47026026248932,-0.524015302392944,2.74034723511057,1.46724752467353,2208.015,2210.112,2215.447,2212.629,356.618377685547,44.9999542236328,1.34534239768982,-0.760600209236145,-0.32726314663887,0.467935770750046,-0.765997099503737,-0.329587152434887,0.474188694094901,6
1.49999952316284,-0.541720867156982,2.73272848129272,1.47976338863373,-0.539454827934603,2.7337040386004,1.47680532647041,2209.213,2209.698,2212.98,2211.925,356.659942626953,45.0000038146973,1.32972133159637,-0.772483468055725,-0.332378566265106,0.475154310464859,-0.777923717731525,-0.334718843067164,0.481571838921516,6
1.51999950408936,-0.557405173778534,2.72598004341125,1.48940992355347,-0.555131334348531,2.72695887584137,1.48650983071619,2210.239,2209.447,2210.456,2210.943,356.703186035156,45.0000343322754,1.31314980983734,-0.784219920635223,-0.33742755651474,0.482327938079834,-0.789703509085649,-0.339787358197571,0.488864090918999,6
1.53999948501587,-0.573321282863617,2.71913194656372,1.49919891357422,-0.571041924015683,2.72011299359802,1.49635924364665,2210.156,2209.094,2208.892,2209.882,356.746520996094,45.0000343322754,1.29594123363495,-0.795802652835846,-0.342408210039139,0.489449024200439,-0.801331180275272,-0.344790420270939,0.496062173288168,6
1.55999946594238,-0.589465856552124,2.7121856212616,1.5091290473938,-0.587183501790833,2.71316772362485,1.50635164921945,2208.691,2208.435,2208.625,2208.893,356.789306640625,45,1.27839767932892,-0.807229459285736,-0.347321718931198,0.496509879827499,-0.812801474874933,-0.34972576759424,0.503162832051264,6
1.5799994468689,-0.605835855007172,2.70514225959778,1.51919913291931,-0.603552868484143,2.70612444244388,1.51648506698368,2206.406,2207.436,2209.098,2208.023,356.832061767578,44.9999504089355,1.26066040992737,-0.818500638008118,-0.352170199155807,0.50350296497345,-0.824109244838915,-0.35459118510722,0.510162880322752,6
1.59999942779541,-0.622428178787231,2.69800329208374,1.5294075012207,-0.620146723028754,2.69898457041196,1.52675745342171,2204.086,2206.166,2209.509,2207.229,356.876007080078,44.9999122619629,1.24267184734344,-0.829615473747253,-0.356954038143158,0.510421216487885,-0.835249450501249,-0.359384504382406,0.517059198309326,5
1.61999940872192,-0.639239490032196,2.69076991081238,1.53975260257721,-0.636961664648381,2.69174957078812,1.53716670329101,2202.506,2204.792,2209.031,2206.418,356.922332763672,44.9999046325684,1.22422826290131,-0.840570092201233,-0.361670821905136,0.517258107662201,-0.846217160575712,-0.364103603625099,0.523848733309903,5
1.63999938964844,-0.656266629695892,2.68344354629517,1.55023276805878,-0.653994195024907,2.68442094880091,1.54771065096602,2201.851,2203.552,2207.445,2205.392,356.971527099609,44.9999198913574,1.20508849620819,-0.851357221603394,-0.366315692663193,0.524007678031921,-0.857007552155828,-0.368746407673381,0.530528499715628,5
1.65999937057495,-0.673506021499634,2.67602586746216,1.56084609031677,-0.67124072046597,2.67700025071577,1.55838707177998,2201.743,2202.432,2205.136,2204.174,357.023193359375,44.999942779541,1.18516325950623,-0.861967742443085,-0.370883017778397,0.530664265155792,-0.867615910714866,-0.373310887998107,0.53709557900987,5
1.67999935150146,-0.6909539103508,2.66851854324341,1.57159054279327,-0.688697554072563,2.66948906290232,1.56919368336676,2201.577,2201.397,2202.727,2202.792,357.076354980469,44.9999542236328,1.16449427604675,-0.872393429279327,-0.375368595123291,0.537222564220428,-0.878037630105846,-0.377795062702911,0.543547119768228,5
1.69999945163727,-0.708606481552124,2.66092324256897,1.58246409893036,-0.706361023796448,2.66188896534035,1.5801282125536,2200.758,2200.339,2200.865,2201.32,357.130004882813,44.9999580383301,1.14323055744171,-0.882628560066223,-0.379770457744598,0.5436772108078,-0.888268272962199,-0.382197022512927,0.549880375049414,5
1.71999943256378,-0.726459801197052,2.65324139595032,1.59346461296082,-0.724227052244719,2.65420171241811,1.59118813524004,2199.12,2199.14,2199.754,2199.847,357.183715820313,44.9999351501465,1.12154972553253,-0.892670333385468,-0.384088903665543,0.550023078918457,-0.898303327916801,-0.386514826312912,0.556092552102273,5
1.7399994134903,-0.744510233402252,2.64547491073608,1.60458970069885,-0.742291790573715,2.64642896018551,1.60237106880851,2196.832,2197.755,2199.244,2198.411,357.237701416016,44.9999046325684,1.09956789016724,-0.902517557144165,-0.388324767351151,0.556255161762238,-0.90813857551568,-0.390746658589701,0.562181038883795,5
1.75999939441681,-0.762753665447235,2.63762545585632,1.61583709716797,-0.760551200733267,2.63857244610272,1.6136745135136,2194.539,2196.128,2198.667,2197.104,357.292755126953,44.999885559082,1.07730627059937,-0.912168800830841,-0.392478108406067,0.56236869096756,-0.917769843131486,-0.394890723978315,0.56814325233888,4
1.77999937534332,-0.781185984611511,2.62969446182251,1.62720429897308,-0.779001162304534,2.63063394307086,1.62509591861977,2192.708,2194.466,2197.537,2195.748,357.349639892578,44.999870300293,1.05462789535522,-0.921620726585388,-0.396547049283981,0.568359434604645,-0.927193066516615,-0.398945273746551,0.573976676504655,4
1.79999935626984,-0.79980331659317,2.62168383598328,1.63868880271912,-0.797637474667596,2.62261525849933,1.63663268374317,2191.444,2192.892,2195.733,2194.249,357.408630371094,44.9998817443848,1.03140115737915,-0.930867850780487,-0.40052804350853,0.574223518371582,-0.93640428980321,-0.402908605794985,0.579678862510473,4
1.81999933719635,-0.818601310253143,2.61359548568726,1.6502879858017,-0.816455859169051,2.61451823337315,1.64828216019354,2190.555,2191.328,2193.449,2192.691,357.469512939453,44.9998970031738,1.00759589672089,-0.939903616905212,-0.404417276382446,0.579957246780396,-0.945399665503159,-0.406779064656968,0.58524742857791,3
1.83999931812286,-0.837575733661652,2.60543131828308,1.66199910640717,-0.835451961289599,2.60634474132034,1.660041652316,2189.655,2189.837,2191.084,2191.011,357.531646728516,44.9999046325684,0.983209669589996,-0.948722004890442,-0.408211469650269,0.585557222366333,-0.954175454508099,-0.410555041498632,0.590680060020772,3
1.85999929904938,-0.856722176074982,2.59719324111938,1.67381954193115,-0.854621352811647,2.5980966876792,1.6719084188329,2188.338,2188.317,2189.071,2189.29,357.594451904297,44.9999122619629,0.958322703838348,-0.957318484783173,-0.411908954381943,0.591020047664642,-0.962728026089412,-0.414234974118882,0.595974509245088,0
1.87999927997589,-0.876035988330841,2.5888831615448,1.68574643135071,-0.87395953398689,2.58977600856573,1.68387967418569,2186.493,2186.737,2187.542,2187.548,357.657562255859,44.9999046325684,0.933021545410156,-0.965690433979034,-0.415509551763535,0.59634256362915,-0.971053857898228,-0.417817346949402,0.601128595749115,0
1.89999938011169,-0.895512640476227,2.58050298690796,1.69777691364288,-0.893462052427636,2.58138461971797,1.6959526621343,2184.294,2185.085,2186.331,2185.801,357.721130371094,44.9998893737793,0.907374501228333,-0.973836302757263,-0.419013559818268,0.601521670818329,-0.979149583526931,-0.421300711519042,0.606140235566175,0
1.91999936103821,-0.91514778137207,2.5720546245575,1.70990800857544,-0.913124039316749,2.57292461605191,1.70812436864899,2182.07,2183.338,2185.104,2184.082,357.785583496094,44.999885559082,0.88142204284668,-0.981754243373871,-0.422420740127563,0.606554448604584,-0.987011800861963,-0.424683603993382,0.61100732262591,0
1.93999934196472,-0.934936583042145,2.56353998184204,1.72213673591614,-0.932940909077627,2.56439797061305,1.72039195503939,2180.026,2181.48,2183.653,2182.42,357.851409912109,44.999870300293,0.855151891708374,-0.989441514015198,-0.425729721784592,0.611438274383545,-0.99463736163763,-0.427964669761646,0.615727908001882,0
1.95999932289124,-0.954874515533447,2.55496096611023,1.73446011543274,-0.952907897514699,2.55580673330166,1.7327524720415,2178.414,2179.671,2181.709,2180.679,357.918792724609,44.999885559082,0.828480362892151,-0.996894299983978,-0.428938090801239,0.616170823574066,-1.00202317702469,-0.431142579786905,0.620300079561653,0
1.97999930381775,-0.974956691265106,2.54632043838501,1.74687504768372,-0.973020179739669,2.54715298013237,1.74520293281962,2177.031,2177.875,2179.482,2178.894,357.987640380859,44.999885559082,0.801379024982452,-1.00410783290863,-0.432043015956879,0.620749831199646,-1.00916626657366,-0.434216051665007,0.624721992265008,0
1.99999928474426,-0.99517810344696,2.53761959075928,1.75937855243683,-0.993272872339099,2.53843881230157,1.75774031430821,2175.781,2176.039,2177.061,2177.136,358.057586669922,44.9998893737793,0.773842871189117,-1.01107788085938,-0.435042053461075,0.625173270702362,-1.01606375821479,-0.437183849624576,0.62899186816396,0
2.01999926567078,-1.01553416252136,2.52886056900024,1.77196729183197,-1.01366103554201,2.52966635525469,1.77036155855371,2174.153,2174.373,2174.995,2175.158,358.128082275391,44.9998970031738,0.745838642120361,-1.01780104637146,-0.437933802604675,0.629439175128937,-1.02271288825808,-0.440044784527016,0.633107996402746,0
2.03999924659729,-1.03601968288422,2.52004647254944,1.78463816642761,-1.03417967538748,2.52083775775362,1.78306357405642,2172.143,2172.614,2173.29,2173.233,358.198944091797,44.9998931884766,0.717499732971191,-1.02427506446838,-0.440718203783035,0.633545637130737,-1.02911100139329,-0.442797713866505,0.637068733217831,0
2.0599992275238,-1.05662977695465,2.51117849349976,1.79738795757294,-1.05482374589221,2.511955190944,1.7958432371123,2170.059,2170.707,2171.628,2171.427,358.270324707031,44.9998779296875,0.68889707326889,-1.03049850463867,-0.44339519739151,0.637490928173065,-1.03525555068989,-0.44544154177,0.640872501937905,0
2.07999920845032,-1.07735919952393,2.50225925445557,1.81021344661713,-1.07558815121816,2.50302084742257,1.80869739315486,2167.796,2168.867,2170.139,2169.507,358.342376708984,44.9998779296875,0.659987926483154,-1.03646993637085,-0.445964395999908,0.641273319721222,-1.04114409759714,-0.447975218997234,0.644517792983883,0
2.09999918937683,-1.09820282459259,2.4932906627655,1.82311129570007,-1.09646774784009,2.49403694030456,1.82162285809696,2165.798,2166.948,2168.355,2167.651,358.415466308594,44.9998779296875,0.630805194377899,-1.04218709468842,-0.448425054550171,0.644891381263733,-1.04677431194403,-0.45039774294072,0.648003163868908,0
2.11999917030334,-1.11915576457977,2.48427510261536,1.83607816696167,-1.11745734671321,2.48500570229096,1.83461641967267,2164.005,2165.075,2166.342,2165.729,358.489685058594,44.999885559082,0.601322829723358,-1.04764723777771,-0.450775384902954,0.648343741893768,-1.05214397193928,-0.452708157625744,0.651327239198348,0
2.13999915122986,-1.14021277427673,2.47521471977234,1.84911072254181,-1.13855171544072,2.47592938473595,1.84767483877913,2162.373,2163.126,2164.146,2163.869,358.56494140625,44.9998817443848,0.571561753749847,-1.05284738540649,-0.453013569116592,0.651629149913788,-1.05725096417139,-0.454905553710372,0.654488710669797,0
2.15999913215637,-1.16136837005615,2.46611189842224,1.86220562458038,-1.15974558044144,2.46681025671419,1.86079485081838,2160.734,2161.22,2161.934,2161.958,358.640960693359,44.999885559082,0.541483223438263,-1.05778455734253,-0.45513790845871,0.654746413230896,-1.06209328360857,-0.456989068485446,0.657486337073075,0
2.17999911308289,-1.18261766433716,2.45696902275085,1.87535953521729,-1.18103362911738,2.45765060408816,1.87397316703917,2159.016,2159.355,2159.786,2159.995,358.717529296875,44.9998931884766,0.511089980602264,-1.0624566078186,-0.457147508859634,0.657694578170776,-1.0666690335988,-0.458957885874587,0.660318944290228,0
2.19999933242798,-1.20395493507385,2.44778823852539,1.88856899738312,-1.20241076736204,2.44845261870959,1.88720663394693,2157.038,2157.42,2157.894,2158.082,358.79443359375,44.9998970031738,0.480424135923386,-1.06686186790466,-0.459042012691498,0.660472571849823,-1.07097647561163,-0.460811257836709,0.662985456088088,0
2.21999931335449,-1.2253749370575,2.43857192993164,1.90183055400848,-1.22387110132782,2.43921883653644,1.90049160296922,2154.994,2155.591,2156.06,2156.054,358.871704101563,44.9998931884766,0.449475228786469,-1.0709992647171,-0.460821360349655,0.663079500198364,-1.07501382704219,-0.462548417366737,0.665484768949324,0
2.23999929428101,-1.24687230587006,2.42932224273682,1.91514086723328,-1.24540946868523,2.42995147877487,1.91382487837818,2152.804,2153.652,2154.371,2154.12,358.949432373047,44.9998970031738,0.418328672647476,-1.07486772537231,-0.462485611438751,0.665514528751373,-1.07877956933011,-0.464168711070571,0.667815942812731,0
2.25999927520752,-1.26844155788422,2.42004156112671,1.92849636077881,-1.26702042244467,2.42065288911233,1.92720308822777,2150.746,2151.74,2152.543,2152.155,359.027893066406,44.9999008178711,0.386982202529907,-1.07846593856812,-0.464034199714661,0.667776942253113,-1.08227223934366,-0.465671509403495,0.669978071930061,0
2.27999925613403,-1.29007744789124,2.41073226928711,1.94189369678497,-1.28869848743772,2.41132542336085,1.94062284312791,2148.887,2149.804,2150.51,2150.212,359.107116699219,44.9999046325684,0.355458617210388,-1.08179223537445,-0.465466260910034,0.66986608505249,-1.08549048233082,-0.46705622945357,0.671970317645288,0
2.29999923706055,-1.31177425384521,2.40139675140381,1.95532929897308,-1.31043816248474,2.40197144852433,1.95408073758635,2147.132,2147.83,2148.37,2148.305,359.187042236328,44.9999046325684,0.323760569095612,-1.08484482765198,-0.466780364513397,0.671781361103058,-1.08843305191934,-0.468322334941636,0.673791908394614,0
2.31999921798706,-1.3335268497467,2.39203715324402,1.96879971027374,-1.33223392256247,2.39259334186593,1.9675733513505,2145.442,2145.89,2146.164,2146.365,359.267547607422,44.9999046325684,0.291860222816467,-1.08762192726135,-0.467975497245789,0.673522293567657,-1.09109881011673,-0.469469336221307,0.675442139706467,0
2.33999919891357,-1.35532927513123,2.38265609741211,1.98230147361755,-1.35408022097161,2.38319348997539,1.98109725074927,2143.579,2143.959,2144.133,2144.417,359.348327636719,44.9999008178711,0.259756743907928,-1.0901221036911,-0.469051003456116,0.675088465213776,-1.09348672731021,-0.470496790278978,0.676920374201502,0
2.35999917984009,-1.37717616558075,2.37325596809387,1.99583101272583,-1.37597149150444,2.37377428783641,1.99464899003492,2141.693,2142.081,2142.123,2142.424,359.429382324219,44.9999084472656,0.227458238601685,-1.09234476089478,-0.470006704330444,0.676479339599609,-1.09559588226677,-0.471404300733819,0.678226041592597,0
2.3799991607666,-1.39906191825867,2.3638391494751,2.00938487052917,-1.39790215061238,2.36433813789396,2.0082251127249,2139.665,2140.159,2140.268,2140.471,359.510620117188,44.9999046325684,0.195012718439102,-1.09428918361664,-0.470842868089676,0.677694737911224,-1.09742546213314,-0.472191517837776,0.679358638684859,0
2.39999914169312,-1.42098093032837,2.35440802574158,2.0229594707489,-1.41986659957358,2.35488744912162,2.02182215294369,2137.614,2138.26,2138.442,2138.502,359.592132568359,44.9999084472656,0.162433579564095,-1.09595513343811,-0.471559464931488,0.678734421730042,-1.09897476243581,-0.472858138475575,0.68031772937562,0
2.41999912261963,-1.44292783737183,2.3449649810791,2.0365514755249,-1.44185922666057,2.34542463608896,2.03543663676465,2135.623,2136.343,2136.565,2136.558,359.674011230469,44.9999122619629,0.12975101172924,-1.09734213352203,-0.472156405448914,0.679598212242126,-1.100243187081,-0.473403906164717,0.681102944654437,0
2.43999910354614,-1.46489667892456,2.33551239967346,2.05015707015991,-1.46387440930777,2.33595211802887,2.04906508355185,2133.705,2134.393,2134.622,2134.654,359.756286621094,44.9999122619629,0.0969759225845337,-1.09844946861267,-0.472633272409439,0.680285930633545,-1.10123024835468,-0.473828611055482,0.681713982603094,0
2.45999908447266,-1.48688232898712,2.32605266571045,2.06377291679382,-1.48590651627916,2.32647231790489,2.06270400730194,2131.938,2132.513,2132.539,2132.693,359.838989257813,44.9999160766602,0.0640890449285507,-1.09927654266357,-0.472989499568939,0.680797576904297,-1.10193556692257,-0.474132089930926,0.682150608395601,0
2.47999906539917,-1.50887870788574,2.31658792495728,2.07739567756653,-1.50794990983581,2.31698766147859,2.07634991798596,2130.127,2130.563,2130.517,2130.807,359.921936035156,44.9999160766602,0.0311246551573277,-1.09982252120972,-0.473224669694901,0.681133151054382,-1.10235887183014,-0.474314226206882,0.682412654298194,0
2.49999904632568,-1.53088057041168,2.30712151527405,2.09102153778076,-1.52999894790352,2.30750057637687,2.08999932289122,2128.328,2128.75,2128.49,2128.802,0.00507035059854388,44.999927520752,-0.00194468873087317,-1.10008716583252,-0.473338395357132,0.681292712688446,-1.10250000050259,-0.47437494993196,0.682500019669334,0
2.5199990272522,-1.55288195610046,2.29765486717224,2.10464715957642,-1.55204798624038,2.29801349115933,2.10364872796309,2126.541,2126.734,2126.468,2127.01,0.0882715880870819,44.9999198913574,359.964965820313,-1.1000702381134,-0.47333088517189,0.681276321411133,-1.1023588987449,-0.474314237787549,0.68241267095971,0
2.53999900817871,-1.57487726211548,2.2881908416748,2.11826872825623,-1.5740913806044,2.28852883438564,2.11729463914691,2124.574,2124.966,2124.639,2124.988,0.171442434191704,44.999927520752,359.931762695313,-1.09977197647095,-0.473202139139175,0.681084215641022,-1.10193562074175,-0.474132113087814,0.682150641712234,0
2.55999898910522,-1.59686136245728,2.27873182296753,2.13188314437866,-1.59612348892105,2.27904903368284,2.13093356372978,2122.656,2123.107,2122.78,2123.074,0.254643499851227,44.9999313354492,359.898529052734,-1.09919273853302,-0.472952723503113,0.680716514587402,-1.10123032905761,-0.473828645779696,0.681714032562048,0
2.57999897003174,-1.6188280582428,2.26928019523621,2.14548659324646,-1.61813867345089,2.2695765148127,2.14456201168243,2120.686,2121.183,2120.994,2121.24,0.337900042533875,44.9999389648438,359.865325927734,-1.09833288192749,-0.472582936286926,0.680173695087433,-1.10024329463667,-0.473403952442914,0.681103011236517,0
2.59999918937683,-1.64077162742615,2.25983834266663,2.15907573699951,-1.64013156497321,2.26011358800091,2.15817665920145,2118.879,2119.367,2119.064,2119.317,0.421292632818222,44.9999389648438,359.832092285156,-1.09719276428223,-0.472092658281326,0.679455995559692,-1.09897488000713,-0.472858189063228,0.680317802157866,0
2.61999917030334,-1.66268730163574,2.25040864944458,2.17264699935913,-1.66209601652007,2.25066289811603,2.17177370102089,2117.202,2117.573,2117.028,2117.39,0.50476747751236,44.9999389648438,359.798889160156,-1.09577250480652,-0.471481919288635,0.678563833236694,-1.09742560311921,-0.472191578500142,0.679358725961952,0
2.63999915122986,-1.68456852436066,2.24099373817444,2.18619704246521,-1.68402667868143,2.24122674685977,2.18534982560108,2115.309,2115.625,2115.222,2115.646,0.588166296482086,44.999942779541,359.765747070313,-1.09407246112823,-0.470750689506531,0.677497744560242,-1.09559604661333,-0.471404371447551,0.678226143330945,0
2.65999913215637,-1.70641040802002,2.23159551620483,2.19972229003906,-1.70591795273427,2.23180754320623,2.19890156706579,2113.659,2113.838,2113.207,2113.752,0.671527564525604,44.9999504089355,359.732604980469,-1.09209358692169,-0.46989917755127,0.676258265972137,-1.09348691495395,-0.470496871016837,0.676920490361915,0
2.67999911308289,-1.72820723056793,2.22221708297729,2.213219165802,-1.72776425512866,2.22240768960096,2.21242546893162,2111.786,2112.031,2111.431,2111.909,0.754691898822784,44.9999504089355,359.699493408203,-1.08983635902405,-0.468927681446075,0.674845933914185,-1.0910990209853,-0.469469426952161,0.675442270244156,0
2.6999990940094,-1.7499532699585,2.21286058425903,2.22668433189392,-1.74956001965534,2.2130295810283,2.22591808544988,2110.052,2110.18,2109.546,2110.132,0.837701082229614,44.9999542236328,359.666442871094,-1.08730173110962,-0.467836827039719,0.673261344432831,-1.08843328593135,-0.468322435630462,0.673792053259191,0
2.71999907493591,-1.77164304256439,2.20352816581726,2.24011445045471,-1.77129969961328,2.20367560407874,2.23937598294842,2108.288,2108.438,2107.716,2108.274,0.920489132404327,44.9999580383301,359.633392333984,-1.08449077606201,-0.466626971960068,0.671505153179169,-1.08549073939581,-0.467056340061457,0.671970476780766,0
2.73999905586243,-1.7932710647583,2.19422221183777,2.25350594520569,-1.79297776997733,2.19434813601627,2.25279574117346,2106.493,2106.722,2105.946,2106.416,1.00302624702454,44.9999656677246,359.600433349609,-1.08140456676483,-0.465299010276794,0.669578373432159,-1.08227251936216,-0.465671629887637,0.669978245274857,0
2.75999903678894,-1.81483209133148,2.18494510650635,2.26685547828674,-1.81458872956577,2.18504954384568,2.26617395463148,2104.717,2105.003,2104.185,2104.59,1.085324883461,44.9999694824219,359.567596435547,-1.07804429531097,-0.463853418827057,0.667481660842896,-1.0787798721936,-0.464168841384272,0.667816130299661,0
2.77999901771545,-1.83632040023804,2.17569923400879,2.28015971183777,-1.83612710320793,2.17578218337996,2.27950723393099,2102.976,2103.221,2102.42,2102.857,1.16739153862,44.9999694824219,359.534912109375,-1.07441115379333,-0.462290644645691,0.665215909481049,-1.07501415263309,-0.462548557459409,0.665484970505605,0
2.79999899864197,-1.85773038864136,2.1664867401123,2.29341530799866,-1.85758744391174,2.16654839830762,2.29279220712445,2101.347,2101.477,2100.579,2101.113,1.24921488761902,44.9999847412109,359.502410888672,-1.07050681114197,-0.460611045360565,0.662782073020935,-1.07097682380333,-0.460811407653873,0.662985671635341,0
2.81999897956848,-1.87905693054199,2.15731072425842,2.3066189289093,-1.87896433503139,2.15735051926004,2.30602552105005,2099.723,2099.779,2098.765,2099.352,1.33070230484009,44.9999847412109,359.470062255859,-1.06633245944977,-0.458815068006516,0.660181164741516,-1.06666945720677,-0.458958068141266,0.660319206523745,0
2.839998960495,-1.9002947807312,2.14817261695862,2.31976723670959,-1.90025239243486,2.1481908628788,2.31920384267361,2098.167,2097.961,2096.919,2097.741,1.41176843643188,44.9999847412109,359.437866210938,-1.06188976764679,-0.456903338432312,0.657414257526398,-1.06209373272561,-0.456989261727965,0.657486615097922,0
2.85999894142151,-1.92143833637238,2.13907504081726,2.33285689353943,-1.92144626667155,2.13907173088305,2.33232386043035,2096.411,2096.326,2095.296,2095.992,1.49228692054749,44.9999923706055,359.405792236328,-1.05718052387238,-0.45487654209137,0.654482424259186,-1.05725143862179,-0.454905757853127,0.6544890043772,0
2.87999892234802,-1.94248235225677,2.13002061843872,2.3458845615387,-1.94254064513985,2.12999540913685,2.34538228556683,2094.757,2094.713,2093.612,2094.251,1.57231569290161,44.9999923706055,359.373870849609,-1.05220675468445,-0.452736020088196,0.651386857032776,-1.052144471537,-0.452708372588685,0.651327548473136,0
2.89999890327454,-1.96342182159424,2.12101078033447,2.35884714126587,-1.96353025425476,2.1209641667165,2.3583758534827,2093.147,2093.071,2091.922,2092.576,1.65184152126312,44.9999961853027,359.342102050781,-1.04697036743164,-0.450482696294785,0.648128807544708,-1.04677483649268,-0.45039796863935,0.64800348858951,0
2.91999888420105,-1.98425126075745,2.11204814910889,2.37174129486084,-1.98440986161545,2.1119802549779,2.3713013250726,2091.428,2091.521,2090.373,2090.85,1.73082995414734,45,359.310577392578,-1.04147326946259,-0.448117643594742,0.644709587097168,-1.04114464689001,-0.447975455342608,0.644518133022331,0
2.93999886512756,-2.00496554374695,2.10313558578491,2.38456392288208,-2.00517427817288,2.10304590662387,2.38415548806798,2089.896,2089.94,2088.684,2089.184,1.80935573577881,45.0000038146973,359.279327392578,-1.03571784496307,-0.445641577243805,0.641130566596985,-1.03525612450991,-0.445441788668724,0.640872857159832,0
2.95999884605408,-2.02555966377258,2.09427452087402,2.39731168746948,-2.02581836039739,2.09416333477156,2.39693515837897,2088.497,2088.223,2086.909,2087.688,1.88734865188599,45.0000076293945,359.248413085938,-1.02970600128174,-0.443055212497711,0.637393176555634,-1.02911159951308,-0.442797971220741,0.637069103482473,0
2.97999882698059,-2.04602837562561,2.08546733856201,2.4099817276001,-2.04633701244627,2.0853347320197,2.40963718143616,2086.966,2086.667,2085.297,2086.082,1.96464443206787,45.0000190734863,359.217712402344,-1.02344036102295,-0.440359175205231,0.633498907089233,-1.02271351043992,-0.440045052234476,0.633108381562939,0
2.99999904632568,-2.06636714935303,2.07671594619751,2.42257070541382,-2.06672543057999,2.07656216528323,2.42225858349598,2085.469,2085.117,2083.697,2084.504,2.04120707511902,45.0000190734863,359.187255859375,-1.0169233083725,-0.437554776668549,0.629449307918549,-1.01606432346125,-0.437184092834336,0.628992218078444,0
3.0199990272522,-2.08657026290894,2.06802320480347,2.43507552146912,-2.08697813469083,2.06784799249938,2.43479597211068,2083.896,2083.613,2082.211,2082.932,2.11699104309082,45.0000305175781,359.157073974609,-1.01015746593475,-0.434643268585205,0.625246047973633,-1.00916685243125,-0.434216303743162,0.624722354938765,0
3.03999900817871,-2.10663270950317,2.05939102172852,2.44749331474304,-2.1070904288371,2.05919423420069,2.44724644026866,2082.48,2082.104,2080.62,2081.397,2.19203448295593,45.0000381469727,359.127166748047,-1.00314569473267,-0.431625962257385,0.62089079618454,-1.00202378325828,-0.431142840632279,0.62030045484912,0
3.05999898910522,-2.12655067443848,2.05082058906555,2.45982098579407,-2.12705742960057,2.0506029915856,2.45960696490139,2081.089,2080.675,2079.049,2079.827,2.26626062393188,45.0000457763672,359.097564697266,-0.995890736579895,-0.428504198789597,0.616385340690613,-0.994637988003018,-0.427964939269174,0.615728295751895,0
3.07999897003174,-2.14631867408752,2.0423150062561,2.47205567359924,-2.14687431208796,2.04207634067088,2.47187455917011,2079.426,2079.244,2077.771,2078.331,2.33958983421326,45.000057220459,359.068328857422,-0.988395512104034,-0.425279229879379,0.611731469631195,-0.987012447105925,-0.424683882054105,0.611007722681707,0
3.09999895095825,-2.16593194007874,2.0338761806488,2.48419427871704,-2.16653631209854,2.03361633135901,2.48404627380761,2078.133,2077.747,2076.2,2076.914,2.41219305992126,45.000057220459,359.039489746094,-0.980663299560547,-0.42195251584053,0.606931030750275,-0.979150249387196,-0.421300998020112,0.606140647765399,0
3.11999893188477,-2.18538618087769,2.02550554275513,2.49623394012451,-2.18603872829175,2.02522498650551,2.49611919846012,2076.855,2076.31,2074.658,2075.49,2.48394703865051,45.0000648498535,359.010986328125,-0.972697019577026,-0.418524950742722,0.601985991001129,-0.971054592046769,-0.41781766283301,0.601129050222034,0
3.13999891281128,-2.20467615127563,2.01720547676086,2.50817179679871,-2.20537692435472,2.01690430098627,2.50809046302913,2075.464,2074.942,2073.267,2074.058,2.55473399162292,45.000072479248,358.982849121094,-0.964499652385712,-0.414997756481171,0.596898317337036,-0.962728780664334,-0.41423529879139,0.595974976362911,0
3.15999889373779,-2.22379732131958,2.00897812843323,2.52000522613525,-2.22454633116994,2.00865624076491,2.51995723901323,2074.256,2073.63,2071.762,2072.601,2.62455749511719,45.0000801086426,358.955078125,-0.956074595451355,-0.411372572183609,0.591670155525208,-0.954176229199323,-0.410555374826624,0.590680539591543,0
3.17999887466431,-2.24274587631226,2.00082516670227,2.53173136711121,-2.2435424489828,2.00048274196013,2.53171674084998,2073.02,2072.299,2070.328,2071.219,2.69328236579895,45.0000877380371,358.927734375,-0.947425246238708,-0.407650917768478,0.586303651332855,-0.945400459990917,-0.406779406502856,0.585247920403679,0
3.19999885559082,-2.26151704788208,1.99274837970734,2.54334735870361,-2.26236084956923,1.99238570991304,2.54336622725771,2071.611,2070.931,2069.102,2069.941,2.76082468032837,45.0000991821289,358.90087890625,-0.938555479049683,-0.403834372758865,0.580800950527191,-0.936405103758047,-0.402908956017012,0.579679366387291,0
3.21999883651733,-2.28010678291321,1.98475003242493,2.55485057830811,-2.28099717840322,1.98436701825452,2.55490300257741,2070.282,2069.659,2067.859,2068.612,2.82726526260376,45.0000991821289,358.874420166016,-0.929469227790833,-0.399924665689468,0.575164318084717,-0.927193899599382,-0.398945632198791,0.573977192222574,0
3.23999881744385,-2.29851007461548,1.97683143615723,2.56623840332031,-2.29944715682451,1.97642850797257,2.56632441811454,2069.051,2068.327,2066.574,2067.395,2.8926420211792,45.0001029968262,358.848419189453,-0.920170307159424,-0.395923644304276,0.569396197795868,-0.917770694993346,-0.394891090510675,0.568143779681951,0
3.25999879837036,-2.31672334671021,1.96899473667145,2.57750844955444,-2.31770658420609,1.96857198647962,2.57762787348089,2067.924,2067.245,2065.243,2065.979,2.95692920684814,45.0001068115234,358.822784423828,-0.910662412643433,-0.391832709312439,0.563498914241791,-0.908139445798107,-0.390747033047917,0.562181577630074,0
3.27999877929688,-2.33474206924438,1.96124184131622,2.58865785598755,-2.33577134012187,1.96079922667992,2.58881081793642,2066.814,2066.007,2063.947,2064.775,3.02003717422485,45.000114440918,358.797729492188,-0.900949239730835,-0.387653589248657,0.557474970817566,-0.898304216251578,-0.386515208538549,0.556093102023818,0
3.29999876022339,-2.35256290435791,1.95357394218445,2.59968447685242,-2.3536373865142,1.95311196603685,2.59987075173108,2065.802,2064.831,2062.623,2063.556,3.08188390731812,45.000114440918,358.773162841797,-0.89103490114212,-0.383387833833694,0.551326870918274,-0.888269178971418,-0.382197412343383,0.54988093591228,0
3.3199987411499,-2.3701810836792,1.94599330425262,2.61058568954468,-2.37130076986152,1.9455119056403,2.61080522744671,2064.573,2063.653,2061.548,2062.419,3.14233326911926,45.0001182556152,358.749176025391,-0.880923688411713,-0.379037261009216,0.54505729675293,-0.878038614955035,-0.377795486456005,0.543547729436792,0
3.33999872207642,-2.3875937461853,1.93850100040436,2.62135910987854,-2.38875762334595,1.93800070927398,2.62161185133883,2063.581,2062.537,2060.322,2061.25,3.20145273208618,45.000129699707,358.725677490234,-0.870620310306549,-0.374603897333145,0.538668870925903,-0.867616913579587,-0.37331131950278,0.537096199830905,0
3.35999870300293,-2.40479612350464,1.93109929561615,2.63200235366821,-2.40600416902084,1.93058000248278,2.63228828467848,2062.346,2061.408,2059.364,2060.188,3.25913786888123,45.0001220703125,358.702758789063,-0.860129117965698,-0.370089739561081,0.532164335250854,-0.857008572601967,-0.368746846742847,0.530529131420399,0
3.37999868392944,-2.42178535461426,1.92378926277161,2.64251327514648,-2.42303671997839,1.92325137164014,2.64283224509413,2061.458,2060.38,2058.157,2059.049,3.31551313400269,45.0001220703125,358.680328369141,-0.849454879760742,-0.365496754646301,0.525546491146088,-0.846218198158826,-0.364104050068127,0.523849375623278,0
3.39999890327454,-2.43855714797974,1.91657280921936,2.65288972854614,-2.43985188165647,1.91601627733129,2.65324163119009,2060.396,2059.348,2057.154,2058.007,3.37043595314026,45.0001220703125,358.658508300781,-0.838601887226105,-0.360826909542084,0.518818259239197,-0.835250372983481,-0.35938490130074,0.517059769369773,0
3.41999888420105,-2.45510864257813,1.90945112705231,2.6631293296814,-2.45644575479329,1.90887639729967,2.66351402913758,2059.6,2058.41,2055.977,2056.9,3.42393469810486,45.0001258850098,358.63720703125,-0.827574908733368,-0.356082230806351,0.511982500553131,-0.824110181511089,-0.35459158813109,0.510163460167449,0
3.43999886512756,-2.47143650054932,1.90242600440979,2.67323017120361,-2.47281514035847,1.90183310799866,2.6736474585844,2058.591,2057.421,2055.048,2055.939,3.47583985328674,45.0001182556152,358.616577148438,-0.816378653049469,-0.351264744997025,0.505042195320129,-0.81280242532103,-0.349726176544644,0.503163420422674,0
3.45999884605408,-2.48753690719604,1.89549839496613,2.68319010734558,-2.48895673727672,1.89488782978875,2.68363987600769,2057.702,2056.417,2054.079,2055.039,3.52618789672852,45.000129699707,358.596588134766,-0.805018365383148,-0.346376717090607,0.498000502586365,-0.801332144070227,-0.344790834964984,0.496062769923157,0
3.47999882698059,-2.5034065246582,1.88867020606995,2.69300723075867,-2.50486734634964,1.88804193919563,2.69348930095124,2056.847,2055.609,2053.14,2054.01,3.5749397277832,45.000129699707,358.577178955078,-0.793499112129211,-0.341420203447342,0.490860551595688,-0.789704485795351,-0.33978777844847,0.488864695548832,0
3.4999988079071,-2.51904320716858,1.8819420337677,2.70267963409424,-2.5205438724232,1.88129676797762,2.70319381736728,2056.135,2054.744,2052.137,2053.092,3.62206220626831,45.000129699707,358.558441162109,-0.781825959682465,-0.336397647857666,0.483625590801239,-0.777924706912824,-0.334719268684242,0.481572451271862,0
3.51999878883362,-2.53444337844849,1.87531578540802,2.71220564842224,-2.53598332655545,1.87465360219292,2.71275157495833,2055.163,2053.899,2051.419,2052.261,3.66742706298828,45.0001220703125,358.540435791016,-0.770004212856293,-0.331311196088791,0.476298868656158,-0.765998172218811,-0.329587613994215,0.474189358156633,0
3.53999876976013,-2.54960417747498,1.86879253387451,2.72158336639404,-2.55118282818402,1.86811368126707,2.72216079051909,2054.472,2053.056,2050.528,2051.455,3.71114706993103,45.000129699707,358.523101806641,-0.758039593696594,-0.326163351535797,0.468883782625198,-0.75393035488922,-0.324395169333078,0.466718804359755,0
3.55999875068665,-2.5645227432251,1.86237347126007,2.73081111907959,-2.56613960729377,1.86167819706018,2.73141974927822,2053.778,2052.29,2049.694,2050.654,3.75313019752502,45.000129699707,358.506439208984,-0.745937526226044,-0.320956110954285,0.461383640766144,-0.741726836479713,-0.319144336288304,0.459164245130071,0
3.57999873161316,-2.57919692993164,1.85605978965759,2.73988723754883,-2.58085100658435,1.85534829293436,2.74052680624022,2053.149,2051.569,2048.87,2049.872,3.79331731796265,45.000129699707,358.490509033203,-0.73370349407196,-0.315692067146301,0.453801929950714,-0.729393306925695,-0.313837563080137,0.451529202808647,0
3.59999871253967,-2.59362387657166,1.84985208511353,2.7488100528717,-2.59531448363783,1.84912506282102,2.74948038752728,2052.455,2050.834,2048.168,2049.188,3.8316216468811,45.0001335144043,358.475280761719,-0.721343278884888,-0.31037363409996,0.446142166852951,-0.716935564542318,-0.308477344561601,0.44381726682877,0
3.61999869346619,-2.60780119895935,1.84375202655792,2.75757813453674,-2.60952761308623,1.84300955028824,2.75827899172109,2051.778,2050.265,2047.524,2048.409,3.86803817749023,45.000129699707,358.460754394531,-0.708862781524658,-0.305003494024277,0.438408046960831,-0.704359516024482,-0.303066222218498,0.436032093715959,0
3.6399986743927,-2.62172651290894,1.83776044845581,2.76619029045105,-2.62348808877919,1.8370027476081,2.76692119120472,2051.244,2049.609,2046.822,2047.776,3.90258359909058,45.000129699707,358.447021484375,-0.69626784324646,-0.29958438873291,0.430603235960007,-0.691671176446824,-0.297606784169402,0.428177407087955,0
3.65999865531921,-2.63539791107178,1.83187818527222,2.77464485168457,-2.6371937259515,1.83110559482403,2.77540563350441,2050.732,2049.034,2046.166,2047.14,3.93518567085266,45.000129699707,358.43408203125,-0.683564603328705,-0.294118672609329,0.422731518745422,-0.678876669263746,-0.292101665165675,0.42025699765473,0
3.67999863624573,-2.64881300926208,1.8261057138443,2.78294086456299,-2.65064246339072,1.82531897881816,2.7837310426315,2050.202,2048.456,2045.593,2046.593,3.96577906608582,45.0001373291016,358.421936035156,-0.670759201049805,-0.288608938455582,0.414796561002731,-0.665982226309379,-0.286553546591444,0.412274723218478,0
3.69999861717224,-2.66196990013123,1.8204448223114,2.79107689857483,-2.66383236560479,1.81964373237865,2.79189622042419,2049.706,2048.021,2045.065,2045.973,3.99434423446655,45.0001373291016,358.410583496094,-0.65785801410675,-0.283057987689972,0.406802356243134,-0.652994187797613,-0.28096515646362,0.40423450867362,0
