t,x_s1,x_s2,x_s3,x_s_d1,x_s_d2,x_s_d3,propellers_rpms1,propellers_rpms2,propellers_rpms3,propellers_rpms4,rollRad,pitchRad,yawRad,v_s1,v_s2,v_s3,v_s_d1,v_s_d2,v_s_d3,insideCount
0,-0.0599999986588955,2.94000005722046,1.17999994754791,-0.0599999986588955,2.94000005722046,1.17999994754791,0,0,0,0,0,0,0,0,0,0,-1.06581410364015E-15,4.44089209850063E-16,4.44089209850063E-16,0
0.0200042724609375,-0.0599999986588955,2.94000005722046,1.17811644077301,-0.0600018701838461,2.93999925195556,1.18000110611101,0,0,0,0,-0.01635288,0.0001297794,-0.01587137,-1.10653664009419E-09,-7.76775763711157E-08,-0.0941759571433067,-0.000280105751305916,-0.000120521679537258,0.00017339880334547,9
0.0399932861328125,-0.0599999986588955,2.94000005722046,1.17242503166199,-0.060014863945674,2.93999366110285,1.18000914986856,0,0,0,0,-0.03270202,0.0005238493,-0.03175127,-1.08383135799528E-09,-7.60859677484405E-08,-0.284568399190903,-0.00111059898697896,-0.000477859717552347,0.000687513678106196,9
0.05999755859375,-0.0599058829247952,2.93990302085876,1.16596519947052,-0.0600498857373401,2.93997859220429,1.18003083002592,1867.904,3252.744,3184.064,1722.533,-0.04942081,0.0003291642,-0.01369451,0.00470578344538808,-0.00484931888058782,-0.322993487119675,-0.00247936261166862,-0.00106680046642749,0.00153484356504269,9
0.0800018310546875,-0.0598203651607037,2.93960738182068,1.16000318527222,-0.0601175574246769,2.93994947496775,1.18007272202403,1925.689,2314.406,3251.882,2829.42,-0.07542925,-0.002135855,0.02094752,0.00427580904215574,-0.0147780273109674,-0.298102557659149,-0.00437268608126799,-0.00188144466206175,0.00270690098422899,9
0.100006103515625,-0.0599374361336231,2.93904495239258,1.15498661994934,-0.0602282404704493,2.93990185114529,1.18014124010193,980.3461,1498.873,3914.857,3896.541,-0.1031932,-0.008062454,0.06330631,-0.00585355889052153,-0.0281156711280346,-0.250828981399536,-0.00677739276378709,-0.00291612276782231,0.00419552897277328,8
0.1199951171875,-0.0604638308286667,2.93818354606628,1.15081322193146,-0.0603918861403606,2.93983143898525,1.18024254456713,346.4634,980.4227,4172.878,4613.283,-0.1214322,-0.01542023,0.1039995,-0.0263196937739849,-0.0430673956871033,-0.208668023347855,-0.00967801353495435,-0.00416417885169243,0.00599115140585487,8
0.139999389648438,-0.0615635961294174,2.93704128265381,1.1472829580307,-0.0606185767455666,2.93973390035084,1.18038287685052,352.6188,746.9421,3975.811,4854.936,-0.1254008,-0.0211668,0.1351052,-0.0549882985651493,-0.0571138560771942,-0.176511004567146,-0.0130660253322238,-0.00562194567796536,0.00808849210174802,7
0.160003662109375,-0.0633407980203629,2.93568110466003,1.14427495002747,-0.0609177895434042,2.93960515744296,1.18056810382587,821.0513,815.0817,3462.452,4692.405,-0.1184579,-0.0235237,0.15227,-0.0888602584600449,-0.0680143982172012,-0.150398463010788,-0.0169265510445065,-0.00728302204135792,0.0104783414199936,7
0.17999267578125,-0.0658467933535576,2.93417263031006,1.14182531833649,-0.0612985250199726,2.93944133760391,1.18080379722281,1348.888,1083.453,3006.435,4255.287,-0.1079816,-0.02277961,0.1557778,-0.125299856066704,-0.0754294916987419,-0.12248432636261,-0.0212433804254414,-0.00914043312572283,0.0131506644458931,7
0.199996948242188,-0.0690848529338837,2.93255424499512,1.14006161689758,-0.0617704296168641,2.93923829023936,1.18109592864822,1636.157,1380.875,2918.992,3666.399,-0.09982699,-0.02030128,0.1501564,-0.161903142929077,-0.0809147357940674,-0.0881832242012024,-0.0260104776919234,-0.0111915819022102,0.0161017247421801,7
0.220001220703125,-0.07301015406847,2.93082642555237,1.13903570175171,-0.0623420644491781,2.93899233174064,1.18144979784016,1641.461,1580.811,3147.989,3113.125,-0.09583758,-0.01735475,0.1421883,-0.196265012025833,-0.0863855555653572,-0.0512969195842743,-0.03121219533433,-0.0134297356845702,0.019321835755004,7
0.240005493164063,-0.0775498449802399,2.92897391319275,1.1386331319809,-0.0630219993990999,2.93869977472688,1.18187070996396,1524.375,1624.394,3417.466,2777.338,-0.09475687,-0.01467721,0.1377315,-0.226984634995461,-0.0926236063241959,-0.0201257336884737,-0.0368361158647881,-0.0158495515746756,0.0228033104678445,7
0.259994506835938,-0.0826387107372284,2.92699289321899,1.13863551616669,-0.0638179029240226,2.93835731967507,1.18236341216003,1439.035,1500.876,3533.281,2744.118,-0.09439361,-0.0125877,0.1393,-0.254443317651749,-0.0990569293498993,0.000120010226964951,-0.0428651747123285,-0.0184436871643672,0.0265355850983733,7
0.279998779296875,-0.0882445797324181,2.92490124702454,1.13885235786438,-0.0647390625194898,2.93796097043536,1.18293365383054,1399.965,1275.644,3477.404,2977.773,-0.09321223,-0.01110591,0.1456848,-0.280293583869934,-0.10458517074585,0.0108425812795758,-0.0492963837173861,-0.0212108567320638,0.030516809833474,7
0.300003051757813,-0.0943702906370163,2.92273306846619,1.13920712471008,-0.0657927507678135,2.93750759781875,1.18358593705038,1350.759,1061.717,3344.73,3324.865,-0.0905315,-0.009935189,0.1533117,-0.306285709142685,-0.108407631516457,0.0177368670701981,-0.0561132031658829,-0.0241439437008635,0.0347367458022363,7
0.32000732421875,-0.101035535335541,2.92052626609802,1.13972496986389,-0.0669865614821475,2.93699393441958,1.18432496275165,1281.432,941.3679,3236.938,3590.413,-0.08597909,-0.008523181,0.1583594,-0.333262503147125,-0.110341899096966,0.025895219296217,-0.0633036493784043,-0.0272377918282996,0.0391879745362408,7
0.339996337890625,-0.108251094818115,2.91831278800964,1.14046156406403,-0.068326768706371,2.93641728069206,1.18515461486636,1253.136,944.1689,3171.115,3649.809,-0.07945275,-0.006291984,0.1584758,-0.360778033733368,-0.110679239034653,0.0368316434323788,-0.0708499516420146,-0.0304847548730522,0.0438594951176439,7
0.360000610351563,-0.116002678871155,2.91611552238464,1.14145290851593,-0.0698225328270578,2.93577369517774,1.1860805641102,1318.809,1046.721,3121.862,3498.307,-0.07155168,-0.002964098,0.1534758,-0.38757911324501,-0.109860256314278,0.0495699942111969,-0.0787518717320621,-0.0338847303337087,0.0487511600740379,8
0.3800048828125,-0.124251008033752,2.91395044326782,1.14270770549774,-0.0714797725314022,2.93506063123087,1.18710647443246,1455.482,1181.814,3090.306,3231.415,-0.06361173,0.00125838,0.1450411,-0.412416785955429,-0.108259432017803,0.0627406686544418,-0.0869921272359981,-0.0374302820709642,0.0538522707687797,8
0.399993896484375,-0.132942765951157,2.91182708740234,1.14421701431274,-0.0733036822025899,2.9342758538535,1.18823556140379,1580.481,1274.009,3103.899,2981.4,-0.05701721,0.005827296,0.1357467,-0.434587806463242,-0.106166139245033,0.075465202331543,-0.0955525119207663,-0.0411135764513579,0.0591515566763244,8
0.419998168945313,-0.142023161053658,2.90975093841553,1.14595782756805,-0.0753034649285836,2.93341540321397,1.18947352217404,1630.652,1288.216,3159.893,2844.953,-0.0524403,0.01017515,0.1278581,-0.454019904136658,-0.103802688419819,0.0870392695069313,-0.104434660908044,-0.0449353170220673,0.0646500300148815,8
0.44000244140625,-0.15144556760788,2.9077250957489,1.1478955745697,-0.077483988232608,2.93247718495301,1.19082336997196,1606.65,1238.107,3219.206,2843.32,-0.04965623,0.01397445,0.1224629,-0.471120655536652,-0.101291432976723,0.0968893468379974,-0.113620829717891,-0.048887868829098,0.0703367061060819,8
0.460006713867188,-0.161176264286041,2.90575242042542,1.14999675750732,-0.0798512213598696,2.93145863067119,1.19228880004469,1542.218,1158.538,3252.204,2937.799,-0.04788577,0.01718709,0.1193377,-0.486534744501114,-0.0986392572522163,0.105060644447803,-0.123099793815011,-0.0529664022684887,0.0762046364278779,8
0.479995727539063,-0.171193093061447,2.90383696556091,1.15223896503448,-0.0824088828700873,2.93035814037613,1.19387211435783,1474.5,1086.259,3248.273,3066.777,-0.04629479,0.01998771,0.1173741,-0.500841498374939,-0.0957780703902245,0.112107984721661,-0.132852887402757,-0.0571628859694044,0.0822422659629699,8
0.5,-0.181480571627617,2.90198421478271,1.15461611747742,-0.085166398670376,2.92917165836334,1.1955791479969,1430.474,1045.884,3217.741,3169.978,-0.04433897,0.02264214,0.1152257,-0.514374077320099,-0.0926416516304016,0.118855997920036,-0.142884000065179,-0.0614789935111996,0.0884520025491718,8
0.520004272460938,-0.192023754119873,2.90019965171814,1.15713489055634,-0.088127196023106,2.92789770997757,1.19741202260058,1423.656,1045.096,3176.881,3210.69,-0.04191709,0.02537836,0.1118893,-0.527159094810486,-0.0892311409115791,0.125938206911087,-0.153174893518032,-0.065906877469682,0.0948225558197254,9
0.539993286132813,-0.202803999185562,2.89848685264587,1.15980970859528,-0.091293865515634,2.92653518056143,1.19937234186584,1447.178,1073.764,3147.809,3183.72,-0.03929121,0.02829069,0.1070474,-0.539012849330902,-0.0856408551335335,0.133742779493332,-0.163706645289342,-0.0704383960337938,0.101342211863077,9
0.55999755859375,-0.213797330856323,2.89684629440308,1.16265308856964,-0.094676112580471,2.92507989413848,1.20146611391775,1483.135,1113.502,3139.759,3114.583,-0.03688798,0.03132679,0.1010614,-0.549665987491608,-0.0820331126451492,0.142167195677757,-0.17448465888317,-0.0750758741803766,0.108014315705644,9
0.580001831054688,-0.2249755859375,2.89527463912964,1.16566801071167,-0.0982762614093182,2.92353085067394,1.20369477754168,1520.561,1148.731,3145.517,3035.686,-0.03512656,0.03434426,0.09465823,-0.558914065361023,-0.0785781517624855,0.150747835636139,-0.185490414529404,-0.0798113433697334,0.11482740272751,9
0.600006103515625,-0.23631027340889,2.89376616477966,1.16885137557983,-0.102098762959148,2.92188613504538,1.20606108809202,1541.873,1167.376,3162.659,2978.225,-0.03428873,0.03716237,0.08861259,-0.566733837127686,-0.0754197016358376,0.159167513251305,-0.196713446836865,-0.0846403006364086,0.121774994352997,9
0.6199951171875,-0.247775599360466,2.89231276512146,1.172194480896,-0.106144683970236,2.92014528826426,1.20856570593183,1535.018,1167.39,3182.196,2963.818,-0.03442668,0.03963261,0.08345387,-0.573266208171844,-0.0726656168699265,0.167157232761383,-0.208134604141382,-0.0895545055543457,0.128845234789665,9
0.639999389648438,-0.25935086607933,2.89090514183044,1.17568755149841,-0.110424235525481,2.91830391678686,1.21121495220784,1504.849,1156.033,3196.324,2987.634,-0.0353524,0.04169601,0.07930024,-0.57876455783844,-0.0703827366232872,0.174652427434921,-0.219761081350814,-0.0945570538913933,0.136042578028218,9
0.660003662109375,-0.271020650863647,2.88953304290771,1.17932069301605,-0.114938248900541,2.91636166293851,1.21400934151928,1466.962,1144.313,3196.946,3031.637,-0.03677772,0.04338454,0.07590847,-0.583488821983337,-0.068599708378315,0.181659385561943,-0.231574097577923,-0.0996398647564507,0.143355397804799,9
0.67999267578125,-0.282773613929749,2.88818645477295,1.1830894947052,-0.119686638739014,2.91431856344567,1.21694882102647,1431.546,1139.976,3189.603,3073.656,-0.03843953,0.04477871,0.07287946,-0.587648987770081,-0.0673270300030708,0.188441514968872,-0.243554411173546,-0.104794659005432,0.150771782621969,9
0.699996948242188,-0.294600635766983,2.88685488700867,1.18699264526367,-0.124680083855354,2.91217002351282,1.22004000142426,1402.715,1145.96,3178.522,3102.877,-0.04016952,0.04596568,0.06986219,-0.591351568698883,-0.066576324403286,0.195155709981918,-0.255710395848158,-0.11002503961202,0.158296916205407,9
0.720001220703125,-0.306492924690247,2.88552761077881,1.19102871417999,-0.129918284978346,2.90991617190799,1.22328269744952,1393.077,1162.783,3162.956,3107.777,-0.04192987,0.04701948,0.06663348,-0.594614326953888,-0.0663613826036453,0.201803356409073,-0.268023157655716,-0.11532287703907,0.16591910230247,9
0.740005493164063,-0.318441390991211,2.88419342041016,1.19519925117493,-0.13540428105644,2.90755570105657,1.22667879035609,1394.187,1185.395,3152.885,3092.601,-0.04382658,0.04795435,0.0632128,-0.597422420978546,-0.0667095482349396,0.208527341485023,-0.280482990349159,-0.120683994959631,0.173632332283853,9
0.759994506835938,-0.330436527729034,2.88284015655518,1.19950449466705,-0.14113644597991,2.90508931062815,1.2302272735046,1392.473,1207.732,3149.787,3074.445,-0.04600877,0.04873494,0.05980663,-0.59975677728653,-0.0676613450050354,0.215264350175858,-0.293070637251543,-0.126100107763583,0.181424685349205,9
0.779998779296875,-0.342469364404678,2.8814549446106,1.20394289493561,-0.147126184485884,2.90251209348295,1.23393520697061,1385.027,1226.254,3152.497,3060.079,-0.04855049,0.04931556,0.05665505,-0.601643562316895,-0.0692580193281174,0.221920594573021,-0.305795832832518,-0.131575403921268,0.189302187598958,9
0.800003051757813,-0.354532390832901,2.88002443313599,1.20850896835327,-0.153371683173492,2.89982482987671,1.2378014681726,1374.185,1240.521,3153.399,3054.849,-0.05147038,0.04965986,0.05393795,-0.603149950504303,-0.0715230628848076,0.228304043412209,-0.318639638509124,-0.13710173468952,0.197253115148089,9
0.82000732421875,-0.36662021279335,2.87853503227234,1.21319854259491,-0.159875221826383,2.89702653888221,1.24182746840525,1355.535,1251.113,3155.34,3059.986,-0.05473861,0.04974214,0.05175338,-0.604391813278198,-0.0744696706533432,0.234479278326035,-0.331592781842754,-0.14267511039705,0.205271727915392,9
0.839996337890625,-0.378729999065399,2.87697315216064,1.21800673007965,-0.166633637018892,2.89411858163313,1.24601124935738,1326.759,1259.682,3155.559,3078.353,-0.05826251,0.04955991,0.05010188,-0.605489730834961,-0.0780980288982391,0.240410655736923,-0.344636106234817,-0.148287288494656,0.213346167053785,8
0.860000610351563,-0.3908611536026,2.87532520294189,1.22292923927307,-0.173659158941841,2.89109569582005,1.2503603820997,1297.205,1268.779,3153.546,3098.89,-0.06189027,0.04914663,0.04887469,-0.606557846069336,-0.0823953449726105,0.246123656630516,-0.357780475378537,-0.153942943326036,0.221483157706883,8
0.8800048828125,-0.403014600276947,2.8735785484314,1.22796046733856,-0.180948461186242,2.88795931270381,1.25487280742661,1277.096,1280.788,3144.957,3114.149,-0.0655143,0.04855164,0.04792673,-0.607672154903412,-0.0873293057084084,0.251561939716339,-0.371007022483504,-0.159633957038354,0.229671020432672,8
0.899993896484375,-0.415192365646362,2.87172102928162,1.23309862613678,-0.18849723509595,2.8847112861788,1.25954585807468,1262.557,1295.483,3137.533,3121.476,-0.06910583,0.04780842,0.04717365,-0.608888030052185,-0.0928720533847809,0.256909489631653,-0.384296738353309,-0.165352150505452,0.237897987633041,8
0.919998168945313,-0.427396953105927,2.86974096298218,1.23834276199341,-0.196318384305134,2.8813460641717,1.26438752200817,1244.71,1310.892,3133.554,3128.781,-0.07266435,0.04693238,0.04661369,-0.610231518745422,-0.0989986956119537,0.262205123901367,-0.397661187980262,-0.171102499820431,0.246171218589148,8
0.94000244140625,-0.439631342887878,2.86762738227844,1.24368929862976,-0.204407453948074,2.87786556348678,1.26939504145298,1236.173,1326.462,3127.555,3129.445,-0.07617439,0.04594822,0.04623495,-0.6117182970047,-0.105675205588341,0.267326653003693,-0.411081631631503,-0.176876941799768,0.254479112513653,8
0.960006713867188,-0.451898872852325,2.86536979675293,1.24913728237152,-0.212765478812529,2.87426933888379,1.27456905699201,1229.654,1341.223,3125.273,3126.597,-0.07966687,0.04485583,0.04609263,-0.613377690315247,-0.112875893712044,0.272402107715607,-0.424549556012544,-0.182671813410681,0.262816399271726,8
0.979995727539063,-0.464203625917435,2.8629584312439,1.25468504428864,-0.22138664033507,2.87055989392801,1.27990596665734,1216.526,1353.576,3125.208,3131.042,-0.08316199,0.04364509,0.04626849,-0.615238428115845,-0.120570257306099,0.277389109134674,-0.438046240701377,-0.188479059778567,0.271171490030365,8
1,-0.47655063867569,2.86038398742676,1.26033055782318,-0.230284798736574,2.86673126495361,1.28541435058594,1201.606,1363.315,3126.838,3138.443,-0.0866076,0.04232194,0.04678434,-0.617347657680511,-0.128725469112396,0.282278507947922,-0.451584000205995,-0.194303979492187,0.279552008056641,8
1.02000427246094,-0.488945543766022,2.85763812065125,1.26606976985931,-0.239454009753966,2.86278600961093,1.2910905289958,1192.524,1372.133,3123.69,3146.266,-0.08995892,0.04090617,0.04760938,-0.61974686384201,-0.137289822101593,0.286963492631912,-0.465144357597929,-0.200138622445408,0.287946515251652,8
1.03999328613281,-0.501395285129547,2.85471367835999,1.27190208435059,-0.248887339851819,2.85872711120656,1.2969302096982,1183.617,1380.38,3122.25,3154,-0.09320159,0.03941089,0.04871689,-0.622487723827362,-0.146223053336143,0.291613936424255,-0.478708875293167,-0.205975055460915,0.29634359787259,8
1.05999755859375,-0.513907313346863,2.85160398483276,1.27782726287842,-0.258599401509697,2.85454828239877,1.30294243851408,1167.202,1387.494,3123.337,3168.216,-0.09630416,0.03784759,0.05008879,-0.625602781772614,-0.155483320355415,0.296261221170425,-0.492290296490434,-0.211818761581115,0.30475114456651,8
1.08000183105469,-0.526489496231079,2.84830379486084,1.28384292125702,-0.268583149539609,2.85025255453512,1.30912285413647,1161.097,1394.595,3120.192,3176.916,-0.09920062,0.03625678,0.05163417,-0.629109263420105,-0.165012985467911,0.300782352685928,-0.50587040849135,-0.217661904390701,0.313157880805523,8
1.10000610351563,-0.53914999961853,2.84480834007263,1.28994977474213,-0.278838480013141,2.84583997233313,1.31547139222872,1159.463,1402.053,3119.031,3180.332,-0.1018925,0.03465765,0.05331802,-0.63302618265152,-0.174768343567848,0.305343121290207,-0.519441457145546,-0.223501147495394,0.321559006401169,7
1.1199951171875,-0.551897048950195,2.84111428260803,1.29614865779877,-0.289357002179081,2.84131414609862,1.32198285851614,1154.244,1408.546,3119.727,3187.225,-0.1044018,0.03305663,0.05515124,-0.637352049350739,-0.184703066945076,0.309944957494736,-0.532985466132485,-0.229328756186667,0.329943393154705,7
1.13999938964844,-0.564738869667053,2.83721876144409,1.30244064331055,-0.300154365346813,2.83666834237095,1.3286669406667,1149.699,1413.325,3122.832,3193.257,-0.106699,0.03146809,0.05712207,-0.642090559005737,-0.194774433970451,0.314600586891174,-0.546515580872639,-0.235150386571708,0.338319178707607,7
1.16000366210938,-0.577683568000793,2.83312034606934,1.30882465839386,-0.311222084148811,2.83190621216671,1.33551838583369,1153.464,1417.729,3121.708,3196.347,-0.1087821,0.02991159,0.05920088,-0.647234320640564,-0.204923525452614,0.319200158119202,-0.560014026276883,-0.240958390526247,0.34667535943296,7
1.17999267578125,-0.590739488601685,2.82881808280945,1.31530296802521,-0.322550701230474,2.8270318247214,1.34253133946411,1157.133,1421.173,3123.55,3198.799,-0.1106895,0.02838842,0.06139297,-0.652795195579529,-0.215113669633865,0.323915034532547,-0.573463232144024,-0.246745208083563,0.355001058539242,7
1.19999694824219,-0.603914976119995,2.82431197166443,1.32187843322754,-0.334156660511822,2.8220381046756,1.34971598112778,1151.457,1422.53,3129.512,3208.661,-0.1124259,0.02689421,0.06372016,-0.658773243427277,-0.225310772657394,0.32877317070961,-0.58687652428584,-0.252516572968185,0.36330452533874,7
1.22000122070313,-0.617218196392059,2.81960272789001,1.3285505771637,-0.346030421585499,2.81692915700008,1.35706640485806,1154.378,1423.333,3130.849,3215.16,-0.1139465,0.02545676,0.06611867,-0.665158331394196,-0.235461533069611,0.333609372377396,-0.600236516861372,-0.258265004538453,0.371574997167698,7
1.24000549316406,-0.630657255649567,2.81469202041626,1.33532214164734,-0.358170848086624,2.8117054706409,1.36458190719098,1160.52,1424.077,3133.739,3217.998,-0.1152637,0.02408565,0.06856008,-0.671957314014435,-0.24553208053112,0.338580101728439,-0.613536214864368,-0.263987493038594,0.379808143784027,7
1.25999450683594,-0.644240379333496,2.80958223342896,1.34219586849213,-0.3705671011502,2.80637170925886,1.37225577835275,1161.653,1423.918,3138.06,3225.59,-0.1164009,0.02278069,0.07104752,-0.679155826568604,-0.255486458539963,0.343686997890472,-0.626758665639206,-0.269676744214496,0.387993470686331,7
1.27999877929688,-0.657975256443024,2.80427646636963,1.34917461872101,-0.383236695417198,2.80092033679326,1.3800988607405,1162.599,1422.46,3144.401,3232.62,-0.1173261,0.02155367,0.07355148,-0.686743021011353,-0.265293806791306,0.348939925432205,-0.639917282339435,-0.275338529371412,0.396139281255613,8
1.30000305175781,-0.671869039535522,2.79877829551697,1.35625886917114,-0.396168722856641,2.79535604666509,1.38810440176341,1172.576,1421.729,3145.24,3235.717,-0.1180388,0.02042473,0.07602071,-0.694689869880676,-0.274905115365982,0.354212999343872,-0.652995275331231,-0.280965624398954,0.404235181908735,8
1.32000732421875,-0.685928881168365,2.79309225082397,1.36345267295837,-0.409361504843077,2.78967956113998,1.39627136227237,1182.942,1420.727,3149.056,3236.66,-0.118589,0.01939223,0.0784505,-0.702990591526031,-0.284298926591873,0.35968804359436,-0.6659860834168,-0.286555206197011,0.41227711095171,8
1.33999633789063,-0.700161218643188,2.78722310066223,1.37075984477997,-0.422802873722428,2.78389611561957,1.40459220990988,1186.27,1418.455,3155.71,3242.888,-0.1190081,0.01844678,0.08086149,-0.711619317531586,-0.29345566034317,0.365359604358673,-0.678873453515705,-0.29210028151913,0.420255006953505,8
1.36000061035156,-0.714572370052338,2.7811758518219,1.37818384170532,-0.436511415158101,2.77799771321212,1.41307845008695,1189.004,1414.786,3164.434,3248.486,-0.1192548,0.01759539,0.08323675,-0.720554769039154,-0.302357643842697,0.371201157569885,-0.691670720740693,-0.297606588091785,0.42817712498415,8
1.3800048828125,-0.729167520999908,2.77495646476746,1.38572490215302,-0.450474904562636,2.77198961381608,1.4217225152016,1201.424,1412.173,3166.34,3250.132,-0.1193261,0.01685446,0.08553272,-0.729759156703949,-0.310964465141296,0.377053529024124,-0.704361775018035,-0.303067194200314,0.436033492140578,8
1.39999389648438,-0.743951976299286,2.76857113838196,1.39338684082031,-0.464680216184654,2.76587746507559,1.43051627978847,1214.076,1409.402,3170.438,3250.245,-0.1192787,0.01621633,0.08774896,-0.739225625991821,-0.319263190031052,0.383098036050797,-0.716930938559026,-0.308475354130225,0.443814403124744,8
1.41999816894531,-0.758930623531342,2.76202607154846,1.4011744260788,-0.47914673136562,2.75965292774086,1.43947174182117,1215.74,1404.861,3179.65,3257.428,-0.1191349,0.01566461,0.0899154,-0.748931407928467,-0.327250808477402,0.389380544424057,-0.729391385793766,-0.313836736470737,0.451528013536465,8
1.44000244140625,-0.774107396602631,2.75532793998718,1.40908849239349,-0.493861275572861,2.75332167044526,1.4485807456364,1224.815,1400.942,3183.515,3261.152,-0.1188659,0.01521704,0.09198023,-0.758834958076477,-0.334903478622437,0.395701557397842,-0.741727567798258,-0.319144650954242,0.459164697851088,8
1.46000671386719,-0.78948587179184,2.74848365783691,1.41713237762451,-0.508821304757097,2.74688478782212,1.45784171634646,1236.747,1397.338,3188.739,3260.627,-0.118492,0.0148731,0.09392836,-0.768924355506897,-0.342216789722443,0.402192413806915,-0.753933682518823,-0.324396601119133,0.466720864320996,8
1.47999572753906,-0.805069208145142,2.74149990081787,1.42530918121338,-0.524012471663969,2.74034845309416,1.46724577231745,1243.116,1393.124,3195.414,3264.365,-0.1180446,0.01461973,0.09578241,-0.779166877269745,-0.349186569452286,0.408841043710709,-0.765994882555672,-0.329586198544069,0.474187321698441,8
1.5,-0.820859909057617,2.73438358306885,1.43362188339233,-0.539455198877605,2.73370387899399,1.4768055561018,1247.784,1387.898,3203.939,3268.163,-0.1174981,0.01445569,0.09753624,-0.789536714553833,-0.355812788009644,0.415636539459229,-0.777924000354858,-0.334718964672088,0.481572013878822,8
1.52000427246094,-0.83685976266861,2.7271420955658,1.4420702457428,-0.555135099954955,2.72695725560613,1.48651216180595,1260.659,1384.289,3205.401,3268.789,-0.11686,0.01439141,0.09915298,-0.799990057945251,-0.362074792385101,0.422418177127838,-0.789706299681991,-0.339788558913217,0.48886581843107,8
1.53999328613281,-0.853070080280304,2.71978259086609,1.45065760612488,-0.571036956668503,2.72011513090874,1.49635616862212,1272.81,1380.635,3209.709,3267.635,-0.1161841,0.01441554,0.1006367,-0.810519635677338,-0.367979764938354,0.429369002580643,-0.801327600455846,-0.344788879974649,0.496059957209413,8
1.55999755859375,-0.869492053985596,2.71231174468994,1.45938789844513,-0.587181951496087,2.71316839067337,1.50635068951315,1273.742,1375.289,3219.47,3272.904,-0.1154811,0.01450721,0.1020257,-0.82109922170639,-0.373544752597809,0.436517328023911,-0.812800388649436,-0.349725300221754,0.503162159625937,8
1.58000183105469,-0.88612574338913,2.70473647117615,1.4682605266571,-0.60355483331529,2.70612359703193,1.51648628330776,1282.624,1371.233,3222.585,3274.475,-0.1147178,0.01468206,0.1032775,-0.831680595874786,-0.378761440515518,0.443630069494247,-0.824110582941666,-0.354591760855452,0.510163708672098,8
1.60000610351563,-0.902970731258392,2.6970636844635,1.47727727890015,-0.620152298932711,2.69898217125626,1.52676090517188,1294.503,1367.643,3226.627,3271.765,-0.113921,0.01493515,0.1043869,-0.842254340648651,-0.383638590574265,0.450840383768082,-0.835253140422976,-0.35938609205264,0.51706148254665,8
1.6199951171875,-0.920026659965515,2.68929982185364,1.48644018173218,-0.636958033083316,2.69175113334911,1.53716445517924,1299.672,1363.45,3232.383,3273.983,-0.1131247,0.01524671,0.1053881,-0.852791905403137,-0.388187944889069,0.458145797252655,-0.846214826007804,-0.364102599125749,0.523847288101157,8
1.63999938964844,-0.937292039394379,2.68145132064819,1.49575078487396,-0.653994195024907,2.68442094880091,1.54771065096602,1301.84,1358.283,3240.268,3276.928,-0.1122986,0.01561278,0.1062827,-0.863272190093994,-0.392425388097763,0.465532124042511,-0.857007552155828,-0.368746407673381,0.530528499715628,8
1.66000366210938,-0.95476508140564,2.67352437973022,1.50520718097687,-0.671244443874359,2.67699864863716,1.55838937674714,1312.315,1355.191,3240.297,3276.675,-0.111441,0.01604447,0.1070343,-0.8736532330513,-0.396343290805817,0.472817063331604,-0.867618167158098,-0.373311858882592,0.53709697585572,8
1.67999267578125,-0.972443759441376,2.66552519798279,1.51481091976166,-0.688691692550512,2.66949158495151,1.56919005480539,1322.48,1352.257,3243.084,3273.991,-0.1106,0.01652882,0.1076481,-0.883935272693634,-0.39995926618576,0.480189025402069,-0.878034183119987,-0.377793579561193,0.543544985919778,8
1.69999694824219,-0.990325689315796,2.6574592590332,1.52456438541412,-0.706358800111611,2.66188992212981,1.58012683598675,1320.879,1347.688,3251.457,3277.972,-0.1097814,0.01704407,0.1081695,-0.894097566604614,-0.403300881385803,0.487676233053207,-0.888267004546665,-0.382196476749158,0.549879589839776,8
1.72000122070313,-1.00840759277344,2.64933180809021,1.53446507453918,-0.724228658537036,2.6542010212754,1.5911891296115,1327.284,1344.79,3252.495,3278.414,-0.1089521,0.01760531,0.1085597,-0.904095649719238,-0.406369924545288,0.495032727718353,-0.898304216251578,-0.386515208538549,0.556093102023817,8
1.74000549316406,-1.02668619155884,2.64114809036255,1.54451310634613,-0.742297311768984,2.64642658456943,1.60237448669139,1336.741,1342.427,3254.708,3274.182,-0.108135,0.01820654,0.1088174,-0.913929045200348,-0.409182816743851,0.502404689788818,-0.908141534469281,-0.390747931744771,0.562182870617028,8
1.75999450683594,-1.04515767097473,2.6329128742218,1.55470883846283,-0.760546715064628,2.63857437616062,1.61367173667103,1338.704,1339.46,3258.833,3275.4,-0.1073627,0.01882727,0.1089844,-0.923576235771179,-0.411759436130524,0.509787380695343,-0.917767514700581,-0.394889722119545,0.568141810929231,8
1.77999877929688,-1.06381809711456,2.62463045120239,1.5650520324707,-0.779000609654483,2.63063418086074,1.62509557650306,1337.693,1335.588,3264.981,3277.29,-0.1065952,0.01946386,0.1090661,-0.933023810386658,-0.414121806621552,0.517160415649414,-0.927192788821983,-0.398945154262308,0.57397650459845,8
1.80000305175781,-1.08266282081604,2.61630511283875,1.5755387544632,-0.797640935141499,2.62261376955408,1.63663482594136,1345.286,1333.979,3262.765,3276.021,-0.1058287,0.02012848,0.1090281,-0.942237257957458,-0.416267037391663,0.524334251880646,-0.936405971974637,-0.402909329586356,0.579679903854719,7
1.81999206542969,-1.10168743133545,2.6079409122467,1.58616888523102,-0.816448984455027,2.61452119137054,1.64827790441807,1352.597,1332.563,3263.42,3272.225,-0.1051086,0.02080827,0.1088785,-0.951226949691772,-0.418215245008469,0.531509339809418,-0.945396434568188,-0.406777674475912,0.585245428475252,7
1.83999633789063,-1.12088692188263,2.5995409488678,1.5969432592392,-0.835449117627072,2.60634596486888,1.66003989195343,1347.429,1329.485,3269.931,3275.591,-0.1044369,0.02148135,0.1086675,-0.959981918334961,-0.419997274875641,0.538718640804291,-0.954174163352093,-0.410554485950274,0.590679260733698,7
1.86000061035156,-1.14025640487671,2.59110856056213,1.60785734653473,-0.854622615239374,2.59809614449182,1.6719092003358,1350.5,1328.169,3268.829,3275.396,-0.1037749,0.02216538,0.108356,-0.968466222286224,-0.421617478132248,0.54570734500885,-0.962728579444532,-0.414235212212131,0.595974851798267,7
1.8800048828125,-1.15979015827179,2.58264660835266,1.61890995502472,-0.873964974649439,2.58977366760063,1.68388304221498,1356.924,1327.426,3268.923,3270.279,-0.1031405,0.02285609,0.1079431,-0.976688623428345,-0.423092037439346,0.552628576755524,-0.971056158224177,-0.417818336715394,0.601130019760457,7
1.89999389648438,-1.17948293685913,2.57415771484375,1.6300995349884,-0.893456683142228,2.58138692997148,1.69594933829086,1355.754,1326.116,3270.951,3270.758,-0.1025631,0.02353392,0.1074732,-0.984636545181274,-0.424440383911133,0.559480845928192,-0.979147395688901,-0.421299770153459,0.606138881190213,7
1.91999816894531,-1.19932901859283,2.56564402580261,1.64142441749573,-0.913122862707269,2.57292512231409,1.70812364027167,1351.476,1323.886,3275.086,3272.082,-0.1020007,0.02419734,0.1069536,-0.99230569601059,-0.425683230161667,0.566246926784515,-0.987011339258123,-0.424683405378145,0.611007036871143,7
1.94000244140625,-1.21932244300842,2.55710768699646,1.65287911891937,-0.932943991899774,2.5643966441608,1.72039386345315,1356.165,1323.877,3270.682,3270.216,-0.1014441,0.02486001,0.1063495,-0.999670207500458,-0.426815837621689,0.572733640670776,-0.994638524886308,-0.427965170275055,0.615728628108227,7
1.96000671386719,-1.23945724964142,2.54855060577393,1.66446220874786,-0.952915303453826,2.55580354673295,1.73275705667061,1360.753,1324.045,3269.378,3265.595,-0.1009359,0.0255115,0.1056697,-1.00674939155579,-0.427855104207993,0.579154670238495,-1.00202586176059,-0.431143734953757,0.620301741541062,7
1.97999572753906,-1.25972807407379,2.53997421264648,1.67617225646973,-0.973016570682103,2.54715453300902,1.74520069864106,1355.519,1323.339,3271.484,3267.425,-0.100496,0.02613356,0.1049579,-1.01353573799133,-0.428824454545975,0.585504472255707,-1.00916501115878,-0.434215511495054,0.624721215103391,7
2,-1.28012847900391,2.53137922286987,1.68800687789917,-0.993273599084619,2.53843849960327,1.7577407641983,1348.48,1321.808,3275.456,3268.794,-0.100055,0.02673192,0.1042124,-1.02002584934235,-0.429743736982346,0.591730415821075,-1.01606400046349,-0.437183953857422,0.628992018127441,6
2.02000427246094,-1.300652384758,2.52276730537415,1.69995927810669,-1.01366615605493,2.52966415204104,1.77036472839513,1352.943,1322.696,3269.765,3265.521,-0.09959637,0.02732445,0.1033952,-1.02619409561157,-0.430601447820663,0.597618877887726,-1.02271452148052,-0.440045487257004,0.633109007445237,6
2.03999328613281,-1.321293592453,2.51413917541504,1.71202719211578,-1.03417354141348,2.52084039703127,1.78305977683431,1357.918,1323.824,3266.596,3259.708,-0.09917612,0.02789942,0.1025204,-1.03206241130829,-0.43140709400177,0.603397727012634,-1.02910913225408,-0.442796909628122,0.637067576131623,6
2.05999755859375,-1.34204638004303,2.50549554824829,1.72420978546143,-1.05482201812353,2.5119559343546,1.79584216754118,1348.605,1323.11,3270.03,3262.604,-0.09880807,0.02843323,0.1016473,-1.03763425350189,-0.432184547185898,0.609131693840027,-1.03525504859546,-0.445441325732794,0.640872191117535,6
2.08000183105469,-1.36290407180786,2.49683690071106,1.73650097846985,-1.07559088172821,2.50301967256038,1.80869908347065,1346.668,1323.652,3266.456,3262.787,-0.09844641,0.02894614,0.1007354,-1.04288768768311,-0.432933032512665,0.614561915397644,-1.04114485287423,-0.447975543971863,0.644518260536375,6
2.10000610351563,-1.3838609457016,2.48816347122192,1.7488979101181,-1.09647498538954,2.49403382618922,1.82162733848484,1349.071,1324.727,3264.39,3256.944,-0.09809221,0.02944073,0.0997768,-1.04784274101257,-0.433661729097366,0.61984783411026,-1.04677621342161,-0.450398561093403,0.648004340974112,5
2.1199951171875,-1.40491080284119,2.4794762134552,1.76139748096466,-1.11745308225396,2.48500753716864,1.83461377976925,1344.127,1325.299,3263.866,3256.993,-0.09776944,0.0299009,0.09881577,-1.05249464511871,-0.434379398822784,0.624978244304657,-1.0521429102862,-0.45270770082608,0.651326581984514,5
2.13999938964844,-1.42604780197144,2.47077441215515,1.77399623394012,-1.138551967509,2.47592927627801,1.8476749948214,1337.012,1324.923,3264.989,3257.733,-0.09743334,0.03032998,0.09785464,-1.05684840679169,-0.435094684362411,0.629938066005707,-1.05725102347782,-0.454905579228273,0.654488747383304,4
2.16000366210938,-1.44726550579071,2.46205854415894,1.78668737411499,-1.15975039167652,2.46680818657414,1.86079782920208,1339.421,1326.436,3258.048,3254.912,-0.09707542,0.03074407,0.09685627,-1.06088972091675,-0.435792952775955,0.634556114673615,-1.0620943502576,-0.456989527434725,0.657486997379635,4
2.17999267578125,-1.46855843067169,2.45332908630371,1.79946851730347,-1.18102676265167,2.45765355853653,1.8739689163698,1341.222,1328.004,3254.683,3249.727,-0.09674092,0.03113423,0.09583177,-1.06464397907257,-0.436481416225433,0.639059066772461,-1.06666760390386,-0.458957270716794,0.660318059240953,3
2.19999694824219,-1.48992085456848,2.44458532333374,1.8123379945755,-1.20240821395574,2.44845371736898,1.88720505326679,1329.628,1327.913,3257.155,3252.914,-0.0964288,0.03148311,0.09483305,-1.06811428070068,-0.437176436185837,0.643476665019989,-1.07097597819164,-0.460811043810786,0.662985148161421,1
2.22000122070313,-1.51134634017944,2.43582797050476,1.82528901100159,-1.22387315175433,2.43921795429519,1.90049287228091,1327.858,1328.992,3252.13,3251.755,-0.09608472,0.03181579,0.09381156,-1.0712822675705,-0.437867701053619,0.647550225257874,-1.07501419914593,-0.462548577472581,0.665484999299265,0
2.24000549316406,-1.53282976150513,2.42705678939819,1.83831810951233,-1.24541615591711,2.42994860144581,1.91382901809327,1330.495,1330.602,3248.409,3245.005,-0.09572413,0.03213315,0.09276342,-1.07416892051697,-0.438555479049683,0.651454448699951,-1.07878069424208,-0.464169195088763,0.667816639186824,0
2.25999450683594,-1.55436539649963,2.41827201843262,1.85142207145691,-1.26701526177039,2.4206551096063,1.92719989352455,1324.84,1331.539,3246.744,3244.914,-0.09538058,0.03241898,0.0917353,-1.07677340507507,-0.439242631196976,0.65519779920578,-1.08227143928024,-0.465671165158559,0.669977576652695,0
2.27999877929688,-1.57594728469849,2.40947341918945,1.86459743976593,-1.28869796983554,2.41132564607061,1.9406225227075,1316.316,1331.273,3247.438,3245.783,-0.09500614,0.03267686,0.09072865,-1.07910358905792,-0.439933627843857,0.658771574497223,-1.08549040888332,-0.467056197851165,0.67197027217779,0
2.30000305175781,-1.59757018089294,2.40066123008728,1.87783718109131,-1.31044231452835,2.40196966201596,1.95408330789913,1317.892,1332.641,3239.991,3242.852,-0.09458429,0.03292618,0.08970162,-1.08114635944366,-0.440608292818069,0.661986827850342,-1.08843358680109,-0.468322565086307,0.673792239511894,0
2.31999206542969,-1.61922883987427,2.39183568954468,1.89113867282867,-1.33222611841886,2.3925966997709,1.96756852021384,1319.874,1334.133,3235.844,3236.891,-0.09415606,0.0331607,0.08866132,-1.0829268693924,-0.441267549991608,0.665073931217194,-1.09109790637238,-0.469468947365361,0.675441580245663,0
2.33999633789063,-1.64091777801514,2.38299751281738,1.90450000762939,-1.35407709248145,2.38319483607731,1.98109531406483,1308.335,1334.054,3237.331,3239.696,-0.09372782,0.03336274,0.08766014,-1.08444833755493,-0.441920638084412,0.668068408966064,-1.09348640563071,-0.470496651869278,0.67692017506657,0
2.36000061035156,-1.66263163089752,2.37414646148682,1.91791427135468,-1.37597305876702,2.37377361348711,1.99464996024512,1306.641,1334.798,3231.413,3238.489,-0.09324899,0.03355803,0.08664619,-1.08569490909576,-0.442551583051682,0.670712053775787,-1.09559602313537,-0.471404361345641,0.678226128796969,0
2.3800048828125,-1.68436551094055,2.36528325080872,1.93137836456299,-1.39790843013262,2.36433543599182,2.00822900004707,1309.436,1336.011,3227.498,3231.068,-0.09273287,0.03374868,0.08561282,-1.08668839931488,-0.443158179521561,0.673202574253082,-1.09742594550583,-0.472191725819537,0.679358937915576,0
2.39999389648438,-1.70611381530762,2.35640859603882,1.94488894939423,-1.41986083522252,2.35488992936084,2.02181858453579,1303.337,1336.561,3225.449,3231.082,-0.09221461,0.03391832,0.08460786,-1.08742535114288,-0.443738728761673,0.67553186416626,-1.09897439291323,-0.472857979480329,0.680317500623536,0
2.41999816894531,-1.727872133255,2.3475227355957,1.95844268798828,-1.44185817738692,2.34542508756209,2.03543598721428,1295.497,1335.866,3225.524,3231.283,-0.09164363,0.03407355,0.0836264,-1.08791315555573,-0.444293230772018,0.677689135074615,-1.10024313330221,-0.473403883025206,0.681102911362803,0
2.44000244140625,-1.74963474273682,2.33862686157227,1.97203254699707,-1.46387808506052,2.33595053645515,2.04906735901791,1297.758,1336.579,3217.775,3227.702,-0.09100607,0.03423246,0.08262695,-1.08813965320587,-0.4447982609272,0.679495811462402,-1.10123038958312,-0.473828671822132,0.681714070030222,0
2.46000671386719,-1.77139735221863,2.32972192764282,1.9856561422348,-1.48591492338117,2.32646870056377,2.06270921169857,1300.391,1337.424,3213.23,3221.26,-0.09034667,0.03438899,0.08161627,-1.08812689781189,-0.445251613855362,0.681181013584137,-1.10193578218388,-0.474132182551855,0.682150741652607,0
2.47999572753906,-1.79315483570099,2.32080888748169,1.9993109703064,-1.50794623031618,2.31698924467309,2.07634764018804,1292.66,1337.359,3211.878,3222.428,-0.08969207,0.03452855,0.08063541,-1.08787357807159,-0.445656150579453,0.682742774486542,-1.10235882472314,-0.474314205938057,0.682412625136718,0
2.5,-1.81490254402161,2.31188869476318,2.01299381256104,-1.52999999932945,2.30750012397766,2.08999997377396,1283.825,1336.117,3212.692,3222.834,-0.08897142,0.03466187,0.07967175,-1.08738434314728,-0.446013391017914,0.684142172336578,-1.10250000050292,-0.474374949932098,0.682500019669533,0
2.52000427246094,-1.83663523197174,2.30296277999878,2.02669739723206,-1.55205376834272,2.29801100328223,2.10365230735988,1287.245,1336.385,3204.802,3218.108,-0.08816235,0.03481029,0.07867929,-1.08664333820343,-0.446297228336334,0.685175716876984,-1.10235882472314,-0.474314205938057,0.682412625136718,0
2.53999328613281,-1.85834872722626,2.29403281211853,2.04041910171509,-1.57408507527774,2.28853154739156,2.11729073584934,1292.036,1336.914,3199.557,3210.158,-0.08732026,0.03496563,0.07766839,-1.08566915988922,-0.44650200009346,0.686082065105438,-1.10193578218388,-0.474132182551855,0.682150741652607,0
2.55999755859375,-1.880038022995,2.28510022163391,2.05415749549866,-1.59612191359838,2.27904971150017,2.13093258853001,1282.043,1335.927,3200.009,3212.292,-0.08647231,0.03510758,0.07669666,-1.08446371555328,-0.446633100509644,0.686917424201965,-1.10123038958312,-0.473828671822132,0.681714070030222,0
2.58000183105469,-1.90169823169708,2.2761664390564,2.06790637969971,-1.61814182127198,2.26957516039323,2.14456396033363,1280.666,1335.118,3194.506,3210.798,-0.08556736,0.03525928,0.07571235,-1.08301508426666,-0.446676641702652,0.687442481517792,-1.10024313330221,-0.473403883025206,0.681102911362804,0
2.60000610351563,-1.92332518100739,2.26723408699036,2.08166313171387,-1.64013916343638,2.26011031859448,2.15818136301212,1283.612,1334.791,3190.923,3203.188,-0.08461235,0.0354233,0.07470515,-1.08133959770203,-0.446630597114563,0.687833547592163,-1.09897439291323,-0.472857979480329,0.680317500623536,0
2.6199951171875,-1.94491374492645,2.25830435752869,2.09542441368103,-1.66209156852628,2.2506648119635,2.17177094750084,1278.81,1334.033,3188.388,3202.464,-0.08363657,0.03558674,0.07371499,-1.07943069934845,-0.446490734815598,0.688067078590393,-1.09742594550583,-0.472191725819537,0.679358937915576,0
2.63999938964844,-1.96645975112915,2.24937915802002,2.10918736457825,-1.68402693989188,2.24122663446822,2.18534998730279,1273.103,1332.123,3187.896,3201.223,-0.08259634,0.03575528,0.07273391,-1.07729423046112,-0.446255803108215,0.688146531581879,-1.09559602313537,-0.471404361345641,0.67822612879697,0
2.66000366210938,-1.98795795440674,2.24046111106873,2.1229453086853,-1.70592290617745,2.23180541187802,2.19890463348308,1276.682,1331.328,3180.135,3196.796,-0.08148368,0.03594394,0.07172424,-1.07491731643677,-0.445904433727264,0.68790203332901,-1.09348640563071,-0.470496651869278,0.67692017506657,0
2.67999267578125,-2.00940442085266,2.23155212402344,2.13669657707214,-1.72775723139253,2.2224107117184,2.21242112090437,1280.559,1330.729,3175.551,3189.517,-0.0803465,0.03614618,0.07069182,-1.07231605052948,-0.445435255765915,0.687558114528656,-1.09109983431736,-0.469469776906228,0.675442773735451,0
2.69999694824219,-2.03079390525818,2.22265529632568,2.15043950080872,-1.74955768413056,2.21303058593937,2.22591663964878,1270.765,1328.901,3176.232,3191.237,-0.07919815,0.03634449,0.06968615,-1.0694899559021,-0.444855272769928,0.687150955200195,-1.08843358680109,-0.468322565086308,0.673792239511893,0
2.72000122070313,-2.05212259292603,2.21377205848694,2.16416811943054,-1.77130202882336,2.20367460188472,2.23937742484041,1270.754,1327.232,3170.428,3188.76,-0.07798641,0.03656308,0.06865278,-1.06642556190491,-0.444151550531387,0.68642920255661,-1.08549040888332,-0.467056197851165,0.671970272177789,0
2.74000549316406,-2.07338523864746,2.20490550994873,2.17787981033325,-1.79298473688851,2.19434513834902,2.25280005402337,1275.494,1326.172,3166.524,3179.76,-0.0767246,0.03680228,0.06758366,-1.06313633918762,-0.443322449922562,0.68558531999588,-1.08227143928024,-0.465671165158559,0.669977576652695,0
2.75999450683594,-2.09457755088806,2.19605851173401,2.1915717124939,-1.81458384274179,2.18505164650952,2.26617092945464,1271.588,1324.735,3163.778,3178.402,-0.07545321,0.0370464,0.06652483,-1.05961430072784,-0.442365974187851,0.684599816799164,-1.07878069424208,-0.464169195088763,0.667816639186824,0
2.77999877929688,-2.11569452285767,2.18723273277283,2.20524120330811,-1.83612684690458,2.17578229366013,2.27950707526701,1266.233,1322.072,3163.089,3177.087,-0.07413122,0.0373001,0.06546828,-1.05586457252502,-0.441283822059631,0.683471024036407,-1.07501419914593,-0.462548577472581,0.665484999299265,0
2.80000305175781,-2.13673233985901,2.17843127250671,2.21888208389282,-1.85759178470316,2.16654653058634,2.29279489428112,1270.244,1320.372,3155.838,3171.901,-0.07274531,0.03757781,0.06437523,-1.05187654495239,-0.440060377120972,0.682041227817535,-1.07097597819164,-0.460811043810786,0.662985148161422,0
2.81999206542969,-2.15768527984619,2.16965770721436,2.23249244689941,-1.87895695992541,2.1573536925621,2.30602095550813,1274.143,1318.994,3151.474,3164.353,-0.07134023,0.03787174,0.06325449,-1.0476621389389,-0.438696146011353,0.68051677942276,-1.06667099276523,-0.458958728849171,0.660320157107579,0
2.83999633789063,-2.17855000495911,2.16091370582581,2.24607086181641,-1.90024960698239,2.14819206138118,2.31920211834584,1265.591,1316.638,3151.34,3165.399,-0.06993195,0.0381667,0.06215018,-1.04321944713593,-0.437198132276535,0.678917407989502,-1.06209435025759,-0.456989527434725,0.657486997379635,0
2.86000061035156,-2.19932079315186,2.15220260620117,2.25961136817932,-1.9214480311499,2.13907097167731,2.33232495272651,1266.392,1314.277,3145.789,3161.876,-0.06846987,0.03848298,0.06101109,-1.03853952884674,-0.435558706521988,0.677030801773071,-1.05725102347782,-0.454905579228273,0.654488747383304,0
2.8800048828125,-2.21999311447144,2.14352703094482,2.27311182022095,-1.94254691640495,2.12999271078668,2.34538616777867,1270.995,1312.616,3141.677,3153.054,-0.06697158,0.03882013,0.05983291,-1.03363120555878,-0.433778285980225,0.675022065639496,-1.0521429102862,-0.45270770082608,0.651326581984514,0
2.89999389648438,-2.240562915802,2.13488984107971,2.28656935691833,-1.96352501326936,2.1209664217661,2.35837260906308,1267.781,1310.668,3138.841,3150.846,-0.06547435,0.03916379,0.05865688,-1.02848839759827,-0.431858003139496,0.67288202047348,-1.04677621342161,-0.450398561093403,0.648004340974112,0
2.91999816894531,-2.26102542877197,2.12629389762878,2.29998135566711,-1.98440911693069,2.11198057539494,2.37130086407726,1262.661,1307.624,3137.985,3149.094,-0.0639393,0.03951618,0.05747856,-1.02311551570892,-0.42980232834816,0.67060524225235,-1.04114485287423,-0.447975543971863,0.644518260536375,0
2.94000244140625,-2.28137540817261,2.11774182319641,2.31334209442139,-2.00517798053537,2.10304431360073,2.38415778000673,1266.723,1305.356,3130.705,3143.685,-0.06235259,0.0398913,0.05625952,-1.01750373840332,-0.427600085735321,0.668031275272369,-1.03525504859546,-0.445441325732794,0.640872191117535,0
2.96000671386719,-2.30160856246948,2.10923671722412,2.32664942741394,-2.02582645724542,2.09415985092405,2.3969401707136,1271.333,1303.583,3126.226,3135.177,-0.06075682,0.04028173,0.05500714,-1.01166319847107,-0.425253719091415,0.665368795394897,-1.02910913225408,-0.442796909628122,0.637067576131623,0
2.97999572753906,-2.32172012329102,2.10078120231628,2.33990144729614,-2.04633384260397,2.08533609591429,2.40963521915279,1265.965,1301.368,3123.902,3134.489,-0.05918396,0.04067288,0.05376156,-1.00558984279633,-0.422769993543625,0.662599921226501,-1.02271452148052,-0.440045487257004,0.633109007445237,0
3,-2.34170579910278,2.09237813949585,2.35309529304504,-2.06672639957428,2.07656174835205,2.42225918334961,1259.949,1298.142,3123.518,3132.785,-0.05757648,0.04107191,0.05250812,-0.999288976192474,-0.42015677690506,0.659697353839874,-1.01606400046349,-0.437183953857422,0.628992018127441,0
3.02000427246094,-2.36156105995178,2.08402991294861,2.36622500419617,-2.0869834279768,2.06784571494631,2.43479924890685,1264.366,1295.794,3116.26,3126.551,-0.05591147,0.04149381,0.05120754,-0.992751181125641,-0.417404025793076,0.65648740530014,-1.00916501115878,-0.434215511495054,0.624721215103391,0
3.03999328613281,-2.38128042221069,2.07573986053467,2.37928867340088,-2.10708469520508,2.05919670122237,2.4472428908773,1270.093,1294.049,3111.279,3117.002,-0.05423687,0.04193021,0.04987079,-0.985983788967133,-0.414512813091278,0.653178155422211,-1.00202586176059,-0.431143734953757,0.620301741541063,0
3.05999755859375,-2.40086030960083,2.06751012802124,2.39228463172913,-2.12705600675913,2.05060360379452,2.45960608409476,1262.62,1291.629,3110.113,3117.057,-0.05258625,0.04236267,0.0485507,-0.97898530960083,-0.411491483449936,0.649797201156616,-0.994638524886308,-0.427965170275055,0.615728628108227,0
3.08000183105469,-2.42029523849487,2.05934309959412,2.40520763397217,-2.14687713595163,2.04207512564123,2.47187630727625,1262.877,1288.732,3104.655,3113.51,-0.05091378,0.04280756,0.04720131,-0.971754014492035,-0.408340394496918,0.646152257919312,-0.987011339258122,-0.424683405378145,0.611007036871143,0
3.10000610351563,-2.43958139419556,2.0512421131134,2.41805553436279,-2.16654331551667,2.03361331798384,2.48405060925705,1266.548,1286.633,3100.877,3104.594,-0.04922694,0.04326455,0.04581746,-0.964298367500305,-0.40506437420845,0.642400085926056,-0.979147395688901,-0.421299770153459,0.606138881190213,0
3.1199951171875,-2.45871353149414,2.04320883750916,2.43082571029663,-2.18603502400946,2.02522658035469,2.49611690533293,1262.779,1284.488,3097.556,3102.454,-0.0475566,0.04372119,0.04443672,-0.956613898277283,-0.401667177677155,0.638506650924683,-0.971056158224178,-0.417818336715394,0.601130019760458,0
3.13999938964844,-2.47768783569336,2.03524565696716,2.44351530075073,-2.20537738341953,2.01690410346351,2.50809074721212,1258.82,1281.47,3095.907,3099.292,-0.04586336,0.04418136,0.04304954,-0.948707520961761,-0.398155361413956,0.634476780891418,-0.962728579444533,-0.414235212212131,0.595974851798267,0
3.16000366210938,-2.49649906158447,2.0273551940918,2.45611882209778,-2.22455088103183,2.00865428308644,2.51996005559448,1262.468,1279.061,3088.709,3093.428,-0.04413923,0.04465454,0.04162754,-0.940574645996094,-0.394523501396179,0.630170941352844,-0.954174163352092,-0.410554485950274,0.590679260733698,0
3.17999267578125,-2.51514339447021,2.01953935623169,2.46863436698914,-2.24353658854737,2.00048526354177,2.53171311296128,1266.556,1277.204,3083.948,3084.831,-0.04242362,0.0451336,0.040179,-0.932222604751587,-0.390775233507156,0.625775694847107,-0.945403214201559,-0.406780591562751,0.585249625391267,0
3.19999694824219,-2.53361678123474,2.01180124282837,2.48106050491333,-2.2623590635174,1.99238647840124,2.54336512160655,1258.547,1274.936,3082.725,3084.726,-0.04073944,0.04560354,0.03874936,-0.923652410507202,-0.386920303106308,0.621311187744141,-0.936405971974636,-0.402909329586355,0.579679903854719,0
3.22000122070313,-2.55191373825073,2.00414204597473,2.49339199066162,-2.28099938900442,1.98436606709459,2.55490437104486,1258.542,1272.117,3076.967,3081.13,-0.03903662,0.04608094,0.03729241,-0.914865076541901,-0.382960617542267,0.61657726764679,-0.927192788821982,-0.398945154262308,0.573976504598449,0
3.24000549316406,-2.57003116607666,1.99656414985657,2.50562691688538,-2.29945328359428,1.9764258717947,2.56632821087688,1262.924,1270.233,3072.803,3071.26,-0.03732367,0.04656586,0.0358021,-0.905868053436279,-0.378900349140167,0.611740708351135,-0.91776751470058,-0.394889722119544,0.568141810929231,0
3.25999450683594,-2.58796453475952,1.98906898498535,2.51776242256165,-2.31770268688992,1.96857366338589,2.57762546085652,1258.984,1268.426,3069.161,3068.939,-0.03564055,0.04704431,0.03432265,-0.896658062934875,-0.374743759632111,0.606773138046265,-0.90814153446928,-0.390747931744771,0.562182870617026,0
3.27999877929688,-2.60570907592773,1.98165893554688,2.52979588508606,-2.33577134012187,1.96079922667992,2.58881081793642,1254.72,1265.652,3067.191,3065.854,-0.03394838,0.04751952,0.03284507,-0.887243926525116,-0.370498180389404,0.601674318313599,-0.898304216251578,-0.386515208538549,0.556093102023818,0
3.30000305175781,-2.62326192855835,1.97433590888977,2.54172205924988,-2.35364119854729,1.95311032582551,2.59987311156116,1257.886,1263.325,3060.145,3059.958,-0.03223597,0.04800092,0.03134139,-0.877625286579132,-0.366161048412323,0.596314251422882,-0.888267004546666,-0.382196476749158,0.549879589839776,0
3.31999206542969,-2.64061808586121,1.96710121631622,2.55353951454163,-2.37129490830989,1.94551442770222,2.61080159886703,1261.197,1261.647,3055.427,3051.635,-0.03054007,0.04848164,0.02982077,-0.867808640003204,-0.361735820770264,0.590872168540955,-0.878042061913513,-0.37779696958594,0.54354986326829,0
3.33999633789063,-2.65777397155762,1.959956407547,2.56524658203125,-2.38875555478454,1.93800159931817,2.62161057080077,1253.385,1259.736,3053.637,3051.323,-0.02888092,0.04894907,0.0283248,-0.857796609401703,-0.357231050729752,0.585358142852783,-0.867618167158097,-0.373311858882592,0.53709697585572,0
3.36000061035156,-2.67472553253174,1.95290374755859,2.57683849334717,-2.406005803634,1.93057929915441,2.6322892965819,1253.281,1257.126,3048.104,3047.283,-0.02721005,0.0494178,0.02681104,-0.847594678401947,-0.35265052318573,0.579598367214203,-0.857007552155826,-0.36874640767338,0.530528499715627,0
3.3800048828125,-2.69146966934204,1.94594371318817,2.58831310272217,-2.42304196557559,1.92324911460621,2.64283549236868,1256.767,1255.458,3043.608,3038.296,-0.02553812,0.04988753,0.02527565,-0.837208926677704,-0.347997158765793,0.573734045028687,-0.846214826007803,-0.364102599125748,0.523847288101157,0
3.39999389648438,-2.70800256729126,1.93907809257507,2.59966826438904,-2.43984769972619,1.91601807669906,2.65323904237604,1253.184,1253.939,3039.862,3035.409,-0.02389921,0.05034649,0.02375672,-0.826639354228973,-0.343275189399719,0.56775575876236,-0.835253140422974,-0.35938609205264,0.51706148254665,0
3.41999816894531,-2.72432041168213,1.93230843544006,2.61090135574341,-2.45644516534361,1.90887665092339,2.66351366424015,1248.559,1251.582,3037.418,3032.778,-0.0222619,0.0507975,0.02224888,-0.815895259380341,-0.338491201400757,0.561652839183807,-0.824110582941664,-0.354591760855451,0.510163708672097,0
3.44000244140625,-2.7404203414917,1.92563557624817,2.6220076084137,-2.47281804716281,1.90183185728196,2.67364925803476,1251.217,1249.432,3030.762,3026.912,-0.02061074,0.05124934,0.0207235,-0.804980218410492,-0.33364462852478,0.555316388607025,-0.812800388649434,-0.349725300221754,0.503162159625937,0
3.45999145507813,-2.75629806518555,1.91906070709229,2.63298583030701,-2.48895081463434,1.8948903781363,2.68363620960993,1253.952,1248.047,3026.207,3018.778,-0.01897875,0.05169608,0.01919148,-0.793899059295654,-0.328737914562225,0.548909425735474,-0.80133641229185,-0.344792671461508,0.496065412155666,0
3.47999572753906,-2.77195143699646,1.91258525848389,2.64383435249329,-2.50486489870395,1.88804299234919,2.69348778574196,1246.611,1246.52,3023.853,3018.337,-0.01738671,0.05212663,0.01769158,-0.782655775547028,-0.323777556419373,0.542429208755493,-0.789706299681989,-0.339788558913217,0.488865818431069,0
3.5,-2.78737640380859,1.906210064888,2.65454888343811,-2.5205447997813,1.88129636896134,2.70319439144611,1246.432,1244.138,3018.384,3014.379,-0.01579041,0.05255412,0.01618372,-0.771259546279907,-0.318767935037613,0.535729646682739,-0.777924000354857,-0.334718964672089,0.481572013878822,0
3.52000427246094,-2.80257105827332,1.89993572235107,2.66512775421143,-2.53598752699493,1.87465179486116,2.71275417523047,1249.32,1242.736,3014.152,3005.755,-0.01419944,0.05297821,0.01466604,-0.759715735912323,-0.313711524009705,0.52894926071167,-0.765994882555673,-0.32958619854407,0.474187321698442,0
3.53999328613281,-2.81753158569336,1.89376330375671,2.6755690574646,-2.55117869390181,1.86811546013321,2.72215823120146,1245.272,1241.498,3010.303,3003.455,-0.01264522,0.05338852,0.01317437,-0.748026251792908,-0.308611690998077,0.522064387798309,-0.753933682518821,-0.324396601119134,0.466720864320997,0
3.55999755859375,-2.83225560188293,1.88769423961639,2.68587040901184,-2.56613872308604,1.86167857751006,2.73141920191151,1241.381,1239.454,3007.604,3000.452,-0.01109579,0.05378899,0.01169902,-0.736201822757721,-0.303474098443985,0.515069901943207,-0.741727567798258,-0.319144650954242,0.459164697851087,0
3.58000183105469,-2.84674072265625,1.88172793388367,2.69602799415588,-2.58085326729328,1.85534732021446,2.74052820572674,1243.508,1237.579,3001.298,2994.99,-0.009539976,0.05418628,0.01021739,-0.724247753620148,-0.298298746347427,0.507875204086304,-0.729391385793765,-0.313836736470737,0.451528013536464,0
3.60000610351563,-2.86098384857178,1.87586641311646,2.70604062080383,-2.59531978247425,1.84912278287974,2.74948366775945,1245.694,1236.42,2997.119,2987.268,-0.008006527,0.05457561,0.008740301,-0.712168157100677,-0.293087333440781,0.500630915164948,-0.716930938559024,-0.308475354130224,0.443814403124743,0
3.6199951171875,-2.87498331069946,1.87010931968689,2.71590638160706,-2.60952509409627,1.84301063413925,2.75827743234631,1240.656,1235.174,2993.309,2986.291,-0.006520484,0.05494893,0.00729689,-0.699968039989471,-0.28784441947937,0.49329274892807,-0.704361775018033,-0.303067194200314,0.436033492140578,0
3.63999938964844,-2.88873624801636,1.86445820331573,2.72562384605408,-2.6234885835008,1.83700253474321,2.76692149746096,1236.63,1233.264,2991.094,2983.187,-0.005040831,0.05531186,0.005870816,-0.687659919261932,-0.282576501369476,0.485872089862823,-0.691670720740692,-0.297606588091786,0.428177124984152,0
3.66000366210938,-2.90224146842957,1.85891234874725,2.73518919944763,-2.63719712493647,1.83110413233575,2.77540773763803,1237.993,1231.577,2985.167,2978.269,-0.00355532,0.05567115,0.004443222,-0.675249218940735,-0.27728396654129,0.478263646364212,-0.678873453515702,-0.29210028151913,0.420255006953505,0
3.67999267578125,-2.91549634933472,1.85347282886505,2.74460124969482,-2.65063849381582,1.82532068681534,2.78372858527554,1240.725,1230.5,2980.976,2970.32,-0.002085255,0.05602339,0.003021157,-0.662739098072052,-0.271967262029648,0.470606774091721,-0.665986083416798,-0.286555206197011,0.41227711095171,0
3.69999694824219,-2.9284987449646,1.84814023971558,2.75385904312134,-2.66383127580226,1.81964420129024,2.79189554578451,1234.884,1229.472,2977.965,2969.596,-0.0006583334,0.05635872,0.001640721,-0.650134265422821,-0.266629606485367,0.462891608476639,-0.65299527533123,-0.280965624398954,0.404235181908735,0
3.72000122070313,-2.9412477016449,1.84291481971741,2.76295948028564,-2.6767633032417,1.81407991116207,2.79990108680742,1235.047,1227.427,2973.07,2965.641,0.0007593972,0.05668718,0.0002688858,-0.6374471783638,-0.261275738477707,0.455020576715469,-0.639917282339434,-0.275338529371411,0.396139281255611,0
3.74000549316406,-2.95374155044556,1.83779656887054,2.77190160751343,-2.6894328975087,1.80862853869646,2.80774416919516,1236.439,1226.326,2969.383,2958.848,0.002157702,0.05700746,-0.001091896,-0.624682545661926,-0.255907118320465,0.447109460830688,-0.626758665639204,-0.269676744214497,0.387993470686332,0
3.75999450683594,-2.96597814559937,1.83278632164001,2.78068423271179,-2.70182915057228,1.80329477731443,2.81541804035694,1232.521,1225.313,2965.842,2957.088,0.003516796,0.05731329,-0.002417085,-0.611845850944519,-0.250526934862137,0.439126670360565,-0.613536214864365,-0.263987493038594,0.379808143784027,0
3.77999877929688,-2.97795677185059,1.82788336277008,2.78930568695068,-2.7139695770734,1.79807109095524,2.82293354268985,1229.704,1223.677,2963.022,2954.089,0.004864955,0.05760887,-0.003718305,-0.598948001861572,-0.245139345526695,0.431068867444992,-0.60023651686137,-0.258265004538452,0.371574997167698,0
3.80000305175781,-2.98967719078064,1.82308840751648,2.79776334762573,-2.72584333814708,1.79296214327972,2.83028396642013,1231.434,1222.187,2957.954,2948.877,0.006209047,0.05789873,-0.005010471,-0.58599591255188,-0.239745140075684,0.422885239124298,-0.586876524285838,-0.252516572968186,0.363304525338741,0
3.81999206542969,-3.00113701820374,1.81840169429779,2.80605673789978,-2.73744054699573,1.78797218830065,2.83746319114912,1232.551,1221.229,2953.978,2943.19,0.007523989,0.05817884,-0.006281332,-0.57299268245697,-0.234344571828842,0.414668828248978,-0.573473482003301,-0.246749618311662,0.355007403690404,0
3.83999633789063,-3.01233577728271,1.81382274627686,2.81418514251709,-2.74877791451009,1.78309403578861,2.84448156171422,1227.996,1220.218,2951.164,2942.023,0.008795996,0.05844395,-0.007511712,-0.559945464134216,-0.228941217064857,0.406420260667801,-0.560014026276881,-0.240958390526246,0.346675359432959,0
3.86000061035156,-3.023273229599,1.80935168266296,2.82214641571045,-2.75984563331209,1.77833190558438,2.85133300688122,1227.813,1218.524,2947.069,2938.415,0.01005156,0.05870085,-0.008724515,-0.546866357326508,-0.223539471626282,0.398067772388458,-0.546515580872635,-0.235150386571708,0.338319178707605,0
3.8800048828125,-3.03394818305969,1.80498909950256,2.82994031906128,-2.77064299647982,1.77368610185671,2.85801708903178,1228.723,1217.538,2943.726,2932.719,0.01128376,0.05894903,-0.009917612,-0.533759891986847,-0.218140736222267,0.389691114425659,-0.532985466132484,-0.229328756186666,0.329943393154704,0
3.89999389648438,-3.04436111450195,1.80073392391205,2.83756566047668,-2.78116151864576,1.76916027562219,2.86452855531919,1226.163,1216.595,2940.193,2930.713,0.0124759,0.05918444,-0.01107342,-0.520632445812225,-0.212747514247894,0.381263971328735,-0.519441457145543,-0.223501147495394,0.321559006401168,0
3.91999816894531,-3.05451107025146,1.79658675193787,2.84502172470093,-2.79141684911929,1.7647476934202,2.87087709341145,1224.11,1215.278,2937.781,2927.559,0.01364607,0.05940905,-0.01219888,-0.507493734359741,-0.207363367080688,0.372809201478958,-0.505870408491346,-0.2176619043907,0.313157880805522,0
