t,x_s1,x_s2,x_s3,x_s_d1,x_s_d2,x_s_d3,propellers_rpms1,propellers_rpms2,propellers_rpms3,propellers_rpms4,rollRad,pitchRad,yawRad,v_s1,v_s2,v_s3,v_s_d1,v_s_d2,v_s_d3,insideCount
0,-0.0599999986588955,2.94000005722046,1.17999994754791,-0.0599999986588955,2.94000005722046,1.17999994754791,0,0,0,0,0,0,0,0,0,0,-1.06581410364015E-15,4.44089209850063E-16,4.44089209850063E-16,0
0.0200042724609375,-0.0599999986588955,2.94000005722046,1.17811644077301,-0.0600018701838461,2.93999925195556,1.18000110611101,0,0,0,0,-0.01635288,0.0001297794,-0.01587137,-1.10653664009419E-09,-7.76775763711157E-08,-0.0941759571433067,-0.000280105751305916,-0.000120521679537258,0.00017339880334547,5
0.040008544921875,-0.0599999986588955,2.94000005722046,1.17242503166199,-0.060014880898484,2.93999365380853,1.18000916036316,0,0,0,0,-0.03270202,0.0005238493,-0.03175127,-1.08383135799528E-09,-7.60859677484405E-08,-0.284568399190903,-0.00111143977225461,-0.000478221483967637,0.00068803416424398,5
0.0600128173828125,-0.0599058866500854,2.93990302085876,1.16596508026123,-0.0600499235789167,2.93997857592211,1.18003085345166,1868.186,3252.807,3183.866,1722.401,-0.04942188,0.0003295492,-0.01369504,0.00470568425953388,-0.00484921643510461,-0.322996616363525,-0.00248060856799822,-0.00106733656662813,0.00153561487136384,5
0.0800018310546875,-0.0598203726112843,2.93960738182068,1.16000306606293,-0.0601175574246769,2.93994947496775,1.18007272202403,1925.521,2314.37,3252.09,2829.448,-0.07543297,-0.002136388,0.02094803,0.00427571590989828,-0.0147785749286413,-0.298098176717758,-0.00437268608126799,-0.00188144466206175,0.00270690098422899,5
0.100006103515625,-0.0599374510347843,2.93904495239258,1.15498661994934,-0.0602282404704493,2.93990185114529,1.18014124010193,979.9462,1498.767,3915.207,3896.673,-0.1031954,-0.008063519,0.06330917,-0.00585394445806742,-0.0281172171235085,-0.250822335481644,-0.00677739276378709,-0.00291612276782231,0.00419552897277328,4
0.120010375976563,-0.0604638457298279,2.93818354606628,1.15081322193146,-0.0603920338334453,2.93983137543704,1.18024263599618,346.5513,980.4565,4172.638,4613.365,-0.1214316,-0.01542077,0.1040025,-0.0263197757303715,-0.0430684797465801,-0.208672434091568,-0.00968041450003567,-0.00416521191989172,0.00599263771761404,4
0.1400146484375,-0.0615636184811592,2.93704128265381,1.14728283882141,-0.0606187761383957,2.93973381455767,1.18038300028418,353.0439,747.1285,3975.232,4854.946,-0.1254013,-0.0211668,0.1351056,-0.0549885854125023,-0.0571135133504868,-0.17652040719986,-0.0130687916036232,-0.00562313592726786,0.00809020455552005,4
0.160003662109375,-0.0633408799767494,2.93568110466003,1.14427495002747,-0.0609177895434042,2.93960515744296,1.18056810382587,820.9801,814.9781,3462.76,4692.342,-0.1184617,-0.0235237,0.1522689,-0.0888631194829941,-0.0680146738886833,-0.150393277406693,-0.0169265510445065,-0.00728302204135792,0.0104783414199936,3
0.180007934570313,-0.0658469572663307,2.93417239189148,1.14182555675507,-0.0612988491946875,2.93944119812059,1.1808039979024,1348.404,1083.142,3007.255,4255.23,-0.1079811,-0.02278015,0.1557786,-0.125303938984871,-0.0754320248961449,-0.122470803558826,-0.0212468478482708,-0.00914192506089775,0.0131528109458008,3
0.20001220703125,-0.0690850242972374,2.93255400657654,1.14006173610687,-0.0617708265342762,2.93923811945689,1.181096174359,1636.586,1381.357,2918.104,3666.332,-0.09982699,-0.02030074,0.1501571,-0.161903530359268,-0.080916553735733,-0.088191457092762,-0.0260142813927851,-0.0111932185284278,0.0161040794142088,3
0.220001220703125,-0.0730103552341461,2.93082618713379,1.13903570175171,-0.0623420644491781,2.93899233174064,1.18144979784016,1641.663,1580.801,3147.903,3113.087,-0.09584077,-0.01735475,0.1421888,-0.196266531944275,-0.0863867029547691,-0.0512990020215511,-0.03121219533433,-0.0134297356845702,0.019321835755004,3
0.240005493164063,-0.077550120651722,2.92897367477417,1.13863337039948,-0.0630219993990999,2.93869977472688,1.18187070996396,1523.729,1623.924,3418.38,2777.542,-0.0947574,-0.01467828,0.1377348,-0.226988479495049,-0.0926260873675346,-0.0201140809804201,-0.0368361158647881,-0.0158495515746756,0.0228033104678445,3
0.260009765625,-0.0826390236616135,2.92699241638184,1.13863563537598,-0.0638185570309634,2.93835703823113,1.18236381708338,1439.031,1500.962,3532.968,2744.279,-0.09438935,-0.01258876,0.1393032,-0.254445344209671,-0.0990591123700142,0.000116106122732162,-0.0428699302682246,-0.0184457333472145,0.0265385290140116,3
0.280014038085938,-0.0882449075579643,2.92490077018738,1.13885223865509,-0.0647398147611713,2.93796064676678,1.18293411950397,1400.885,1276.164,3476.254,2977.535,-0.0932117,-0.01110538,0.1456831,-0.280294418334961,-0.104584835469723,0.0108280200511217,-0.0493014380023661,-0.0212130314496903,0.0305199386766456,3
0.300003051757813,-0.0943707078695297,2.92273259162903,1.13920712471008,-0.0657927507678135,2.93750759781875,1.18358593705038,1350.634,1061.591,3345.202,3324.755,-0.09053842,-0.009935189,0.153309,-0.306289970874786,-0.10840754956007,0.0177460312843323,-0.0561132031658829,-0.0241439437008635,0.0347367458022363,3
0.32000732421875,-0.101036086678505,2.92052578926086,1.13972556591034,-0.0669865614821475,2.93699393441958,1.18432496275165,1280.262,940.7598,3238.5,3590.573,-0.08598069,-0.008524778,0.1583618,-0.333269119262695,-0.110345371067524,0.0259204506874084,-0.0633036493784043,-0.0272377918282996,0.0391879745362408,3
0.340011596679688,-0.108251675963402,2.91831207275391,1.14046204090118,-0.0683278498358171,2.93641681551226,1.18515528413699,1253.26,944.3262,3170.56,3649.939,-0.07944422,-0.006292517,0.1584798,-0.360779643058777,-0.110683180391788,0.0368242971599102,-0.0708558471483356,-0.0304872915447207,0.0438631447168985,4
0.360000610351563,-0.116003230214119,2.91611480712891,1.14145290851593,-0.0698225328270578,2.93577369517774,1.1860805641102,1320.4,1047.51,3119.943,3497.925,-0.07154902,-0.0029625,0.153474,-0.387577623128891,-0.109860017895699,0.0495429262518883,-0.0787518717320621,-0.0338847303337087,0.0487511600740379,4
0.3800048828125,-0.124251663684845,2.91394972801208,1.14270806312561,-0.0714797725314022,2.93506063123087,1.18710647443246,1454.742,1181.206,3091.704,3231.504,-0.06361546,0.001257567,0.1450411,-0.412422001361847,-0.108258537948132,0.0627596527338028,-0.0869921272359981,-0.0374302820709642,0.0538522707687797,4
0.400009155273438,-0.132943496108055,2.91182637214661,1.14421761035919,-0.0733051402689975,2.93427522648826,1.18823646401636,1579.385,1273.701,3104.539,2982.055,-0.05701668,0.005825202,0.1357496,-0.434592097997665,-0.106167308986187,0.0754765123128891,-0.0955591682828665,-0.0411164404980124,0.0591556772815509,4
0.420013427734375,-0.142023906111717,2.90975022315979,1.14595806598663,-0.0753050585276311,2.93341471753282,1.18947450868777,1631.966,1288.94,3158.407,2844.374,-0.05243977,0.01017629,0.1278545,-0.454020798206329,-0.103803239762783,0.0870228782296181,-0.104441553474511,-0.0449382827008623,0.0646542968418633,4
0.44000244140625,-0.151446387171745,2.90772438049316,1.14789605140686,-0.077483988232608,2.93247718495301,1.19082336997196,1607.026,1238.146,3219.483,2842.76,-0.04966369,0.01397521,0.122459,-0.471123993396759,-0.101291611790657,0.0968973636627197,-0.113620829717891,-0.048887868829098,0.0703367061060819,4
0.460006713867188,-0.161177188158035,2.9057514667511,1.14999783039093,-0.0798512213598696,2.93145863067119,1.19228880004469,1540.307,1157.792,3254.036,2938.567,-0.04789056,0.01718403,0.1193437,-0.486540466547012,-0.0986424535512924,0.105089113116264,-0.123099793815011,-0.0529664022684887,0.0762046364278779,4
0.480010986328125,-0.171194061636925,2.90383577346802,1.15223979949951,-0.0824109101018722,2.93035726811493,1.19387336931088,1474.523,1086.275,3247.684,3067.144,-0.04628574,0.01998647,0.1173811,-0.500843822956085,-0.0957823768258095,0.112096451222897,-0.132860437136906,-0.0571661344090936,0.082246939608052,5
0.5,-0.181481540203094,2.90198302268982,1.15461623668671,-0.085166398670376,2.92917165836334,1.1955791479969,1433.052,1046.643,3215.498,3168.984,-0.04433258,0.02264491,0.1152228,-0.51437383890152,-0.0926418229937553,0.11881959438324,-0.142884000065179,-0.0614789935111996,0.0884520025491718,5
0.520004272460938,-0.192024827003479,2.90019845962524,1.15713548660278,-0.088127196023106,2.92789770997757,1.19741202260058,1422.594,1044.626,3178.489,3210.813,-0.04192135,0.02537734,0.1118903,-0.527164936065674,-0.0892294943332672,0.125964865088463,-0.153174893518032,-0.065906877469682,0.0948225558197254,5
0.540008544921875,-0.202805176377296,2.89848566055298,1.1598105430603,-0.0912963635428427,2.92653410573011,1.19937388826368,1445.307,1073.391,3148.468,3185.15,-0.03929175,0.02828773,0.107053,-0.539017498493195,-0.0856412500143051,0.133753925561905,-0.163714777034477,-0.0704418948965508,0.101347245800684,5
0.560012817382813,-0.21379853785038,2.89684510231018,1.16265344619751,-0.0946787750684717,2.92507874854427,1.20146776212465,1485.285,1114.241,3138.001,3113.422,-0.03688531,0.0313287,0.101055,-0.54966801404953,-0.0820328965783119,0.142144560813904,-0.174492968360474,-0.0750794495163205,0.10801945966793,5
0.580001831054688,-0.224976912140846,2.89527344703674,1.16566872596741,-0.0982762614093182,2.92353085067394,1.20369477754168,1521.14,1148.852,3145.947,3034.741,-0.03513508,0.03434552,0.0946517,-0.558918297290802,-0.0785772800445557,0.150761067867279,-0.185490414529404,-0.0798113433697334,0.11482740272751,5
0.600006103515625,-0.236311703920364,2.89376497268677,1.16885280609131,-0.102098762959148,2.92188613504538,1.20606108809202,1538.911,1166.651,3164.79,2979.699,-0.03429725,0.03715859,0.08862076,-0.566739857196808,-0.0754222348332405,0.159204438328743,-0.196713446836865,-0.0846403006364086,0.121774994352997,5
0.620010375976563,-0.247777089476585,2.89231157302856,1.1721955537796,-0.106147859919355,2.92014392174208,1.20856767199563,1535.087,1167.315,3181.441,2964.33,-0.03441603,0.03963155,0.08346109,-0.573269546031952,-0.0726698040962219,0.167140066623688,-0.20814339888717,-0.0895582896877615,0.128850679156259,5
0.6400146484375,-0.259352385997772,2.89090394973755,1.1756876707077,-0.110427588881679,2.91830247393137,1.21121702809507,1508.736,1156.707,3193.851,2985.684,-0.03534121,0.0417004,0.07929284,-0.57876580953598,-0.0703827887773514,0.174607634544373,-0.21977002223474,-0.0945609009039674,0.136048112861281,5
0.660003662109375,-0.271022230386734,2.8895320892334,1.17932116985321,-0.114938248900541,2.91636166293851,1.21400934151928,1466.82,1144.354,3197.664,3031.353,-0.03679104,0.043385,0.0759054,-0.583492815494537,-0.0685973763465881,0.181677624583244,-0.231574097577923,-0.0996398647564507,0.143355397804799,5
0.680007934570313,-0.282775342464447,2.88818550109863,1.18309104442596,-0.119690355154666,2.91431696437584,1.21695112166479,1426.866,1139.252,3192.219,3076.317,-0.03845818,0.04477237,0.07289308,-0.587656021118164,-0.0673289597034454,0.188492998480797,-0.243563621239988,-0.104798621839723,0.150777484091833,5
0.70001220703125,-0.294602453708649,2.88685393333435,1.18699359893799,-0.124683985757554,2.91216834463331,1.22004241688759,1404.134,1146.187,3176.791,3102.662,-0.04016846,0.04596483,0.06986418,-0.591356098651886,-0.0665803477168083,0.195124894380569,-0.255719729227087,-0.11002905550423,0.158302694011575,5
0.720001220703125,-0.306494861841202,2.88552665710449,1.19102954864502,-0.129918284978346,2.90991617190799,1.22328269744952,1396.084,1163.241,3162.404,3105.065,-0.04192561,0.04702277,0.06662496,-0.594621002674103,-0.0663642436265945,0.201798632740974,-0.268023157655716,-0.11532287703907,0.16591910230247,5
0.740005493164063,-0.318443477153778,2.88419246673584,1.1952006816864,-0.13540428105644,2.90755570105657,1.22667879035609,1391.03,1184.943,3154.625,3094.515,-0.04383031,0.04795155,0.06322135,-0.597429752349854,-0.0667133033275604,0.20855924487114,-0.280482990349159,-0.120683994959631,0.173632332283853,5
0.760009765625,-0.330438673496246,2.88283920288086,1.19950568675995,-0.141140917956636,2.9050873864615,1.23023004187122,1392.068,1207.512,3149.156,3075.486,-0.04599812,0.04873355,0.05981312,-0.599762260913849,-0.067664697766304,0.215247392654419,-0.293080296154222,-0.126104263719567,0.181430664670081,5
0.780014038085938,-0.342471659183502,2.88145399093628,1.20394325256348,-0.147130850634402,2.90251008576961,1.23393809553882,1389.358,1226.808,3150.269,3057.573,-0.04853771,0.04932055,0.05664257,-0.601647853851318,-0.0692571401596069,0.221880152821541,-0.305805585769442,-0.131579600337561,0.189308225131511,5
0.800003051757813,-0.35453474521637,2.88002347946167,1.20850992202759,-0.153371683173492,2.89982482987671,1.2378014681726,1373.771,1240.74,3154.293,3054.492,-0.0514853,0.04966101,0.05393155,-0.603155672550201,-0.0715217366814613,0.228332132101059,-0.318639638509124,-0.13710173468952,0.197253115148089,5
0.82000732421875,-0.366622716188431,2.87853407859802,1.21320068836212,-0.159875221826383,2.89702653888221,1.24182746840525,1350.057,1250.545,3158.068,3063.125,-0.05475939,0.04973587,0.05176736,-0.604399085044861,-0.074473924934864,0.234538674354553,-0.331592781842754,-0.14267511039705,0.205271727915392,4
0.840011596679688,-0.378732621669769,2.87697196006775,1.21800851821899,-0.166638895824778,2.89411631891588,1.24601450480873,1327.019,1259.43,3154.895,3078.58,-0.05825026,0.04955891,0.05010725,-0.605495631694794,-0.078103706240654,0.240393772721291,-0.344646098867604,-0.148291588045382,0.213352352969496,4
0.860000610351563,-0.390863865613937,2.875324010849,1.22292983531952,-0.173659158941841,2.89109569582005,1.2503603820997,1303.462,1269.381,3150.668,3095.067,-0.06186577,0.04915429,0.04885753,-0.606561660766602,-0.0823955908417702,0.246066138148308,-0.357780475378537,-0.153942943326036,0.221483157706883,4
0.8800048828125,-0.403017401695251,2.8735773563385,1.22796189785004,-0.180948461186242,2.88795931270381,1.25487280742661,1275.193,1280.847,3146.687,3114.656,-0.06551589,0.04855228,0.04792596,-0.607677638530731,-0.0873294323682785,0.251603066921234,-0.371007022483504,-0.159633957038354,0.229671020432672,4
0.900009155273438,-0.415195196866989,2.87171983718872,1.23310029506683,-0.188503099076414,2.88470876307182,1.25954948815793,1258.755,1295.001,3138.038,3125.027,-0.06911382,0.04780455,0.04718551,-0.60889083147049,-0.0928722843527794,0.256918340921402,-0.384306908919572,-0.165356526615982,0.237904283698049,4
0.920013427734375,-0.427399873733521,2.86974000930786,1.23834371566772,-0.196324452211266,2.88134345332121,1.26439127833112,1248.87,1311.125,3131.834,3126.07,-0.07266062,0.04693602,0.04660298,-0.610234618186951,-0.0989971309900284,0.262173712253571,-0.397671404529394,-0.171106895716105,0.246177543119742,4
0.94000244140625,-0.439634323120117,2.86762642860413,1.24369072914124,-0.204407453948074,2.87786556348678,1.26939504145298,1236.481,1326.851,3128.188,3128.392,-0.07618878,0.04594966,0.04622796,-0.611723244190216,-0.105675965547562,0.267352819442749,-0.411081631631503,-0.176876941799768,0.254479112513653,4
0.960006713867188,-0.451902002096176,2.86536884307861,1.24913990497589,-0.212765478812529,2.87426933888379,1.27456905699201,1224.257,1340.752,3127.79,3129.775,-0.07968551,0.04484972,0.04610845,-0.613383293151855,-0.112882755696774,0.272457391023636,-0.424549556012544,-0.182671813410681,0.262816399271726,3
0.980010986328125,-0.46420681476593,2.862957239151,1.25468719005585,-0.221393324468958,2.87055701793193,1.27991010445463,1217.062,1353.199,3124.334,3131.337,-0.08314655,0.04364381,0.04627579,-0.615242004394531,-0.120575733482838,0.277363240718842,-0.438056556301695,-0.188483498293199,0.271177875878363,3
1,-0.476553827524185,2.86038279533386,1.2603315114975,-0.230284798736574,2.86673126495361,1.28541435058594,1208.373,1363.889,3123.714,3134.442,-0.08658256,0.04232956,0.04676717,-0.617350101470947,-0.12872339785099,0.28221395611763,-0.451584000205995,-0.194303979492187,0.279552008056641,3
1.02000427246094,-0.488948881626129,2.85763692855835,1.26607179641724,-0.239454009753966,2.86278600961093,1.2910905289958,1189.761,1372.276,3125.703,3147.299,-0.08996531,0.04090574,0.04761045,-0.619753003120422,-0.137290447950363,0.287013620138168,-0.465144357597929,-0.200138622445408,0.287946515251652,3
1.04000854492188,-0.501398682594299,2.85471248626709,1.27190434932709,-0.248894644448595,2.85872396824263,1.29693473159157,1179.242,1379.876,3123.012,3157.815,-0.0932117,0.03940601,0.04872948,-0.622490763664246,-0.146224215626717,0.291629195213318,-0.47871923339115,-0.205979512261105,0.296350010028666,3
1.06001281738281,-0.51391077041626,2.85160279273987,1.27782881259918,-0.258606913342529,2.85454505026695,1.30294708869644,1172.199,1387.738,3121.396,3164.844,-0.09629671,0.03785229,0.05007424,-0.625605344772339,-0.155481398105621,0.296224176883698,-0.492300656572427,-0.21182321923497,0.304757557950783,3
1.08000183105469,-0.526493072509766,2.84830260276794,1.28384494781494,-0.268583149539609,2.85025255453512,1.30912285413647,1161.851,1395.097,3120.699,3175.488,-0.09921287,0.0362591,0.05162407,-0.629113912582397,-0.165014103055,0.30080658197403,-0.50587040849135,-0.217661904390701,0.313157880805523,3
1.10000610351563,-0.539153695106506,2.84480714797974,1.28995299339294,-0.278838480013141,2.84583997233313,1.31547139222872,1153.478,1401.495,3121.833,3183.914,-0.1019128,0.03465093,0.05333547,-0.633031189441681,-0.174776837229729,0.305402636528015,-0.519441457145546,-0.223501147495394,0.321559006401169,3
1.12001037597656,-0.551900744438171,2.84111309051514,1.29615139961243,-0.289365134970699,2.84131064678559,1.32198789310157,1154.658,1408.076,3118.878,3187.667,-0.1043863,0.03305491,0.05516111,-0.637353539466858,-0.184708893299103,0.309917509555817,-0.532995796775449,-0.22933320117373,0.329949788314817,3
1.1400146484375,-0.564742565155029,2.8372175693512,1.30244195461273,-0.300162704591434,2.83666475422696,1.32867210305637,1156.915,1414.01,3119.214,3189.198,-0.1066745,0.03147617,0.05710515,-0.642090857028961,-0.19477054476738,0.314526379108429,-0.54652589017629,-0.235154822377061,0.338325560657667,3
1.16000366210938,-0.577687382698059,2.83311915397644,1.3088264465332,-0.311222084148811,2.83190621216671,1.33551838583369,1153.042,1418.178,3122.344,3196.274,-0.1088018,0.02991295,0.05919496,-0.647239923477173,-0.204921633005142,0.31922522187233,-0.560014026276883,-0.240958390526247,0.34667535943296,3
1.18000793457031,-0.590743482112885,2.82881665229797,1.31530654430389,-0.322559451663168,2.82702805965467,1.34253675639879,1148.881,1420.344,3127.631,3203.598,-0.1107241,0.02837793,0.06141629,-0.652804493904114,-0.215123265981674,0.324002295732498,-0.573473482003304,-0.246749618311663,0.355007403690405,3
1.20001220703125,-0.603918969631195,2.82431030273438,1.3218811750412,-0.334165615614823,2.82203425154496,1.34972152476313,1153.907,1422.421,3127.523,3207.764,-0.1124227,0.02689316,0.06372345,-0.658775985240936,-0.225316762924194,0.328730702400208,-0.586886736182789,-0.252520966862155,0.363310846989412,3
1.22000122070313,-0.617222249507904,2.81960105895996,1.32855296134949,-0.346030421585499,2.81692915700008,1.35706640485806,1159.532,1423.963,3129.606,3210.904,-0.1139343,0.02546224,0.06610574,-0.665164887905121,-0.235466212034225,0.333589255809784,-0.600236516861372,-0.258265004538453,0.371574997167698,3
1.24000549316406,-0.63066154718399,2.81469035148621,1.33532536029816,-0.358170848086624,2.8117054706409,1.36458190719098,1155.789,1423.775,3135.796,3221.107,-0.1152691,0.02408123,0.06857374,-0.671966135501862,-0.245540574193001,0.338621437549591,-0.613536214864368,-0.263987493038594,0.379808143784027,2
1.260009765625,-0.644244790077209,2.8095805644989,1.34219872951508,-0.37057666480527,2.80636759428526,1.37226169871082,1160.64,1423.449,3137.566,3227.245,-0.1163881,0.02277807,0.07105818,-0.679160714149475,-0.2554911673069,0.343668222427368,-0.626768731761373,-0.26968107538565,0.387999702095469,2
1.28001403808594,-0.657979667186737,2.80427479743958,1.34917628765106,-0.383246459856376,2.80091613542787,1.38010490539349,1168.743,1423.234,3141.156,3229.13,-0.1173085,0.02156112,0.07353286,-0.686746418476105,-0.26528936624527,0.348879933357239,-0.639927289491735,-0.275342835169479,0.396145476159594,2
1.30000305175781,-0.671873688697815,2.79877662658691,1.35626125335693,-0.396168722856641,2.79535604666509,1.38810440176341,1172.151,1422.159,3146.317,3235.147,-0.1180595,0.02042704,0.07600858,-0.694699704647064,-0.274904727935791,0.354249894618988,-0.652995275331231,-0.280965624398954,0.404235181908735,2
1.32000732421875,-0.685933768749237,2.79309034347534,1.36345684528351,-0.409361504843077,2.78967956113998,1.39627136227237,1175.195,1419.732,3153.509,3240.692,-0.1186161,0.01938304,0.07846805,-0.70300281047821,-0.284311652183533,0.359780043363571,-0.6659860834168,-0.286555206197011,0.41227711095171,2
1.34001159667969,-0.70016622543335,2.78722095489502,1.37076354026794,-0.422813232584026,2.78389165849082,1.40459862253867,1186.784,1418.036,3154.932,3242.903,-0.1189847,0.01844499,0.08087006,-0.711622059345245,-0.293466299772263,0.365336775779724,-0.678883253871146,-0.292104498338286,0.420261073840379,2
1.36000061035156,-0.714577257633209,2.78117394447327,1.37818551063538,-0.436511415158101,2.77799771321212,1.41307845008695,1198.032,1415.967,3159.302,3243.649,-0.1192185,0.01760697,0.08321473,-0.720551371574402,-0.302352994680405,0.371101170778275,-0.691670720740693,-0.297606588091785,0.42817712498415,2
1.3800048828125,-0.729172587394714,2.7749547958374,1.38572752475739,-0.450474904562636,2.77198961381608,1.4217225152016,1198.902,1412.079,3168.572,3251.162,-0.1193325,0.01685516,0.08553036,-0.729767441749573,-0.310962975025177,0.377101063728333,-0.704361775018035,-0.303067194200314,0.436033492140578,2
1.40000915527344,-0.743957221508026,2.7685694694519,1.39339017868042,-0.464691155755482,2.76587275808388,1.43052305190393,1208.158,1408.635,3172.305,3254.768,-0.1192952,0.01620935,0.08776405,-0.739231050014496,-0.319265305995941,0.383135586977005,-0.716940488958393,-0.308479463400265,0.443820315276901,2
1.42001342773438,-0.758935868740082,2.76202440261841,1.40117704868317,-0.479157861067077,2.75964813894125,1.43947863163655,1220.309,1405.409,3177.289,3254.474,-0.1191323,0.01566879,0.08990239,-0.748932003974915,-0.327249258756638,0.389343529939651,-0.729400843645231,-0.313840805920001,0.451533868397062,2
1.44000244140625,-0.774112641811371,2.75532627105713,1.40909147262573,-0.493861275572861,2.75332167044526,1.4485807456364,1226.436,1401.423,3183.871,3259.028,-0.1188787,0.0152207,0.09196683,-0.758840322494507,-0.33490526676178,0.39572149515152,-0.741727567798258,-0.319144650954242,0.459164697851088,2
1.46000671386719,-0.789491236209869,2.74848175048828,1.41713666915894,-0.508821304757097,2.74688478782212,1.45784171634646,1230.705,1396.329,3192.432,3263.833,-0.1185075,0.01486583,0.09394591,-0.768932342529297,-0.342228770256042,0.402261584997177,-0.753933682518823,-0.324396601119133,0.466720864320996,2
1.48001098632813,-0.805074632167816,2.74149775505066,1.42531287670135,-0.524024159888143,2.74034342397783,1.467253007885,1243.367,1392.748,3194.236,3265.147,-0.1180222,0.01461725,0.09579696,-0.779165685176849,-0.349194794893265,0.408808171749115,-0.766004036374583,-0.329590137176618,0.474192988348404,2
1.5,-0.820865213871002,2.73438167572021,1.43362367153168,-0.539455198877605,2.73370387899399,1.4768055561018,1255.678,1389.161,3198.827,3264.397,-0.1174731,0.01446496,0.09752076,-0.789531409740448,-0.355805933475494,0.415540456771851,-0.777924000354858,-0.334718964672088,0.481572013878822,1
1.52000427246094,-0.836865246295929,2.72714018821716,1.44207334518433,-0.555135099954955,2.72695725560613,1.48651216180595,1257.288,1383.946,3208.517,3269.955,-0.1168739,0.01439003,0.09915287,-0.80000114440918,-0.362073183059692,0.422482132911682,-0.789706299681991,-0.339788558913217,0.48886581843107,1
1.54000854492188,-0.853075802326202,2.71978044509888,1.45066154003143,-0.571049184024557,2.72010986981902,1.49636373793799,1267.032,1379.881,3211.818,3271.64,-0.1161959,0.01440811,0.1006499,-0.810526967048645,-0.367983728647232,0.429411977529526,-0.801336412291853,-0.344792671461508,0.496065412155667,1
1.56001281738281,-0.869497835636139,2.71230959892273,1.45939087867737,-0.587194353912065,2.71316305426025,1.50635836719945,1279.402,1376.185,3216.276,3269.338,-0.1154688,0.01451356,0.1020078,-0.821097910404205,-0.373543411493301,0.436466157436371,-0.812809078412023,-0.349729039183831,0.50316753900293,1
1.58000183105469,-0.886131465435028,2.70473432540894,1.46826374530792,-0.60355483331529,2.70612359703193,1.51648628330776,1284.957,1371.79,3222.575,3272.052,-0.1147279,0.01468772,0.1032596,-0.831683993339539,-0.378761023283005,0.443640738725662,-0.824110582941666,-0.354591760855452,0.510163708672098,0
1.60000610351563,-0.90297669172287,2.69706130027771,1.47728216648102,-0.620152298932711,2.69898217125626,1.52676090517188,1287.854,1366.392,3230.928,3275.279,-0.1139401,0.01492722,0.1044048,-0.842262327671051,-0.383649051189423,0.45091837644577,-0.835253140422976,-0.35938609205264,0.51706148254665,0
1.62001037597656,-0.920032560825348,2.68929743766785,1.48644459247589,-0.636970945360177,2.69174557755711,1.53717244849371,1299.075,1362.966,3231.526,3275.331,-0.113106,0.0152427,0.1054066,-0.852789878845215,-0.388196706771851,0.458119481801987,-0.846223126656604,-0.364106170663034,0.523852426598179,0
1.63999938964844,-0.937297880649567,2.68144917488098,1.49575316905975,-0.653994195024907,2.68442094880091,1.54771065096602,1310,1359.693,3234.705,3273.143,-0.1122746,0.01562183,0.1062685,-0.863264381885529,-0.392418712377548,0.46542888879776,-0.857007552155828,-0.368746407673381,0.530528499715628,0
1.66000366210938,-0.954771041870117,2.67352247238159,1.50521075725555,-0.671244443874359,2.67699864863716,1.55838937674714,1309.346,1354.793,3243.493,3277.436,-0.1114538,0.01604315,0.1070332,-0.87366384267807,-0.396340638399124,0.472880095243454,-0.867618167158098,-0.373311858882592,0.53709697585572,0
1.68000793457031,-0.972449898719788,2.66552329063416,1.51481533050537,-0.688705090349012,2.66948582025311,1.56919834868089,1316.492,1351.486,3245.215,3278.207,-0.1106112,0.01652134,0.1076612,-0.883941948413849,-0.399962335824966,0.48023122549057,-0.878042061913515,-0.377796969585941,0.543549863268291,0
1.70001220703125,-0.990331828594208,2.65745735168457,1.52456772327423,-0.706372354049449,2.66188409024902,1.58013522651994,1326.644,1348.707,3248.01,3274.436,-0.1097707,0.01705071,0.1081501,-0.894094824790955,-0.403299063444138,0.487621396780014,-0.888274735793774,-0.382199803288802,0.549884375850026,0
1.72000122070313,-1.00841379165649,2.64932990074158,1.53446865081787,-0.724228658537036,2.6542010212754,1.5911891296115,1329.679,1345.338,3252.677,3275.769,-0.1089643,0.01761117,0.1085397,-0.904098510742188,-0.406369239091873,0.495046943426132,-0.898304216251578,-0.386515208538549,0.556093102023817,0
1.74000549316406,-1.02669250965118,2.64114594459534,1.54451847076416,-0.742297311768984,2.64642658456943,1.60237448669139,1329.713,1341.054,3259.378,3277.807,-0.1081558,0.0181983,0.1088355,-0.913936793804169,-0.409193843603134,0.502488195896149,-0.908141534469281,-0.390747931744771,0.562182870617028,0
1.760009765625,-1.04516398906708,2.63291049003601,1.55471360683441,-0.760560719141003,2.63856835059778,1.61368040586141,1338.204,1338.981,3257.81,3276.77,-0.1073419,0.01882346,0.1090037,-0.923572719097137,-0.411769330501556,0.509756565093994,-0.91777478390713,-0.394892849856044,0.568146310914365,0
1.78001403808594,-1.06382441520691,2.6246280670166,1.56505453586578,-0.779014757547905,2.63062809341744,1.62510433472304,1346.365,1337.087,3259.06,3273.287,-0.1065696,0.01947377,0.1090517,-0.933013916015625,-0.41411566734314,0.517049312591553,-0.927199897745281,-0.398948213033403,0.573980905360616,0
1.80000305175781,-1.08266925811768,2.61630296707153,1.57554173469543,-0.797640935141499,2.62261376955408,1.63663482594136,1345.178,1334.327,3263.719,3275.633,-0.1058596,0.02012938,0.1090192,-0.942242801189423,-0.416259914636612,0.52436226606369,-0.936405971974637,-0.402909329586356,0.579679903854719,0
1.82000732421875,-1.10169410705566,2.60793852806091,1.58617448806763,-0.816463410111527,2.61451498441355,1.64828683458664,1342.096,1330.828,3270.085,3277.524,-0.1051496,0.02079312,0.1089051,-0.951244115829468,-0.41822612285614,0.531637251377106,-0.94540321420156,-0.406780591562751,0.585249625391268,0
1.84001159667969,-1.12089359760284,2.59953832626343,1.5969477891922,-0.835463677219795,2.60633970028288,1.66004890503489,1349.879,1329.884,3266.938,3274.948,-0.1044289,0.02147947,0.1086731,-0.959981918334961,-0.420008301734924,0.538664877414703,-0.954180774018563,-0.410557330335375,0.590683353051152,0
1.86000061035156,-1.14026296138763,2.59110593795776,1.60786104202271,-0.854622615239374,2.59809614449182,1.6719092003358,1357.892,1329.19,3266.267,3269.909,-0.1037546,0.02217435,0.1083373,-0.96846878528595,-0.421622514724731,0.545660674571991,-0.962728579444532,-0.414235212212131,0.595974851798267,0
1.8800048828125,-1.15979695320129,2.58264398574829,1.61891460418701,-0.873964974649439,2.58977366760063,1.68388304221498,1352.032,1326.63,3271.954,3273.233,-0.1031426,0.02285169,0.1079555,-0.976698577404022,-0.423099517822266,0.552678108215332,-0.971056158224177,-0.417818336715394,0.601130019760457,0
1.90000915527344,-1.17948985099792,2.57415509223938,1.63010394573212,-0.893471623792247,2.58138050142717,1.69595858726494,1353.364,1325.61,3270.654,3273.577,-0.1025503,0.02352924,0.1074893,-0.984639942646027,-0.424445599317551,0.559466540813446,-0.979153483542501,-0.421302389586788,0.606142649861596,0
1.92001342773438,-1.19933605194092,2.56564164161682,1.64142739772797,-0.913137923350175,2.5729186421402,1.70813296352707,1358.239,1325.16,3270.658,3268.626,-0.1019858,0.02420535,0.106934,-0.99230432510376,-0.425677627325058,0.566170752048492,-0.987017247723777,-0.424685947625853,0.611010694492843,0
1.94000244140625,-1.21932935714722,2.55710530281067,1.65288293361664,-0.932943991899774,2.5643966441608,1.72039386345315,1356.156,1324.254,3272.15,3268.99,-0.1014712,0.02486258,0.1063317,-0.99968010187149,-0.426812648773193,0.572777211666107,-0.994638524886308,-0.427965170275055,0.615728628108227,0
1.96000671386719,-1.23946475982666,2.54854798316956,1.66446840763092,-0.952915303453826,2.55580354673295,1.73275705667061,1351.712,1322.529,3275.436,3269.776,-0.1009647,0.02550037,0.1056879,-1.0067652463913,-0.427868723869324,0.579272568225861,-1.00202586176059,-0.431143734953757,0.620301741541062,0
1.98001098632813,-1.25973534584045,2.53997111320496,1.67617785930634,-0.973031969359004,2.54714790738853,1.74521023115561,1355.87,1322.957,3270.25,3267.844,-0.1004635,0.02613202,0.1049701,-1.01353645324707,-0.428838938474655,0.585471391677856,-1.00917036754089,-0.434217816196637,0.624724530959079,0
2,-1.28013563156128,2.53137636184692,1.68800973892212,-0.993273599084619,2.53843849960327,1.7577407641983,1359.753,1323.515,3268.499,3263.087,-0.1000102,0.0267471,0.1041866,-1.02001571655273,-0.429739326238632,0.591596305370331,-1.01606400046349,-0.437183953857422,0.628992018127441,0
2.02000427246094,-1.30065965652466,2.5227644443512,1.69996333122253,-1.01366615605493,2.52966415204104,1.77036472839513,1350.245,1322.383,3272.797,3266.353,-0.09960542,0.02732531,0.1033916,-1.02620136737823,-0.430595993995667,0.597677826881409,-1.02271452148052,-0.440045487257004,0.633109007445237,0
2.04000854492188,-1.32130098342896,2.51413631439209,1.71203231811523,-1.03418924440916,2.52083364047092,1.78306949773667,1349.877,1322.821,3269.275,3265.696,-0.09919902,0.0278891,0.1025414,-1.03206753730774,-0.431407541036606,0.603451013565063,-1.02911391720548,-0.442798968459032,0.637070538244476,0
2.06001281738281,-1.34205377101898,2.50549268722534,1.72421395778656,-1.05483781489696,2.5119491374443,1.79585194649644,1353.727,1323.846,3267.024,3259.424,-0.09880541,0.02843721,0.1016337,-1.03763258457184,-0.432182848453522,0.609084367752075,-1.03525963910674,-0.445443300901551,0.64087503286269,0
2.08000183105469,-1.36291146278381,2.49683403968811,1.73650550842285,-1.07559088172821,2.50301967256038,1.80869908347065,1349.36,1324.233,3266.758,3259.604,-0.09845707,0.02895135,0.1007167,-1.04289186000824,-0.432933479547501,0.61458021402359,-1.04114485287423,-0.447975543971863,0.644518260536375,0
2.10000610351563,-1.38386857509613,2.48816061019897,1.74890410900116,-1.09647498538954,2.49403382618922,1.82162733848484,1342.102,1323.573,3268.751,3260.567,-0.09810766,0.02943304,0.09979527,-1.04785048961639,-0.433672577142715,0.619927883148193,-1.04677621342161,-0.450398561093403,0.648004340974112,0
2.12001037597656,-1.40491831302643,2.47947287559509,1.76140284538269,-1.11746913671118,2.48500062938421,1.83462371824305,1344.109,1324.853,3262.372,3258.339,-0.0977428,0.02989889,0.09883243,-1.05249130725861,-0.434387624263763,0.624935328960419,-1.05214690704168,-0.452709420518306,0.651329056166548,0
2.13999938964844,-1.42605519294739,2.47077107429504,1.77399933338165,-1.138551967509,2.47592927627801,1.8476749948214,1346.51,1326.294,3259.172,3253.013,-0.09740298,0.0303417,0.09783489,-1.05683982372284,-0.435086965560913,0.629825115203857,-1.05725102347782,-0.454905579228273,0.654488747383304,0
2.16000366210938,-1.44727301597595,2.46205520629883,1.78669202327728,-1.15975039167652,2.46680818657414,1.86079782920208,1335.541,1326.109,3261.846,3255.994,-0.09709086,0.03074238,0.09685647,-1.06089866161346,-0.435788303613663,0.634634733200073,-1.0620943502576,-0.456989527434725,0.657486997379635,0
2.18000793457031,-1.46856606006622,2.45332551002502,1.79947412014008,-1.18104303873349,2.45764655539322,1.87397899203979,1333.933,1327.181,3256.868,3255.135,-0.09675637,0.03112515,0.0958506,-1.06464827060699,-0.436482787132263,0.639103055000305,-1.06667099276523,-0.458958728849171,0.660320157107579,0
2.20001220703125,-1.48992824554443,2.44458198547363,1.81234240531921,-1.20242455577657,2.44844668594002,1.88721516963236,1336.512,1328.748,3253.521,3248.576,-0.09641389,0.03149062,0.0948128,-1.068110704422,-0.437173306941986,0.643412232398987,-1.07097916161324,-0.460812413548163,0.662987118851036,0
2.22000122070313,-1.51135396957397,2.43582463264465,1.82529366016388,-1.22387315175433,2.43921795429519,1.90049287228091,1330.741,1329.666,3252.19,3248.677,-0.09609431,0.03182247,0.09379019,-1.07128369808197,-0.43786484003067,0.647562682628632,-1.07501419914593,-0.462548577472581,0.665484999299265,0
2.24000549316406,-1.53283739089966,2.42705345153809,1.83832454681396,-1.24541615591711,2.42994860144581,1.91382901809327,1322.433,1329.433,3253.133,3249.416,-0.0957481,0.0321244,0.09278422,-1.07417464256287,-0.438563466072083,0.65154355764389,-1.07878069424208,-0.464169195088763,0.667816639186824,0
2.260009765625,-1.55437278747559,2.41826844215393,1.85142779350281,-1.26703177594152,2.42064800401982,1.92721011658316,1324.108,1330.918,3245.728,3246.589,-0.09536034,0.03241527,0.09175478,-1.07676959037781,-0.439249783754349,0.655163407325745,-1.08227399942825,-0.465672266718726,0.669979161506271,0
2.28001403808594,-1.57595467567444,2.40946984291077,1.86460089683533,-1.28871453312265,2.41131851935089,1.94063277617124,1326.201,1332.515,3241.681,3240.665,-0.09497418,0.03268821,0.09070936,-1.07909464836121,-0.43992605805397,0.658656358718872,-1.08549275912543,-0.467057209094684,0.67197172708961,0
2.30000305175781,-1.59757781028748,2.40065789222717,1.87784123420715,-1.31044231452835,2.40196966201596,1.95408330789913,1317.857,1333.166,3240.924,3242.287,-0.09461199,0.03292803,0.08969171,-1.0811493396759,-0.440599501132965,0.662017107009888,-1.08843358680109,-0.468322565086307,0.673792239511894,0
2.32000732421875,-1.61923658847809,2.39183235168457,1.8911452293396,-1.33224276726637,2.39258953623693,1.96757882664355,1308.278,1332.723,3242.194,3243.263,-0.09420186,0.03314489,0.08869206,-1.08293902873993,-0.441274970769882,0.665202379226685,-1.09109983431736,-0.469469776906228,0.675442773735451,0
2.34001159667969,-1.64092540740967,2.38299369812012,1.90450537204742,-1.35409377777295,2.38318765686251,1.9811056430551,1310.981,1334.106,3234.372,3239.123,-0.09372143,0.03336084,0.08766565,-1.0844475030899,-0.441927909851074,0.668007075786591,-1.09348812118877,-0.470497390025984,0.676921237078733,0
2.36000061035156,-1.66263949871063,2.37414264678955,1.91791880130768,-1.37597305876702,2.37377361348711,1.99464996024512,1314.7,1335.683,3229.342,3231.999,-0.09322555,0.03356758,0.08662465,-1.08569812774658,-0.442554742097855,0.670672237873077,-1.09559602313537,-0.471404361345641,0.678226128796969,0
2.3800048828125,-1.68437337875366,2.36527943611145,1.93138384819031,-1.39790843013262,2.36433543599182,2.00822900004707,1303.637,1335.556,3230.334,3234.759,-0.09273553,0.03374413,0.08562762,-1.08669555187225,-0.443163692951202,0.673254668712616,-1.09742594550583,-0.472191725819537,0.679358937915576,0
2.40000915527344,-1.70612192153931,2.35640430450439,1.94489395618439,-1.41987760424917,2.35488271411715,2.02182896536211,1301.249,1335.966,3224.899,3233.91,-0.0921997,0.03391457,0.0846241,-1.08742654323578,-0.443741112947464,0.675508260726929,-1.09897546783438,-0.472858441988871,0.680318166050934,0
2.42001342773438,-1.72788000106812,2.34751892089844,1.95844614505768,-1.44187496577138,2.34541786398928,2.035446380024,1303.17,1336.806,3221.417,3226.973,-0.09162233,0.03408245,0.08360503,-1.08791160583496,-0.444285243749619,0.677610516548157,-1.1002439936861,-0.473404253224357,0.681103443981416,0
2.44000244140625,-1.74964308738708,2.338623046875,1.97203695774078,-1.46387808506052,2.33595053645515,2.04906735901791,1297.442,1337.131,3219.048,3226.833,-0.09103164,0.03423491,0.08261153,-1.08814597129822,-0.444791972637177,0.679538190364838,-1.10123038958312,-0.473828671822132,0.681714070030222,0
2.46000671386719,-1.77140581607819,2.32971787452698,1.98566293716431,-1.48591492338117,2.32646870056377,2.06270921169857,1290.446,1336.279,3218.905,3226.356,-0.09038077,0.0343774,0.08163808,-1.08813798427582,-0.445260256528854,0.681298792362213,-1.10193578218388,-0.474132182551855,0.682150741652607,0
2.48001098632813,-1.79316329956055,2.32080459594727,1.99931716918945,-1.5079630509786,2.31698200721197,2.07635805297935,1292.955,1336.777,3210.917,3222.796,-0.08966171,0.0345273,0.08064613,-1.08787417411804,-0.445665657520294,0.682710945606232,-1.10235904000526,-0.474314298567936,0.682412758406602,0
2.5,-1.81491088867188,2.31188440322876,2.01299738883972,-1.52999999932945,2.30750012397766,2.08999997377396,1295.797,1337.366,3206.377,3216.217,-0.08891975,0.03467808,0.07964106,-1.08737647533417,-0.44600647687912,0.684010624885559,-1.10250000050292,-0.474374949932098,0.682500019669533,0
2.52000427246094,-1.83664357662201,2.30295872688293,2.02670216560364,-1.55205376834272,2.29801100328223,2.10365230735988,1284.758,1336.513,3207.432,3218.704,-0.08816554,0.03481273,0.07867394,-1.08664619922638,-0.446289271116257,0.685233891010284,-1.10235882472314,-0.474314205938057,0.682412625136718,0
2.54000854492188,-1.85835707187653,2.29402875900269,2.04042458534241,-1.57410188948011,2.28852431271001,2.11730114464159,1283.751,1336.09,3201.64,3216.83,-0.08734423,0.0349568,0.07769036,-1.08566856384277,-0.446497470140457,0.686124622821808,-1.10193535162022,-0.474131997292339,0.682150475113189,0
2.56001281738281,-1.88004636764526,2.28509616851807,2.05416202545166,-1.59613871703568,2.27904248145054,2.13094299065815,1287.524,1336.191,3197.545,3208.719,-0.08646911,0.03511231,0.07668243,-1.08446037769318,-0.44662681221962,0.68687105178833,-1.10122974390336,-0.473828394004169,0.681713670323692,0
2.58000183105469,-1.90170669555664,2.27616262435913,2.06791138648987,-1.61814182127198,2.26957516039323,2.14456396033363,1282.828,1335.753,3195.018,3207.861,-0.08557908,0.03526372,0.0756957,-1.08301627635956,-0.446673393249512,0.687467277050018,-1.10024313330221,-0.473403883025206,0.681102911362804,0
2.60000610351563,-1.92333340644836,2.26722979545593,2.0816695690155,-1.64013916343638,2.26011031859448,2.15818136301212,1276.165,1334.025,3194.743,3207.395,-0.08463047,0.03541575,0.07472518,-1.08134233951569,-0.446636438369751,0.68791002035141,-1.09897439291323,-0.472857979480329,0.680317500623536,0
2.62001037597656,-1.94492208957672,2.2582995891571,2.09543013572693,-1.66210831390746,2.25065760689379,2.17178131368948,1279.315,1333.437,3187.106,3203.23,-0.08360941,0.03558554,0.07372893,-1.07942652702332,-0.446494460105896,0.6880242228508,-1.09742465646102,-0.47219117117957,0.679358139935436,0
2.63999938964844,-1.96646785736084,2.2493748664856,2.10919094085693,-1.68402693989188,2.24122663446822,2.18534998730279,1282.81,1333.06,3182.703,3196.095,-0.08255959,0.03576669,0.07271286,-1.07728612422943,-0.446245759725571,0.688036441802979,-1.09559602313537,-0.471404361345641,0.67822612879697,0
2.66000366210938,-1.98796629905701,2.24045705795288,2.12295031547546,-1.70592290617745,2.23180541187802,2.19890463348308,1272.935,1331.445,3183.125,3198.112,-0.08149593,0.03594288,0.07172503,-1.07491981983185,-0.445895701646805,0.687971115112305,-1.09348640563071,-0.470496651869278,0.67692017506657,0
2.68000793457031,-2.00941252708435,2.23154830932617,2.13670229911804,-1.72777388024004,2.22240354818443,2.21243142733407,1273.149,1330.055,3177.401,3195.289,-0.08036514,0.03613781,0.07071047,-1.07231557369232,-0.445430755615234,0.68759685754776,-1.09109790637238,-0.469468947365361,0.675441580245664,0
2.70001220703125,-2.03080224990845,2.22265148162842,2.1504442691803,-1.74957429229274,2.21302343991116,2.22592692089233,1277.376,1329.248,3173.409,3186.846,-0.07918537,0.03635157,0.06966465,-1.06948590278625,-0.444848358631134,0.687094151973724,-1.08843144721369,-0.468321644481621,0.673790915005369,0
2.72000122070313,-2.05213069915771,2.21376848220825,2.1641731262207,-1.77130202882336,2.20367460188472,2.23937742484041,1273.329,1327.976,3170.733,3185.606,-0.07799387,0.03656912,0.06863055,-1.06642401218414,-0.444146066904068,0.686448872089386,-1.08549040888332,-0.467056197851165,0.671970272177789,0
2.74000549316406,-2.07339334487915,2.20490193367004,2.17788648605347,-1.79298473688851,2.19434513834902,2.25280005402337,1267.734,1325.494,3170.31,3184.288,-0.07674751,0.03679518,0.06760161,-1.06313526630402,-0.443325370550156,0.685662806034088,-1.08227143928024,-0.465671165158559,0.669977576652695,0
2.760009765625,-2.09458541870117,2.19605445861816,2.19157767295837,-1.81460030360772,2.18504456385877,2.26618111951479,1271.417,1324,3162.849,3179.618,-0.07543404,0.03704447,0.06653909,-1.05960774421692,-0.442368417978287,0.684562981128693,-1.07877792518082,-0.464168003639063,0.667814925005998,0
2.78001403808594,-2.11570262908936,2.18722867965698,2.20524501800537,-1.83614325029677,2.17577523573873,2.27951722974818,1275.736,1322.816,3158.375,3171.807,-0.07409819,0.03731048,0.06544814,-1.05585515499115,-0.441275268793106,0.683367967605591,-1.07501122224683,-0.462547296596067,0.665483156456918,0
2.80000305175781,-2.13673973083496,2.17842793464661,2.21888637542725,-1.85759178470316,2.16654653058634,2.29279489428112,1269.875,1321.008,3156.537,3171.703,-0.07276981,0.03757857,0.06436871,-1.051873087883,-0.440050154924393,0.682068407535553,-1.07097597819164,-0.460811043810786,0.662985148161422,0
2.82000732421875,-2.15769290924072,2.16965389251709,2.23249888420105,-1.87897323600723,2.1573466894188,2.30603103117811,1263.207,1318.112,3156.511,3170.873,-0.07138816,0.03785747,0.06328551,-1.04766464233398,-0.438697546720505,0.680625379085541,-1.06666760390385,-0.458957270716794,0.660318059240952,0
2.84001159667969,-2.17855739593506,2.16090989112854,2.24607610702515,-1.90026581322863,2.14818508828617,2.31921215078427,1267.995,1316.309,3149.227,3164.684,-0.06992982,0.03816456,0.06215526,-1.04321753978729,-0.437201380729675,0.678865373134613,-1.06209075728,-0.456987981476842,0.657484773155346,0
2.86000061035156,-2.19932818412781,2.15219855308533,2.2596161365509,-1.9214480311499,2.13907097167731,2.33232495272651,1273.6,1314.976,3144.187,3155.875,-0.06844857,0.03849063,0.06099093,-1.03854060173035,-0.435559898614883,0.67699784040451,-1.05725102347782,-0.454905579228273,0.654488747383304,0
2.8800048828125,-2.22000074386597,2.14352321624756,2.27311754226685,-1.94254691640495,2.12999271078668,2.34538616777867,1265.832,1312.611,3143.835,3156.289,-0.06697371,0.03881652,0.05984506,-1.03363287448883,-0.433780521154404,0.675067365169525,-1.0521429102862,-0.45270770082608,0.651326581984514,0
2.90000915527344,-2.24057054519653,2.13488602638245,2.28657460212708,-1.96354098577478,2.12095954924324,2.35838249680481,1266.003,1310.04,3138.218,3153.518,-0.0654605,0.03916084,0.05866986,-1.02848649024963,-0.431857645511627,0.672853291034698,-1.04677201701582,-0.450396755497224,0.648001743199023,0
2.92001342773438,-2.26103258132935,2.12628984451294,2.29998517036438,-1.98442500350686,2.11197373984504,2.37131069862469,1270.087,1308.12,3134.634,3144.719,-0.06391747,0.0395243,0.05745666,-1.02311253547668,-0.429794549942017,0.670532166957855,-1.04114045847258,-0.4479736531836,0.644515540192422,0
2.94000244140625,-2.28138279914856,2.11773824691772,2.31334662437439,-2.00517798053537,2.10304431360073,2.38415778000673,1266.264,1306.034,3131.944,3142.803,-0.06237549,0.03989281,0.0562465,-1.01750409603119,-0.42759308218956,0.668074250221252,-1.03525504859546,-0.445441325732794,0.640872191117535,0
2.96000671386719,-2.30161595344543,2.10923314094543,2.32665586471558,-2.02582645724542,2.09415985092405,2.3969401707136,1261.698,1302.921,3130.63,3140.757,-0.06079357,0.04027118,0.05502981,-1.01166558265686,-0.425256937742233,0.665465891361237,-1.02910913225408,-0.442796909628122,0.637067576131623,0
2.98001098632813,-2.32172799110413,2.1007776260376,2.33990716934204,-2.04634944795115,2.08532938136936,2.40964487960608,1266.51,1300.639,3123.229,3134.578,-0.05916159,0.0406715,0.05376964,-1.00558936595917,-0.42277580499649,0.662569105625153,-1.02270954399162,-0.440043345582586,0.633105926142498,0
3,-2.34171366691589,2.09237432479858,2.35309886932373,-2.06672639957428,2.07656174835205,2.42225918334961,1270.627,1298.847,3118.679,3126.48,-0.05752854,0.04108477,0.05247878,-0.999283909797668,-0.420152634382248,0.659586906433105,-1.01606400046349,-0.437183953857422,0.628992018127441,0
3.02000427246094,-2.36156845092773,2.08402681350708,2.36622953414917,-2.0869834279768,2.06784571494631,2.43479924890685,1262.268,1296.28,3118.258,3126.901,-0.05591094,0.04149557,0.05120236,-0.992748498916626,-0.417397201061249,0.656537532806396,-1.00916501115878,-0.434215511495054,0.624721215103391,0
3.04000854492188,-2.38128805160522,2.07573652267456,2.37929344177246,-2.10709998486405,2.05919012250926,2.44725235590455,1262.902,1293.465,3112.452,3123.311,-0.05425818,0.04192295,0.04989016,-0.9859778881073,-0.41450709104538,0.653200685977936,-1.00202031904361,-0.431141350077486,0.620298310335216,0
3.06001281738281,-2.40086770057678,2.06750679016113,2.39228868484497,-2.12707118369488,2.05059707358306,2.45961547934097,1267.786,1291.483,3108.494,3113.46,-0.05258358,0.04236612,0.04853716,-0.978980839252472,-0.411485970020294,0.649757981300354,-0.994632798067981,-0.427962706185117,0.615725082934876,0
3.08000183105469,-2.4203028678894,2.05934000015259,2.40521216392517,-2.14687713595163,2.04207512564123,2.47187630727625,1264.094,1289.403,3105.221,3111.36,-0.05092603,0.04280991,0.04718881,-0.971751153469086,-0.408337026834488,0.646178483963013,-0.987011339258122,-0.424683405378145,0.611007036871143,0
3.10000610351563,-2.43958854675293,2.0512387752533,2.41806149482727,-2.16654331551667,2.03361331798384,2.48405060925705,1259.78,1286.283,3103.729,3108.663,-0.04924664,0.04325789,0.04583564,-0.96429580450058,-0.405066907405853,0.642461776733398,-0.979147395688901,-0.421299770153459,0.606138881190213,0
3.12001037597656,-2.45872092247009,2.04320549964905,2.43083071708679,-2.18604984110275,2.02522020497339,2.49612607781951,1263.587,1283.823,3096.535,3102.82,-0.0475337,0.04372052,0.04444562,-0.956609904766083,-0.401669859886169,0.638466000556946,-0.971049893464309,-0.41781564116424,0.601126141575667,0
3.13999938964844,-2.47769498825073,2.03524255752563,2.44351840019226,-2.20537738341953,2.01690410346351,2.50809074721212,1267.495,1281.932,3091.993,3094.352,-0.04582821,0.04419087,0.04302794,-0.948701441287994,-0.398149847984314,0.63438469171524,-0.962728579444533,-0.414235212212131,0.595974851798267,0
3.16000366210938,-2.49650645256042,2.02735209465027,2.45612287521362,-2.22455088103183,2.00865428308644,2.51996005559448,1259.353,1279.554,3090.9,3094.444,-0.04414828,0.04465389,0.04162739,-0.940570533275604,-0.394516468048096,0.630228817462921,-0.954174163352092,-0.410554485950274,0.590679260733698,0
3.18000793457031,-2.51515102386475,2.01953673362732,2.46863889694214,-2.24355101420387,2.00047905658478,2.53172204312984,1259.895,1276.71,3085.231,3090.331,-0.04244386,0.04512664,0.04019677,-0.932217121124268,-0.390770763158798,0.625802218914032,-0.945396434568188,-0.406777674475913,0.585245428475253,0
3.20001220703125,-2.53362345695496,2.011798620224,2.48106408119202,-2.26237335188561,1.99238033051557,2.54337396678712,1264.127,1274.778,3080.837,3080.982,-0.04072879,0.04560824,0.03873245,-0.923647999763489,-0.386916011571884,0.621263027191162,-0.93639902618694,-0.402906341007952,0.579675604081262,0
3.22000122070313,-2.55192089080811,2.00413942337036,2.49339604377747,-2.28099938900442,1.98436606709459,2.55490437104486,1260.863,1272.871,3077.19,3078.205,-0.03904141,0.04608542,0.03727439,-0.914860367774963,-0.382956832647324,0.616595029830933,-0.927192788821982,-0.398945154262308,0.573976504598449,0
3.24000549316406,-2.57003808021545,1.99656128883362,2.50563216209412,-2.29945328359428,1.9764258717947,2.56632821087688,1256.032,1270.056,3075.458,3075.567,-0.03734604,0.04656018,0.03581828,-0.905862331390381,-0.378900915384293,0.611801326274872,-0.91776751470058,-0.394889722119544,0.568141810929231,0
3.260009765625,-2.58797121047974,1.98906636238098,2.51776695251465,-2.31771654397337,1.96856770107001,2.57763403905129,1259.006,1267.635,3068.57,3069.805,-0.03562617,0.04704275,0.03433303,-0.896652579307556,-0.374745726585388,0.606741070747375,-0.908134108040216,-0.390744736359816,0.562178273303667,0
3.27999877929688,-2.60571575164795,1.98165643215179,2.52979874610901,-2.33577134012187,1.96079922667992,2.58881081793642,1262.774,1265.9,3063.813,3061.132,-0.03391802,0.04752741,0.0328265,-0.88723760843277,-0.370494514703751,0.601591348648071,-0.898304216251578,-0.386515208538549,0.556093102023818,0
3.30000305175781,-2.62326812744141,1.9743332862854,2.54172611236572,-2.35364119854729,1.95311032582551,2.59987311156116,1255.228,1263.904,3061.99,3060.709,-0.03224396,0.04800012,0.03134246,-0.877619206905365,-0.366155534982681,0.596365690231323,-0.888267004546666,-0.382196476749158,0.549879589839776,0
3.32000732421875,-2.64062404632568,1.96709871292114,2.55354380607605,-2.37130830610839,1.94550866300381,2.61080989274252,1255.242,1261.232,3056.349,3056.745,-0.03055817,0.04847538,0.02983848,-0.8678018450737,-0.361732095479965,0.590890347957611,-0.878034183119985,-0.377793579561194,0.543544985919778,0
3.34001159667969,-2.65777993202209,1.95995426177979,2.56525015830994,-2.38876879352593,1.93799590305759,2.62161876621234,1258.683,1259.483,3052.053,3047.691,-0.02887133,0.04895274,0.02831091,-0.8577920794487,-0.357227951288223,0.585314035415649,-0.867610144209785,-0.373308406832067,0.537092009268528,0
3.36000061035156,-2.67473173141479,1.9529013633728,2.57684254646301,-2.406005803634,1.93057929915441,2.6322892965819,1254.839,1257.848,3048.28,3045.154,-0.02721697,0.04942045,0.02679765,-0.847589373588562,-0.352647513151169,0.579614341259003,-0.857007552155826,-0.36874640767338,0.530528499715627,0
3.3800048828125,-2.69147634506226,1.94594120979309,2.58831834793091,-2.42304196557559,1.92324911460621,2.64283549236868,1250.53,1255.381,3045.969,3042.134,-0.02555942,0.04988184,0.02529089,-0.837202966213226,-0.347997695207596,0.573789179325104,-0.846214826007803,-0.364102599125748,0.523847288101157,0
3.40000915527344,-2.70800876617432,1.93907570838928,2.59967279434204,-2.43986044461333,1.91601259293018,2.6532469320683,1253.103,1253.214,3039.342,3036.278,-0.02388642,0.05034535,0.02376507,-0.826634883880615,-0.343277424573898,0.567725718021393,-0.835244706287931,-0.359382463079953,0.517056261415284,0
3.42001342773438,-2.72432637214661,1.93230617046356,2.61090445518494,-2.45645774020782,1.90887124031063,2.66352144868012,1256.249,1251.721,3034.521,3028.027,-0.02223047,0.05080528,0.02222918,-0.815890312194824,-0.338489085435867,0.561578035354614,-0.824102019042908,-0.354588076049064,0.510158407210813,0
3.44000244140625,-2.74042582511902,1.92563319206238,2.62201118469238,-2.47281804716281,1.90183185728196,2.67364925803476,1251.282,1250.158,3030.987,3026.459,-0.02062245,0.05125072,0.02071645,-0.804972350597382,-0.333639234304428,0.555332899093628,-0.812800388649434,-0.349725300221754,0.503162159625937,0
3.46000671386719,-2.75630378723145,1.91905832290649,2.63299083709717,-2.4889630419904,1.89488511704659,2.68364377892579,1245.748,1247.858,3029.167,3024.066,-0.0190171,0.05168726,0.01921518,-0.79389226436615,-0.328736305236816,0.548980534076691,-0.801327600455845,-0.344788879974649,0.496059957209413,0
3.48001098632813,-2.77195692062378,1.91258299350739,2.64383864402771,-2.50487694859767,1.88803780761656,2.69349524520019,1247.816,1245.809,3022.779,3018.387,-0.01739044,0.05212447,0.01769692,-0.782653272151947,-0.323779791593552,0.542390406131744,-0.789697369743255,-0.339784716610052,0.488860290373601,0
3.5,-2.78738188743591,1.90620756149292,2.65455293655396,-2.5205447997813,1.88129636896134,2.70319439144611,1251.653,1244.501,3017.771,3009.582,-0.01577497,0.05255836,0.01616904,-0.77125883102417,-0.318770200014114,0.535714745521545,-0.777924000354857,-0.334718964672089,0.481572013878822,0
3.52000427246094,-2.80257630348206,1.89993333816528,2.66513252258301,-2.53598752699493,1.87465179486116,2.71275417523047,1245.434,1243.183,3015.092,3008.362,-0.01420104,0.05297581,0.01467459,-0.759712219238281,-0.3137127161026,0.528976440429688,-0.765994882555673,-0.32958619854407,0.474187321698442,0
3.54000854492188,-2.8175368309021,1.89376080036163,2.67557334899902,-2.55119019794619,1.86811051026429,2.72216535275294,1244.662,1240.898,3009.799,3004.94,-0.01263404,0.0533876,0.01318079,-0.748023331165314,-0.308612138032913,0.522036135196686,-0.753924423002452,-0.324392617007921,0.466715132239272,0
3.56001281738281,-2.83226084709167,1.88769137859344,2.68587374687195,-2.56615004087912,1.86167370777988,2.73142620816457,1246.737,1239.455,3005.923,2996.939,-0.01107609,0.0537939,0.01168336,-0.736198961734772,-0.303471714258194,0.515023648738861,-0.741718206886018,-0.31914062321522,0.45915890300049,0
3.58000183105469,-2.84674572944641,1.8817253112793,2.69603180885315,-2.58085326729328,1.85534732021446,2.74052820572674,1242.67,1238.217,3001.961,2994.881,-0.009553292,0.05418636,0.01021278,-0.724241971969604,-0.298294752836227,0.507902383804321,-0.729391385793765,-0.313836736470737,0.451528013536464,0
3.60000610351563,-2.86098885536194,1.87586379051208,2.70604538917542,-2.59531978247425,1.84912278287974,2.74948366775945,1239.261,1236.288,2999.268,2991.471,-0.008033159,0.05456911,0.008758166,-0.712162971496582,-0.293086260557175,0.500682175159454,-0.716930938559024,-0.308475354130224,0.443814403124743,0
3.62001037597656,-2.8749885559082,1.8701069355011,2.71591091156006,-2.60953584173048,1.8430060097325,2.75828408564387,1241.115,1234.529,2993.091,2986.242,-0.006509831,0.05494806,0.007301268,-0.699967205524445,-0.287846177816391,0.49327164888382,-0.704352136620513,-0.303063047067126,0.436027525513372,0
3.63999938964844,-2.8887414932251,1.86445546150208,2.72562718391418,-2.6234885835008,1.83700253474321,2.76692149746096,1243.22,1233.384,2988.809,2978.883,-0.005008874,0.0553188,0.005850642,-0.687658667564392,-0.282575786113739,0.485810995101929,-0.691670720740692,-0.297606588091786,0.428177124984152,0
3.66000366210938,-2.90224599838257,1.85890972614288,2.7351930141449,-2.63719712493647,1.83110413233575,2.77540773763803,1236.811,1232.244,2986.1,2978.261,-0.003550526,0.0556726,0.004439032,-0.675242900848389,-0.277279734611511,0.47829332947731,-0.678873453515702,-0.29210028151913,0.420255006953505,0
3.68000793457031,-2.9155011177063,1.85347044467926,2.74460506439209,-2.65064865588166,1.82531631436231,2.78373487607838,1236.629,1230.183,2981.241,2974.296,-0.00209644,0.05602027,0.00303275,-0.662731766700745,-0.271962732076645,0.470607221126556,-0.665976209205203,-0.286550957599616,0.412270998344358,0
3.70001220703125,-2.92850351333618,1.84813785552979,2.75386238098145,-2.66384123964357,1.81963991412768,2.79190171387692,1238.352,1229.023,2977.32,2967.154,-0.000654605,0.05636068,0.001632709,-0.650129735469818,-0.26662603020668,0.46286404132843,-0.65298533214413,-0.280961346123326,0.404229026602262,0
3.72000122070313,-2.9412522315979,1.8429126739502,2.76296305656433,-2.6767633032417,1.81407991116207,2.79990108680742,1235.167,1227.983,2973.467,2964.746,0.0007505312,0.05668772,0.0002645046,-0.637441217899323,-0.26127216219902,0.455039143562317,-0.639917282339434,-0.275338529371411,0.396139281255611,0
3.74000549316406,-2.95374584197998,1.83779454231262,2.77190589904785,-2.6894328975087,1.80862853869646,2.80774416919516,1232.063,1226.349,2970.624,2961.805,0.002141832,0.05700372,-0.001079645,-0.624676644802094,-0.255905359983444,0.44713893532753,-0.626758665639204,-0.269676744214497,0.387993470686332,0
3.760009765625,-2.96598243713379,1.8327841758728,2.78068780899048,-2.70183851231475,1.80329074921818,2.81542383572149,1233.345,1224.769,2965.44,2956.922,0.003528245,0.05731364,-0.002414422,-0.611843347549438,-0.250526815652847,0.439101070165634,-0.613526094901139,-0.263983138701136,0.379801879044709,0
3.77999877929688,-2.97796154022217,1.82788133621216,2.78930830955505,-2.7139695770734,1.79807109095524,2.82293354268985,1234.761,1223.737,2961.412,2950.733,0.004888326,0.05761404,-0.003733219,-0.598945081233978,-0.245137289166451,0.431023210287094,-0.60023651686137,-0.258265004538452,0.371574997167698,0
3.80000305175781,-2.98968124389648,1.82308650016785,2.79776644706726,-2.72584333814708,1.79296214327972,2.83028396642013,1229.594,1222.745,2958.744,2949.668,0.006206774,0.05789891,-0.005009938,-0.585988521575928,-0.239740341901779,0.42291072010994,-0.586876524285838,-0.252516572968186,0.363304525338741,0
3.82000732421875,-3.001140832901,1.81839966773987,2.80605983734131,-2.73744929742843,1.78796842323393,2.8374686080838,1229.388,1220.925,2954.273,2946.188,0.007513527,0.05817634,-0.006272277,-0.572985827922821,-0.234340265393257,0.41466948390007,-0.573463232144022,-0.246745208083563,0.355001058539243,0
3.84001159667969,-3.01233959197998,1.81382083892822,2.81418776512146,-2.74878645956754,1.78309035908911,2.84448685151184,1231.076,1219.892,2950.714,2939.658,0.008800972,0.05844587,-0.007519701,-0.559941291809082,-0.228938058018684,0.406399250030518,-0.560003743914976,-0.240953966313175,0.346668994161123,0
3.86000061035156,-3.02327704429626,1.8093501329422,2.8221492767334,-2.75984563331209,1.77833190558438,2.85133300688122,1228.009,1219.017,2947.2,2937.74,0.01004636,0.05870156,-0.008728777,-0.546860337257385,-0.22353607416153,0.398077994585037,-0.546515580872635,-0.235150386571708,0.338319178707605,0
3.8800048828125,-3.03395199775696,1.80498731136322,2.82994341850281,-2.77064299647982,1.77368610185671,2.85801708903178,1225.433,1217.567,2944.596,2935.017,0.01127145,0.05894646,-0.009908557,-0.533753633499146,-0.218138366937637,0.389710813760757,-0.532985466132484,-0.229328756186666,0.329943393154704,0
3.90000915527344,-3.04436469078064,1.80073213577271,2.83756828308105,-2.78116944461445,1.76915686529929,2.86453346187138,1226.646,1216.166,2940.048,2930.604,0.01248332,0.05918423,-0.01107129,-0.520629167556763,-0.212746575474739,0.381247252225876,-0.519431110871129,-0.223496695782554,0.321552601564443,0
3.92001342773438,-3.05451416969299,1.79658532142639,2.84502387046814,-2.79142456801014,1.76474437219711,2.87088187177258,1227.786,1215.276,2936.577,2925.184,0.01366299,0.05941228,-0.012209,-0.507490515708923,-0.20736138522625,0.372773677110672,-0.505860052376089,-0.217657448443621,0.313151469876846,0
