t,x_s1,x_s2,x_s3,x_s_d1,x_s_d2,x_s_d3,propellers_rpms1,propellers_rpms2,propellers_rpms3,propellers_rpms4,rollRad,pitchRad,yawRad,v_s1,v_s2,v_s3,v_s_d1,v_s_d2,v_s_d3,insideCount
0,-0.0599999986588955,2.94000005722046,1.17999994754791,-0.0599999986588955,2.94000005722046,1.17999994754791,0,0,0,0,0,0,0,0,0,0,-1.06581410364015E-15,4.44089209850063E-16,4.44089209850063E-16,0
0.0200042724609375,-0.0599999986588955,2.94000005722046,1.17615437507629,-0.0600018701838461,2.93999925195556,1.18000110611101,0,0,0,0,0,0,0,0,0,-0.192275941371918,-0.000280105751305916,-0.000120521679537258,0.00017339880334547,9
0.0399932861328125,-0.0599999986588955,2.94000005722046,1.16854023933411,-0.060014863945674,2.93999366110285,1.18000914986856,0,0,0,0,0,0,0,-2.58693946061287E-22,-3.88396258331244E-24,-0.380706369876862,-0.00111059898697896,-0.000477859717552347,0.000687513678106196,9
0.05999755859375,-0.0599999986588955,2.94000005722046,1.16209828853607,-0.0600498857373401,2.93997859220429,1.18003083002592,2729.158,2675.419,2549.058,2604.208,-0.001365136,2.001198E-06,-0.0005741775,-1.7994876699845E-09,-4.41060610256727E-09,-0.322100013494492,-0.00247936261166862,-0.00106680046642749,0.00153484356504269,9
0.0800018310546875,-0.0599972531199455,2.93999361991882,1.15672361850739,-0.0601175574246769,2.93994947496775,1.18007272202403,2722.475,2694.417,2468.437,2495.88,-0.005188903,8.089709E-06,-0.00144077,0.000137341252411716,-0.00032654611277394,-0.268735945224762,-0.00437268608126799,-0.00188144466206175,0.00270690098422899,9
0.0999908447265625,-0.0599877759814262,2.93996286392212,1.15231907367706,-0.0602281370710988,2.93990189563514,1.18014117609281,2568.693,2685.833,2542.108,2420.32,-0.01059938,1.300776E-05,-0.001048753,0.000473833410069346,-0.0015415494563058,-0.220226958394051,-0.00677536694902951,-0.00291525111632684,0.0041942748969354,9
0.1199951171875,-0.0599736273288727,2.93988347053528,1.14879488945007,-0.0603918861403606,2.93983143898525,1.18024254456713,2452.363,2640.588,2581.054,2390.608,-0.01666873,5.520664E-06,0.001340122,0.000707475002855062,-0.00396862253546715,-0.176208093762398,-0.00967801353495435,-0.00416417885169243,0.00599115140585487,9
0.139999389648438,-0.0599658899009228,2.93972945213318,1.14606821537018,-0.0606185767455666,2.93973390035084,1.18038287685052,2360.215,2554.26,2600.634,2408.619,-0.02222301,-2.727603E-05,0.005764429,0.000386852771043777,-0.00770053546875715,-0.136334538459778,-0.0130660253322238,-0.00562194567796536,0.00808849210174802,9
0.160003662109375,-0.0599843189120293,2.93947815895081,1.14406263828278,-0.0609177895434042,2.93960515744296,1.18056810382587,2308.361,2451.68,2584.847,2448.852,-0.02629073,-8.54109E-05,0.0116617,-0.000921521685086191,-0.0125609617680311,-0.100281104445457,-0.0169265510445065,-0.00728302204135792,0.0104783414199936,9
0.17999267578125,-0.0600543580949306,2.93911480903625,1.14270782470703,-0.0612985250199726,2.93944133760391,1.18080379722281,2300.576,2355.825,2530.07,2487.614,-0.02839516,-0.0001502023,0.01807394,-0.00350197730585933,-0.0181692205369473,-0.0677384883165359,-0.0212433804254414,-0.00914043312572283,0.0131506644458931,8
0.199996948242188,-0.06020263209939,2.93863368034363,1.14193964004517,-0.0617704296168641,2.93923829023936,1.18109592864822,2325.083,2286.571,2447.965,2504.557,-0.02864816,-0.0001981392,0.02398374,-0.00741379288956523,-0.024062093347311,-0.0384118854999542,-0.0260104776919234,-0.0111915819022102,0.0161017247421801,8
0.220001220703125,-0.0604525022208691,2.93803715705872,1.14169931411743,-0.0623420644491781,2.93899233174064,1.18144979784016,2364.165,2255.263,2355.871,2488.203,-0.02768036,-0.0002141181,0.02862029,-0.0124934706836939,-0.0298260375857353,-0.0120187774300575,-0.03121219533433,-0.0134297356845702,0.019321835755004,8
0.240005493164063,-0.0608209334313869,2.93733310699463,1.14193344116211,-0.0630219993990999,2.93869977472688,1.18187070996396,2394.756,2259.787,2277.431,2439.541,-0.02637435,-0.0002018676,0.03168943,-0.01842150837183,-0.0352048799395561,0.0117080099880695,-0.0368361158647881,-0.0158495515746756,0.0228033104678445,8
0.259994506835938,-0.0613175816833973,2.93653035163879,1.14259386062622,-0.0638179029240226,2.93835731967507,1.18236341216003,2403.051,2288.071,2226.943,2369.664,-0.02558179,-0.0001747034,0.03339929,-0.0248323976993561,-0.0401428937911987,0.0330189131200314,-0.0428651747123285,-0.0184436871643672,0.0265355850983733,8
0.279998779296875,-0.0619460307061672,2.93563508987427,1.14363670349121,-0.0647390625194898,2.93796097043536,1.18293365383054,2382.248,2321.722,2212.013,2295.682,-0.02585503,-0.0001459412,0.03434868,-0.0314224734902382,-0.0447674207389355,0.052145067602396,-0.0492963837173861,-0.0212108567320638,0.030516809833474,8
0.300003051757813,-0.0627065896987915,2.93464875221252,1.14502263069153,-0.0657927507678135,2.93750759781875,1.18358593705038,2338.546,2344.198,2225.873,2234.353,-0.02733628,-0.0001219728,0.03528323,-0.0380279645323753,-0.049316119402647,0.069299004971981,-0.0561132031658829,-0.0241439437008635,0.0347367458022363,8
0.319992065429688,-0.0635995492339134,2.93356776237488,1.14671611785889,-0.0669855955880233,2.93699435001684,1.18432436481717,2280.76,2343.314,2259.164,2197.973,-0.02972354,-0.000108657,0.03687061,-0.044648002833128,-0.0540464110672474,0.084673136472702,-0.0632980253096114,-0.0272353719486164,0.0391844929697465,8
0.339996337890625,-0.0646279603242874,2.93238496780396,1.14868497848511,-0.068326768706371,2.93641728069206,1.18515461486636,2225.127,2316.867,2293.366,2190.594,-0.03242505,-0.000108657,0.03948422,-0.0514206327497959,-0.0591428130865097,0.0984417945146561,-0.0708499516420146,-0.0304847548730522,0.0438594951176439,8
0.360000610351563,-0.0657990872859955,2.93109178543091,1.15090036392212,-0.0698225328270578,2.93577369517774,1.1860805641102,2186.603,2272.13,2311.17,2206.972,-0.03480379,-0.0001203749,0.04309889,-0.0585563220083714,-0.0646612867712975,0.110767513513565,-0.0787518717320621,-0.0338847303337087,0.0487511600740379,8
0.3800048828125,-0.0671241506934166,2.92968130111694,1.15333640575409,-0.0714797725314022,2.93506063123087,1.18710647443246,2168.955,2220.606,2308.288,2235.675,-0.03634416,-0.0001384844,0.04736917,-0.0662531033158302,-0.0705251693725586,0.121802002191544,-0.0869921272359981,-0.0374302820709642,0.0538522707687797,8
0.399993896484375,-0.0686168000102043,2.92815017700195,1.15597021579742,-0.0733036822025899,2.9342758538535,1.18823556140379,2174.237,2176.451,2281.519,2263.274,-0.03683098,-0.0001533981,0.05174714,-0.0746324062347412,-0.0765553265810013,0.131689816713333,-0.0955525119207663,-0.0411135764513579,0.0591515566763244,8
0.419998168945313,-0.0702908113598824,2.92649936676025,1.1587815284729,-0.0753034649285836,2.93341540321397,1.18947352217404,2194.308,2149.553,2239.833,2278.591,-0.03637079,-0.0001565939,0.05568415,-0.0837006643414497,-0.0825348943471909,0.140568494796753,-0.104434660908044,-0.0449353170220673,0.0646500300148815,8
0.44000244140625,-0.0721578821539879,2.92473387718201,1.16175293922424,-0.077483988232608,2.93247718495301,1.19082336997196,2221.243,2145.641,2191.539,2275.2,-0.03536944,-0.0001464739,0.05878057,-0.0933535769581795,-0.0882757902145386,0.14857092499733,-0.113620829717891,-0.048887868829098,0.0703367061060819,8
0.459991455078125,-0.0742260739207268,2.92286038398743,1.16486930847168,-0.0798493430620752,2.93145943885026,1.19228763728888,2240.299,2160.455,2154.64,2253.674,-0.03432815,-0.0001272991,0.06093306,-0.103409476578236,-0.0936772972345352,0.155820161104202,-0.123092454730403,-0.0529632444654124,0.0762000931848968,8
0.479995727539063,-0.0764994993805885,2.92088556289673,1.16811788082123,-0.0824088828700873,2.93035814037613,1.19387211435783,2245.963,2185.867,2135.645,2220.764,-0.03369698,-0.0001081243,0.06231933,-0.113671347498894,-0.0987424030900002,0.162426859140396,-0.132852887402757,-0.0571628859694044,0.0822422659629699,8
0.5,-0.0789791718125343,2.91881418228149,1.17148768901825,-0.085166398670376,2.92917165836334,1.1955791479969,2238.538,2212.236,2134.198,2185.969,-0.03377474,-9.40925E-05,0.06329349,-0.123983502388,-0.10356443375349,0.168490901589394,-0.142884000065179,-0.0614789935111996,0.0884520025491718,8
0.520004272460938,-0.0816644802689552,2.91664838790894,1.17496967315674,-0.088127196023106,2.92789770997757,1.19741202260058,2216.778,2228.534,2153.156,2158.403,-0.03457742,-8.738491E-05,0.06430176,-0.134265497326851,-0.108294136822224,0.174097374081612,-0.153174893518032,-0.065906877469682,0.0948225558197254,9
0.539993286132813,-0.0845550447702408,2.91438674926758,1.17855608463287,-0.091293865515634,2.92653518056143,1.19937234186584,2190.484,2230.309,2179.928,2145.07,-0.03589994,-8.744327E-05,0.06570394,-0.144528448581696,-0.113081581890583,0.179318696260452,-0.163706645289342,-0.0704383960337938,0.101342211863077,9
0.55999755859375,-0.0876521617174149,2.91202616691589,1.18224036693573,-0.094676112580471,2.92507989413848,1.20146611391775,2166.048,2216.844,2206.754,2147.788,-0.0373748,-9.314888E-05,0.06768531,-0.154855474829674,-0.118031457066536,0.18421582877636,-0.17448465888317,-0.0750758741803766,0.108014315705644,9
0.580001831054688,-0.0909594595432281,2.90956282615662,1.18601727485657,-0.0982762614093182,2.92353085067394,1.20369477754168,2153.522,2194.96,2219.961,2163.25,-0.03866111,-9.995436E-05,0.07018474,-0.165365010499954,-0.123172655701637,0.188845753669739,-0.185490414529404,-0.0798113433697334,0.11482740272751,9
0.599990844726563,-0.0944826602935791,2.90699362754822,1.18988251686096,-0.102095761416081,2.92188742652551,1.20605922999388,2150.796,2170.481,2222.682,2184.324,-0.03948136,-0.0001049285,0.07299068,-0.176160350441933,-0.128464758396149,0.193260371685028,-0.19670480600515,-0.0846365827279185,0.121769645266545,9
0.6199951171875,-0.0982286632061005,2.9043173789978,1.19383263587952,-0.106144683970236,2.92014528826426,1.20856570593183,2159.247,2151.543,2211.979,2204.138,-0.03973117,-0.0001043959,0.0757976,-0.187300249934196,-0.133812844753265,0.197508305311203,-0.208134604141382,-0.0895545055543457,0.128845234789665,9
0.639999389648438,-0.102204285562038,2.90153527259827,1.19786548614502,-0.110424235525481,2.91830391678686,1.21121495220784,2177.427,2145,2188.547,2216.488,-0.03953356,-9.717444E-05,0.07828602,-0.198781237006187,-0.139102831482887,0.201640084385872,-0.219761081350814,-0.0945570538913933,0.136042578028218,9
0.660003662109375,-0.106415003538132,2.89865040779114,1.20197951793671,-0.114938248900541,2.91636166293851,1.21400934151928,2193.966,2150.026,2168.089,2217.577,-0.03911065,-8.521843E-05,0.0802814,-0.210535526275635,-0.144247874617577,0.205702751874924,-0.231574097577923,-0.0996398647564507,0.143355397804799,9
0.67999267578125,-0.110864236950874,2.8956663608551,1.20617425441742,-0.119686638739014,2.91431856344567,1.21694882102647,2206.929,2165.204,2152.246,2208.915,-0.03874793,-7.253299E-05,0.08175745,-0.222461670637131,-0.149207100272179,0.209739118814468,-0.243554411173546,-0.104794659005432,0.150771782621969,9
0.699996948242188,-0.115553319454193,2.89258646965027,1.21044993400574,-0.124680083855354,2.91217002351282,1.22004000142426,2211.062,2183.843,2148.722,2194.505,-0.03866643,-6.342938E-05,0.08284804,-0.234454497694969,-0.153997719287872,0.213784590363503,-0.255710395848158,-0.11002503961202,0.158296916205407,9
0.720001220703125,-0.120482079684734,2.88941287994385,1.21480739116669,-0.129918284978346,2.90991617190799,1.22328269744952,2210.066,2202.358,2152.049,2179.706,-0.03902223,-5.929169E-05,0.08375153,-0.246437907218933,-0.158680692315102,0.217870563268661,-0.268023157655716,-0.11532287703907,0.16591910230247,9
0.740005493164063,-0.125649601221085,2.88614583015442,1.21924781799316,-0.13540428105644,2.90755570105657,1.22667879035609,2200.154,2213.061,2169.241,2168.787,-0.0397855,-6.05747E-05,0.08472514,-0.258376717567444,-0.1633470505476,0.222018986940384,-0.280482990349159,-0.120683994959631,0.173632332283853,9
0.759994506835938,-0.131055355072021,2.88278412818909,1.22377276420593,-0.14113644597991,2.90508931062815,1.2302272735046,2189.162,2215.242,2188.808,2166.02,-0.04081667,-6.569106E-05,0.08595636,-0.270287930965424,-0.16807995736599,0.226245135068893,-0.293070637251543,-0.126100107763583,0.181424685349205,9
0.779998779296875,-0.136699870228767,2.87932538986206,1.22838389873505,-0.147126184485884,2.90251209348295,1.23393520697061,2179.333,2208.266,2208.178,2172.199,-0.0418862,-7.227745E-05,0.08753024,-0.282225787639618,-0.172932833433151,0.230557784438133,-0.305795832832518,-0.131575403921268,0.189302187598958,9
0.800003051757813,-0.142585083842278,2.87576723098755,1.23308324813843,-0.153371683173492,2.89982482987671,1.2378014681726,2178.311,2198.579,2215.552,2185.104,-0.04282629,-7.758522E-05,0.08937184,-0.294260829687119,-0.177912011742592,0.234967276453972,-0.318639638509124,-0.13710173468952,0.197253115148089,9
0.819992065429688,-0.148714020848274,2.87210750579834,1.237872838974,-0.159870162197751,2.89702871589906,1.2418243362541,2180.66,2187.651,2219.687,2199.751,-0.04348942,-7.92413E-05,0.09135579,-0.306447148323059,-0.182989582419395,0.23948161303997,-0.33158286215529,-0.142670842232658,0.205265587156312,9
0.839996337890625,-0.155090257525444,2.86834526062012,1.24275493621826,-0.166633637018892,2.89411858163313,1.24601124935738,2188.419,2180.455,2216.359,2213.165,-0.04382391,-7.718668E-05,0.09331495,-0.318812161684036,-0.18810823559761,0.244107738137245,-0.344636106234817,-0.148287288494656,0.213346167053785,9
0.860000610351563,-0.161717250943184,2.86448121070862,1.2477320432663,-0.173659158941841,2.89109569582005,1.2503603820997,2202.574,2181.744,2202.872,2222.366,-0.04393683,-7.089014E-05,0.09506136,-0.331349283456802,-0.193201586604118,0.248857602477074,-0.357780475378537,-0.153942943326036,0.221483157706883,9
0.8800048828125,-0.168597519397736,2.86051678657532,1.25280690193176,-0.180948461186242,2.88795931270381,1.25487280742661,2213.071,2188.394,2195.18,2224.379,-0.04395281,-6.325342E-05,0.09652343,-0.344013720750809,-0.198225930333138,0.253740906715393,-0.371007022483504,-0.159633957038354,0.229671020432672,9
0.899993896484375,-0.175732433795929,2.85645341873169,1.25798225402832,-0.18849723509595,2.8847112861788,1.25954585807468,2221.556,2200.328,2189.581,2221.249,-0.04402898,-5.639454E-05,0.09770617,-0.356746733188629,-0.203163355588913,0.258765816688538,-0.384296738353309,-0.165352150505452,0.237897987633041,9
0.919998168945313,-0.183122247457504,2.85229277610779,1.26326096057892,-0.196318384305134,2.8813460641717,1.26438752200817,2224.24,2212.432,2192.429,2215.363,-0.04426227,-5.29032E-05,0.09870533,-0.369491100311279,-0.20802815258503,0.263935476541519,-0.397661187980262,-0.171102499820431,0.246171218589148,9
0.94000244140625,-0.190766468644142,2.84803581237793,1.2686460018158,-0.204407453948074,2.87786556348678,1.26939504145298,2226.343,2224.83,2195.129,2210.12,-0.0447443,-5.311573E-05,0.09961695,-0.382210403680801,-0.212854161858559,0.269253641366959,-0.411081631631503,-0.176876941799768,0.254479112513653,9
0.959991455078125,-0.198664218187332,2.84368205070496,1.27414035797119,-0.212759000778906,2.87427212620069,1.27456504678061,2221.981,2231.288,2208.753,2206.422,-0.04543246,-5.651066E-05,0.1005897,-0.394888013601303,-0.217692896723747,0.27471798658371,-0.424539267042903,-0.182667386354485,0.262810029909387,9
0.979995727539063,-0.206814974546432,2.83923029899597,1.27974677085876,-0.22138664033507,2.87055989392801,1.27990596665734,2216.824,2232.088,2223.94,2207.556,-0.04621437,-6.197864E-05,0.1017295,-0.407537460327148,-0.222586274147034,0.280320912599564,-0.438046240701377,-0.188479059778567,0.271171490030365,9
1,-0.215218856930733,2.83467936515808,1.28546786308289,-0.230284798736574,2.86673126495361,1.28541435058594,2217.051,2230.805,2230.567,2214.069,-0.04701278,-6.681332E-05,0.1030288,-0.420194119215012,-0.227552637457848,0.286057651042938,-0.451584000205995,-0.194303979492187,0.279552008056641,9
1.02000427246094,-0.223876655101776,2.83002758026123,1.29130625724792,-0.239454009753966,2.86278600961093,1.2910905289958,2216.605,2225.702,2239.801,2222.448,-0.04770361,-7.030122E-05,0.104468,-0.432891041040421,-0.232594177126884,0.291921138763428,-0.465144357597929,-0.200138622445408,0.287946515251652,9
1.03999328613281,-0.232789784669876,2.82527375221252,1.29726433753967,-0.248887339851819,2.85872711120656,1.2969302096982,2220.692,2221.76,2241.919,2232.188,-0.04822239,-7.142816E-05,0.1059645,-0.445656538009644,-0.237687408924103,0.297904878854752,-0.478708875293167,-0.205975055460915,0.29634359787259,9
1.05999755859375,-0.241959810256958,2.82041788101196,1.30334436893463,-0.258599401509697,2.85454828239877,1.30294243851408,2226.061,2218.965,2242.292,2241.033,-0.04853398,-7.01651E-05,0.1074305,-0.458501160144806,-0.242796182632446,0.30400151014328,-0.492290296490434,-0.211818761581115,0.30475114456651,9
1.08000183105469,-0.251388162374496,2.81546020507813,1.3095486164093,-0.268583149539609,2.85025255453512,1.30912285413647,2236.763,2222.646,2232.929,2247.771,-0.04873106,-6.618221E-05,0.1087437,-0.471417903900146,-0.247877985239029,0.310210019350052,-0.50587040849135,-0.217661904390701,0.313157880805523,10
1.09999084472656,-0.261075645685196,2.81040191650391,1.3158792257309,-0.278830554044452,2.84584338265603,1.31546648567654,2242.945,2228.128,2231.323,2249.274,-0.04887646,-6.210351E-05,0.109884,-0.484374135732651,-0.252909749746323,0.316527754068375,-0.519431110871131,-0.223496695782555,0.321552601564445,10
1.1199951171875,-0.271022319793701,2.8052442073822,1.32233822345734,-0.289357002179081,2.84131414609862,1.32198285851614,2247.049,2235.249,2232.206,2248.386,-0.04903199,-5.94675E-05,0.1108766,-0.497333437204361,-0.257881969213486,0.322948664426804,-0.532985466132485,-0.229328756186667,0.329943393154705,10
1.13999938964844,-0.281227648258209,2.79998826980591,1.32892763614655,-0.300154365346813,2.83666834237095,1.3286669406667,2252.662,2245.284,2229.037,2247,-0.0493063,-5.836497E-05,0.1117351,-0.510265648365021,-0.262797951698303,0.329470783472061,-0.546515580872639,-0.235150386571708,0.338319178707607,10
1.16000366210938,-0.291690468788147,2.79463458061218,1.33564937114716,-0.311222084148811,2.83190621216671,1.33551838583369,2251.865,2251.754,2237.147,2244.044,-0.04970257,-5.971237E-05,0.1125564,-0.523143410682678,-0.267683237791061,0.336087673902512,-0.560014026276883,-0.240958390526247,0.34667535943296,10
1.17999267578125,-0.302409678697586,2.7891833782196,1.34250521659851,-0.322550701230474,2.8270318247214,1.34253133946411,2250.851,2256.194,2245.052,2243.274,-0.05019952,-6.316527E-05,0.1134151,-0.535959899425507,-0.272563278675079,0.342790693044662,-0.573463232144024,-0.246745208083563,0.355001058539242,10
1.19999694824219,-0.313384115695953,2.78363418579102,1.34949660301208,-0.334156660511822,2.8220381046756,1.34971598112778,2248.187,2255.826,2256.112,2245.419,-0.05070925,-6.756396E-05,0.1143707,-0.548723340034485,-0.277458667755127,0.349567055702209,-0.58687652428584,-0.252516572968185,0.36330452533874,10
1.22000122070313,-0.324613243341446,2.77798676490784,1.35662484169006,-0.346030421585499,2.81692915700008,1.35706640485806,2251,2256.337,2257.333,2250.911,-0.05121418,-7.099187E-05,0.1153883,-0.561454892158508,-0.282371759414673,0.356409519910812,-0.600236516861372,-0.258265004538453,0.371574997167698,10
1.239990234375,-0.336096554994583,2.77224063873291,1.36389100551605,-0.358161486344149,2.81170949873715,1.36457611182642,2251.328,2253.729,2264.17,2256.112,-0.05163656,-7.298723E-05,0.1164613,-0.574167668819427,-0.28730097413063,0.363308697938919,-0.613526094901141,-0.263983138701136,0.379801879044709,10
1.25999450683594,-0.34783399105072,2.76639604568481,1.37129604816437,-0.3705671011502,2.80637170925886,1.37225577835275,2253.281,2251.152,2268.154,2262.094,-0.05191886,-7.361757E-05,0.1175555,-0.586872756481171,-0.292228490114212,0.37025311589241,-0.626758665639206,-0.269676744214496,0.387993470686331,10
1.27999877929688,-0.359825491905212,2.76045346260071,1.37884080410004,-0.383236695417198,2.80092033679326,1.3800988607405,2260.884,2253.135,2261.276,2268.561,-0.05211646,-7.202104E-05,0.1185703,-0.59957480430603,-0.297125399112701,0.377238810062408,-0.639917282339435,-0.275338529371412,0.396139281255613,10
1.30000305175781,-0.372070670127869,2.75441408157349,1.3865259885788,-0.396168722856641,2.79535604666509,1.38810440176341,2264.499,2255.027,2262.12,2271.057,-0.05224004,-6.978001E-05,0.1194881,-0.612256944179535,-0.301974266767502,0.384259819984436,-0.652995275331231,-0.280965624398954,0.404235181908735,10
1.31999206542969,-0.384568631649017,2.74827885627747,1.39435219764709,-0.409351342777246,2.78968393359302,1.39626507146953,2268.864,2259.528,2260.556,2272.262,-0.05234017,-6.768692E-05,0.1202948,-0.624898910522461,-0.306760758161545,0.391310781240463,-0.665976209205206,-0.286550957599616,0.412270998344359,10
1.33999633789063,-0.397318154573441,2.74204921722412,1.40231990814209,-0.422802873722428,2.78389611561957,1.40459220990988,2270.386,2263.147,2263.624,2272.078,-0.05242912,-6.705072E-05,0.1210189,-0.637477457523346,-0.311480730772018,0.398382812738419,-0.678873453515705,-0.29210028151913,0.420255006953505,11
1.36000061035156,-0.410317718982697,2.73572659492493,1.41042935848236,-0.436511415158101,2.77799771321212,1.41307845008695,2275.147,2270.004,2259.424,2272.478,-0.05258998,-6.701586E-05,0.1216465,-0.649976372718811,-0.316133230924606,0.405472964048386,-0.691670720740693,-0.297606588091785,0.42817712498415,11
1.3800048828125,-0.423565208911896,2.7293119430542,1.41868078708649,-0.450474904562636,2.77198961381608,1.4217225152016,2274.237,2273.314,2266.141,2270.827,-0.05280782,-6.843071E-05,0.1222444,-0.662376523017883,-0.320734143257141,0.412574142217636,-0.704361775018035,-0.303067194200314,0.436033492140578,11
1.39999389648438,-0.437058687210083,2.72280597686768,1.42707431316376,-0.464680216184654,2.76587746507559,1.43051627978847,2274.001,2275.882,2270.936,2270.82,-0.05306987,-7.092179E-05,0.1228528,-0.674672842025757,-0.325296103954315,0.419678300619125,-0.716930938559026,-0.308475354130225,0.443814403124744,11
1.41999816894531,-0.450796008110046,2.71620941162109,1.43560981750488,-0.47914673136562,2.75965292774086,1.43947174182117,2272.128,2274.767,2278.927,2272.461,-0.05330743,-7.406503E-05,0.1235096,-0.68686842918396,-0.329828530550003,0.42677366733551,-0.729391385793766,-0.313836736470737,0.451528013536465,11
1.44000244140625,-0.464775532484055,2.70952296257019,1.44428694248199,-0.493861275572861,2.75332167044526,1.4485807456364,2275.727,2276.166,2276.172,2276.681,-0.05353966,-7.570975E-05,0.1241657,-0.698975086212158,-0.334326654672623,0.43385511636734,-0.741727567798258,-0.319144650954242,0.459164697851088,11
1.45999145507813,-0.47899541258812,2.70274710655212,1.45310521125793,-0.508809800712713,2.74688973769103,1.45783459479497,2275.642,2274.611,2281.429,2279.191,-0.05371596,-7.663008E-05,0.1248285,-0.710993647575378,-0.338789701461792,0.440915286540985,-0.753924423002454,-0.324392617007921,0.466715132239272,11
1.47999572753906,-0.493453919887543,2.69588303565979,1.46206402778625,-0.524012471663969,2.74034845309416,1.46724577231745,2276.245,2272.894,2285.109,2282.274,-0.05379372,-7.72061E-05,0.125489,-0.722926080226898,-0.343206167221069,0.447943985462189,-0.765994882555672,-0.329586198544069,0.474187321698441,11
1.5,-0.508149325847626,2.68893194198608,1.47116279602051,-0.539455198877605,2.73370387899399,1.4768055561018,2282.14,2275.482,2277.839,2286.53,-0.05383474,-7.59285E-05,0.1260683,-0.734773278236389,-0.347556352615356,0.45493882894516,-0.777924000354858,-0.334718964672088,0.481572013878822,11
1.52000427246094,-0.523079693317413,2.68189525604248,1.48040068149567,-0.555135099954955,2.72695725560613,1.48651216180595,2283.366,2276.556,2280.093,2287.093,-0.0538374,-7.448333E-05,0.1265747,-0.746519207954407,-0.351833581924438,0.461894869804382,-0.789706299681991,-0.339788558913217,0.48886581843107,11
1.53999328613281,-0.538242697715759,2.67477464675903,1.4897768497467,-0.571036956668503,2.72011513090874,1.49635616862212,2285.537,2279.386,2279.54,2287.412,-0.05382888,-7.365883E-05,0.1270073,-0.758149743080139,-0.356030941009521,0.468807190656662,-0.801327600455846,-0.344788879974649,0.496059957209413,11
1.55999755859375,-0.553635776042938,2.6675717830658,1.49929022789001,-0.587181951496087,2.71316839067337,1.50635068951315,2285.291,2280.393,2283.229,2287.231,-0.05379532,-7.376083E-05,0.1273932,-0.769650459289551,-0.360147207975388,0.475667268037796,-0.812800388649436,-0.349725300221754,0.503162159625937,11
1.58000183105469,-0.569256007671356,2.66028833389282,1.50893974304199,-0.60355483331529,2.70612359703193,1.51648628330776,2289.314,2285.054,2277.589,2288.276,-0.05380757,-7.401525E-05,0.1276997,-0.781013667583466,-0.364178538322449,0.48247355222702,-0.824110582941666,-0.354591760855452,0.510163708672098,11
1.59999084472656,-0.585100471973419,2.65292572975159,1.51872420310974,-0.620139554045575,2.69898765502515,1.52675301547962,2287.967,2286.264,2282.956,2286.786,-0.05384432,-7.504809E-05,0.127977,-0.792224645614624,-0.368136018514633,0.489220708608627,-0.835244706287931,-0.359382463079953,0.517056261415284,11
1.6199951171875,-0.601166069507599,2.64548516273499,1.52864217758179,-0.636958033083316,2.69175113334911,1.53716445517924,2286.087,2285.792,2288.815,2286.535,-0.05386243,-7.696762E-05,0.128265,-0.803278923034668,-0.372025609016418,0.495899319648743,-0.846214826007804,-0.364102599125749,0.523847288101157,11
1.63999938964844,-0.617449760437012,2.63796830177307,1.53869235515594,-0.653994195024907,2.68442094880091,1.54771065096602,2289.208,2288.076,2284.159,2288.881,-0.05390345,-7.810028E-05,0.1285219,-0.814181387424469,-0.37584462761879,0.502507090568542,-0.857007552155828,-0.368746407673381,0.530528499715628,11
1.66000366210938,-0.63394832611084,2.63037633895874,1.54887306690216,-0.671244443874359,2.67699864863716,1.55838937674714,2287.793,2286.867,2289.336,2289.096,-0.05392369,-7.908832E-05,0.1287751,-0.824927687644958,-0.379598885774612,0.509038507938385,-0.867618167158098,-0.373311858882592,0.53709697585572,11
1.67999267578125,-0.650658667087555,2.62271070480347,1.55918288230896,-0.688691692550512,2.66949158495151,1.56919005480539,2288.272,2286.542,2290.306,2290.422,-0.0539125,-7.966979E-05,0.1290188,-0.835519313812256,-0.383285015821457,0.515488028526306,-0.878034183119987,-0.377793579561193,0.543544985919778,11
1.69999694824219,-0.667577803134918,2.61497282981873,1.56961977481842,-0.706358800111611,2.66188992212981,1.58012683598675,2287.396,2284.156,2293.953,2292.008,-0.05382355,-8.011988E-05,0.1292561,-0.845955908298492,-0.386897146701813,0.521847069263458,-0.888267004546665,-0.382196476749158,0.549879589839776,11
1.72000122070313,-0.684702575206757,2.60716438293457,1.58018207550049,-0.724228658537036,2.6542010212754,1.5911891296115,2292,2286.428,2286.069,2294.845,-0.05372129,-7.9208E-05,0.1294174,-0.856238782405853,-0.390420377254486,0.528115272521973,-0.898304216251578,-0.386515208538549,0.556093102023817,11
1.739990234375,-0.702029645442963,2.59928727149963,1.59086787700653,-0.74228345468553,2.64643254688532,1.60236590849663,2291.624,2286.38,2288.646,2294.197,-0.05359292,-7.83002E-05,0.1295218,-0.866354286670685,-0.393853306770325,0.534289181232452,-0.908134108040217,-0.390744736359816,0.562178273303667,12
1.75999450683594,-0.719555556774139,2.59134340286255,1.60167515277863,-0.760546715064628,2.63857437616062,1.61367173667103,2290.768,2285.995,2291.399,2293.711,-0.05341981,-7.836966E-05,0.1295892,-0.876292407512665,-0.397191822528839,0.540361642837524,-0.917767514700581,-0.394889722119545,0.568141810929231,12
1.77999877929688,-0.737276494503021,2.58333492279053,1.61260175704956,-0.779000609654483,2.63063418086074,1.62509557650306,2294.602,2289.558,2283.811,2294.787,-0.05327707,-7.789761E-05,0.1295716,-0.886048495769501,-0.400428384542465,0.546332895755768,-0.927192788821983,-0.398945154262308,0.57397650459845,12
1.80000305175781,-0.755188584327698,2.57526350021362,1.6236457824707,-0.797640935141499,2.62261376955408,1.63663482594136,2292.914,2289.912,2287.768,2292.733,-0.05314657,-7.838974E-05,0.129512,-0.895607471466064,-0.40357106924057,0.55219978094101,-0.936405971974637,-0.402909329586356,0.579679903854719,12
1.81999206542969,-0.773287892341614,2.56713104248047,1.63480496406555,-0.816448984455027,2.61452119137054,1.64827790441807,2292.318,2290.838,2288.761,2291.667,-0.05303153,-7.935616E-05,0.1294292,-0.904963552951813,-0.406624108552933,0.55795830488205,-0.945396434568188,-0.406777674475912,0.585245428475252,12
1.83999633789063,-0.791570127010345,2.55893921852112,1.64607691764832,-0.835449117627072,2.60634596486888,1.66003989195343,2289.725,2288.72,2293.618,2291.315,-0.05288132,-8.105642E-05,0.1293537,-0.914114594459534,-0.409591943025589,0.563600540161133,-0.954174163352093,-0.410554485950274,0.590679260733698,12
1.86000061035156,-0.810031473636627,2.5506899356842,1.65745949745178,-0.854622615239374,2.59809614449182,1.6719092003358,2292.665,2290.432,2286.907,2293.054,-0.05274817,-8.162567E-05,0.1292335,-0.923065781593323,-0.412468641996384,0.569126307964325,-0.962728579444532,-0.414235212212131,0.595974851798267,12
1.8800048828125,-0.82866770029068,2.54238486289978,1.66895008087158,-0.873964974649439,2.58977366760063,1.68388304221498,2290.654,2288.716,2290.891,2292.178,-0.05259477,-8.214914E-05,0.1290964,-0.931810915470123,-0.415259450674057,0.574532151222229,-0.971056158224177,-0.417818336715394,0.601130019760457,12
1.89999389648438,-0.847474694252014,2.5340256690979,1.68054640293121,-0.893456683142228,2.58138692997148,1.69594933829086,2290.445,2288.137,2290.7,2292.251,-0.05241793,-8.255638E-05,0.1289391,-0.940349817276001,-0.417961597442627,0.579814672470093,-0.979147395688901,-0.421299770153459,0.606138881190213,12
1.91999816894531,-0.866448283195496,2.5256142616272,1.69224572181702,-0.913122862707269,2.57292512231409,1.70812364027167,2288.543,2285.351,2293.792,2292.49,-0.05217452,-8.278756E-05,0.1287722,-0.948680996894836,-0.42057141661644,0.584966838359833,-0.987011339258123,-0.424683405378145,0.611007036871143,12
1.94000244140625,-0.88558441400528,2.51715278625488,1.70404553413391,-0.932943991899774,2.5643966441608,1.72039386345315,2292.271,2287.239,2285.033,2294.172,-0.05193271,-8.21864E-05,0.1285301,-0.956806242465973,-0.423076540231705,0.5899897813797,-0.994638524886308,-0.427965170275055,0.615728628108227,12
1.95999145507813,-0.904878675937653,2.50864315032959,1.71594321727753,-0.952900013794853,2.55581012544606,1.73274759164336,2290.648,2286.344,2287.513,2292.461,-0.05167491,-8.163183E-05,0.1282393,-0.964713156223297,-0.42547932267189,0.594881474971771,-1.00202031904361,-0.431141350077486,0.620298310335216,12
1.97999572753906,-0.924326539039612,2.50008749961853,1.72793591022491,-0.973016570682103,2.54715453300902,1.74520069864106,2288.58,2284.936,2290.147,2291.105,-0.05137557,-8.210266E-05,0.1279246,-0.972394645214081,-0.427778005599976,0.59963583946228,-1.00916501115878,-0.434215511495054,0.624721215103391,12
2,-0.943923532962799,2.4914882183075,1.7400209903717,-0.993273599084619,2.53843849960327,1.7577407641983,2291.619,2287.409,2281.789,2291.659,-0.05110659,-8.198637E-05,0.1275352,-0.979849994182587,-0.429965913295746,0.604254543781281,-1.01606400046349,-0.437183953857422,0.628992018127441,12
2.02000427246094,-0.963664948940277,2.48284721374512,1.75219571590424,-1.01366615605493,2.52966415204104,1.77036472839513,2289.005,2286.504,2285.25,2289.145,-0.05084401,-8.245946E-05,0.127112,-0.987067222595215,-0.43205139040947,0.60873544216156,-1.02271452148052,-0.440045487257004,0.633109007445237,12
2.03999328613281,-0.98354572057724,2.47416639328003,1.76445722579956,-1.03417354141348,2.52084039703127,1.78305977683431,2287.772,2286.348,2285.284,2287.657,-0.05058728,-8.354103E-05,0.1266687,-0.994043290615082,-0.434037536382675,0.613075911998749,-1.02910913225408,-0.442796909628122,0.637067576131623,12
2.05999755859375,-1.00356113910675,2.46544790267944,1.77680265903473,-1.05482201812353,2.5119559343546,1.79584216754118,2284.57,2283.365,2289.091,2286.759,-0.05028847,-8.48765E-05,0.1262317,-1.00077760219574,-0.435927242040634,0.617269277572632,-1.03525504859546,-0.445441325732794,0.640872191117535,12
2.08000183105469,-1.02370667457581,2.45669364929199,1.7892290353775,-1.07559088172821,2.50301967256038,1.80869908347065,2287.161,2284.386,2281.026,2287.862,-0.05000351,-8.514641E-05,0.1257437,-1.00727617740631,-0.437713474035263,0.621317148208618,-1.04114485287423,-0.447975543971863,0.644518260536375,12
2.09999084472656,-1.04397737979889,2.44790554046631,1.80173337459564,-1.09645901288412,2.49404069871208,1.82161745074311,2284.461,2282.183,2284.106,2286.074,-0.04969991,-8.53561E-05,0.1252333,-1.01353240013123,-0.439401090145111,0.625217497348785,-1.04677201701582,-0.450396755497224,0.648001743199023,12
2.1199951171875,-1.06436824798584,2.4390857219696,1.81431269645691,-1.11745308225396,2.48500753716864,1.83461377976925,2281.768,2279.291,2286.643,2285.09,-0.04933826,-8.594902E-05,0.1247185,-1.01954519748688,-0.440987646579742,0.628964364528656,-1.0521429102862,-0.45270770082608,0.651326581984514,12
2.13999938964844,-1.08487462997437,2.43023657798767,1.82696390151978,-1.138551967509,2.47592927627801,1.8476749948214,2284.747,2280.497,2277.444,2286.005,-0.04898672,-8.568085E-05,0.1241357,-1.02531862258911,-0.442463099956512,0.632559895515442,-1.05725102347782,-0.454905579228273,0.654488747383304,12
2.16000366210938,-1.10549163818359,2.42136001586914,1.839684009552,-1.15975039167652,2.46680818657414,1.86079782920208,2282.146,2278.728,2279.755,2283.712,-0.04862133,-8.548491E-05,0.123514,-1.03084242343903,-0.443831712007523,0.636002957820892,-1.0620943502576,-0.456989527434725,0.657486997379635,12
2.17999267578125,-1.12621378898621,2.41245818138123,1.85246980190277,-1.18102676265167,2.45765355853653,1.8739689163698,2281.073,2278.248,2278.409,2282.012,-0.04825009,-8.571322E-05,0.1228584,-1.03611302375793,-0.445092409849167,0.639291942119598,-1.06666760390386,-0.458957270716794,0.660318059240953,12
2.19999694824219,-1.14703631401062,2.40353322029114,1.86531817913055,-1.20240821395574,2.44845371736898,1.88720505326679,2277.889,2275.354,2280.916,2280.573,-0.0478341,-8.640963E-05,0.1221915,-1.04112732410431,-0.446245819330215,0.642421364784241,-1.07097597819164,-0.460811043810786,0.662985148161421,12
2.22000122070313,-1.16795420646667,2.39458751678467,1.87822604179382,-1.22387315175433,2.43921795429519,1.90049287228091,2280.336,2276.643,2272.031,2280.66,-0.04744155,-8.642105E-05,0.1214592,-1.0458881855011,-0.447284907102585,0.645393848419189,-1.07501419914593,-0.462548577472581,0.665484999299265,12
2.239990234375,-1.18896186351776,2.38562321662903,1.89119017124176,-1.24539969505118,2.42995568409656,1.91381882803312,2277.097,2274.718,2274.66,2277.889,-0.04704527,-8.674296E-05,0.1206974,-1.05038642883301,-0.448216617107391,0.648208200931549,-1.07877792518082,-0.464168003639063,0.667814925005999,12
2.25999450683594,-1.21005439758301,2.37664246559143,1.90420734882355,-1.26701526177039,2.4206551096063,1.92719989352455,2273.65,2271.927,2277.127,2275.96,-0.04660852,-8.767212E-05,0.1199329,-1.05462026596069,-0.449041992425919,0.650859177112579,-1.08227143928024,-0.465671165158559,0.669977576652695,12
2.27999877929688,-1.23122620582581,2.36764740943909,1.91727435588837,-1.28869796983554,2.41132564607061,1.9406225227075,2275.807,2272.703,2268.356,2276.053,-0.04619359,-8.786737E-05,0.119111,-1.05859446525574,-0.44975483417511,0.653349339962006,-1.08549040888332,-0.467056197851165,0.67197027217779,12
2.30000305175781,-1.25247240066528,2.35864019393921,1.93038785457611,-1.31044231452835,2.40196966201596,1.95408330789913,2272.364,2270.414,2270.854,2273.314,-0.04577122,-8.820318E-05,0.1182659,-1.06230187416077,-0.450361907482147,0.655677735805511,-1.08843358680109,-0.468322565086307,0.673792239511894,12
2.31999206542969,-1.27378726005554,2.34962296485901,1.94354474544525,-1.33222611841886,2.3925966997709,1.96756852021384,2270.593,2268.94,2269.638,2271.582,-0.04534032,-8.870626E-05,0.1174019,-1.06574261188507,-0.450863659381866,0.657842993736267,-1.09109790637238,-0.469468947365361,0.675441580245663,11
2.33999633789063,-1.29516553878784,2.34059762954712,1.95674157142639,-1.35407709248145,2.38319483607731,1.98109531406483,2266.957,2265.141,2271.823,2270.26,-0.04485509,-8.938953E-05,0.1165367,-1.06891715526581,-0.451259940862656,0.659839987754822,-1.09348640563071,-0.470496651869278,0.67692017506657,11
2.36000061035156,-1.31660199165344,2.33156704902649,1.96997499465942,-1.37597305876702,2.37377361348711,1.99464996024512,2269.311,2265.591,2262.406,2270.272,-0.04438158,-8.905693E-05,0.1156101,-1.0718309879303,-0.451541841030121,0.661671757698059,-1.09559602313537,-0.471404361345641,0.678226128796969,11
2.3800048828125,-1.33809149265289,2.32253265380859,1.98324179649353,-1.39790843013262,2.36433543599182,2.00822900004707,2265.994,2263.118,2264.084,2267.57,-0.04389475,-8.895293E-05,0.11465,-1.07447612285614,-0.451714068651199,0.663337886333466,-1.09742594550583,-0.472191725819537,0.679358937915576,11
2.39999389648438,-1.35962867736816,2.3134970664978,1.99653851985931,-1.41986083522252,2.35488992936084,2.02181858453579,2264.263,2261.912,2262.267,2265.304,-0.04340047,-8.928778E-05,0.1136614,-1.07685077190399,-0.451775878667831,0.664837598800659,-1.09897439291323,-0.472857979480329,0.680317500623536,11
2.41999816894531,-1.38120770454407,2.30446243286133,2.00986194610596,-1.44185817738692,2.34542508756209,2.03543598721428,2260.464,2258.273,2264.034,2263.592,-0.04285825,-8.976786E-05,0.1126638,-1.07895374298096,-0.451727837324142,0.666166424751282,-1.10024313330221,-0.473403883025206,0.681102911362803,11
2.44000244140625,-1.40282344818115,2.29543113708496,2.02320837974548,-1.46387808506052,2.33595053645515,2.04906735901791,2262.628,2258.904,2254.507,2262.923,-0.04233787,-8.971973E-05,0.1116018,-1.0807888507843,-0.451562196016312,0.667327642440796,-1.10123038958312,-0.473828671822132,0.681714070030222,11
2.45999145507813,-1.4244704246521,2.28640532493591,2.03657484054565,-1.48589810917879,2.32647593524532,2.06269880290633,2258.813,2256.51,2256.337,2259.704,-0.04181376,-9.00391E-05,0.1105099,-1.08234798908234,-0.451285988092422,0.668321192264557,-1.10193535162022,-0.474131997292339,0.68215047511319,10
2.47999572753906,-1.44614291191101,2.27738738059998,2.04995775222778,-1.50794623031618,2.31698924467309,2.07634764018804,2254.77,2253.315,2258.082,2257.25,-0.04125077,-9.074587E-05,0.1094149,-1.08362996578217,-0.45090040564537,0.669142663478851,-1.10235882472314,-0.474314205938057,0.682412625136718,10
2.5,-1.46783566474915,2.26837944984436,2.06335353851318,-1.52999999932945,2.30750012397766,2.08999997377396,2256.569,2253.547,2248.868,2256.478,-0.04071334,-9.095127E-05,0.1082635,-1.08464002609253,-0.450399786233902,0.669795513153076,-1.10250000050292,-0.474374949932098,0.682500019669533,10
2.52000427246094,-1.48954319953918,2.25938367843628,2.07675909996033,-1.55205376834272,2.29801100328223,2.10365230735988,2252.417,2250.826,2250.831,2253.253,-0.04017112,-9.134517E-05,0.1070909,-1.08537185192108,-0.449791759252548,0.670279622077942,-1.10235882472314,-0.474314205938057,0.682412625136718,10
2.53999328613281,-1.51125955581665,2.25040221214294,2.09017109870911,-1.57408507527774,2.28853154739156,2.11729073584934,2250.091,2248.938,2249.088,2250.896,-0.03962411,-9.17887E-05,0.1059026,-1.08582663536072,-0.449077546596527,0.670594334602356,-1.10193578218388,-0.474132182551855,0.682150741652607,9
2.55999755859375,-1.53297996520996,2.24143695831299,2.10358572006226,-1.59612191359838,2.27904971150017,2.13093258853001,2245.827,2244.748,2250.669,2249.125,-0.03902703,-9.234272E-05,0.1047171,-1.08600628376007,-0.448258131742477,0.670735597610474,-1.10123038958312,-0.473828671822132,0.681714070030222,9
2.58000183105469,-1.55469822883606,2.23249053955078,2.11699986457825,-1.61814182127198,2.26957516039323,2.14456396033363,2247.638,2244.344,2241.341,2248.416,-0.0384422,-9.221843E-05,0.1034764,-1.08591735363007,-0.447325527667999,0.670707046985626,-1.10024313330221,-0.473403883025206,0.681102911362804,9
2.59999084472656,-1.57640933990479,2.22356462478638,2.13040995597839,-1.64012239440973,2.26011753383818,2.15817098218581,2243.819,2241.508,2242.263,2245.35,-0.03784512,-9.20665E-05,0.1022073,-1.08555388450623,-0.44628444314003,0.670508861541748,-1.09897546783438,-0.47285844198887,0.680318166050934,8
2.6199951171875,-1.59810769557953,2.21466207504272,2.14381265640259,-1.66209156852628,2.2506648119635,2.17177094750084,2239.694,2237.998,2243.283,2242.858,-0.0372017,-9.2443E-05,0.1009317,-1.0849152803421,-0.445134520530701,0.670137584209442,-1.09742594550583,-0.472191725819537,0.679358937915576,6
2.63999938964844,-1.61978781223297,2.20578455924988,2.15720462799072,-1.68402693989188,2.24122663446822,2.18534998730279,2241.555,2237.88,2233.617,2241.688,-0.03658118,-9.224752E-05,0.09959386,-1.08400619029999,-0.443868905305862,0.669597148895264,-1.09559602313537,-0.471404361345641,0.67822612879697,5
2.66000366210938,-1.64144420623779,2.19693493843079,2.17058229446411,-1.70592290617745,2.23180541187802,2.19890463348308,2237.274,2235.345,2234.854,2238.019,-0.03595906,-9.256695E-05,0.0982291,-1.08281946182251,-0.44249439239502,0.668887972831726,-1.09348640563071,-0.470496651869278,0.67692017506657,0
2.67999267578125,-1.66307127475739,2.18811464309692,2.18394255638123,-1.72775723139253,2.2224107117184,2.21242112090437,2234.758,2233.45,2232.65,2235.242,-0.03533855,-9.303353E-05,0.09684369,-1.08135533332825,-0.441013127565384,0.668010115623474,-1.09109983431736,-0.469469776906228,0.675442773735451,0
2.69999694824219,-1.68466353416443,2.17932605743408,2.19728183746338,-1.74955768413056,2.21303058593937,2.22591663964878,2230.047,2229.457,2234.044,2232.871,-0.03467809,-9.344875E-05,0.09546154,-1.0796149969101,-0.439427614212036,0.6669602394104,-1.08843358680109,-0.468322565086308,0.673792239511893,0
2.72000122070313,-1.70621562004089,2.17057108879089,2.21059656143188,-1.77130202882336,2.20367460188472,2.23937742484041,2231.512,2228.818,2224.918,2231.521,-0.03403839,-9.355781E-05,0.0940301,-1.07760536670685,-0.437731772661209,0.665742099285126,-1.08549040888332,-0.467056197851165,0.671970272177789,0
2.739990234375,-1.72772216796875,2.16185259819031,2.22388362884521,-1.79296822271738,2.1943522439355,2.25278983096475,2227.051,2225.718,2226.003,2228.217,-0.03339071,-9.37814E-05,0.09257986,-1.07532203197479,-0.435932517051697,0.664356470108032,-1.08227399942825,-0.465672266718727,0.669979161506271,0
2.75999450683594,-1.74917721748352,2.1531720161438,2.23713970184326,-1.81458384274179,2.18505164650952,2.26617092945464,2222.644,2221.815,2226.64,2225.841,-0.03269989,-9.409116E-05,0.09112958,-1.07276654243469,-0.434030264616013,0.662800312042236,-1.07878069424208,-0.464169195088763,0.667816639186824,0
2.77999877929688,-1.7705762386322,2.14453172683716,2.25036120414734,-1.83612684690458,2.17578229366013,2.27950707526701,2224.189,2221.233,2217.358,2224.151,-0.03203037,-9.39157E-05,0.08962766,-1.06994521617889,-0.432018399238586,0.661077618598938,-1.07501419914593,-0.462548577472581,0.665484999299265,0
2.80000305175781,-1.79191327095032,2.13593363761902,2.26354503631592,-1.85759178470316,2.16654653058634,2.29279489428112,2219.664,2218.099,2218.21,2220.831,-0.0313534,-9.40319E-05,0.08810359,-1.06685304641724,-0.429903596639633,0.659189224243164,-1.07097597819164,-0.460811043810786,0.662985148161422,0
2.81999206542969,-1.81318295001984,2.12737989425659,2.27668786048889,-1.87895695992541,2.1573536925621,2.30602095550813,2217.088,2216.016,2215.619,2217.841,-0.03067482,-9.417051E-05,0.0865621,-1.06349158287048,-0.427686870098114,0.657135784626007,-1.06667099276523,-0.458958728849171,0.660320157107579,0
2.83999633789063,-1.8343802690506,2.11887240409851,2.28978610038757,-1.90024960698239,2.14819206138118,2.31920211834584,2212.392,2211.822,2216.28,2215.589,-0.0299547,-9.443166E-05,0.08502137,-1.05986273288727,-0.42536985874176,0.654914677143097,-1.06209435025759,-0.456989527434725,0.657486997379635,0
2.86000061035156,-1.85549974441528,2.11041331291199,2.30283665657043,-1.9214480311499,2.13907097167731,2.33232495272651,2213.753,2210.893,2207.27,2213.742,-0.02925429,-9.446954E-05,0.08343115,-1.05597281455994,-0.422946333885193,0.652530074119568,-1.05725102347782,-0.454905579228273,0.654488747383304,0
2.87998962402344,-1.87653613090515,2.10200500488281,2.31583642959595,-1.94253086194772,2.12999961857111,2.34537622930486,2209.261,2207.89,2207.694,2210.29,-0.02854909,-9.4597E-05,0.08181997,-1.05181753635406,-0.420422852039337,0.649983108043671,-1.05214690704168,-0.452709420518306,0.651329056166547,0
2.89999389648438,-1.89748406410217,2.09364867210388,2.32878184318542,-1.96352501326936,2.1209664217661,2.35837260906308,2204.688,2204.187,2207.938,2207.575,-0.02780766,-9.476099E-05,0.08020808,-1.04739832878113,-0.417800545692444,0.647271573543549,-1.04677621342161,-0.450398561093403,0.648004340974112,0
2.91999816894531,-1.91833853721619,2.08534741401672,2.34166979789734,-1.98440911693069,2.11198057539494,2.37130086407726,2205.864,2203.324,2199.185,2205.334,-0.0270918,-9.475889E-05,0.07855014,-1.0427211523056,-0.415074408054352,0.644399762153625,-1.04114485287423,-0.447975543971863,0.644518260536375,0
2.94000244140625,-1.93909418582916,2.07710242271423,2.35449719429016,-2.00517798053537,2.10304431360073,2.38415778000673,2201.2,2200.178,2199.58,2201.986,-0.02637488,-9.488709E-05,0.07687409,-1.0377824306488,-0.412251949310303,0.641368925571442,-1.03525504859546,-0.445441325732794,0.640872191117535,0
2.95999145507813,-1.95974588394165,2.06891560554504,2.36726069450378,-2.02581075424974,2.0941666074844,2.39693044981124,2198.266,2197.924,2197.159,2198.759,-0.02565956,-9.500406E-05,0.07518768,-1.03258430957794,-0.409335196018219,0.638180136680603,-1.02911391720548,-0.442798968459032,0.637070538244476,0
2.97999572753906,-1.98028838634491,2.06078910827637,2.37995719909668,-2.04633384260397,2.08533609591429,2.40963521915279,2193.382,2193.657,2197.547,2196.491,-0.02490588,-9.537279E-05,0.07350831,-1.02713048458099,-0.406326353549957,0.634831428527832,-1.02271452148052,-0.440045487257004,0.633109007445237,0
3,-2.00071692466736,2.05272459983826,2.3925838470459,-2.06672639957428,2.07656174835205,2.42225918334961,2194.572,2192.249,2188.886,2194.42,-0.02417138,-9.521928E-05,0.07178736,-1.02142834663391,-0.403219997882843,0.631327211856842,-1.01606400046349,-0.437183953857422,0.628992018127441,0
3.02000427246094,-2.02102661132813,2.04472398757935,2.40513730049133,-2.0869834279768,2.06784571494631,2.43479924890685,2189.934,2189.087,2189.031,2191.061,-0.02343102,-9.516944E-05,0.07005116,-1.01547515392303,-0.400022238492966,0.627668917179108,-1.00916501115878,-0.434215511495054,0.624721215103391,0
3.03999328613281,-2.04121208190918,2.03678965568542,2.41761445999146,-2.10708469520508,2.05919670122237,2.4472428908773,2187.162,2186.591,2186.25,2188.046,-0.02268747,-9.49659E-05,0.06830246,-1.00927364826202,-0.396734058856964,0.623857915401459,-1.00202586176059,-0.431143734953757,0.620301741541063,0
3.05999755859375,-2.06126832962036,2.02892255783081,2.43001222610474,-2.12705600675913,2.05060360379452,2.45960608409476,2182.571,2182.469,2186.01,2185.769,-0.02190716,-9.50874E-05,0.06655446,-1.00282692909241,-0.393356829881668,0.619892835617065,-0.994638524886308,-0.427965170275055,0.615728628108227,0
3.08000183105469,-2.08119130134583,2.02112460136414,2.44232773780823,-2.14687713595163,2.04207512564123,2.47187630727625,2183.676,2181.26,2177.606,2183.143,-0.02114976,-9.477481E-05,0.06476436,-0.996141076087952,-0.389885395765305,0.615778386592865,-0.987011339258122,-0.424683405378145,0.611007036871143,0
3.09999084472656,-2.10097551345825,2.01339817047119,2.45455813407898,-2.16652837486666,2.03361974652815,2.48404136028297,2178.944,2178.221,2177.625,2179.721,-0.02039129,-9.485618E-05,0.06295931,-0.989213168621063,-0.386326521635056,0.611516296863556,-0.979153483542501,-0.421302389586788,0.606142649861596,0
3.1199951171875,-2.12061643600464,2.00574469566345,2.46670031547546,-2.18603502400946,2.02522658035469,2.49611690533293,2174.396,2174.693,2177.182,2176.921,-0.01960566,-9.490312E-05,0.0611572,-0.982045710086823,-0.382681965827942,0.607105374336243,-0.971056158224178,-0.417818336715394,0.601130019760458,0
3.13999938964844,-2.1401093006134,1.99816560745239,2.47875142097473,-2.20537738341953,2.01690410346351,2.50809074721212,2175.222,2173.293,2169.237,2174.225,-0.01884719,-9.492547E-05,0.05931844,-0.974645137786865,-0.378948509693146,0.602550387382507,-0.962728579444533,-0.414235212212131,0.595974851798267,0
3.16000366210938,-2.15944957733154,1.99066305160522,2.49070858955383,-2.22455088103183,2.00865428308644,2.51996005559448,2170.366,2170.383,2169.282,2170.707,-0.01809298,-9.484028E-05,0.05747217,-0.967009663581848,-0.375133574008942,0.597853124141693,-0.954174163352092,-0.410554485950274,0.590679260733698,0
3.17999267578125,-2.1786322593689,1.98323822021484,2.50256896018982,-2.24353658854737,2.00048526354177,2.53171311296128,2167.326,2167.751,2166.728,2167.684,-0.01734197,-9.47904E-05,0.05562302,-0.959143280982971,-0.371239989995956,0.593015372753143,-0.945403214201559,-0.406780591562751,0.585249625391267,0
3.19999694824219,-2.1976535320282,1.97589254379272,2.51432967185974,-2.2623590635174,1.99238647840124,2.54336512160655,2162.508,2163.735,2166.534,2165.348,-0.0165606,-9.475335E-05,0.05378665,-0.951050996780396,-0.367270439863205,0.588036596775055,-0.936405971974636,-0.402909329586355,0.579679903854719,0
3.22000122070313,-2.21650838851929,1.96862840652466,2.52598810195923,-2.28099938900442,1.98436606709459,2.55490437104486,2163.256,2161.798,2158.938,2162.889,-0.01579681,-9.447066E-05,0.05192163,-0.942740797996521,-0.363220602273941,0.582921326160431,-0.927192788821982,-0.398945154262308,0.573976504598449,0
3.239990234375,-2.23519229888916,1.96144664287567,2.53754162788391,-2.2994392795179,1.97643189735754,2.5663195416865,2158.894,2158.644,2158.255,2159.845,-0.01502928,-9.414954E-05,0.05004684,-0.934212267398834,-0.359095990657806,0.577671825885773,-0.917774783907129,-0.394892849856044,0.568146310914365,0
3.25999450683594,-2.25370192527771,1.95434844493866,2.54898738861084,-2.31770268688992,1.96857366338589,2.57762546085652,2154.439,2155.239,2157.564,2157.062,-0.01423566,-9.401102E-05,0.04817896,-0.925468683242798,-0.354897826910019,0.572287857532501,-0.90814153446928,-0.390747931744771,0.562182870617026,0
3.27999877929688,-2.27203226089478,1.94733595848083,2.56032276153564,-2.33577134012187,1.96079922667992,2.58881081793642,2155.137,2153.492,2150.178,2154.29,-0.01346388,-9.37643E-05,0.04628059,-0.916516900062561,-0.350622564554214,0.566774129867554,-0.898304216251578,-0.386515208538549,0.556093102023818,0
3.30000305175781,-2.29017972946167,1.9404102563858,2.57154536247253,-2.35364119854729,1.95311032582551,2.59987311156116,2150.723,2150.681,2149.488,2151.019,-0.01269742,-9.354497E-05,0.04437382,-0.907355904579163,-0.346276670694351,0.561133205890656,-0.888267004546666,-0.382196476749158,0.549879589839776,0
3.31999206542969,-2.30813908576965,1.9335732460022,2.58265280723572,-2.37129490830989,1.94551442770222,2.61080159886703,2147.708,2148.292,2146.956,2147.792,-0.01193735,-9.337136E-05,0.04246563,-0.897989153862,-0.341862857341766,0.555367231369019,-0.878042061913513,-0.37779696958594,0.54354986326829,0
3.33999633789063,-2.32590746879578,1.92682552337646,2.59364223480225,-2.38875555478454,1.93800159931817,2.62161057080077,2143.248,2144.672,2146.194,2145.407,-0.01115758,-9.335215E-05,0.0405691,-0.888421475887299,-0.337384074926376,0.549476385116577,-0.867618167158097,-0.373311858882592,0.53709697585572,0
3.36000061035156,-2.34348058700562,1.92016863822937,2.60451149940491,-2.406005803634,1.93057929915441,2.6322892965819,2143.61,2142.787,2139.505,2142.538,-0.01040124,-9.319532E-05,0.03865215,-0.878660142421722,-0.332838147878647,0.543465614318848,-0.857007552155826,-0.36874640767338,0.530528499715627,0
3.37998962402344,-2.36085486412048,1.91360402107239,2.61525821685791,-2.42302905329872,1.92325467039821,2.6428274990542,2139.15,2139.906,2138.87,2139.473,-0.009648632,-9.283338E-05,0.03673597,-0.868706166744232,-0.328231424093246,0.537337481975555,-0.846223126656603,-0.364106170663035,0.523852426598178,0
3.39999389648438,-2.37802624702454,1.90713274478912,2.62588000297546,-2.43984769972619,1.91601807669906,2.65323904237604,2134.73,2136.449,2138.109,2137.03,-0.008874718,-9.264913E-05,0.03483445,-0.858564257621765,-0.323566168546677,0.531092405319214,-0.835253140422974,-0.35938609205264,0.51706148254665,0
3.41999816894531,-2.39499092102051,1.90075612068176,2.63637471199036,-2.45644516534361,1.90887665092339,2.66351366424015,2135.351,2134.564,2131.318,2134.157,-0.008124772,-9.222811E-05,0.03291377,-0.848242282867432,-0.318839818239212,0.524735450744629,-0.824110582941664,-0.354591760855451,0.510163708672097,0
3.44000244140625,-2.41174602508545,1.89447486400604,2.64674019813538,-2.47281804716281,1.90183185728196,2.67364925803476,2130.994,2131.804,2130.587,2131.131,-0.007380684,-9.191222E-05,0.03099443,-0.837740957736969,-0.314058661460876,0.51826936006546,-0.812800388649434,-0.349725300221754,0.503162159625937,0
3.45999145507813,-2.42828726768494,1.88829040527344,2.65697407722473,-2.48895081463434,1.8948903781363,2.68363620960993,2128.076,2129.354,2128.134,2128.142,-0.006642456,-9.152749E-05,0.02908173,-0.827065169811249,-0.30922520160675,0.511696755886078,-0.80133641229185,-0.344792671461508,0.496065412155666,0
3.47999572753906,-2.44461178779602,1.88220357894897,2.66707444190979,-2.50486489870395,1.88804299234919,2.69348778574196,2123.911,2125.879,2127.131,2125.97,-0.005886651,-9.122495E-05,0.02718546,-0.816220581531525,-0.304342001676559,0.505018770694733,-0.789706299681989,-0.339788558913217,0.488865818431069,0
3.5,-2.46071577072144,1.87621545791626,2.67703914642334,-2.5205447997813,1.88129636896134,2.70319439144611,2124.326,2123.891,2120.905,2123.116,-0.005153217,-9.081899E-05,0.02527518,-0.805214881896973,-0.299407094717026,0.498240411281586,-0.777924000354857,-0.334718964672089,0.481572013878822,0
3.52000427246094,-2.47659683227539,1.87032699584961,2.68686652183533,-2.53598752699493,1.87465179486116,2.71275417523047,2120.229,2121.321,2119.959,2120.159,-0.004427772,-9.04241E-05,0.02336955,-0.794049501419067,-0.294426202774048,0.491364717483521,-0.765994882555673,-0.32958619854407,0.474187321698442,0
3.53999328613281,-2.49225163459778,1.86453878879547,2.69655442237854,-2.55117869390181,1.86811546013321,2.72215823120146,2117.448,2118.906,2117.516,2117.31,-0.003710316,-9.002663E-05,0.02147267,-0.782729506492615,-0.289402186870575,0.484394729137421,-0.753933682518821,-0.324396601119134,0.466720864320997,0
3.55999755859375,-2.50767660140991,1.85885214805603,2.70610094070435,-2.56613872308604,1.86167857751006,2.73141920191151,2113.353,2115.698,2116.556,2115.108,-0.002978479,-8.956878E-05,0.01959574,-0.771260559558868,-0.28433758020401,0.477331817150116,-0.741727567798258,-0.319144650954242,0.459164697851087,0
3.58000183105469,-2.52286958694458,1.85326766967773,2.71550464630127,-2.58085326729328,1.85534732021446,2.74052820572674,2113.857,2113.75,2110.572,2112.25,-0.002273274,-8.921309E-05,0.01770934,-0.759650528430939,-0.279231071472168,0.470181286334991,-0.729391385793765,-0.313836736470737,0.451528013536464,0
3.59999084472656,-2.53782749176025,1.84778571128845,2.72476363182068,-2.59530884290342,1.84912748987145,2.74947689564398,2109.718,2111.259,2109.799,2109.464,-0.001576591,-8.860079E-05,0.01583281,-0.747901320457458,-0.274088829755783,0.462946265935898,-0.716940488958392,-0.308479463400265,0.4438203152769,0
3.6199951171875,-2.55254793167114,1.84240758419037,2.73387622833252,-2.60952509409627,1.84301063413925,2.75827743234631,2105.839,2108.518,2108.731,2107.009,-0.0008729842,-8.829879E-05,0.01397943,-0.736018538475037,-0.26891365647316,0.455628633499146,-0.704361775018033,-0.303067194200314,0.436033492140578,0
3.63999938964844,-2.5670280456543,1.83713340759277,2.74284100532532,-2.6234885835008,1.83700253474321,2.76692149746096,2106.054,2106.471,2103.328,2104.287,-0.0001960087,-8.773421E-05,0.01212316,-0.724010229110718,-0.263705044984818,0.448233485221863,-0.691670720740692,-0.297606588091786,0.428177124984152,0
3.66000366210938,-2.58126592636108,1.83196413516998,2.75165629386902,-2.63719712493647,1.83110413233575,2.77540773763803,2102.125,2104.193,2102.458,2101.525,0.0004687695,-8.735566E-05,0.01028266,-0.711879193782806,-0.258469134569168,0.440764337778091,-0.678873453515702,-0.29210028151913,0.420255006953505,0
3.67999267578125,-2.59525847434998,1.82690000534058,2.76032090187073,-2.65063849381582,1.82532068681534,2.78372858527554,2099.526,2101.866,2100.219,2098.975,0.001121383,-8.67499E-05,0.008461029,-0.699631869792938,-0.253209233283997,0.433224678039551,-0.665986083416798,-0.286555206197011,0.41227711095171,0
3.69999694824219,-2.60900402069092,1.82194137573242,2.76883316040039,-2.66383127580226,1.81964420129024,2.79189554578451,2095.882,2099.012,2099.108,2096.94,0.001780295,-8.627406E-05,0.006667273,-0.687275052070618,-0.247928440570831,0.425616830587387,-0.65299527533123,-0.280965624398954,0.404235181908735,0
3.72000122070313,-2.6225004196167,1.81708872318268,2.77719211578369,-2.6767633032417,1.81407991116207,2.79990108680742,2095.95,2097.002,2094.247,2094.301,0.002415326,-8.572075E-05,0.004878774,-0.674817144870758,-0.242626219987869,0.417946010828018,-0.639917282339434,-0.275338529371411,0.396139281255611,0
3.739990234375,-2.63574552536011,1.81234264373779,2.78539633750916,-2.68942333385363,1.80863265367006,2.80773824883709,2092.416,2094.703,2093.184,2091.891,0.003039268,-8.515931E-05,0.003109107,-0.66226202249527,-0.237307816743851,0.410215884447098,-0.62676873176137,-0.26968107538565,0.387999702095468,0
3.75999450683594,-2.64873814582825,1.80770313739777,2.79344487190247,-2.70182915057228,1.80329477731443,2.81541804035694,2089.112,2092.166,2091.912,2089.795,0.003665559,-8.451811E-05,0.001366684,-0.649615943431854,-0.231976091861725,0.40242925286293,-0.613536214864365,-0.263987493038594,0.379808143784027,0
3.77999877929688,-2.66147589683533,1.80317044258118,2.80133676528931,-2.7139695770734,1.79807109095524,2.82293354268985,2089.098,2090.345,2087.427,2087.115,0.004265277,-8.39325E-05,-0.0003675162,-0.636886775493622,-0.226631075143814,0.394591361284256,-0.60023651686137,-0.258265004538452,0.371574997167698,0
3.80000305175781,-2.67395734786987,1.79874539375305,2.80907082557678,-2.72584333814708,1.79296214327972,2.83028396642013,2085.792,2088.364,2086.327,2084.655,0.004847786,-8.34207E-05,-0.002079396,-0.624078452587128,-0.221278354525566,0.386706054210663,-0.586876524285838,-0.252516572968186,0.363304525338741,0
3.81999206542969,-2.68618106842041,1.79442667961121,2.81664633750916,-2.73744054699573,1.78797218830065,2.83746319114912,2083.562,2086.374,2084.229,2082.286,0.005411717,-8.302829E-05,-0.003766242,-0.611197650432587,-0.215921655297279,0.378777384757996,-0.573473482003301,-0.246749618311662,0.355007403690404,0
3.83999633789063,-2.6981463432312,1.79021525382996,2.82406258583069,-2.74877791451009,1.78309403578861,2.84448156171422,2080.135,2084.127,2083.362,2080.261,0.005972172,-8.227391E-05,-0.005415804,-0.598251104354858,-0.210564777255058,0.370808392763138,-0.560014026276881,-0.240958390526246,0.346675359432959,0
3.86000061035156,-2.70985126495361,1.78611135482788,2.83131861686707,-2.75984563331209,1.77833190558438,2.85133300688122,2080.033,2082.114,2079.373,2078.02,0.006506837,-8.175769E-05,-0.007047257,-0.585248053073883,-0.205208644270897,0.362804472446442,-0.546515580872635,-0.235150386571708,0.338319178707605,0
3.87998962402344,-2.72129511833191,1.78211379051208,2.83841395378113,-2.7706348636882,1.77368960116974,2.85801205444635,2077.073,2080.16,2078.238,2075.902,0.007024714,-8.122525E-05,-0.008649947,-0.572193682193756,-0.199858292937279,0.354769855737686,-0.532995796775444,-0.22933320117373,0.329949788314816,0
