t,x_s1,x_s2,x_s3,x_s_d1,x_s_d2,x_s_d3,propellers_rpms1,propellers_rpms2,propellers_rpms3,propellers_rpms4,rollRad,pitchRad,yawRad,v_s1,v_s2,v_s3,v_s_d1,v_s_d2,v_s_d3,insideCount
0,-0.0599999986588955,2.94000005722046,1.17999994754791,-0.0599999986588955,2.94000005722046,1.17999994754791,0,0,0,0,0,45.0048027038574,0,0,0,0,-1.06581410364015E-15,4.44089209850063E-16,4.44089209850063E-16,0
0.0200042724609375,-0.0599999986588955,2.94000005722046,1.17705690860748,-0.0600018701838461,2.93999925195556,1.18000110611101,0,0,0,0,0.937003672122955,44.8630027770996,-0.00115976633969694,3.71994488546079E-08,3.50004931704007E-08,-0.147149950265884,-0.000280105751305916,-0.000120521679537258,0.00017339880334547,5
0.0399932861328125,-0.0599999986588955,2.94000005722046,1.17018985748291,-0.060014863945674,2.93999366110285,1.18000914986856,0,0,0,0,1.87400352954865,44.7211418151855,-0.00311126722954214,3.70364325874561E-08,3.5142885934647E-08,-0.343349903821945,-0.00111059898697896,-0.000477859717552347,0.000687513678106196,6
0.05999755859375,-0.0599062256515026,2.94009447097778,1.16346514225006,-0.0600498857373401,2.93997859220429,1.18003083002592,3197.287,2848.743,1517.526,2782.492,1.40367555618286,44.7413673400879,0.0288227610290051,0.00468872301280499,0.0047188950702548,-0.336236536502838,-0.00247936261166862,-0.00106680046642749,0.00153484356504269,6
0.0800018310546875,-0.0597377680242062,2.94026732444763,1.1572380065918,-0.0601175574246769,2.93994947496775,1.18007272202403,2865.965,2651.979,2344.623,2562.269,0.339742511510849,44.8158340454102,0.0997416973114014,0.0084229614585638,0.00864502694457769,-0.311356902122498,-0.00437268608126799,-0.00188144466206175,0.00270690098422899,6
0.100006103515625,-0.0595562532544136,2.94046425819397,1.15152084827423,-0.0602282404704493,2.93990185114529,1.18014124010193,2240.186,2528.35,3138.084,2508.781,359.321655273438,44.9191246032715,0.178506880998611,0.00907573569566011,0.00984961912035942,-0.28585746884346,-0.00677739276378709,-0.00291612276782231,0.00419552897277328,5
0.1199951171875,-0.059424314647913,2.94063234329224,1.14657151699066,-0.0603918861403606,2.93983143898525,1.18024254456713,2124.081,2455.03,3352.06,2464.714,358.749969482422,44.9999046325684,0.253318637609482,0.00659698341041803,0.00839899759739637,-0.247468858957291,-0.00967801353495435,-0.00416417885169243,0.00599115140585487,5
0.139999389648438,-0.0593828670680523,2.94074034690857,1.1425746679306,-0.0606185767455666,2.93973390035084,1.18038287685052,2312.194,2456.758,3069.828,2463.796,358.636169433594,45.0327186584473,0.326279491186142,0.00207236967980862,0.00539923738688231,-0.19983971118927,-0.0130660253322238,-0.00562194567796536,0.00808849210174802,5
0.160003662109375,-0.0594432018697262,2.94078588485718,1.1395308971405,-0.0609177895434042,2.93960515744296,1.18056810382587,2537.171,2487.207,2635.683,2492.072,358.757080078125,45.0250396728516,0.398128837347031,-0.0030167093500495,0.00227918825112283,-0.152189284563065,-0.0169265510445065,-0.00728302204135792,0.0104783414199936,5
0.17999267578125,-0.0595998913049698,2.94078183174133,1.1373188495636,-0.0612985250199726,2.93944133760391,1.18080379722281,2666.958,2506.469,2302.834,2513.611,358.864379882813,44.9986000061035,0.467313855886459,-0.00783452205359936,-0.000198137015104294,-0.110600307583809,-0.0212433804254414,-0.00914043312572283,0.0131506644458931,5
0.199996948242188,-0.0598474256694317,2.94074010848999,1.13577437400818,-0.0617704296168641,2.93923829023936,1.18109592864822,2653.605,2500.379,2184.096,2509.158,358.817260742188,44.9744720458984,0.532721817493439,-0.0123767480254173,-0.00209196284413338,-0.0772222504019737,-0.0260104776919234,-0.0111915819022102,0.0161017247421801,5
0.220001220703125,-0.0601893328130245,2.9406623840332,1.13476359844208,-0.0623420644491781,2.93899233174064,1.18144979784016,2541.179,2471.113,2245.897,2479.212,358.612854003906,44.9637298583984,0.594410419464111,-0.0170954149216413,-0.00388219673186541,-0.0505392886698246,-0.03121219533433,-0.0134297356845702,0.019321835755004,5
0.240005493164063,-0.0606385581195354,2.94054174423218,1.13421726226807,-0.0630219993990999,2.93869977472688,1.18187070996396,2412.364,2430.275,2374.496,2437.831,358.335021972656,44.9659614562988,0.65255069732666,-0.0224613659083843,-0.00603253953158855,-0.0273138899356127,-0.0368361158647881,-0.0158495515746756,0.0228033104678445,5
0.259994506835938,-0.0612128973007202,2.94036626815796,1.1341210603714,-0.0638179029240226,2.93835731967507,1.18236341216003,2330.214,2392.52,2463.05,2399.133,358.076599121094,44.9739303588867,0.707693099975586,-0.0287170484662056,-0.00876943673938513,-0.00481022149324417,-0.0428651747123285,-0.0184436871643672,0.0265355850983733,4
0.279998779296875,-0.0619294196367264,2.94012522697449,1.13447856903076,-0.0647390625194898,2.93796097043536,1.18293365383054,2305.754,2365.408,2471.269,2371.446,357.887451171875,44.9804077148438,0.760310649871826,-0.03582613915205,-0.0120575567707419,0.0178740750998259,-0.0492963837173861,-0.0212108567320638,0.030516809833474,4
0.300003051757813,-0.0628009736537933,2.93981099128723,1.13528311252594,-0.0657927507678135,2.93750759781875,1.18358593705038,2318.477,2349.047,2416.083,2353.819,357.765625,44.9818534851074,0.811083078384399,-0.0435778461396694,-0.0157087240368128,0.0402299426496029,-0.0561132031658829,-0.0241439437008635,0.0347367458022363,4
0.319992065429688,-0.0638358145952225,2.93942046165466,1.13650608062744,-0.0669855955880233,2.93699435001684,1.18432436481717,2335.587,2337.207,2343.11,2342.29,357.679290771484,44.9789009094238,0.859860956668854,-0.0517420135438442,-0.0195263866335154,0.0611509755253792,-0.0632980253096114,-0.0272353719486164,0.0391844929697465,4
0.339996337890625,-0.0650394782423973,2.93895244598389,1.13810396194458,-0.068326768706371,2.93641728069206,1.18515461486636,2338.014,2325.122,2287.933,2330.975,357.59521484375,44.974235534668,0.90621155500412,-0.0601831004023552,-0.023406071588397,0.0798936486244202,-0.0708499516420146,-0.0304847548730522,0.0438594951176439,4
0.360000610351563,-0.0664170309901237,2.93840551376343,1.14003133773804,-0.0698225328270578,2.93577369517774,1.1860805641102,2323.458,2311.548,2261.994,2316.353,357.495513916016,44.9703483581543,0.950480699539185,-0.0688775926828384,-0.027344623580575,0.0963664501905441,-0.0787518717320621,-0.0338847303337087,0.0487511600740379,4
0.3800048828125,-0.0679743438959122,2.93777775764465,1.1422483921051,-0.0714797725314022,2.93506063123087,1.18710647443246,2296.319,2295.157,2261.445,2300.297,357.380645751953,44.9685974121094,0.992463827133179,-0.0778656601905823,-0.0313915275037289,0.110852271318436,-0.0869921272359981,-0.0374302820709642,0.0538522707687797,4
0.399993896484375,-0.0697183236479759,2.93706583976746,1.14472675323486,-0.0733036822025899,2.9342758538535,1.18823556140379,2269.371,2278.558,2269.24,2283.652,357.262268066406,44.9688034057617,1.03218376636505,-0.0871989727020264,-0.0356000661849976,0.123918704688549,-0.0955525119207663,-0.0411135764513579,0.0591515566763244,4
0.419998168945313,-0.0716562196612358,2.93626594543457,1.14744639396667,-0.0753034649285836,2.93341540321397,1.18947352217404,2248.991,2263.326,2272.685,2268.744,357.152770996094,44.9700088500977,1.06954336166382,-0.0968947857618332,-0.0399909764528275,0.135979145765305,-0.104434660908044,-0.0449353170220673,0.0646500300148815,4
0.44000244140625,-0.073794886469841,2.93537497520447,1.15039241313934,-0.077483988232608,2.93247718495301,1.19082336997196,2239.239,2251.657,2263.952,2255.491,357.058013916016,44.9711151123047,1.10527205467224,-0.106933236122131,-0.0445513166487217,0.147299140691757,-0.113620829717891,-0.048887868829098,0.0703367061060819,4
0.460006713867188,-0.0761402025818825,2.9343900680542,1.15354835987091,-0.0798512213598696,2.93145863067119,1.19228880004469,2233.261,2241.327,2249.21,2245.693,356.976776123047,44.971736907959,1.13916289806366,-0.117265827953815,-0.049244474619627,0.157797873020172,-0.123099793815011,-0.0529664022684887,0.0762046364278779,4
0.479995727539063,-0.078697182238102,2.93330931663513,1.15689718723297,-0.0824088828700873,2.93035814037613,1.19387211435783,2228.885,2232.751,2233.161,2237.059,356.904479980469,44.9719429016113,1.17123758792877,-0.127849146723747,-0.0540387146174908,0.167443141341209,-0.132852887402757,-0.0571628859694044,0.0822422659629699,4
0.5,-0.0814702063798904,2.93213105201721,1.16042101383209,-0.085166398670376,2.92917165836334,1.1955791479969,2222.442,2224.579,2221.294,2229.49,356.8369140625,44.9721069335938,1.20121729373932,-0.138651251792908,-0.0589140504598618,0.176192700862885,-0.142884000065179,-0.0614789935111996,0.0884520025491718,5
0.520004272460938,-0.0844634026288986,2.93085360527039,1.1641047000885,-0.088127196023106,2.92789770997757,1.19741202260058,2216.707,2218.104,2211.81,2221.298,356.771362304688,44.9723701477051,1.22982931137085,-0.149660035967827,-0.0638664215803146,0.184184655547142,-0.153174893518032,-0.065906877469682,0.0948225558197254,5
0.539993286132813,-0.0876807272434235,2.92947578430176,1.167933344841,-0.091293865515634,2.92653518056143,1.19937234186584,2208.157,2210.955,2207.861,2214.732,356.707427978516,44.9730110168457,1.25680577754974,-0.160865887999535,-0.0688936486840248,0.191431194543839,-0.163706645289342,-0.0704383960337938,0.101342211863077,5
0.55999755859375,-0.0911260694265366,2.92799592018127,1.17189502716064,-0.094676112580471,2.92507989413848,1.20146611391775,2199.783,2204.082,2206.639,2208.765,356.647033691406,44.9740524291992,1.28176093101501,-0.172267571091652,-0.073998935520649,0.19808404147625,-0.17448465888317,-0.0750758741803766,0.108014315705644,5
0.580001831054688,-0.0948033034801483,2.92641234397888,1.17598211765289,-0.0982762614093182,2.92353085067394,1.20369477754168,2195.747,2199.638,2202.406,2202.366,356.591400146484,44.9751586914063,1.3055477142334,-0.183861792087555,-0.0791831985116005,0.204352229833603,-0.185490414529404,-0.0798113433697334,0.11482740272751,5
0.600006103515625,-0.0987159162759781,2.92472362518311,1.1801860332489,-0.102098762959148,2.92188613504538,1.20606108809202,2191.105,2194.853,2199.196,2198.258,356.540771484375,44.9763221740723,1.32787716388702,-0.195630684494972,-0.0844360888004303,0.21019834280014,-0.196713446836865,-0.0846403006364086,0.121774994352997,5
0.6199951171875,-0.102867178618908,2.92292857170105,1.18450045585632,-0.106144683970236,2.92014528826426,1.20856570593183,2188.128,2191.125,2195.552,2194.542,356.495025634766,44.9774703979492,1.348748087883,-0.207563057541847,-0.0897508785128593,0.215718492865562,-0.208134604141382,-0.0895545055543457,0.128845234789665,5
0.639999389648438,-0.107260040938854,2.9210262298584,1.18891894817352,-0.110424235525481,2.91830391678686,1.21121495220784,2184.831,2187.631,2193.24,2191.829,356.453979492188,44.9786491394043,1.36782371997833,-0.219643279910088,-0.0951192229986191,0.220924809575081,-0.219761081350814,-0.0945570538913933,0.136042578028218,5
0.660003662109375,-0.111897319555283,2.91901540756226,1.19343817234039,-0.114938248900541,2.91636166293851,1.21400934151928,2185.01,2186.333,2188.371,2188.412,356.416564941406,44.9796752929688,1.38602077960968,-0.231863498687744,-0.100537620484829,0.225963234901428,-0.231574097577923,-0.0996398647564507,0.143355397804799,5
0.67999267578125,-0.116781443357468,2.91689538955688,1.19805300235748,-0.119686638739014,2.91431856344567,1.21694882102647,2182.623,2184.069,2186.747,2186.978,356.381652832031,44.9807510375977,1.40297245979309,-0.244206443428993,-0.105996534228325,0.23074010014534,-0.243554411173546,-0.104794659005432,0.150771782621969,5
0.699996948242188,-0.121914781630039,2.91466546058655,1.20275950431824,-0.124680083855354,2.91217002351282,1.22004000142426,2179.804,2181.834,2187.388,2185.839,356.349822998047,44.9819679260254,1.41820466518402,-0.256666928529739,-0.111494682729244,0.235328152775764,-0.255710395848158,-0.11002503961202,0.158296916205407,5
0.720001220703125,-0.127299636602402,2.91232490539551,1.20755743980408,-0.129918284978346,2.90991617190799,1.22328269744952,2180.807,2181.907,2184.984,2183.615,356.320892333984,44.9830703735352,1.43271398544312,-0.26924341917038,-0.117033325135708,0.2398961186409,-0.268023157655716,-0.11532287703907,0.16591910230247,5
0.740005493164063,-0.132938042283058,2.90987277030945,1.21244430541992,-0.13540428105644,2.90755570105657,1.22667879035609,2179.43,2180.794,2185.177,2183.477,356.294403076172,44.9842185974121,1.44607555866241,-0.281920343637466,-0.122604057192802,0.244340643286705,-0.280482990349159,-0.120683994959631,0.173632332283853,5
0.759994506835938,-0.138831928372383,2.90730857849121,1.21741938591003,-0.14113644597991,2.90508931062815,1.2302272735046,2179.042,2180.388,2185.574,2183.094,356.270629882813,44.9853782653809,1.45827972888947,-0.294694602489471,-0.128206372261047,0.248755365610123,-0.293070637251543,-0.126100107763583,0.181424685349205,5
0.779998779296875,-0.144983053207397,2.90463185310364,1.22248220443726,-0.147126184485884,2.90251209348295,1.23393520697061,2177.885,2179.736,2187.39,2183.433,356.250213623047,44.9866027832031,1.46890079975128,-0.307556569576263,-0.133836343884468,0.253138989210129,-0.305795832832518,-0.131575403921268,0.189302187598958,5
0.800003051757813,-0.151393130421638,2.90184187889099,1.22763514518738,-0.153371683173492,2.89982482987671,1.2378014681726,2180.939,2181.391,2185.189,2182.568,356.232666015625,44.987606048584,1.47903418540955,-0.320503860712051,-0.139493808150291,0.257647037506104,-0.318639638509124,-0.13710173468952,0.197253115148089,5
0.819992065429688,-0.158063501119614,2.89893841743469,1.23287773132324,-0.159870162197751,2.89702871589906,1.2418243362541,2180.913,2181.524,2185.92,2183.8,356.216979980469,44.9885940551758,1.48819553852081,-0.333518534898758,-0.145168855786324,0.262130349874496,-0.33158286215529,-0.142670842232658,0.205265587156312,5
0.839996337890625,-0.164995431900024,2.89592123031616,1.23821043968201,-0.166633637018892,2.89411858163313,1.24601124935738,2180.224,2181.428,2188.594,2185.049,356.203826904297,44.9896774291992,1.49580466747284,-0.346596598625183,-0.150860488414764,0.266636669635773,-0.344636106234817,-0.148287288494656,0.213346167053785,5
0.860000610351563,-0.172190204262733,2.89278984069824,1.24363696575165,-0.173659158941841,2.89109569582005,1.2503603820997,2183.74,2183.771,2187.213,2184.702,356.192779541016,44.990550994873,1.50302922725677,-0.359738558530807,-0.15657089650631,0.271327406167984,-0.357780475378537,-0.153942943326036,0.221483157706883,5
0.8800048828125,-0.179648756980896,2.88954401016235,1.24915778636932,-0.180948461186242,2.88795931270381,1.25487280742661,2183.906,2184.355,2188.89,2186.473,356.183227539063,44.9914588928223,1.50934755802155,-0.372927576303482,-0.162291258573532,0.276041090488434,-0.371007022483504,-0.159633957038354,0.229671020432672,5
0.899993896484375,-0.187372028827667,2.88618350028992,1.25477504730225,-0.18849723509595,2.8847112861788,1.25954585807468,2184.894,2185.413,2190.687,2187.663,356.175415039063,44.9923439025879,1.51470494270325,-0.386163532733917,-0.168022632598877,0.280864834785461,-0.384296738353309,-0.165352150505452,0.237897987633041,5
0.919998168945313,-0.195360794663429,2.88270831108093,1.26049053668976,-0.196318384305134,2.8813460641717,1.26438752200817,2184.598,2185.934,2194.077,2189.362,356.170288085938,44.9933128356934,1.51859271526337,-0.399437874555588,-0.173762291669846,0.285771787166595,-0.397661187980262,-0.171102499820431,0.246171218589148,5
0.94000244140625,-0.203615814447403,2.87911796569824,1.26630902290344,-0.204407453948074,2.87786556348678,1.26939504145298,2189.026,2188.891,2192.515,2189.408,356.167388916016,44.9940071105957,1.52227747440338,-0.412751197814941,-0.179511874914169,0.290925860404968,-0.411081631631503,-0.176876941799768,0.254479112513653,5
0.959991455078125,-0.212137520313263,2.87541270256042,1.2722315788269,-0.212759000778906,2.87427212620069,1.27456504678061,2189.642,2189.835,2194.154,2191.67,356.165740966797,44.9947052001953,1.52517855167389,-0.426084369421005,-0.185260772705078,0.296130836009979,-0.424539267042903,-0.182667386354485,0.262810029909387,5
0.979995727539063,-0.220926195383072,2.87159252166748,1.27826011180878,-0.22138664033507,2.87055989392801,1.27990596665734,2189.398,2190.299,2197.714,2193.771,356.166198730469,44.995491027832,1.52659094333649,-0.439434915781021,-0.191008940339088,0.301426142454147,-0.438046240701377,-0.188479059778567,0.271171490030365,5
1,-0.229982286691666,2.86765742301941,1.28439962863922,-0.230284798736574,2.86673126495361,1.28541435058594,2193.826,2193.457,2196.37,2193.793,356.168365478516,44.9960327148438,1.52787518501282,-0.452804952859879,-0.196759566664696,0.306978136301041,-0.451584000205995,-0.194303979492187,0.279552008056641,5
1.02000427246094,-0.239305794239044,2.86360740661621,1.29065132141113,-0.239454009753966,2.86278600961093,1.2910905289958,2194.219,2194.337,2198.398,2196.146,356.171478271484,44.9965934753418,1.52838587760925,-0.466176301240921,-0.202502936124802,0.312582939863205,-0.465144357597929,-0.200138622445408,0.287946515251652,5
1.03999328613281,-0.248896792531013,2.85944247245789,1.29701781272888,-0.248887339851819,2.85872711120656,1.2969302096982,2195.391,2195.658,2200.429,2197.623,356.175933837891,44.9971542358398,1.52805721759796,-0.479550361633301,-0.208241060376167,0.31832629442215,-0.478708875293167,-0.205975055460915,0.29634359787259,5
1.05999755859375,-0.258755147457123,2.85516309738159,1.30350112915039,-0.258599401509697,2.85454828239877,1.30294243851408,2194.928,2196.221,2204.198,2199.529,356.182800292969,44.9978103637695,1.52630972862244,-0.492918699979782,-0.213971436023712,0.324163466691971,-0.492290296490434,-0.211818761581115,0.30475114456651,5
1.08000183105469,-0.268880814313889,2.85076928138733,1.3101065158844,-0.268583149539609,2.85025255453512,1.30912285413647,2199.761,2199.4,2202.184,2199.455,356.191619873047,44.9981689453125,1.52455794811249,-0.506283402442932,-0.219696506857872,0.330271482467651,-0.50587040849135,-0.217661904390701,0.313157880805523,5
1.10000610351563,-0.279273331165314,2.84626126289368,1.31683480739594,-0.278838480013141,2.84583997233313,1.31547139222872,2200.14,2200.158,2203.714,2201.805,356.201354980469,44.99853515625,1.52210211753845,-0.519623994827271,-0.225404813885689,0.336415588855743,-0.519441457145546,-0.223501147495394,0.321559006401169,5
1.1199951171875,-0.289932161569595,2.84163928031921,1.32368838787079,-0.289357002179081,2.84131414609862,1.32198285851614,2201.201,2201.304,2205.357,2203.176,356.212188720703,44.998893737793,1.51884663105011,-0.532941877841949,-0.231098234653473,0.342679619789124,-0.532985466132485,-0.229328756186667,0.329943393154705,5
1.13999938964844,-0.300856739282608,2.8369038105011,1.33066856861115,-0.300154365346813,2.83666834237095,1.3286669406667,2200.367,2201.61,2209.005,2204.905,356.225219726563,44.9993667602539,1.51417672634125,-0.546228885650635,-0.236774429678917,0.349011868238449,-0.546515580872639,-0.235150386571708,0.338319178707607,5
1.16000366210938,-0.312046468257904,2.83205509185791,1.33778047561646,-0.311222084148811,2.83190621216671,1.33551838583369,2205.034,2204.645,2206.654,2204.463,356.239990234375,44.9995613098145,1.50960290431976,-0.559488117694855,-0.242436677217484,0.355598270893097,-0.560014026276883,-0.240958390526247,0.34667535943296,6
1.17999267578125,-0.323500454425812,2.82709360122681,1.3450243473053,-0.322550701230474,2.8270318247214,1.34253133946411,2204.963,2205.055,2208.057,2206.579,356.255523681641,44.9997634887695,1.50437676906586,-0.572699069976807,-0.248073428869247,0.362190932035446,-0.573463232144024,-0.246745208083563,0.355001058539242,6
1.19999694824219,-0.335217714309692,2.82201981544495,1.35240089893341,-0.334156660511822,2.8220381046756,1.34971598112778,2203.762,2204.854,2211.615,2208.293,356.27294921875,45.0001182556152,1.49767220020294,-0.585860669612885,-0.253685563802719,0.368827104568481,-0.58687652428584,-0.252516572968185,0.36330452533874,6
1.22000122070313,-0.347197204828262,2.81683421134949,1.35991477966309,-0.346030421585499,2.81692915700008,1.35706640485806,2208.129,2207.723,2209.115,2207.452,356.291900634766,45.0001945495605,1.49110174179077,-0.598976671695709,-0.259277194738388,0.375696748495102,-0.600236516861372,-0.258265004538453,0.371574997167698,6
1.24000549316406,-0.359437704086304,2.81153750419617,1.36756575107574,-0.358170848086624,2.8117054706409,1.36458190719098,2207.624,2207.819,2210.467,2209.301,356.311492919922,45.0003128051758,1.48389518260956,-0.612027108669281,-0.264837086200714,0.382546961307526,-0.613536214864368,-0.263987493038594,0.379808143784027,6
1.25999450683594,-0.371937990188599,2.80613017082214,1.37535512447357,-0.3705671011502,2.80637170925886,1.37225577835275,2208.004,2208.294,2211.705,2210.1,356.332214355469,45.0004501342773,1.47591531276703,-0.625014781951904,-0.270367801189423,0.389471411705017,-0.626758665639206,-0.269676744214496,0.387993470686331,6
1.27999877929688,-0.384696632623672,2.80061292648315,1.38328325748444,-0.383236695417198,2.80092033679326,1.3800988607405,2206.338,2207.877,2214.978,2211.277,356.355255126953,45.0007171630859,1.46647429466248,-0.637931048870087,-0.2758669257164,0.396408945322037,-0.639917282339435,-0.275338529371412,0.396139281255613,6
1.30000305175781,-0.397712200880051,2.79498624801636,1.39135444164276,-0.396168722856641,2.79535604666509,1.38810440176341,2210.818,2210.503,2211.505,2209.994,356.380157470703,45.0006790161133,1.45727038383484,-0.650779128074646,-0.281337529420853,0.403561681509018,-0.652995275331231,-0.280965624398954,0.404235181908735,6
1.31999206542969,-0.410982936620712,2.78925085067749,1.39956748485565,-0.409351342777246,2.78968393359302,1.39626507146953,2210.02,2210.198,2212.16,2211.582,356.405700683594,45.000675201416,1.44747376441956,-0.663537263870239,-0.286766976118088,0.410652130842209,-0.665976209205206,-0.286550957599616,0.412270998344359,6
1.33999633789063,-0.424507021903992,2.78340768814087,1.40792191028595,-0.422802873722428,2.78389611561957,1.40459220990988,2207.945,2209.232,2215.221,2212.697,356.43310546875,45.0008239746094,1.43618726730347,-0.676204860210419,-0.292156308889389,0.41771999001503,-0.678873453515705,-0.29210028151913,0.420255006953505,6
1.36000061035156,-0.438282757997513,2.77745747566223,1.41642141342163,-0.436511415158101,2.77799771321212,1.41307845008695,2211.971,2211.572,2211.702,2211.018,356.461944580078,45.0006980895996,1.42515397071838,-0.688786447048187,-0.297509998083115,0.424973100423813,-0.691670720740693,-0.297606588091785,0.42817712498415,6
1.3800048828125,-0.452307999134064,2.77140116691589,1.42506408691406,-0.450474904562636,2.77198961381608,1.4217225152016,2210.563,2210.88,2212.506,2212.292,356.491271972656,45.0006484985352,1.41351318359375,-0.701261758804321,-0.302816480398178,0.432133615016937,-0.704361775018035,-0.303067194200314,0.436033492140578,6
1.39999389648438,-0.4665806889534,2.76523947715759,1.43385028839111,-0.464680216184654,2.76587746507559,1.43051627978847,2210.183,2210.658,2213.176,2212.362,356.521636962891,45.0006332397461,1.40114200115204,-0.713634550571442,-0.308078855276108,0.43930783867836,-0.716930938559026,-0.308475354130225,0.443814403124744,6
1.41999816894531,-0.481098592281342,2.75897359848022,1.44277894496918,-0.47914673136562,2.75965292774086,1.43947174182117,2207.607,2209.476,2216.014,2212.883,356.554443359375,45.0007743835449,1.38730692863464,-0.725896596908569,-0.313294619321823,0.446430683135986,-0.729391385793766,-0.313836736470737,0.451528013536465,6
1.44000244140625,-0.495859682559967,2.75260424613953,1.45185339450836,-0.493861275572861,2.75332167044526,1.4485807456364,2211.792,2211.54,2211.497,2210.78,356.589111328125,45.0005874633789,1.37381613254547,-0.738051176071167,-0.318466901779175,0.453722387552261,-0.741727567798258,-0.319144650954242,0.459164697851088,6
1.45999145507813,-0.510861158370972,2.74613261222839,1.4610710144043,-0.508809800712713,2.74688973769103,1.45783459479497,2210.184,2210.486,2211.51,2211.802,356.624389648438,45.0004463195801,1.35976076126099,-0.750076353549957,-0.323582649230957,0.460881054401398,-0.753924423002454,-0.324392617007921,0.466715132239272,6
1.47999572753906,-0.526100635528564,2.73955965042114,1.47043013572693,-0.524012471663969,2.74034845309416,1.46724577231745,2207.281,2208.776,2214.071,2212.304,356.661499023438,45.0004920959473,1.34418666362762,-0.76197224855423,-0.328642934560776,0.467954039573669,-0.765994882555672,-0.329586198544069,0.474187321698441,6
1.5,-0.54157543182373,2.73288655281067,1.47993338108063,-0.539455198877605,2.73370387899399,1.4768055561018,2210.931,2210.608,2209.662,2209.785,356.699981689453,45.0002555847168,1.32898139953613,-0.773743271827698,-0.333652406930923,0.475163072347641,-0.777924000354858,-0.334718964672088,0.481572013878822,6
1.52000427246094,-0.55728280544281,2.72611451148987,1.48957765102386,-0.555135099954955,2.72695725560613,1.48651216180595,2208.768,2209.216,2209.873,2210.5,356.738891601563,45.0001106262207,1.31322193145752,-0.785369992256165,-0.338599503040314,0.482214599847794,-0.789706299681991,-0.339788558913217,0.48886581843107,6
1.53999328613281,-0.573220014572144,2.71924471855164,1.49936211109161,-0.571036956668503,2.72011513090874,1.49635616862212,2207.689,2208.318,2210.017,2209.955,356.778747558594,45.0000038146973,1.29676127433777,-0.79685652256012,-0.343487530946732,0.489222198724747,-0.801327600455846,-0.344788879974649,0.496059957209413,6
1.55999755859375,-0.589383900165558,2.71227836608887,1.50928449630737,-0.587181951496087,2.71316839067337,1.50635068951315,2204.317,2206.424,2212.452,2209.936,356.821105957031,45.0000877380371,1.2787903547287,-0.808195233345032,-0.348314195871353,0.496120870113373,-0.812800388649436,-0.349725300221754,0.503162159625937,6
1.58000183105469,-0.605771601200104,2.70521664619446,1.51934742927551,-0.60355483331529,2.70612359703193,1.51648628330776,2208.243,2208.096,2207.063,2206.995,356.865325927734,44.9998207092285,1.26130890846252,-0.819389164447784,-0.353082567453384,0.503146529197693,-0.824110582941666,-0.354591760855452,0.510163708672098,6
1.60000610351563,-0.622379958629608,2.69806098937988,1.52954697608948,-0.620152298932711,2.69898217125626,1.52676090517188,2205.977,2206.389,2206.497,2207.559,356.910003662109,44.9996223449707,1.24332499504089,-0.830417275428772,-0.35777935385704,0.509979844093323,-0.835253140422976,-0.35938609205264,0.51706148254665,5
1.6199951171875,-0.639205634593964,2.69081282615662,1.53988170623779,-0.636958033083316,2.69175113334911,1.53716445517924,2204.716,2205.201,2206.074,2206.778,356.955505371094,44.9994659423828,1.2246652841568,-0.841283619403839,-0.362407386302948,0.516735851764679,-0.846214826007804,-0.364102599125749,0.523847288101157,5
1.63999938964844,-0.656245291233063,2.68347358703613,1.55034863948822,-0.653994195024907,2.68442094880091,1.54771065096602,2200.923,2202.989,2208.297,2206.509,357.003234863281,44.9995231628418,1.20449101924896,-0.851981222629547,-0.366964995861053,0.523347854614258,-0.857007552155828,-0.368746407673381,0.530528499715628,5
1.66000366210938,-0.673495471477509,2.67604446411133,1.56094992160797,-0.671244443874359,2.67699864863716,1.55838937674714,2204.595,2204.397,2202.686,2203.197,357.052612304688,44.9992332458496,1.18484818935394,-0.862513542175293,-0.371455639600754,0.530062079429626,-0.867618167158098,-0.373311858882592,0.53709697585572,5
1.67999267578125,-0.690952718257904,2.66852712631226,1.57168102264404,-0.688691692550512,2.66949158495151,1.56919005480539,2201.883,2202.413,2202.065,2203.473,357.102355957031,44.9990234375,1.16474807262421,-0.872861206531525,-0.375867009162903,0.53655606508255,-0.878034183119987,-0.377793579561193,0.543544985919778,5
1.69999694824219,-0.708613216876984,2.66092300415039,1.58253872394562,-0.706358800111611,2.66188992212981,1.58012683598675,2197.788,2199.672,2204.262,2203.312,357.153961181641,44.9990425109863,1.14308273792267,-0.883025348186493,-0.380200624465942,0.54288524389267,-0.888267004546665,-0.382196476749158,0.549879589839776,5
1.72000122070313,-0.726473391056061,2.65323376655579,1.59352469444275,-0.724228658537036,2.6542010212754,1.5911891296115,2201.185,2200.943,2198.689,2199.685,357.206939697266,44.9987373352051,1.12197029590607,-0.893010020256042,-0.38446107506752,0.549299538135529,-0.898304216251578,-0.386515208538549,0.556093102023817,5
1.74000549316406,-0.74452930688858,2.6454610824585,1.60463428497314,-0.742297311768984,2.64642658456943,1.60237448669139,2198.099,2198.696,2198.192,2199.822,357.260162353516,44.9985466003418,1.10037243366241,-0.902797341346741,-0.388636916875839,0.55547684431076,-0.908141534469281,-0.390747931744771,0.562182870617028,5
1.75999450683594,-0.762777149677277,2.63760638237,1.6158652305603,-0.760546715064628,2.63857437616062,1.61367173667103,2196.329,2197.078,2197.603,2198.536,357.314208984375,44.9984169006348,1.07814884185791,-0.912392139434814,-0.392731428146362,0.561545610427856,-0.917767514700581,-0.394889722119545,0.568141810929231,4
1.77999877929688,-0.78121292591095,2.62967157363892,1.62721395492554,-0.779000609654483,2.63063418086074,1.62509557650306,2192.001,2194.424,2199.595,2197.902,357.370727539063,44.9984931945801,1.05443036556244,-0.921787738800049,-0.396742910146713,0.567436158657074,-0.927192788821983,-0.398945154262308,0.57397650459845,4
1.80000305175781,-0.7998326420784,2.62165808677673,1.6386821269989,-0.797640935141499,2.62261376955408,1.63663482594136,2195.749,2195.544,2193.201,2194.087,357.428924560547,44.9982032775879,1.03135168552399,-0.930986404418945,-0.400674074888229,0.573407649993896,-0.936405971974637,-0.402909329586356,0.579679903854719,4
1.81999206542969,-0.818632066249847,2.61356782913208,1.65026450157166,-0.816448984455027,2.61452119137054,1.64827790441807,2192.656,2193.178,2192.094,2194.121,357.487365722656,44.9979820251465,1.00786805152893,-0.939970135688782,-0.40451255440712,0.579117894172668,-0.945396434568188,-0.406777674475912,0.585245428475252,3
1.83999633789063,-0.837606847286224,2.60540270805359,1.66195702552795,-0.835449117627072,2.60634596486888,1.66003989195343,2188.127,2190.078,2193.99,2193.672,357.547576904297,44.9980010986328,0.982839047908783,-0.948740482330322,-0.408260077238083,0.584627330303192,-0.954174163352093,-0.410554485950274,0.590679260733698,3
1.86000061035156,-0.856752812862396,2.59716439247131,1.67376101016998,-0.854622615239374,2.59809614449182,1.6719092003358,2191.46,2191.071,2187.919,2189.6,357.60888671875,44.9976997375488,0.958452045917511,-0.957300782203674,-0.411921054124832,0.590196967124939,-0.962728579444532,-0.414235212212131,0.595974851798267,0
1.8800048828125,-0.87606555223465,2.58885478973389,1.68567085266113,-0.873964974649439,2.58977366760063,1.68388304221498,2187.875,2188.515,2187.263,2189.468,357.670227050781,44.9975128173828,0.933653593063354,-0.96563583612442,-0.415485262870789,0.595493078231812,-0.971056158224177,-0.417818336715394,0.601130019760457,0
1.89999389648438,-0.895540475845337,2.58047556877136,1.69768393039703,-0.893456683142228,2.58138692997148,1.69594933829086,2185.735,2186.572,2186.536,2187.886,357.732208251953,44.9974136352539,0.908290922641754,-0.973750829696655,-0.418956160545349,0.600654006004333,-0.979147395688901,-0.421299770153459,0.606138881190213,0
1.91999816894531,-0.915173351764679,2.57202887535095,1.70979619026184,-0.913122862707269,2.57292512231409,1.70812364027167,2181.022,2183.638,2188.381,2187,357.796630859375,44.9975242614746,0.88148432970047,-0.98164039850235,-0.422332555055618,0.605611979961395,-0.987011339258123,-0.424683405378145,0.611007036871143,0
1.94000244140625,-0.934959530830383,2.56351661682129,1.72200882434845,-0.932943991899774,2.5643966441608,1.72039386345315,2184.764,2184.515,2181.591,2182.834,357.862670898438,44.9972381591797,0.855411469936371,-0.989305436611176,-0.425616443157196,0.610633134841919,-0.994638524886308,-0.427965170275055,0.615728628108227,0
1.95999145507813,-0.954894065856934,2.55494070053101,1.73431622982025,-0.952900013794853,2.55581012544606,1.73274759164336,2181.407,2181.877,2180.197,2182.725,357.928771972656,44.9970359802246,0.828974068164825,-0.996730744838715,-0.428796648979187,0.615367650985718,-1.00202031904361,-0.431141350077486,0.620298310335216,0
1.97999572753906,-0.974972426891327,2.54630327224731,1.74671375751495,-0.973016570682103,2.54715453300902,1.74520069864106,2176.546,2178.603,2181.935,2182.043,357.996490478516,44.9970893859863,0.801058053970337,-1.00391817092896,-0.431874811649323,0.619876801967621,-1.00916501115878,-0.434215511495054,0.624721215103391,0
2,-0.995189905166626,2.53760623931885,1.75920236110687,-0.993273599084619,2.53843849960327,1.7577407641983,2179.871,2179.367,2175.571,2177.684,358.065093994141,44.9967956542969,0.773873329162598,-1.01086986064911,-0.434855043888092,0.624429702758789,-1.01606400046349,-0.437183953857422,0.628992018127441,0
2.02000427246094,-1.01554131507874,2.52885174751282,1.77177608013153,-1.01366615605493,2.52966415204104,1.77036472839513,2175.974,2176.612,2174.785,2177.412,358.133544921875,44.9966430664063,0.746342957019806,-1.01757395267487,-0.437728375196457,0.628686249256134,-1.02271452148052,-0.440045487257004,0.633109007445237,0
2.03999328613281,-1.03602206707001,2.52004170417786,1.78443193435669,-1.03417354141348,2.52084039703127,1.78305977683431,2173.676,2174.505,2173.887,2175.616,358.202484130859,44.9965553283691,0.718335688114166,-1.02403545379639,-0.440498322248459,0.632791101932526,-1.02910913225408,-0.442796909628122,0.637067576131623,0
2.05999755859375,-1.05662703514099,2.51117849349976,1.79716539382935,-1.05482201812353,2.5119559343546,1.79584216754118,2168.644,2171.338,2175.683,2174.673,358.273712158203,44.9966926574707,0.688898265361786,-1.03025007247925,-0.443164050579071,0.63667368888855,-1.03525504859546,-0.445441325732794,0.640872191117535,0
2.08000183105469,-1.0773514509201,2.50226402282715,1.8099776506424,-1.07559088172821,2.50301967256038,1.80869908347065,2172.517,2172.14,2168.581,2170.166,358.346343994141,44.9964332580566,0.660317003726959,-1.03621745109558,-0.44572713971138,0.640610337257385,-1.04114485287423,-0.447975543971863,0.644518260536375,0
2.10000610351563,-1.09818983078003,2.49330043792725,1.82286238670349,-1.09647498538954,2.49403382618922,1.82162733848484,2168.87,2169.334,2167.116,2170.004,358.418853759766,44.9962501525879,0.631447792053223,-1.04192578792572,-0.448177635669708,0.644239842891693,-1.04677621342161,-0.450398561093403,0.648004340974112,0
2.1199951171875,-1.11913740634918,2.48429012298584,1.83581638336182,-1.11745308225396,2.48500753716864,1.83461377976925,2166.655,2167.222,2165.834,2168.186,358.491577148438,44.9961471557617,0.602164685726166,-1.04737937450409,-0.45051845908165,0.647702276706696,-1.0521429102862,-0.45270770082608,0.651326581984514,0
2.13999938964844,-1.14018893241882,2.47523522377014,1.84883499145508,-1.138551967509,2.47592927627801,1.8476749948214,2161.488,2163.947,2167.568,2167.28,358.566192626953,44.9962844848633,0.571452140808105,-1.05257523059845,-0.452749639749527,0.650927901268005,-1.05725102347782,-0.454905579228273,0.654488747383304,0
2.16000366210938,-1.1613392829895,2.46613764762878,1.86191892623901,-1.15975039167652,2.46680818657414,1.86079782920208,2165.182,2164.714,2160.654,2162.592,358.641876220703,44.9960250854492,0.541655719280243,-1.05751264095306,-0.454873085021973,0.654195964336395,-1.0620943502576,-0.456989527434725,0.657486997379635,0
2.17999267578125,-1.1825829744339,2.45700001716614,1.87506198883057,-1.18102676265167,2.45765355853653,1.8739689163698,2161.311,2161.862,2159.389,2162.348,358.717254638672,44.9958724975586,0.511649549007416,-1.06218290328979,-0.456880420446396,0.657151699066162,-1.06666760390386,-0.458957270716794,0.660318059240953,0
2.19999694824219,-1.20391476154327,2.44782447814941,1.88825929164886,-1.20240821395574,2.44845371736898,1.88720505326679,2156.149,2158.305,2161.118,2161.624,358.794067382813,44.9959869384766,0.480220884084702,-1.06658864021301,-0.458773910999298,0.659867763519287,-1.07097597819164,-0.460811043810786,0.662985148161421,0
2.22000122070313,-1.2253292798996,2.4386134147644,1.90151154994965,-1.22387315175433,2.43921795429519,1.90049287228091,2159.604,2158.982,2154.519,2156.865,358.871551513672,44.9957313537598,0.449704140424728,-1.07072925567627,-0.460556179285049,0.662616014480591,-1.07501419914593,-0.462548577472581,0.665484999299265,0
2.24000549316406,-1.24682116508484,2.42936897277832,1.91481256484985,-1.24541615591711,2.42994860144581,1.91382901809327,2155.549,2156.062,2153.5,2156.589,358.948577880859,44.9956169128418,0.418960124254227,-1.07459843158722,-0.46222048997879,0.665051519870758,-1.07878069424208,-0.464169195088763,0.667816639186824,0
2.25999450683594,-1.26838517189026,2.42009353637695,1.92815887928009,-1.26701526177039,2.4206551096063,1.92719989352455,2153.111,2153.834,2152.479,2154.68,359.025756835938,44.9955749511719,0.387853682041168,-1.078200340271,-0.463770002126694,0.667317926883698,-1.08227143928024,-0.465671165158559,0.669977576652695,0
2.27999877929688,-1.29001581668854,2.41078948974609,1.94154584407806,-1.28869796983554,2.41132564607061,1.9406225227075,2147.918,2150.577,2154.135,2153.702,359.10498046875,44.9957656860352,0.355408698320389,-1.08153283596039,-0.465204834938049,0.669349133968353,-1.08549040888332,-0.467056197851165,0.67197027217779,0
2.30000305175781,-1.31170773506165,2.40145897865295,1.9549742937088,-1.31044231452835,2.40196966201596,1.95408330789913,2151.882,2151.266,2146.947,2148.926,359.185180664063,44.995532989502,0.32396936416626,-1.08459281921387,-0.466525584459305,0.671420872211456,-1.08843358680109,-0.468322565086307,0.673792239511894,0
2.31999206542969,-1.33345508575439,2.39210438728333,1.96843779087067,-1.33222611841886,2.3925966997709,1.96756852021384,2148.034,2148.402,2145.45,2148.736,359.264892578125,44.9953956604004,0.292386114597321,-1.08737504482269,-0.467725038528442,0.673172831535339,-1.09109790637238,-0.469468947365361,0.675441580245663,0
2.33999633789063,-1.35525286197662,2.382728099823,1.9819313287735,-1.35407709248145,2.38319483607731,1.98109531406483,2142.835,2144.923,2147.06,2147.967,359.345764160156,44.9955139160156,0.259498804807663,-1.08988213539124,-0.468805491924286,0.674676895141602,-1.09348640563071,-0.470496651869278,0.67692017506657,0
2.36000061035156,-1.37709498405457,2.37333297729492,1.99545538425446,-1.37597305876702,2.37377361348711,1.99464996024512,2146.29,2145.448,2140.539,2143.194,359.426971435547,44.9952812194824,0.227578431367874,-1.09211182594299,-0.46976900100708,0.676203668117523,-1.09559602313537,-0.471404361345641,0.678226128796969,0
2.3800048828125,-1.39897632598877,2.36392068862915,2.00900363922119,-1.39790843013262,2.36433543599182,2.00822900004707,2142.218,2142.553,2139.495,2142.901,359.507446289063,44.9951782226563,0.19550833106041,-1.09406232833862,-0.470610797405243,0.677416443824768,-1.09742594550583,-0.472191725819537,0.679358937915576,0
2.39999389648438,-1.42089092731476,2.35449409484863,2.0225727558136,-1.41986083522252,2.35488992936084,2.02181858453579,2139.626,2140.324,2138.629,2140.969,359.587860107422,44.9951705932617,0.163161471486092,-1.09573709964752,-0.471334010362625,0.678452551364899,-1.09897439291323,-0.472857979480329,0.680317500623536,0
2.41999816894531,-1.44283378124237,2.34505534172058,2.03615784645081,-1.44185817738692,2.34542508756209,2.03543598721428,2134.517,2137.127,2140.183,2139.977,359.670104980469,44.9953918457031,0.129595667123795,-1.09713578224182,-0.471939533948898,0.679257035255432,-1.10024313330221,-0.473403883025206,0.681102911362803,0
2.44000244140625,-1.46479880809784,2.33560657501221,2.04975962638855,-1.46387808506052,2.33595053645515,2.04906735901791,2138.435,2137.701,2133.162,2135.211,359.753082275391,44.9951782226563,0.0970953702926636,-1.09825313091278,-0.47242671251297,0.680093109607697,-1.10123038958312,-0.473828671822132,0.681714070030222,0
2.45999145507813,-1.48678052425385,2.32615089416504,2.06337189674377,-1.48589810917879,2.32647593524532,2.06269880290633,2134.649,2134.949,2131.614,2134.973,359.83544921875,44.9950675964355,0.0645843371748924,-1.09908831119537,-0.472790539264679,0.680612981319427,-1.10193535162022,-0.474131997292339,0.68215047511319,0
2.47999572753906,-1.50877332687378,2.31668996810913,2.07698965072632,-1.50794623031618,2.31698924467309,2.07634764018804,2129.512,2131.395,2133.123,2134.39,359.918701171875,44.9952087402344,0.0307929143309593,-1.09964394569397,-0.473033040761948,0.680884599685669,-1.10235882472314,-0.474314205938057,0.682412625136718,0
2.5,-1.53077173233032,2.30722713470459,2.09061312675476,-1.52999999932945,2.30750012397766,2.08999997377396,2132.997,2132.037,2126.723,2129.434,0.00202863663434982,44.9949989318848,-0.00188627967145294,-1.09991574287415,-0.473155558109283,0.681172609329224,-1.10250000050292,-0.474374949932098,0.682500019669533,0
2.52000427246094,-1.55276989936829,2.29776406288147,2.10423612594604,-1.55205376834272,2.29801100328223,2.10365230735988,2128.883,2129.048,2125.753,2129.333,0.0844026133418083,44.9949226379395,359.965301513672,-1.09990632534027,-0.47315526008606,0.681147456169128,-1.10235882472314,-0.474314205938057,0.682412625136718,0
2.53999328613281,-1.57476222515106,2.28830337524414,2.11785507202148,-1.57408507527774,2.28853154739156,2.11729073584934,2126.396,2126.953,2124.865,2127.332,0.166494339704514,44.9949417114258,359.932342529297,-1.09961831569672,-0.47303494811058,0.680947959423065,-1.10193578218388,-0.474132182551855,0.682150741652607,0
2.55999755859375,-1.59674322605133,2.27884721755981,2.13146543502808,-1.59612191359838,2.27904971150017,2.13093258853001,2121.289,2123.833,2126.425,2126.418,0.250160813331604,44.9951782226563,359.898284912109,-1.0990526676178,-0.472796082496643,0.68051666021347,-1.10123038958312,-0.473828671822132,0.681714070030222,0
2.58000183105469,-1.61870729923248,2.26939868927002,2.14506769180298,-1.61814182127198,2.26957516039323,2.14456396033363,2125.281,2124.403,2119.549,2121.616,0.334331482648849,44.994987487793,359.865386962891,-1.09820246696472,-0.47243732213974,0.680114567279816,-1.10024313330221,-0.473403883025206,0.681102911362804,0
2.59999084472656,-1.64064884185791,2.25995969772339,2.15865564346313,-1.64012239440973,2.26011753383818,2.15817098218581,2121.583,2121.545,2117.987,2121.624,0.417608827352524,44.9948844909668,359.832489013672,-1.09707117080688,-0.471955388784409,0.679401516914368,-1.09897546783438,-0.47285844198887,0.680318166050934,0
2.6199951171875,-1.66256189346313,2.25053262710571,2.17222452163696,-1.66209156852628,2.2506648119635,2.17177094750084,2116.422,2118.306,2119.556,2120.912,0.501576483249664,44.9950637817383,359.798461914063,-1.09566128253937,-0.471352696418762,0.678440392017365,-1.09742594550583,-0.472191725819537,0.679358937915576,0
2.63999938964844,-1.68444120883942,2.24111986160278,2.18577432632446,-1.68402693989188,2.24122663446822,2.18534998730279,2120.042,2118.843,2113.28,2116.04,0.585329532623291,44.9948654174805,359.765625,-1.09396696090698,-0.470629572868347,0.677496254444122,-1.09559602313537,-0.471404361345641,0.67822612879697,0
2.66000366210938,-1.70628106594086,2.23172426223755,2.19929909706116,-1.70592290617745,2.23180541187802,2.19890463348308,2115.855,2116.043,2112.468,2115.936,0.667950749397278,44.9948120117188,359.732849121094,-1.09199488162994,-0.469785064458847,0.676241040229797,-1.09348640563071,-0.470496651869278,0.67692017506657,0
2.67999267578125,-1.72807598114014,2.22234797477722,2.21279549598694,-1.72775723139253,2.2224107117184,2.21242112090437,2113.596,2113.834,2111.518,2114.17,0.750076651573181,44.9948425292969,359.699920654297,-1.08974695205688,-0.468821465969086,0.674819886684418,-1.09109983431736,-0.469469776906228,0.675442773735451,0
2.69999694824219,-1.74982047080994,2.21299314498901,2.2262589931488,-1.74955768413056,2.21303058593937,2.22591663964878,2108.586,2110.938,2113.027,2113.273,0.833495438098907,44.9950942993164,359.665985107422,-1.08722543716431,-0.467740774154663,0.67316997051239,-1.08843358680109,-0.468322565086308,0.673792239511893,0
2.72000122070313,-1.77150893211365,2.20366215705872,2.23968982696533,-1.77130202882336,2.20367460188472,2.23937742484041,2112.569,2111.457,2106.424,2108.554,0.917114615440369,44.994930267334,359.63330078125,-1.08442175388336,-0.466541111469269,0.671545326709747,-1.08549040888332,-0.467056197851165,0.671970272177789,0
2.74000549316406,-1.79313588142395,2.19435787200928,2.25308227539063,-1.79298473688851,2.19434513834902,2.25280005402337,2108.876,2108.84,2105.023,2108.506,0.999656140804291,44.9948501586914,359.600738525391,-1.08134353160858,-0.465221166610718,0.669617056846619,-1.08227143928024,-0.465671165158559,0.669977576652695,0
2.75999450683594,-1.81469559669495,2.18508219718933,2.26643252372742,-1.81458384274179,2.18505164650952,2.26617092945464,2106.825,2106.689,2103.79,2106.885,1.08140552043915,44.9948463439941,359.568115234375,-1.07799220085144,-0.463782608509064,0.667516946792603,-1.07878069424208,-0.464169195088763,0.667816639186824,0
2.77999877929688,-1.83618307113647,2.17583775520325,2.27973628044128,-1.83612684690458,2.17578229366013,2.27950707526701,2101.876,2103.958,2105.26,2105.988,1.16399967670441,44.9950752258301,359.534606933594,-1.07437109947205,-0.462228178977966,0.665185034275055,-1.07501419914593,-0.462548577472581,0.665484999299265,0
2.80000305175781,-1.85759222507477,2.16662693023682,2.29299378395081,-1.85759178470316,2.16654653058634,2.29279489428112,2105.675,2104.303,2099.041,2101.461,1.24640774726868,44.9949150085449,359.502319335938,-1.07047176361084,-0.460556089878082,0.662871837615967,-1.07097597819164,-0.460811043810786,0.662985148161422,0
2.81999206542969,-1.87891840934753,2.15745139122009,2.3061990737915,-1.87895695992541,2.1573536925621,2.30602095550813,2101.998,2101.821,2097.832,2101.352,1.32751798629761,44.9948501586914,359.47021484375,-1.06630420684814,-0.458766758441925,0.660264134407043,-1.06667099276523,-0.458958728849171,0.660320157107579,0
2.83999633789063,-1.90015578269958,2.1483142375946,2.31934762001038,-1.90024960698239,2.14819206138118,2.31920211834584,2096.969,2098.761,2099.534,2100.828,1.40901231765747,44.995059967041,359.437255859375,-1.06187129020691,-0.456862539052963,0.657423079013824,-1.06209435025759,-0.456989527434725,0.657486997379635,0
2.86000061035156,-1.92129909992218,2.13921737670898,2.332439661026,-1.9214480311499,2.13907097167731,2.33232495272651,2100.678,2099.097,2093.662,2096.28,1.4900004863739,44.9949111938477,359.405487060547,-1.05716466903687,-0.454842269420624,0.65460205078125,-1.05725102347782,-0.454905579228273,0.654488747383304,0
2.8800048828125,-1.94234299659729,2.13016319274902,2.34546947479248,-1.94254691640495,2.12999271078668,2.34538616777867,2096.784,2096.666,2092.837,2096.195,1.56961619853973,44.9948806762695,359.373901367188,-1.05219614505768,-0.452707678079605,0.651490092277527,-1.0521429102862,-0.45270770082608,0.651326581984514,0
2.89999389648438,-1.96328234672546,2.12115406990051,2.35843396186829,-1.96352501326936,2.1209664217661,2.35837260906308,2094.749,2094.712,2091.942,2094.54,1.64839291572571,44.994930267334,359.342407226563,-1.04696679115295,-0.450460374355316,0.648220896720886,-1.04677621342161,-0.450398561093403,0.648004340974112,0
2.91999816894531,-1.98411178588867,2.11219215393066,2.37132883071899,-1.98440911693069,2.11198057539494,2.37130086407726,2090.153,2092.042,2093.278,2093.869,1.72796165943146,44.9951820373535,359.310150146484,-1.04148066043854,-0.448103010654449,0.644739627838135,-1.04114485287423,-0.447975543971863,0.644518260536375,0
2.94000244140625,-2.00482630729675,2.10327935218811,2.38415431976318,-2.00517798053537,2.10304431360073,2.38415778000673,2094.036,2092.495,2087.235,2089.43,1.80719339847565,44.9950294494629,359.279174804688,-1.03572773933411,-0.445632815361023,0.641277551651001,-1.03525504859546,-0.445441325732794,0.640872191117535,0
2.95999145507813,-2.02542090415955,2.09441804885864,2.39690494537354,-2.02581075424974,2.0941666074844,2.39693044981124,2090.501,2090.166,2086.084,2089.476,1.88499009609222,44.9949836730957,359.248474121094,-1.02972114086151,-0.443051517009735,0.637532830238342,-1.02911391720548,-0.442798968459032,0.637070538244476,0
2.97999572753906,-2.04588985443115,2.08561110496521,2.40957641601563,-2.04633384260397,2.08533609591429,2.40963521915279,2085.993,2087.31,2087.481,2089.054,1.96283078193665,44.9951858520508,359.217071533203,-1.02346360683441,-0.440361261367798,0.633572578430176,-1.02271452148052,-0.440045487257004,0.633109007445237,0
3,-2.06622886657715,2.07686018943787,2.42216897010803,-2.06672639957428,2.07656174835205,2.42225918334961,2089.583,2087.65,2081.987,2084.722,2.03974413871765,44.9950408935547,359.186889648438,-1.0169460773468,-0.437560677528381,0.629625082015991,-1.01606400046349,-0.437183953857422,0.628992018127441,0
3.02000427246094,-2.08643245697021,2.06816697120667,2.43467688560486,-2.0869834279768,2.06784571494631,2.43479924890685,2085.751,2085.369,2081.405,2084.76,2.11500358581543,44.9950408935547,359.156982421875,-1.01018381118774,-0.434653282165527,0.625400841236115,-1.00916501115878,-0.434215511495054,0.624721215103391,0
3.03999328613281,-2.10649633407593,2.0595338344574,2.44709753990173,-2.10708469520508,2.05919670122237,2.4472428908773,2083.801,2083.688,2080.739,2083.093,2.18921065330505,44.9951171875,359.127319335938,-1.0031772851944,-0.431640595197678,0.621030509471893,-1.00202586176059,-0.431143734953757,0.620301741541063,0
3.05999755859375,-2.12641477584839,2.05096340179443,2.45942687988281,-2.12705600675913,2.05060360379452,2.45960608409476,2079.489,2081.156,2082.065,2082.609,2.26397180557251,44.9953842163086,359.097045898438,-0.995931923389435,-0.428525477647781,0.616465330123901,-0.994638524886308,-0.427965170275055,0.615728628108227,0
3.08000183105469,-2.14618372917175,2.04245758056641,2.47166538238525,-2.14687713595163,2.04207512564123,2.47187630727625,2083.41,2081.549,2076.335,2078.45,2.33813548088074,44.9952545166016,359.068054199219,-0.988436758518219,-0.425304770469666,0.611923038959503,-0.987011339258122,-0.424683405378145,0.611007036871143,0
3.09999084472656,-2.1657977104187,2.03401803970337,2.48380780220032,-2.16652837486666,2.03361974652815,2.48404136028297,2080.109,2079.388,2075.254,2078.646,2.41064023971558,44.9952201843262,359.039398193359,-0.980707883834839,-0.421981602907181,0.607116103172302,-0.979153483542501,-0.421302389586788,0.606142649861596,0
3.1199951171875,-2.18525266647339,2.02564692497253,2.49585008621216,-2.18603502400946,2.02522658035469,2.49611690533293,2076.001,2076.996,2076.511,2078.116,2.48282098770142,44.9954147338867,359.010284423828,-0.972747802734375,-0.418558299541473,0.602110803127289,-0.971056158224178,-0.417818336715394,0.601130019760458,0
3.13999938964844,-2.20454359054565,2.01734614372253,2.50779223442078,-2.20537738341953,2.01690410346351,2.50809074721212,2079.169,2077.207,2071.735,2074.214,2.55382871627808,44.995304107666,358.982421875,-0.964547991752625,-0.415033161640167,0.597110390663147,-0.962728579444533,-0.414235212212131,0.595974851798267,0
3.16000366210938,-2.22366619110107,2.00911808013916,2.51962947845459,-2.22455088103183,2.00865428308644,2.51996005559448,2075.806,2075.204,2071.155,2074.219,2.6230480670929,44.9953117370605,358.955017089844,-0.956125199794769,-0.41141077876091,0.591864705085754,-0.954174163352092,-0.410554485950274,0.590679260733698,0
3.17999267578125,-2.24261593818665,2.00096416473389,2.53135919570923,-2.24353658854737,2.00048526354177,2.53171311296128,2074.101,2073.499,2070.513,2072.944,2.69097518920898,44.9954032897949,358.927825927734,-0.947480142116547,-0.40769237279892,0.586485743522644,-0.945403214201559,-0.406780591562751,0.585249625391267,0
3.19999694824219,-2.26138830184937,1.99288642406464,2.54297780990601,-2.2623590635174,1.99238647840124,2.54336512160655,2070.19,2071.459,2071.716,2072.356,2.75904893875122,44.9956512451172,358.900238037109,-0.938618779182434,-0.403881430625916,0.580929338932037,-0.936405971974636,-0.402909329586355,0.579679903854719,0
3.22000122070313,-2.27997875213623,1.98488700389862,2.5544855594635,-2.28099938900442,1.98436606709459,2.55490437104486,2073.728,2071.791,2066.688,2068.591,2.82623171806335,44.9955596923828,358.8740234375,-0.929530918598175,-0.39997473359108,0.575390577316284,-0.927192788821982,-0.398945154262308,0.573976504598449,0
3.24000549316406,-2.29838347434998,1.97696757316589,2.56587791442871,-2.29945328359428,1.9764258717947,2.56632821087688,2070.893,2069.898,2065.647,2068.78,2.89156579971313,44.995532989502,358.848297119141,-0.920234024524689,-0.395976364612579,0.569619059562683,-0.91776751470058,-0.394889722119544,0.568141810929231,0
3.25999450683594,-2.3165979385376,1.96912956237793,2.57715225219727,-2.31770268688992,1.96857366338589,2.57762546085652,2069.306,2068.378,2064.938,2067.616,2.95529246330261,44.9955940246582,358.822875976563,-0.910729169845581,-0.391887694597244,0.563712775707245,-0.90814153446928,-0.390747931744771,0.562182870617026,0
3.27999877929688,-2.33461833000183,1.96137547492981,2.58830499649048,-2.33577134012187,1.96079922667992,2.58881081793642,2065.607,2066.517,2066.13,2067.061,3.01873016357422,44.9958267211914,358.797241210938,-0.901023030281067,-0.38771265745163,0.557636976242065,-0.898304216251578,-0.386515208538549,0.556093102023818,0
3.30000305175781,-2.35244035720825,1.95370650291443,2.59933662414551,-2.35364119854729,1.95311032582551,2.59987311156116,2068.886,2066.673,2061.596,2063.657,3.08094906806946,44.9957389831543,358.772857666016,-0.891106367111206,-0.383448451757431,0.551576614379883,-0.888267004546666,-0.382196476749158,0.549879589839776,0
3.31999206542969,-2.37006044387817,1.94612431526184,2.61024260520935,-2.37129490830989,1.94551442770222,2.61080159886703,2066.045,2065.057,2060.882,2063.735,3.14121413230896,44.9957618713379,358.749084472656,-0.880997478961945,-0.379100203514099,0.545298457145691,-0.878042061913513,-0.37779696958594,0.54354986326829,0
3.33999633789063,-2.38747429847717,1.93863105773926,2.62101984024048,-2.38875555478454,1.93800159931817,2.62161057080077,2062.521,2062.956,2062.115,2063.543,3.20076513290405,44.9959564208984,358.725036621094,-0.87069970369339,-0.374670118093491,0.538857519626617,-0.867618167158097,-0.373311858882592,0.53709697585572,0
3.36000061035156,-2.40467858314514,1.93122792243958,2.63166856765747,-2.406005803634,1.93057929915441,2.6322892965819,2065.572,2063.223,2058.018,2060.163,3.25879049301147,44.9958877563477,358.702270507813,-0.860204637050629,-0.370156407356262,0.532430827617645,-0.857007552155826,-0.36874640767338,0.530528499715627,0
3.3800048828125,-2.42166900634766,1.92391657829285,2.6421844959259,-2.42304196557559,1.92324911460621,2.64283549236868,2062.689,2061.634,2057.622,2060.336,3.31476473808289,44.9959259033203,358.680084228516,-0.849531233310699,-0.365564942359924,0.525798499584198,-0.846214826007803,-0.364102599125748,0.523847288101157,0
3.39999389648438,-2.43844270706177,1.91669881343842,2.65256571769714,-2.43984769972619,1.91601807669906,2.65323904237604,2061.452,2060.431,2057.09,2059.189,3.36905670166016,44.9960174560547,358.658447265625,-0.838680267333984,-0.360896795988083,0.519062280654907,-0.835253140422974,-0.35938609205264,0.51706148254665,0
3.41999816894531,-2.45499610900879,1.9095755815506,2.66280937194824,-2.45644516534361,1.90887665092339,2.66351366424015,2058.273,2058.641,2058.133,2059.017,3.42283248901367,44.9962539672852,358.636627197266,-0.827659249305725,-0.356155782938004,0.512183487415314,-0.824110582941664,-0.354591760855451,0.510163708672097,0
3.44000244140625,-2.47132539749146,1.90254878997803,2.67291569709778,-2.47281804716281,1.90183185728196,2.67364925803476,2061.246,2059.061,2054.205,2055.84,3.47523331642151,44.9961929321289,358.616180419922,-0.816459953784943,-0.351339519023895,0.505321323871613,-0.812800388649434,-0.349725300221754,0.503162159625937,0
3.45999145507813,-2.48742723464966,1.89561986923218,2.68288135528564,-2.48895081463434,1.8948903781363,2.68363620960993,2059.016,2057.613,2053.436,2056.089,3.52551889419556,44.9962158203125,358.596374511719,-0.805100500583649,-0.346453100442886,0.498278021812439,-0.80133641229185,-0.344792671461508,0.496065412155666,0
3.47999572753906,-2.50329923629761,1.88878977298737,2.69270324707031,-2.50486489870395,1.88804299234919,2.69348778574196,2056.111,2055.916,2054.416,2055.961,3.57463145256042,44.996395111084,358.576568603516,-0.793585181236267,-0.341499000787735,0.491096526384354,-0.789706299681989,-0.339788558913217,0.488865818431069,0
3.5,-2.51893711090088,1.88206040859222,2.70238161087036,-2.5205447997813,1.88129636896134,2.70319439144611,2058.553,2056.165,2051.203,2053.142,3.62191963195801,44.9963645935059,358.558044433594,-0.781907856464386,-0.336476236581802,0.483922928571701,-0.777924000354857,-0.334718964672089,0.481572013878822,0
3.52000427246094,-2.53433895111084,1.87543249130249,2.71191334724426,-2.53598752699493,1.87465179486116,2.71275417523047,2056.395,2054.915,2050.778,2053.246,3.66692495346069,44.996410369873,358.540222167969,-0.770086348056793,-0.331390500068665,0.476588159799576,-0.765994882555673,-0.32958619854407,0.474187321698442,0
3.53999328613281,-2.54950165748596,1.86890745162964,2.72129654884338,-2.55117869390181,1.86811546013321,2.72215823120146,2055.104,2053.847,2050.621,2052.507,3.71002912521362,44.9965209960938,358.522979736328,-0.758123517036438,-0.326243788003922,0.469161570072174,-0.753933682518821,-0.324396601119134,0.466720864320997,0
3.55999755859375,-2.56442189216614,1.86248695850372,2.73052906990051,-2.56613872308604,1.86167857751006,2.73141920191151,2052.56,2052.526,2051.562,2052.276,3.75228404998779,44.9967460632324,358.505859375,-0.746026396751404,-0.321039646863937,0.461626529693604,-0.741727567798258,-0.319144650954242,0.459164697851087,0
3.58000183105469,-2.57909798622131,1.8561714887619,2.73961138725281,-2.58085326729328,1.85534732021446,2.74052820572674,2055.45,2052.865,2048.088,2049.688,3.79282212257385,44.996711730957,358.490081787109,-0.7337886095047,-0.315776139497757,0.454117298126221,-0.729391385793765,-0.313836736470737,0.451528013536464,0
3.59999084472656,-2.59352660179138,1.84996247291565,2.74854040145874,-2.59530884290342,1.84912748987145,2.74947689564398,2053.322,2051.734,2047.723,2050.075,3.83105826377869,44.9967384338379,358.475006103516,-0.721429169178009,-0.310459285974503,0.446452021598816,-0.716940488958392,-0.308479463400265,0.4438203152769,0
3.6199951171875,-2.60770535469055,1.84386050701141,2.75731420516968,-2.60952509409627,1.84301063413925,2.75827743234631,2051.087,2050.45,2048.592,2049.959,3.86782002449036,44.9969215393066,358.460144042969,-0.708951771259308,-0.305091291666031,0.438685178756714,-0.704361775018033,-0.303067194200314,0.436033492140578,0
3.63999938964844,-2.62163233757019,1.83786725997925,2.76593279838562,-2.6234885835008,1.83700253474321,2.76692149746096,2053.356,2050.833,2045.906,2047.566,3.90247941017151,44.9969024658203,358.446655273438,-0.696352601051331,-0.299671828746796,0.430934846401215,-0.691670720740692,-0.297606588091786,0.428177124984152,0
3.66000366210938,-2.63530564308167,1.83198285102844,2.77439379692078,-2.63719712493647,1.83110413233575,2.77540773763803,2051.475,2049.674,2045.771,2048.022,3.93469095230103,44.9969825744629,358.433898925781,-0.683649659156799,-0.294206708669662,0.423054456710815,-0.678873453515702,-0.29210028151913,0.420255006953505,0
3.67999267578125,-2.64872288703918,1.82620871067047,2.78269600868225,-2.65063849381582,1.82532068681534,2.78372858527554,2050.533,2049.024,2045.772,2047.354,3.96480655670166,44.9971008300781,358.421844482422,-0.670845866203308,-0.288698136806488,0.415110647678375,-0.665986083416798,-0.286555206197011,0.41227711095171,0
3.69999694824219,-2.66188144683838,1.82054591178894,2.79083776473999,-2.66383127580226,1.81964420129024,2.79189554578451,2048.644,2048.028,2046.573,2047.284,3.99366235733032,44.9973068237305,358.410125732422,-0.657948732376099,-0.283149719238281,0.407091021537781,-0.65299527533123,-0.280965624398954,0.404235181908735,0
