t,x_s1,x_s2,x_s3,x_s_d1,x_s_d2,x_s_d3,propellers_rpms1,propellers_rpms2,propellers_rpms3,propellers_rpms4,rollRad,pitchRad,yawRad,v_s1,v_s2,v_s3,v_s_d1,v_s_d2,v_s_d3,insideCount
0,-0.0599999986588955,2.94000005722046,1.17999994754791,-0.0599999986588955,2.94000005722046,1.17999994754791,0,0,0,0,0,45.0048027038574,0,0,0,0,-1.06581410364015E-15,4.44089209850063E-16,-7.105427357601E-16,0
0.019989013671875,-0.0599999986588955,2.94000005722046,1.17705690860748,-0.0600018659130177,2.93999925379318,1.18000108822432,0,0,0,0,0.937003672122955,44.8630027770996,-0.00115976633969694,3.71994488546079E-08,3.50004931704007E-08,-0.147149950265884,-0.000279680311988734,-0.000120338624884473,0.000170852338267345,5
0.03997802734375,-0.0599999986588955,2.94000005722046,1.17018985748291,-0.060014847005691,2.93999366839165,1.18000901817127,0,0,0,0,1.87400352954865,44.7211418151855,-0.00311126722954214,3.70364325874561E-08,3.5142885934647E-08,-0.343349903821945,-0.00110975851463131,-0.000477498085781228,0.000677934159146771,6
0.05999755859375,-0.0599062256515026,2.94009447097778,1.16346502304077,-0.0600498857373401,2.93997859220429,1.18003042278566,3197.325,2848.704,1517.249,2782.322,1.40365922451019,44.7413520812988,0.0288782697170973,0.00468863174319267,0.00471880286931992,-0.336240500211716,-0.00247936261166862,-0.00106680046642749,0.00151460392977639,6
0.079986572265625,-0.0597377754747868,2.94026732444763,1.15723752975464,-0.0601174907153006,2.93994950367094,1.18007172161174,2866.013,2651.907,2344.175,2562.079,0.339566051959991,44.8157997131348,0.0999031513929367,0.00842245481908321,0.00864478945732117,-0.311372131109238,-0.00437104534358026,-0.00188073869847162,0.0026702033915743,6
0.0999755859375,-0.0595562905073166,2.94046425819397,1.15151929855347,-0.0602280337026576,2.93990194011169,1.18013925059773,2239.444,2527.902,3138.338,2508.833,359.321472167969,44.919116973877,0.178560763597488,0.00907422322779894,0.00984908081591129,-0.285909205675125,-0.00677334142420609,-0.00291437958958193,0.00413772858013753,5
0.1199951171875,-0.0594243928790092,2.94063210487366,1.14656853675842,-0.0603918861403606,2.93983143898525,1.18023934549506,2123.677,2454.725,3352.065,2464.421,358.75,44.9999008178711,0.253260344266891,0.00659493310377002,0.00839813239872456,-0.247537881135941,-0.00967801353495435,-0.00416417885169243,0.00591214744607921,5
0.139984130859375,-0.0593829825520515,2.94074010848999,1.14257037639618,-0.0606183773949454,2.93973398612584,1.18037770546816,2312.854,2456.903,3068.582,2463.071,358.636199951172,45.0326309204102,0.326482504606247,0.00207058852538466,0.00539825670421124,-0.19990673661232,-0.0130632593357409,-0.00562075554695178,0.00798014128006072,5
0.160003662109375,-0.0594433359801769,2.9407856464386,1.13952398300171,-0.0609177895434042,2.93960515744296,1.18056061167741,2536.092,2486.498,2635.79,2492.247,358.757019042969,45.0249977111816,0.398212611675262,-0.00301766907796264,0.00227969721890986,-0.152322188019753,-0.0169265510445065,-0.00728302204135792,0.0103401658994673,5
0.17999267578125,-0.0596000477671623,2.94078159332275,1.13730907440186,-0.0612985250199726,2.93944133760391,1.18079319703879,2667.135,2506.32,2301.989,2512.944,358.864166259766,44.9985198974609,0.467501312494278,-0.00783565267920494,-0.000197443645447493,-0.110745467245579,-0.0212433804254414,-0.00914043312572283,0.0129772496054864,5
0.199981689453125,-0.0598476082086563,2.94073987007141,1.13576066493988,-0.0617700327574899,2.93923846099686,1.18108123375791,2652.885,2499.865,2183.836,2508.893,358.816864013672,44.9744071960449,0.532906055450439,-0.0123779531568289,-0.00209087203256786,-0.0774214267730713,-0.0260066742439309,-0.011189945384795,0.0158870714694674,5
0.220001220703125,-0.0601895526051521,2.94066214561462,1.13474488258362,-0.0623420644491781,2.93899233174064,1.18143067899198,2540.211,2470.424,2246.009,2478.894,358.612579345703,44.9637107849121,0.594432055950165,-0.0170971434563398,-0.00388124375604093,-0.0507900081574917,-0.03121219533433,-0.0134297356845702,0.0190670430730375,5
0.239990234375,-0.0606388226151466,2.9405415058136,1.13419330120087,-0.0630214373585105,2.93870001655724,1.18184569730089,2412.67,2430.171,2373.253,2436.93,358.334777832031,44.9658660888672,0.652752995491028,-0.0224635545164347,-0.00603219959884882,-0.0275781471282244,-0.0368316683029241,-0.015847637913056,0.0224998914194052,5
0.259979248046875,-0.0612131841480732,2.94036602973938,1.13409018516541,-0.0638172488896441,2.93835760108779,1.18233184614686,2328.988,2391.645,2463,2399.004,358.076385498047,44.9738883972168,0.707754135131836,-0.0287181213498116,-0.00876813195645809,-0.00515452586114407,-0.0428604193878216,-0.0184416410810803,0.0261827613803636,4
0.279998779296875,-0.0619297176599503,2.94012498855591,1.13444006443024,-0.0647390625194898,2.93796097043536,1.18289496770872,2305.549,2364.994,2470.409,2370.657,357.887329101563,44.9803428649902,0.760392367839813,-0.0358267799019814,-0.012056116014719,0.0174961537122726,-0.0492963837173861,-0.0212108567320638,0.0301143915580518,4
0.29998779296875,-0.0628012642264366,2.93981075286865,1.13523626327515,-0.0657918945890516,2.93750796620855,1.18353812639089,2318.506,2348.759,2414.676,2353.019,357.765228271484,44.9817352294922,0.811404585838318,-0.0435774587094784,-0.0157065093517303,0.0398077741265297,-0.0561078595514081,-0.0241416444928383,0.0342754158540715,4
0.319976806640625,-0.0638360604643822,2.93942022323608,1.13644886016846,-0.0669846297797139,2.93699476557717,1.1842667497066,2333.929,2336.064,2343.35,2342.159,357.6787109375,44.9788475036621,0.859986007213593,-0.0517397783696651,-0.0195226296782494,0.060628816485405,-0.0632924014512957,-0.0272329521594955,0.0386643403881474,4
0.339996337890625,-0.065039686858654,2.93895220756531,1.13803553581238,-0.068326768706371,2.93641728069206,1.18508664143323,2337.644,2324.631,2287.169,2329.987,357.5947265625,44.974178314209,0.90635621547699,-0.0601812526583672,-0.0234028473496437,0.0793343707919121,-0.0708499516420146,-0.0304847548730522,0.0432811298664125,4
0.3599853515625,-0.0664171949028969,2.93840527534485,1.1399507522583,-0.0698213312158394,2.93577421219747,1.18599964634808,2323.453,2311.209,2260.467,2315.404,357.494781494141,44.9702339172363,0.950907051563263,-0.0688754841685295,-0.0273415353149176,0.0957597941160202,-0.0787457139191101,-0.0338820807988248,0.0481045278305496,4
0.3800048828125,-0.0679744333028793,2.93777751922607,1.14215338230133,-0.0714797725314022,2.93506063123087,1.18701276226829,2294.433,2293.831,2261.749,2300.142,357.379821777344,44.9685707092285,0.992665112018585,-0.0778617933392525,-0.0313870906829834,0.110132835805416,-0.0869921272359981,-0.0374302820709642,0.0531421330430943,4
0.399993896484375,-0.0697183683514595,2.93706560134888,1.14461696147919,-0.0733036822025899,2.9342758538535,1.18812696022487,2269.706,2278.346,2267.55,2282.311,357.261322021484,44.9687004089355,1.03264987468719,-0.0871968194842339,-0.0355969145894051,0.123178102076054,-0.0955525119207663,-0.0411135764513579,0.0583715384648505,4
0.41998291015625,-0.071656197309494,2.93626594543457,1.14731967449188,-0.075301871434707,2.93341608884986,1.18934762284564,2247.723,2262.315,2272.156,2268.292,357.151550292969,44.9699363708496,1.07003009319305,-0.0968914702534676,-0.0399869531393051,0.135136634111404,-0.104427768518458,-0.0449323514193797,0.0637932942247324,4
0.44000244140625,-0.0737947970628738,2.93537497520447,1.15024697780609,-0.077483988232608,2.93247718495301,1.19068064394622,2237.588,2250.375,2264.142,2254.973,357.057006835938,44.9710960388184,1.10545182228088,-0.10692984610796,-0.0445471294224262,0.146364793181419,-0.113620829717891,-0.048887868829098,0.0694091918565748,4
0.459991455078125,-0.0761400833725929,2.9343900680542,1.15338385105133,-0.0798493430620752,2.93145943885026,1.1921256023009,2233.823,2241.262,2247.046,2244.132,356.975799560547,44.971622467041,1.13968205451965,-0.117264494299889,-0.0492419600486755,0.156843185424805,-0.123092454730403,-0.0529632444654124,0.0751952597749251,4
0.47998046875,-0.0786969736218452,2.93330931663513,1.1567108631134,-0.082406855753501,2.93035901258777,1.1936879468949,2226.764,2231.228,2233.302,2236.903,356.903533935547,44.9719047546387,1.17150259017944,-0.127844542264938,-0.0540342554450035,0.166351094841957,-0.132845337826091,-0.057159637597476,0.0811531438673414,4
0.5,-0.0814699158072472,2.93213105201721,1.16021192073822,-0.085166398670376,2.92917165836334,1.195373708601,2222.17,2223.994,2219.967,2228.211,356.836181640625,44.9720306396484,1.20153045654297,-0.138647273182869,-0.0589103028178215,0.175054609775543,-0.142884000065179,-0.0614789935111996,0.0872856059789651,5
0.519989013671875,-0.0844630300998688,2.93085384368896,1.16387152671814,-0.0881248588203387,2.92789871561062,1.19718098574075,2216.827,2217.726,2209.595,2220.093,356.770202636719,44.9722175598145,1.23054552078247,-0.149655252695084,-0.0638622418045998,0.182982251048088,-0.153166947611899,-0.0659034585682559,0.0935672981730243,5
0.53997802734375,-0.0876801684498787,2.92947602272034,1.16767299175262,-0.0912913676125048,2.92653625533937,1.19911535654949,2205.573,2209.108,2208.456,2214.652,356.705963134766,44.9729881286621,1.25716018676758,-0.160857334733009,-0.0688868165016174,0.190073773264885,-0.16369851368286,-0.0704348972306956,0.100000867543927,5
0.55999755859375,-0.0911253839731216,2.92799615859985,1.17160665988922,-0.094676112580471,2.92507989413848,1.20118304443252,2199.31,2203.479,2205.559,2207.271,356.645782470703,44.9740180969238,1.28214120864868,-0.172260969877243,-0.0739936530590057,0.196680814027786,-0.17448465888317,-0.0750758741803766,0.106589955332319,5
0.579986572265625,-0.0948024988174438,2.92641258239746,1.17566442489624,-0.0982734311149,2.92353206847056,1.20338059019015,2195.864,2199.251,2200.142,2201.025,356.58984375,44.9750328063965,1.3063657283783,-0.183855667710304,-0.0791784822940826,0.202886790037155,-0.185481935470438,-0.0798076950675377,0.113308019990364,5
0.5999755859375,-0.0987149178981781,2.92472410202026,1.1798357963562,-0.102092760004862,2.92188871794891,1.20571375860958,2188.316,2192.88,2199.902,2198.166,356.539123535156,44.9763259887695,1.3283166885376,-0.195620954036713,-0.0844289734959602,0.208568811416626,-0.196696165293826,-0.0846328648712294,0.120158617994867,5
0.6199951171875,-0.102866008877754,2.92292928695679,1.1841162443161,-0.106144683970236,2.92014528826426,1.208189015731,2186.792,2189.927,2195.339,2193.375,356.494140625,44.9775047302246,1.34880101680756,-0.207554504275322,-0.089745007455349,0.214019656181335,-0.208134604141382,-0.0895545055543457,0.127146181793521,5
0.639984130859375,-0.107258766889572,2.92102694511414,1.18850100040436,-0.110420882305709,2.91830535958365,1.21080127856538,2187.112,2188.342,2188.596,2189.514,356.452819824219,44.9784507751465,1.36880040168762,-0.219637617468834,-0.0951156690716743,0.219236478209496,-0.219752140575416,-0.0945532069255159,0.134243153512991,5
0.660003662109375,-0.111895740032196,2.91901636123657,1.1929817199707,-0.114938248900541,2.91636166293851,1.21356086732604,2181.291,2183.844,2189.42,2188.941,356.414703369141,44.9796409606934,1.38660764694214,-0.231848686933517,-0.100528083741665,0.224037244915962,-0.231574097577923,-0.0996398647564507,0.141465002567821,5
0.67999267578125,-0.116779670119286,2.91689658164978,1.1975576877594,-0.119686638739014,2.91431856344567,1.2164615845812,2183.15,2183.832,2184.519,2185.001,356.379333496094,44.980640411377,1.40392673015594,-0.244196802377701,-0.10598985850811,0.228799059987068,-0.243554411173546,-0.104794659005432,0.14878358919428,5
0.699981689453125,-0.12191279232502,2.91466689109802,1.20222246646881,-0.124676182095571,2.91217170233105,1.21950961875744,2177.639,2180.301,2187.296,2185.253,356.347015380859,44.9819374084473,1.41911232471466,-0.25665608048439,-0.111487306654453,0.233236774802208,-0.25570106256044,-0.110021023759057,0.156203788981777,5
0.720001220703125,-0.12729749083519,2.91232633590698,1.20697617530823,-0.129918284978346,2.90991617190799,1.22271193760712,2178.266,2180.074,2185.849,2182.881,356.318664550781,44.9831504821777,1.43310487270355,-0.269234329462051,-0.117027372121811,0.237684562802315,-0.268023157655716,-0.11532287703907,0.163731164592979,5
0.739990234375,-0.132935836911201,2.90987420082092,1.21181881427765,-0.135400001298574,2.90755754251682,1.22606063256665,2180.655,2180.974,2181.889,2181.249,356.292602539063,44.9841270446777,1.44699442386627,-0.281917870044708,-0.122602753341198,0.242129534482956,-0.280473432677602,-0.12067988256057,0.171336843321139,5
0.759979248046875,-0.138829573988914,2.90731024742126,1.21674585342407,-0.141131974150567,2.90509123473139,1.22956220533626,2176.085,2178.205,2185.944,2183.121,356.269073486328,44.9853897094727,1.45876681804657,-0.294686645269394,-0.128201857209206,0.246350646018982,-0.293060978423328,-0.126095951839638,0.179026378592425,5
0.779998779296875,-0.144980609416962,2.90463352203369,1.22175967693329,-0.147126184485884,2.90251209348295,1.2332239748923,2177.907,2179.111,2185.318,2181.778,356.249114990234,44.9865341186523,1.46940612792969,-0.307550817728043,-0.133833199739456,0.250690460205078,-0.305795832832518,-0.131575403921268,0.186805902427515,5
0.79998779296875,-0.15139052271843,2.90184378623962,1.22686207294464,-0.153366821193532,2.89982692185086,1.23703628247379,2181.365,2181.147,2181.999,2180.989,356.230895996094,44.9874153137207,1.48013055324554,-0.320496916770935,-0.139489978551865,0.255118489265442,-0.318629798715703,-0.137097500901303,0.194645971915464,5
0.819976806640625,-0.158060610294342,2.8989405632019,1.23204982280731,-0.159865102720482,2.89703089285078,1.24100598125492,2177.22,2178.99,2187.214,2183.897,356.214752197266,44.9886054992676,1.48873925209045,-0.333504796028137,-0.145160615444183,0.259387046098709,-0.331572942526109,-0.142666574093344,0.202552736495465,5
0.839996337890625,-0.164992347359657,2.89592337608337,1.23732686042786,-0.166633637018892,2.89411858163313,1.24514077323692,2179.791,2180.759,2187.292,2183.137,356.201904296875,44.9896621704102,1.49634087085724,-0.346587181091309,-0.150855273008347,0.263853251934052,-0.344636106234817,-0.148287288494656,0.210532819358465,5
0.8599853515625,-0.172186955809593,2.89279198646545,1.24269640445709,-0.173653699721778,2.89109804476993,1.2494292199962,2184.088,2183.507,2184.274,2182.973,356.190460205078,44.9904251098633,1.50418949127197,-0.359730809926987,-0.15656715631485,0.268475711345673,-0.357770416714212,-0.153938615363784,0.218556364673454,5
0.879974365234375,-0.179645255208015,2.88954639434814,1.24815595149994,-0.180937139259224,2.88796418421271,1.25387855955379,2180.111,2181.709,2190.308,2186.598,356.180847167969,44.9915008544922,1.50992977619171,-0.372914522886276,-0.162284344434738,0.272976040840149,-0.370986786595025,-0.159625250100867,0.226630038796258,5
0.899993896484375,-0.187368303537369,2.88618612289429,1.25371050834656,-0.18849723509595,2.8847112861788,1.25849690412748,2183.296,2184.001,2190.645,2186.237,356.17431640625,44.9924278259277,1.51472461223602,-0.386153280735016,-0.16801817715168,0.277729868888855,-0.384296738353309,-0.165352150505452,0.234760880627692,5
0.91998291015625,-0.195356965065002,2.8827109336853,1.25936412811279,-0.196312316554895,2.88134867495511,1.2632710154388,2188.152,2187.273,2187.664,2186.384,356.168914794922,44.9930419921875,1.51991999149323,-0.39943328499794,-0.173761695623398,0.282679587602615,-0.397650971463704,-0.171098103938772,0.242918773246135,5
0.94000244140625,-0.203611612319946,2.87912082672119,1.26511454582214,-0.204407453948074,2.87786556348678,1.26821620855017,2184.081,2185.601,2194.31,2190.471,356.165069580078,44.9939918518066,1.5230131149292,-0.412732630968094,-0.17950251698494,0.287521064281464,-0.411081631631503,-0.176876941799768,0.251123353961324,5
0.959991455078125,-0.21213310956955,2.87541580200195,1.27096927165985,-0.212759000778906,2.87427212620069,1.27331803818581,2190.693,2189.849,2191.29,2189.186,356.162811279297,44.9945831298828,1.52641248703003,-0.426073998212814,-0.185255646705627,0.292734086513519,-0.424539267042903,-0.182667386354485,0.259344413431889,5
0.97998046875,-0.220921576023102,2.87159585952759,1.2769261598587,-0.221379956358585,2.87056276985637,1.27858444542207,2186.642,2188.438,2197.967,2193.258,356.16259765625,44.9954795837402,1.52773332595825,-0.439422726631165,-0.191002830862999,0.297844916582108,-0.438035925118965,-0.188474621271639,0.267589311239359,5
1,-0.2299774736166,2.86766076087952,1.28299140930176,-0.230284798736574,2.86673126495361,1.28402427467346,2190.632,2191.234,2197.906,2193.063,356.165618896484,44.9961700439453,1.52828574180603,-0.452795565128326,-0.196755632758141,0.303260415792465,-0.451584000205995,-0.194303979492187,0.275865618896484,5
1.01998901367188,-0.239301010966301,2.86361074447632,1.28916931152344,-0.239446912293295,2.86278906344998,1.2896212668733,2196.206,2194.896,2194.203,2193.419,356.169403076172,44.9965057373047,1.5294930934906,-0.466176867485046,-0.202505692839622,0.308895707130432,-0.46513400752272,-0.200134169097193,0.284143106922576,5
1.03997802734375,-0.248891860246658,2.85944604873657,1.29545736312866,-0.248880035413094,2.85873025410248,1.2953838145862,2191.701,2192.99,2201.256,2197.968,356.174285888672,44.9972038269043,1.52855002880096,-0.479543298482895,-0.208239614963531,0.314403891563416,-0.478698517198992,-0.205970598662363,0.292429454213812,5
1.05999755859375,-0.258750170469284,2.85516667366028,1.3018616437912,-0.258599401509697,2.85454828239877,1.3013212236669,2195.303,2195.736,2201.683,2197.587,356.181793212891,44.9977493286133,1.52682673931122,-0.492915153503418,-0.213972002267838,0.320212483406067,-0.492290296490434,-0.211818761581115,0.30073246008742,5
1.07998657226563,-0.268875777721405,2.85077285766602,1.30838644504547,-0.268575430648764,2.85025587575821,1.30741542419509,2200.623,2199.35,2198.258,2197.702,356.189758300781,44.9979629516602,1.52582931518555,-0.506278455257416,-0.219696134328842,0.326240837574005,-0.50586005237609,-0.217657448443621,0.309022012206103,5
1.0999755859375,-0.279267936944962,2.84626483917236,1.31502902507782,-0.278822628233634,2.845846792911,1.31367527729532,2195.531,2197.145,2205.803,2202.203,356.198944091797,44.9985771179199,1.5226446390152,-0.519609928131104,-0.225398734211922,0.332128167152405,-0.519420764586993,-0.223492244065532,0.317306039685002,5
1.1199951171875,-0.289926558732986,2.8416428565979,1.32179546356201,-0.289357002179081,2.84131414609862,1.32011056195293,2199.186,2199.832,2205.969,2201.548,356.211029052734,44.9990272521973,1.51873803138733,-0.532930612564087,-0.23109482228756,0.338322043418884,-0.532985466132485,-0.229328756186667,0.32559250418615,5
1.13998413085938,-0.300851076841354,2.83690738677979,1.32869005203247,-0.300146026259498,2.83667193044725,1.32670140840426,2204.688,2203.379,2201.877,2201.486,356.223663330078,44.9991111755371,1.51566469669342,-0.546225309371948,-0.236776292324066,0.344729423522949,-0.546505271550557,-0.235145950758426,0.333851542343647,5
1.16000366210938,-0.312040418386459,2.83205890655518,1.3357093334198,-0.311222084148811,2.83190621216671,1.33346759933036,2199.226,2200.809,2209.25,2206.012,356.237487792969,44.9995994567871,1.51034247875214,-0.559469163417816,-0.242428973317146,0.350965470075607,-0.560014026276883,-0.240958390526247,0.342103829805999,6
1.17999267578125,-0.323494255542755,2.82709741592407,1.3428612947464,-0.322550701230474,2.8270318247214,1.34038807472597,2206.567,2205.329,2204.784,2203.803,356.252502441406,44.9996795654297,1.50569927692413,-0.572690725326538,-0.248071312904358,0.357596606016159,-0.573463232144024,-0.246745208083563,0.350319739799517,6
1.19998168945313,-0.335211217403412,2.82202386856079,1.35014200210571,-0.334147705564643,2.8220419577392,1.34747250370603,2200.753,2202.911,2212.064,2207.91,356.269256591797,45.0001487731934,1.49889469146729,-0.585850358009338,-0.253682196140289,0.364034116268158,-0.586866312357874,-0.25251217906087,0.358507472351216,6
1.22000122070313,-0.347190618515015,2.81683826446533,1.35755729675293,-0.346030421585499,2.81692915700008,1.35473146949704,2204.692,2205.322,2210.999,2206.869,356.289306640625,45.0003967285156,1.49144315719604,-0.598969757556915,-0.25927609205246,0.370765537023544,-0.600236516861372,-0.258265004538453,0.366675121644476,6
1.239990234375,-0.359431266784668,2.81154131889343,1.36511075496674,-0.358161486344149,2.81170949873715,1.36214214765657,2210.259,2208.705,2205.675,2206.334,356.309661865234,45.0002365112305,1.48503124713898,-0.612031221389771,-0.264843165874481,0.377671211957932,-0.613526094901141,-0.263983138701136,0.374793517489195,6
1.25997924804688,-0.371931433677673,2.80613398551941,1.37279748916626,-0.370557537648727,2.80637582416637,1.36971470196197,2203.812,2205.426,2212.985,2210.724,356.330810546875,45.0005378723145,1.47632718086243,-0.625009894371033,-0.270368635654449,0.384337037801743,-0.626748599474006,-0.269672413024826,0.382870939199643,6
1.27999877929688,-0.384690046310425,2.80061650276184,1.38062274456024,-0.383236695417198,2.80092033679326,1.37746020158837,2207.017,2207.555,2212.313,2209.206,356.354614257813,45.0006866455078,1.4669269323349,-0.63793009519577,-0.275869965553284,0.391264319419861,-0.639917282339435,-0.275338529371412,0.39091548206889,6
1.29998779296875,-0.397705554962158,2.79498982429504,1.38858962059021,-0.396158759015336,2.79536033382764,1.38535408859565,2212.055,2210.677,2207.205,2208.174,356.378540039063,45.0004692077637,1.45861983299255,-0.650776386260986,-0.281339138746262,0.398346185684204,-0.652985332144132,-0.280961346123326,0.398898549771684,6
1.31997680664063,-0.410976052284241,2.78925466537476,1.39669287204742,-0.409341180862083,2.78968830598122,1.39340702439419,2204.896,2206.894,2214.819,2212.354,356.403472900391,45.0007514953613,1.44794833660126,-0.663524627685547,-0.286761999130249,0.4051613509655,-0.665966334939128,-0.286546708978778,0.406828441814593,6
1.33999633789063,-0.424499988555908,2.78341150283813,1.40493738651276,-0.422802873722428,2.78389611561957,1.401630562497,2207.962,2208.823,2213.808,2210.39,356.431427001953,45.0008583068848,1.43661892414093,-0.676198959350586,-0.292155683040619,0.412227720022202,-0.678873453515705,-0.29210028151913,0.41471319914141,6
1.3599853515625,-0.438275694847107,2.7774612903595,1.41332602500916,-0.436500861174643,2.77800225429635,1.40999844927868,2213.111,2211.758,2207.903,2209.037,356.459686279297,45.0005683898926,1.42647671699524,-0.688782870769501,-0.297511160373688,0.419432818889618,-0.69166099897751,-0.297602405088682,0.422524911118315,6
1.37997436523438,-0.452300667762756,2.77140498161316,1.42185258865356,-0.45045340944128,2.77199886256629,1.41852184328955,2205.477,2207.557,2215.248,2213.123,356.489013671875,45.0007858276367,1.41392529010773,-0.701251089572906,-0.302813112735748,0.426331222057343,-0.704342498157629,-0.303058899905815,0.430271841076558,6
1.39999389648438,-0.466573178768158,2.76524329185486,1.43052184581757,-0.464680216184654,2.76587746507559,1.42721277752413,2208.459,2209.284,2213.72,2210.785,356.521331787109,45.0008239746094,1.40074396133423,-0.713627934455872,-0.30807888507843,0.433460474014282,-0.716930938559026,-0.308475354130225,0.437961922879032,6
1.41998291015625,-0.481091141700745,2.75897741317749,1.43933582305908,-0.479135601808478,2.75965771647838,1.43604334702988,2213.461,2211.987,2207.323,2209.114,356.553771972656,45.0004577636719,1.38881528377533,-0.725896835327148,-0.313299387693405,0.440701454877853,-0.729381927869995,-0.313832666990362,0.445568037955247,6
1.44000244140625,-0.495851755142212,2.75260829925537,1.44828772544861,-0.493861275572861,2.75332167044526,1.44503903134294,2205.187,2207.352,2214.712,2213.056,356.587158203125,45.0006332397461,1.3744170665741,-0.738033175468445,-0.318459540605545,0.447597146034241,-0.741727567798258,-0.319144650954242,0.453109796737511,6
1.45999145507813,-0.510853111743927,2.74613666534424,1.45738422870636,-0.508809800712713,2.74688973769103,1.45417085208374,2212.402,2211.143,2208.005,2208.782,356.621551513672,45.0003318786621,1.36105525493622,-0.75006902217865,-0.323580503463745,0.454825937747955,-0.753924423002454,-0.324392617007921,0.460560665253582,6
1.47998046875,-0.526092350482941,2.73956394195557,1.46661806106567,-0.524000783579472,2.74035348215039,1.46345078646643,2203.854,2206.768,2215.156,2212.209,356.657775878906,45.0005531311035,1.34533977508545,-0.761963069438934,-0.328639507293701,0.46169051527977,-0.76598572865452,-0.329582259876133,0.467928728663466,6
1.5,-0.541567146778107,2.73289084434509,1.47599339485168,-0.539455198877605,2.73370387899399,1.47289164761066,2207.079,2208.117,2212.405,2209.404,356.697540283203,45.0005264282227,1.32908809185028,-0.773738861083984,-0.333652257919312,0.468769073486328,-0.777924000354858,-0.334718964672088,0.475221632552146,6
1.51998901367188,-0.557274699211121,2.72611880302429,1.48551177978516,-0.555123050061237,2.72696244033876,1.48246289340675,2212.231,2210.55,2204.672,2207.295,356.737396240234,45.0000381469727,1.31425368785858,-0.785377681255341,-0.338607668876648,0.475919783115387,-0.789697369743256,-0.339784716610053,0.482413800191712,6
1.53997802734375,-0.573211848735809,2.71924901008606,1.49516499042511,-0.571024729446907,2.7201203919406,1.49217698120264,2203.155,2205.308,2211.745,2211.094,356.777923583984,45.0001258850098,1.29691553115845,-0.796855449676514,-0.343490332365036,0.482660055160522,-0.801318788528229,-0.344785088448372,0.489513143578788,6
1.55999755859375,-0.589375793933868,2.71228265762329,1.50495648384094,-0.587181951496087,2.71316839067337,1.50204717602401,2205.516,2206.414,2209.619,2207.816,356.821197509766,45.0000610351563,1.27898693084717,-0.808197617530823,-0.348318994045258,0.48957684636116,-0.812800388649436,-0.349725300221754,0.496527073925997,6
1.57998657226563,-0.605763494968414,2.70522093772888,1.51488745212555,-0.603542258451077,2.7061290076447,1.51204143224525,2210.097,2208.584,2202.353,2205.238,356.8642578125,44.9995803833008,1.26251077651978,-0.819388926029205,-0.353085458278656,0.496550768613815,-0.82410201904291,-0.354588076049064,0.503431063574906,6
1.5999755859375,-0.62237161397934,2.69806551933289,1.52494931221008,-0.620126809287134,2.69899313873865,1.52217267555419,2200.282,2202.99,2209.923,2208.799,356.908203125,44.9997215270996,1.24351918697357,-0.830407023429871,-0.357775241136551,0.503094732761383,-0.835236272052476,-0.359378834064062,0.510232804991858,5
1.6199951171875,-0.639197170734406,2.69081735610962,1.53514564037323,-0.636958033083316,2.69175113334911,1.53245460752521,2202.674,2203.839,2207.484,2205.259,356.955352783203,44.9996795654297,1.22393155097961,-0.841276586055756,-0.362406551837921,0.509815990924835,-0.846214826007804,-0.364102599125749,0.516939432286212,5
1.63998413085938,-0.656236708164215,2.68347787857056,1.54547727108002,-0.653981118189727,2.68442657539777,1.54285374457671,2207.391,2205.934,2199.57,2202.405,357.002563476563,44.9991989135742,1.20587539672852,-0.851980805397034,-0.366969645023346,0.516582548618317,-0.856999388527105,-0.368742895092007,0.523527553239473,5
1.66000366210938,-0.673486709594727,2.67604899406433,1.55593514442444,-0.671244443874359,2.67699864863716,1.55339964084857,2197.354,2200.073,2206.764,2205.954,357.050750732422,44.9993171691895,1.18527638912201,-0.862497270107269,-0.371449679136276,0.522893190383911,-0.867618167158098,-0.373311858882592,0.530014399402375,5
1.67999267578125,-0.690943837165833,2.66853165626526,1.56652510166168,-0.688691692550512,2.66949158495151,1.56405789280588,2204.714,2203.265,2198.471,2200.442,357.099822998047,44.9989242553711,1.16590917110443,-0.872856199741364,-0.375867009162903,0.529495656490326,-0.878034183119987,-0.377793579561193,0.536377381014768,5
1.69998168945313,-0.708604156970978,2.66092777252197,1.57723760604858,-0.706345246291743,2.66189575395985,1.57484217330813,2194.453,2197.812,2205.442,2203.491,357.150665283203,44.9991111755371,1.14408695697784,-0.883019506931305,-0.380199790000916,0.535626232624054,-0.88825927318574,-0.382193150160541,0.542623728976553,5
1.72000122070313,-0.726464331150055,2.65323853492737,1.58807599544525,-0.724228658537036,2.6542010212754,1.58576687078363,2197.33,2198.539,2201.698,2199.594,357.205078125,44.9990348815918,1.12182748317719,-0.893009006977081,-0.384463429450989,0.541920959949493,-0.898304216251578,-0.386515208538549,0.548760027947228,5
1.739990234375,-0.744520604610443,2.6454656124115,1.59904050827026,-0.74228345468553,2.64643254688532,1.59679626401121,2202.273,2200.409,2192.673,2196.534,357.25927734375,44.998462677002,1.10124623775482,-0.902806878089905,-0.38864678144455,0.548226892948151,-0.908134108040217,-0.390744736359816,0.554764955448471,5
1.75997924804688,-0.762768387794495,2.637610912323,1.61012101173401,-0.760532711099173,2.63858040167573,1.60794444998027,2191.485,2194.091,2199.817,2200.104,357.31396484375,44.9985427856445,1.07806587219238,-0.91239321231842,-0.392735928297043,0.554024457931519,-0.917760245372929,-0.394886594330938,0.560645412532115,4
1.77999877929688,-0.781204223632813,2.62967586517334,1.62132024765015,-0.779000609654483,2.63063418086074,1.61922620102184,2193.596,2194.655,2196.852,2195.801,357.371368408203,44.9984664916992,1.05440413951874,-0.92179137468338,-0.396749168634415,0.559959650039673,-0.927192788821983,-0.398945154262308,0.566407606133204,4
1.79998779296875,-0.799823939800262,2.62166237831116,1.63263821601868,-0.797626646773287,2.62261991743975,1.63060455644414,2197.983,2196.32,2188.493,2192.383,357.428314208984,44.9979438781738,1.03244435787201,-0.930986821651459,-0.400678128004074,0.56589812040329,-0.936399026186941,-0.402906341007953,0.572031552878955,4
1.81997680664063,-0.818623125553131,2.6135721206665,1.6440646648407,-0.816434558901977,2.61452739828301,1.64209401647187,2186.701,2189.763,2196.044,2195.833,357.486022949219,44.9981079101563,1.00786221027374,-0.939962089061737,-0.404510051012039,0.571323573589325,-0.945389654806995,-0.406774757334075,0.577523787606953,3
1.83999633789063,-0.837598025798798,2.60540699958801,1.65560245513916,-0.835449117627072,2.60634596486888,1.6537097136807,2188.851,2190.213,2192.91,2191.322,357.546905517578,44.9980735778809,0.982815027236938,-0.948738217353821,-0.408262014389038,0.576889395713806,-0.954174163352093,-0.410554485950274,0.582890106797601,3
1.8599853515625,-0.856743931770325,2.59716844558716,1.66725158691406,-0.854607925216182,2.59810246519841,1.66541353026959,2193.552,2191.8,2183.936,2187.794,357.607543945313,44.9975547790527,0.959500074386597,-0.957300007343292,-0.411924660205841,0.582457423210144,-0.962722140342816,-0.41423244164655,0.588111932552683,0
1.87997436523438,-0.876056611537933,2.58885884284973,1.67900145053864,-0.873935340558452,2.5897864183221,1.67722034670381,2182.114,2185.238,2191.186,2191.187,357.6689453125,44.9977188110352,0.933615922927856,-0.965630292892456,-0.415485024452209,0.587493121623993,-0.971043628570469,-0.417812945555442,0.593195399856694,0
1.89999389648438,-0.895531535148621,2.58047962188721,1.69085466861725,-0.893456683142228,2.58138692997148,1.6891456302637,2184.341,2185.493,2187.738,2186.655,357.733337402344,44.9976692199707,0.907245099544525,-0.973748564720154,-0.418959319591522,0.592658936977386,-0.979147395688901,-0.421299770153459,0.598145864732551,0
1.91998291015625,-0.915164291858673,2.5720329284668,1.70281088352203,-0.91310780215452,2.5729316024492,1.70115019221864,2189,2187.155,2178.599,2182.835,357.797210693359,44.9971351623535,0.882738828659058,-0.98164039850235,-0.422338753938675,0.597813487052917,-0.98700543065471,-0.424680863071164,0.602946215670947,0
1.94000244140625,-0.934950113296509,2.56352066993713,1.71485924720764,-0.932943991899774,2.5643966441608,1.71326781099638,2177.178,2180.283,2186,2186.392,357.861694335938,44.9973068237305,0.855596601963043,-0.989291310310364,-0.425611406564713,0.602419257164001,-0.994638524886308,-0.427965170275055,0.607609153824943,0
1.95999145507813,-0.954884648323059,2.55494475364685,1.72700500488281,-0.952900013794853,2.55581012544606,1.7254586333645,2184.795,2183.166,2176.792,2179.589,357.926727294922,44.9969215393066,0.830003559589386,-0.996724605560303,-0.428795605897903,0.607290625572205,-1.00202031904361,-0.431141350077486,0.612118576685011,0
1.97998046875,-0.974962890148163,2.54630732536316,1.7392373085022,-0.973001172086935,2.54716115859433,1.73773811729275,2172.987,2176.853,2183.841,2182.691,357.993438720703,44.9971771240234,0.801894068717957,-1.00391292572021,-0.431873500347137,0.611613869667053,-1.0091596546337,-0.434213206731958,0.616479885389866,0
2,-0.995180249214172,2.53761005401611,1.75155878067017,-0.993273599084619,2.53843849960327,1.75012222660065,2175.852,2177.185,2179.379,2177.891,358.063629150391,44.9971542358398,0.77349328994751,-1.010871052742,-0.434857875108719,0.616072237491608,-1.01606400046349,-0.437183953857422,0.620697642517089,0
2.01998901367188,-1.01553189754486,2.5288553237915,1.76396882534027,-1.01365055070775,2.52967086658596,1.76257018837116,2180.927,2178.716,2169.32,2174.081,358.133178710938,44.9965705871582,0.747091889381409,-1.01758372783661,-0.437738180160522,0.620502054691315,-1.02270954399163,-0.440043345582587,0.624757301356767,0
2.03997802734375,-1.03601264953613,2.52004528045654,1.77645587921143,-1.03415783849082,2.52084715356021,1.77509777046792,2168.805,2171.691,2176.451,2177.79,358.202941894531,44.9967231750488,0.718062222003937,-1.0240398645401,-0.440503686666489,0.624354064464569,-1.02910434715509,-0.442794850733705,0.628663786820389,0
2.05999755859375,-1.05661773681641,2.51118183135986,1.78902220726013,-1.05482201812353,2.5119559343546,1.78772119534738,2170.84,2171.872,2173.006,2172.755,358.275146484375,44.9966773986816,0.688661515712738,-1.03025507926941,-0.443169921636581,0.62831437587738,-1.03525504859546,-0.445441325732794,0.632421154350513,0
2.07998657226563,-1.07734203338623,2.50226712226868,1.80166709423065,-1.07557499515204,2.50302650811029,1.80039886517028,2175.323,2173.276,2163.9,2168.641,358.346374511719,44.9961624145508,0.661254703998566,-1.03621816635132,-0.445729941129684,0.632245242595673,-1.04114045847258,-0.4479736531836,0.636016459404434,0
2.0999755859375,-1.09818053245544,2.49330353736877,1.81437921524048,-1.09644304044274,2.49404757120739,1.81314682839894,2162.741,2166.207,2171.604,2172.213,358.418090820313,44.9964065551758,0.631261706352234,-1.04192101955414,-0.448174715042114,0.635604560375214,-1.04676782045836,-0.450394949835787,0.639454127028294,0
2.1199951171875,-1.11912798881531,2.48429322242737,1.8271609544754,-1.11745308225396,2.48500753716864,1.82598153508617,2164.954,2166.271,2168.049,2167.125,358.492736816406,44.9964294433594,0.600910425186157,-1.04737651348114,-0.450518101453781,0.639084875583649,-1.0521429102862,-0.45270770082608,0.642737685527497,0
2.13998413085938,-1.14017939567566,2.47523808479309,1.84001171588898,-1.13853583516761,2.47593621757383,1.83886065985125,2169.819,2167.694,2158.423,2162.956,358.566619873047,44.9959259033203,0.572597205638885,-1.0525723695755,-0.452752083539963,0.642540216445923,-1.05724722779031,-0.454903946049977,0.645855833439456,0
2.16000366210938,-1.16132950782776,2.46614074707031,1.8529200553894,-1.15975039167652,2.46680818657414,1.85182030137592,2157.259,2160.669,2165.773,2166.615,358.640991210938,44.9961624145508,0.541726469993591,-1.05750179290771,-0.454867571592331,0.645414650440216,-1.0620943502576,-0.456989527434725,0.648816864916866,0
2.17999267578125,-1.18257308006287,2.45700311660767,1.86589097976685,-1.18102676265167,2.45765355853653,1.86481770439342,2165.363,2163.301,2156.061,2159.358,358.715545654297,44.9957962036133,0.512555062770844,-1.06217849254608,-0.456878632307053,0.648545861244202,-1.06666760390386,-0.458957270716794,0.65161059420515,0
2.19998168945313,-1.20390486717224,2.44782757759094,1.87891292572021,-1.20239187218348,2.44846074877705,1.87786931641044,2152.877,2156.916,2163.037,2162.577,358.79150390625,44.9961013793945,0.480951458215714,-1.06658709049225,-0.458772510290146,0.651099741458893,-1.07097279461286,-0.460809674005774,0.654240568028104,0
2.22000122070313,-1.22531938552856,2.43861651420593,1.89198839664459,-1.22387315175433,2.43921795429519,1.89099189489151,2155.817,2157.048,2158.423,2157.468,358.870666503906,44.9961013793945,0.449174910783768,-1.07073414325714,-0.460558593273163,0.65377402305603,-1.07501419914593,-0.462548577472581,0.656709398992482,0
2.239990234375,-1.24681150913239,2.42937207221985,1.90511655807495,-1.24539969505118,2.42995568409656,1.90414212427648,2161.072,2158.407,2148.094,2153.378,358.948638916016,44.9955406188965,0.419557809829712,-1.07460808753967,-0.462228029966354,0.65640664100647,-1.07877792518082,-0.464168003639063,0.659008600495412,0
2.25997924804688,-1.26837563514709,2.42009687423706,1.91828525066376,-1.26699874763832,2.42066221517598,1.91733664845539,2148.24,2151.328,2155.346,2157.239,359.026550292969,44.9957466125488,0.387402415275574,-1.07820689678192,-0.463774114847183,0.658437609672546,-1.08226887897249,-0.465670063529659,0.661141169691481,0
2.27999877929688,-1.29000639915466,2.41079235076904,1.93149662017822,-1.28869796983554,2.41132564607061,1.93059236468599,2150.419,2151.333,2151.805,2151.947,359.106658935547,44.9957580566406,0.354988425970078,-1.08153808116913,-0.465208888053894,0.660569489002228,-1.08549040888332,-0.467056197851165,0.663109152043028,0
2.29998779296875,-1.31169819831848,2.40146160125732,1.94474983215332,-1.31042570636616,2.40197680804417,1.9438654998779,2154.924,2152.688,2142.677,2147.511,359.185363769531,44.9952850341797,0.324792623519897,-1.08459317684174,-0.466526687145233,0.662657916545868,-1.08843144721369,-0.468321644481621,0.664905786465049,0
2.31997680664063,-1.33344578742981,2.39210748672485,1.95803320407867,-1.33220946960077,2.39260386329221,1.957172860909,2141.994,2145.529,2150.229,2151.373,359.264373779297,44.9955825805664,0.292090952396393,-1.08737349510193,-0.467722177505493,0.664166867733002,-1.09109597826566,-0.469468117754907,0.666533506905514,0
2.33999633789063,-1.35524344444275,2.38273143768311,1.97134900093079,-1.35407709248145,2.38319483607731,1.97053145048929,2144.418,2145.433,2146.5,2146.141,359.345947265625,44.9956398010254,0.259091019630432,-1.08988261222839,-0.468805223703384,0.665787160396576,-1.09348640563071,-0.470496651869278,0.667993781680938,0
2.3599853515625,-1.37708568572998,2.37333607673645,1.98469638824463,-1.37595634130987,2.37378080654189,1.98389714217962,2149.273,2146.875,2136.947,2141.658,359.426300048828,44.9951629638672,0.228325322270393,-1.09211158752441,-0.469769507646561,0.667367339134216,-1.09559452046326,-0.471403714787811,0.669281596135657,0
2.37997436523438,-1.3989669084549,2.3639235496521,1.99806368350983,-1.39787493938994,2.36434984612278,1.99728687171376,2136.403,2139.873,2144.191,2145.566,359.506896972656,44.9954528808594,0.195119887590408,-1.09406340122223,-0.470610231161118,0.668362975120544,-1.09742336725307,-0.472190616469403,0.670398810100962,0
2.39999389648438,-1.42088150978088,2.35449695587158,2.0114529132843,-1.41986083522252,2.35488992936084,2.01071771239474,2138.852,2139.905,2140.428,2140.196,359.58984375,44.9955024719238,0.16179284453392,-1.09573912620544,-0.471335977315903,0.669461965560913,-1.09897439291323,-0.472857979480329,0.671346307473475,0
2.41998291015625,-1.44282424449921,2.34505820274353,2.02486324310303,-1.4418413890156,2.34543231112926,2.02414528970716,2143.827,2141.031,2130.835,2135.97,359.671295166016,44.9950141906738,0.130631059408188,-1.0971314907074,-0.471940726041794,0.670520067214966,-1.10024227275454,-0.473403512755585,0.67212083548366,0
2.44000244140625,-1.46478915214539,2.33560943603516,2.03828310966492,-1.46387808506052,2.33595053645515,2.03760716344514,2130.733,2134.162,2138.222,2139.861,359.752777099609,44.9953079223633,0.0970306769013405,-1.09824633598328,-0.472421616315842,0.670988917350769,-1.10123038958312,-0.473828671822132,0.672724460634977,0
2.45999145507813,-1.4867707490921,2.32615399360657,2.05171704292297,-1.48589810917879,2.32647593524532,2.05105885256329,2139.014,2136.687,2128.84,2132.129,359.833923339844,44.9949951171875,0.0653793290257454,-1.09908282756805,-0.472786694765091,0.671700417995453,-1.10193535162022,-0.474131997292339,0.673155110942729,0
2.47998046875,-1.50876355171204,2.31669330596924,2.06515383720398,-1.50792940965705,2.3169964821328,2.06451743023379,2126.364,2130.339,2135.557,2135.766,359.916168212891,44.995361328125,0.0314079523086548,-1.0996435880661,-0.473030775785446,0.671842992305756,-1.10235860927677,-0.474314113237503,0.673413672440311,0
2.5,-1.53076207637787,2.30723023414612,2.07859563827515,-1.52999999932945,2.30750012397766,2.0780000090599,2129.407,2130.515,2131.053,2130.406,0.00111259904224426,44.9954032897949,-0.00251734885387123,-1.09992289543152,-0.473157912492752,0.672091722488403,-1.10250000050292,-0.474374949932098,0.673500046133994,0
2.51998901367188,-1.55276036262512,2.29776668548584,2.09204149246216,-1.5520369476803,2.29801824074336,2.09146203692764,2134.725,2131.614,2121.001,2126.314,0.0844421535730362,44.9948806762695,359.9658203125,-1.09991407394409,-0.473161369562149,0.672290503978729,-1.10235904000526,-0.474314298567936,0.67341393556562,0
2.53997802734375,-1.57475292682648,2.28830623626709,2.10547947883606,-1.57406826106879,2.28853878207593,2.1049206224848,2121.82,2124.995,2127.951,2130.256,0.167412251234055,44.9951362609863,359.931915283203,-1.09962749481201,-0.473039865493774,0.671898305416107,-1.10193621258339,-0.474132367740737,0.673155636891692,0
2.55999755859375,-1.59673404693604,2.27885007858276,2.11891150474548,-1.59612191359838,2.27904971150017,2.11839285467467,2124.3,2124.742,2124.379,2125.092,0.251991093158722,44.9951782226563,359.897857666016,-1.09905815124512,-0.472799748182297,0.671597898006439,-1.10123038958312,-0.473828671822132,0.672724460634977,0
2.57998657226563,-1.61869823932648,2.26940155029297,2.13233637809753,-1.61812503288753,2.26958238396605,2.1318342168965,2128.781,2126.043,2115.616,2120.56,0.334632217884064,44.9947395324707,359.866119384766,-1.09820222854614,-0.472437560558319,0.671242773532867,-1.1002439936861,-0.473404253224357,0.672121886773894,0
2.5999755859375,-1.64063954353333,2.25996255874634,2.14574289321899,-1.64010562536668,2.26012474908893,2.14526181784164,2115.839,2119.244,2122.901,2124.651,0.417177885770798,44.9950866699219,359.832092285156,-1.09707319736481,-0.47195366024971,0.670323491096497,-1.09897654259203,-0.472858904427064,0.671347620678712,0
2.6199951171875,-1.66255283355713,2.25053548812866,2.1591329574585,-1.66209156852628,2.2506648119635,2.15869268743396,2118.364,2119.285,2119.41,2119.216,0.501721262931824,44.9951934814453,359.798095703125,-1.09566247463226,-0.471352517604828,0.669503808021545,-1.09742594550583,-0.472191725819537,0.67040038511534,0
2.63998413085938,-1.6844322681427,2.24112296104431,2.17250561714172,-1.6840102224118,2.24123382753286,2.17208245105877,2123.195,2120.325,2110.363,2114.999,0.584596633911133,44.9947662353516,359.766387939453,-1.09396624565125,-0.47062960267067,0.668639123439789,-1.09559752564474,-0.471405007833448,0.669283431954129,0
2.66000366210938,-1.70627212524414,2.23172736167908,2.18584990501404,-1.70592290617745,2.23180541187802,2.18546856763052,2110.567,2113.864,2117.161,2119.016,0.667386591434479,44.9950828552246,359.732452392578,-1.09199941158295,-0.469785779714584,0.667215585708618,-1.09348640563071,-0.470496651869278,0.667993781680938,0
2.67999267578125,-1.72806715965271,2.22235083580017,2.19917011260986,-1.72775723139253,2.2224107117184,2.19880681618649,2118.949,2116.094,2108.065,2111.469,0.749387562274933,44.9947891235352,359.700500488281,-1.08974945545197,-0.468823343515396,0.66601574420929,-1.09109983431736,-0.469469776906228,0.666535862507326,0
2.69998168945313,-1.74981188774109,2.21299600601196,2.21245551109314,-1.74954107593572,2.21303773198162,2.21211422688774,2106.415,2110.348,2114.522,2115.087,0.832119643688202,44.995174407959,359.666534423828,-1.08723223209381,-0.467743515968323,0.664264559745789,-1.08843572622736,-0.468323485621663,0.66490840044773,0
2.72000122070313,-1.7715003490448,2.20366477966309,2.22570776939392,-1.77130202882336,2.20367460188472,2.22540765343382,2109.671,2110.312,2110.163,2109.977,0.916985690593719,44.9952392578125,359.632690429688,-1.08443355560303,-0.466546028852463,0.662614107131958,-1.08549040888332,-0.467056197851165,0.663109152043028,0
2.739990234375,-1.79312741756439,2.19436049461365,2.23892593383789,-1.79296822271738,2.1943522439355,2.23864319318939,2114.776,2111.459,2100.781,2105.831,0.999818682670593,44.9947471618652,359.601257324219,-1.08135068416595,-0.465226382017136,0.660906612873077,-1.08227399942825,-0.465672266718727,0.661144297698006,0
2.75997924804688,-1.81468749046326,2.1850848197937,2.25209879875183,-1.81456738183361,2.18505872917844,2.25183778244526,2102.351,2105.068,2107.278,2110.084,1.08196830749512,44.9950218200684,359.567687988281,-1.07800304889679,-0.463787406682968,0.658642113208771,-1.07878346314437,-0.464170386470068,0.659011983550929,0
2.77999877929688,-1.83617496490479,2.17584013938904,2.26522779464722,-1.83612684690458,2.17578229366013,2.2650081232283,2104.711,2105.083,2104.12,2104.81,1.16524851322174,44.9951019287109,359.534210205078,-1.07437682151794,-0.462231516838074,0.656454622745514,-1.07501419914593,-0.462548577472581,0.656709398992482,0
2.79998779296875,-1.85758435726166,2.16662907600403,2.27831220626831,-1.85757544288233,2.1665535620153,2.27811073581237,2109.195,2106.065,2095.904,2100.61,1.24629199504852,44.9947128295898,359.503082275391,-1.07047200202942,-0.46055668592453,0.654217064380646,-1.07097916161324,-0.460812413548163,0.654244457529281,0
2.81997680664063,-1.87891054153442,2.15745377540588,2.29134106636047,-1.87894068379188,2.15736069572766,2.291162428086,2096.763,2099.962,2102.689,2104.62,1.32696449756622,44.9950675964355,359.469970703125,-1.06630992889404,-0.458767294883728,0.651449024677277,-1.0666743814704,-0.458960186914335,0.65161473451479,0
2.83999633789063,-1.90014815330505,2.1483166217804,2.30431652069092,-1.90024960698239,2.14819206138118,2.30417971674389,2099.331,2099.859,2099.469,2099.541,1.40911459922791,44.9951820373535,359.436981201172,-1.06187403202057,-0.456863462924957,0.648769974708557,-1.06209435025759,-0.456989527434725,0.648816864916866,0
2.8599853515625,-1.92129147052765,2.13921976089478,2.31723737716675,-1.92143189875059,2.13907791299805,2.31711964824194,2104.034,2100.803,2091.085,2095.497,1.48925185203552,44.994800567627,359.40625,-1.05716407299042,-0.45484259724617,0.646045923233032,-1.05725481901126,-0.454907212340279,0.645860470797877,0
2.87997436523438,-1.94233536720276,2.13016533851624,2.33009338378906,-1.94251480742951,2.13000652638179,2.32999886816159,2092.039,2095.065,2097.36,2099.396,1.56897914409637,44.9951248168945,359.373687744141,-1.05220258235931,-0.452709496021271,0.642802298069,-1.05215090364426,-0.452711140144745,0.642742568545203,0
2.89999389648438,-1.96327495574951,2.12115597724915,2.34288620948792,-1.96352501326936,2.1209664217661,2.34283367505136,2094.68,2094.978,2094.072,2094.438,1.64988434314728,44.9952239990234,359.341339111328,-1.04697120189667,-0.450463026762009,0.639639496803284,-1.04677621342161,-0.450398561093403,0.639459254158576,0
2.91998291015625,-1.98410427570343,2.1121940612793,2.35561466217041,-1.98439323028747,2.1119874109737,2.35558174318562,2099.229,2095.779,2085.988,2090.59,1.72851479053497,44.9948348999023,359.311187744141,-1.04147124290466,-0.448101460933685,0.636426627635956,-1.0411492471255,-0.447977434695422,0.636021828255355,0
2.94000244140625,-2.00481867790222,2.1032817363739,2.36826872825623,-2.00517798053537,2.10304431360073,2.36827882277243,2087.457,2090.245,2092.166,2094.414,1.80650949478149,44.9951667785645,359.279296875,-1.03572714328766,-0.445630759000778,0.632708132266998,-1.03525504859546,-0.445441325732794,0.632421154350513,0
2.95999145507813,-2.02541327476501,2.09442043304443,2.38085246086121,-2.02581075424974,2.0941666074844,2.38088306226645,2095.233,2092.018,2084.322,2087.449,1.88314592838287,44.9949417114258,359.249328613281,-1.02971565723419,-0.443047940731049,0.629181981086731,-1.02911391720548,-0.442798968459032,0.628669633014836,0
2.97998046875,-2.0458824634552,2.085613489151,2.39335584640503,-2.04631823718085,2.08534281049189,2.39341076357611,2083.588,2087.183,2090.216,2090.893,1.96011555194855,44.9953384399414,359.2177734375,-1.02346634864807,-0.440360873937607,0.625165462493896,-1.0227194988233,-0.440047628868552,0.624763382608097,0
3,-2.06622171401978,2.07686185836792,2.40578079223633,-2.06672639957428,2.07656174835205,2.40587779151916,2087.017,2087.035,2086.19,2086.264,2.03849172592163,44.995418548584,359.186584472656,-1.01695609092712,-0.437564611434937,0.621243536472321,-1.01606400046349,-0.437183953857422,0.620697642517089,0
3.01998901367188,-2.08642554283142,2.06816864013672,2.41812586784363,-2.0869680292999,2.06785234056679,2.41824308725414,2091.559,2088.012,2078.085,2082.543,2.11449790000916,44.9950141906738,359.157684326172,-1.01018762588501,-0.434657275676727,0.617259681224823,-1.00917036754089,-0.434217816196637,0.616486429737696,0
3.03997802734375,-2.10648894309998,2.05953598022461,2.43038177490234,-2.10706940546153,2.05920327997188,2.43052270427549,2080.444,2082.667,2083.693,2086.487,2.18947815895081,44.9952926635742,359.127166748047,-1.00318765640259,-0.431645721197128,0.612790405750275,-1.00203140433628,-0.431146119769234,0.612125348517319,0
3.05999755859375,-2.12640762329102,2.05096507072449,2.44254946708679,-2.12705600675913,2.05060360379452,2.44273220712343,2082.897,2082.572,2080.841,2081.84,2.26480793952942,44.9953765869141,359.096954345703,-0.995935201644897,-0.428527742624283,0.608386516571045,-0.994638524886308,-0.427965170275055,0.607609153824944,0
3.07998657226563,-2.1461763381958,2.04245924949646,2.45462799072266,-2.14686207530873,2.04208160581513,2.45483142533277,2086.745,2083.408,2073.986,2078.111,2.33753323554993,44.9950675964355,359.069000244141,-0.988434612751007,-0.425303816795349,0.603927612304688,-0.987017247723776,-0.424685947625853,0.602953434534038,0
3.0999755859375,-2.16579055786133,2.03401970863342,2.46660828590393,-2.16651343412374,2.03362617511243,2.46683613377946,2075.816,2078.226,2079.795,2081.923,2.40946340560913,44.9954109191895,359.039489746094,-0.980713546276093,-0.421981632709503,0.599016547203064,-0.979159571260203,-0.421305008961644,0.598153302599065,0
3.1199951171875,-2.18524551391602,2.02564859390259,2.47849178314209,-2.18603502400946,2.02522658035469,2.47876156841225,2078.244,2078.233,2077.098,2077.339,2.4820773601532,44.995548248291,359.010345458984,-0.972749471664429,-0.41855800151825,0.594178199768066,-0.971056158224178,-0.417818336715394,0.593203054026623,0
3.13998413085938,-2.20453643798828,2.01734781265259,2.4902777671814,-2.20536269329809,2.01691042421237,2.49056853997833,2082.461,2079.009,2070.025,2073.8,2.55232310295105,44.9952392578125,358.9833984375,-0.964546382427216,-0.415032237768173,0.589299201965332,-0.962735018414262,-0.414237982720922,0.588119799565572,0
3.16000366210938,-2.2236590385437,2.00911951065063,2.50195741653442,-2.22455088103183,2.00865428308644,2.50229030443911,2071.94,2074.248,2075.397,2077.472,2.62173986434937,44.9955635070801,358.955139160156,-0.956132769584656,-0.411412507295609,0.583978295326233,-0.954174163352092,-0.410554485950274,0.582890106797601,0
3.17999267578125,-2.24260878562927,2.00096559524536,2.5135338306427,-2.24353658854737,2.00048526354177,2.51388837689424,2079.179,2075.729,2068.474,2071.242,2.6894838809967,44.9953689575195,358.928741455078,-0.947480797767639,-0.407692521810532,0.578826189041138,-0.945403214201559,-0.406780591562751,0.577532070829503,0
3.19998168945313,-2.26138114929199,1.99288821220398,2.52499890327454,-2.26234477504321,1.99239262633251,2.52537800452858,2069.019,2071.628,2073.406,2074.534,2.75700044631958,44.995735168457,358.901123046875,-0.938625991344452,-0.403883337974548,0.573250234127045,-0.936412917636688,-0.402912318110697,0.572040038948834,0
3.22000122070313,-2.27997207641602,1.98488879203796,2.53635382652283,-2.28099938900442,1.98436606709459,2.53677381709797,2072.061,2071.587,2070.061,2070.397,2.82510566711426,44.9958152770996,358.873992919922,-0.929543197154999,-0.399978667497635,0.567749261856079,-0.927192788821982,-0.398945154262308,0.566407606133204,0
3.239990234375,-2.29837679862976,1.97696900367737,2.54759764671326,-2.2994392795179,1.97643189735754,2.54803845846384,2076.138,2072.342,2063.192,2067.208,2.8905291557312,44.9954833984375,358.849029541016,-0.920238256454468,-0.395978450775146,0.562196254730225,-0.917774783907129,-0.394892849856044,0.560654293895788,0
3.25997924804688,-2.31659173965454,1.96913111209869,2.55872225761414,-2.31768882969315,1.96857962575054,2.55918682388728,2066.268,2068.046,2068.19,2070.669,2.95461392402649,44.9957618713379,358.822998046875,-0.910740852355957,-0.391891807317734,0.556226491928101,-0.908148960779607,-0.390751127078637,0.554774028755191,0
3.27999877929688,-2.33461236953735,1.96137678623199,2.56972861289978,-2.33577134012187,1.96079922667992,2.57023314733618,2068.541,2067.806,2065.889,2066.79,3.01853966712952,44.9958724975586,358.797393798828,-0.901028096675873,-0.387714415788651,0.550316572189331,-0.898304216251578,-0.386515208538549,0.548760027947228,0
3.29998779296875,-2.3524341583252,1.95370769500732,2.58061599731445,-2.35362764460945,1.95311615770631,2.58114128510551,2072.182,2068.542,2059.955,2063.565,3.07968997955322,44.9956092834473,358.773864746094,-0.891106426715851,-0.383447825908661,0.544367372989655,-0.888274735793772,-0.382199803288803,0.542633174842512,0
3.31997680664063,-2.37005424499512,1.9461258649826,2.59137678146362,-2.37128151039117,1.94552019245235,2.59192575622841,2062.701,2064.51,2064.913,2066.851,3.13964438438416,44.9959335327148,358.749389648438,-0.881005764007568,-0.379101455211639,0.538033962249756,-0.878049940595779,-0.377800359562814,0.53638700701084,0
3.33999633789063,-2.38746857643127,1.93863248825073,2.60201215744019,-2.38875555478454,1.93800159931817,2.60260037727124,2064.977,2064.25,2062.697,2063.228,3.19956874847412,44.9960746765137,358.725341796875,-0.870703041553497,-0.374670386314392,0.531765043735504,-0.867618167158097,-0.373311858882592,0.530014399402376,0
3.3599853515625,-2.40467238426208,1.93122947216034,2.6125214099884,-2.40599272667425,1.93058492580486,2.6131302965979,2068.567,2065.021,2056.951,2060.166,3.25690388679504,44.9958267211914,358.703308105469,-0.860204637050629,-0.370155930519104,0.525462329387665,-0.857015715678588,-0.368749920209162,0.523537527241535,0
3.37997436523438,-2.42166328430176,1.92391800880432,2.6228973865509,-2.42301614089521,1.92326022624472,2.62352963470034,2059.841,2061.296,2061.35,2063.312,3.31297898292542,44.9961204528809,358.680480957031,-0.849539756774902,-0.365567117929459,0.518801093101501,-0.846231427202182,-0.364109742155906,0.516949573696802,0
3.39999389648438,-2.43843722343445,1.91670000553131,2.63314127922058,-2.43984769972619,1.91601807669906,2.63381177133889,2061.986,2061.151,2059.253,2059.866,3.36877346038818,44.9962501525879,358.658172607422,-0.838686347007751,-0.360899090766907,0.512195348739624,-0.835253140422974,-0.35938609205264,0.510243109616171,0
3.41998291015625,-2.45498991012573,1.90957713127136,2.6432523727417,-2.45643259034873,1.90888206159239,2.64394322221809,2065.518,2061.789,2053.794,2057.066,3.42180132865906,44.996021270752,358.637878417969,-0.82765120267868,-0.356153279542923,0.505560398101807,-0.824119146742881,-0.354595445619869,0.503441526619546,0
3.44000244140625,-2.4713191986084,1.90255010128021,2.65322399139404,-2.47281804716281,1.90183185728196,2.6539528420958,2057.201,2058.319,2058.041,2060.097,3.47334432601929,44.9963035583496,358.616851806641,-0.816463768482208,-0.351339370012283,0.498586654663086,-0.812800388649434,-0.349725300221754,0.496527073925997,0
3.45999145507813,-2.48742151260376,1.89562082290649,2.66305875778198,-2.48895081463434,1.8948903781363,2.66380809799729,2062.843,2059.458,2053.079,2055.213,3.52276539802551,44.9961967468262,358.597595214844,-0.805098354816437,-0.346450716257095,0.491742223501205,-0.80133641229185,-0.344792671461508,0.489523909660973,0
3.47998046875,-2.50329303741455,1.88879108428955,2.67275047302246,-2.50485284867397,1.88804817714046,2.67352240244575,2054.948,2056.412,2056.994,2058.023,3.57137727737427,44.996524810791,358.577667236328,-0.793590784072876,-0.341499596834183,0.484585285186768,-0.789715229532172,-0.33979240117828,0.482424710458066,0
3.5,-2.51893162727356,1.88206136226654,2.68230032920837,-2.5205447997813,1.88129636896134,2.68310837050915,2057.709,2056.499,2054.378,2054.786,3.61967039108276,44.9966239929199,358.558471679688,-0.781918287277222,-0.33647957444191,0.477497816085815,-0.777924000354857,-0.334718964672089,0.475221632552147,0
3.51998901367188,-2.53433346748352,1.87543344497681,2.69170784950256,-2.53597583877076,1.87465682397749,2.69253495143119,2060.865,2057.131,2049.354,2052.47,3.66510057449341,44.9963989257813,358.541259765625,-0.77008992433548,-0.331392496824265,0.470372438430786,-0.766004036374581,-0.329590137176618,0.467939912563966,0
3.53997802734375,-2.54949593544006,1.86890888214111,2.70096683502197,-2.55116718971613,1.86812041006291,2.70181511066737,2053.505,2054.039,2053.106,2055.335,3.70871710777283,44.9966430664063,358.523498535156,-0.758133769035339,-0.326247543096542,0.462946116924286,-0.753942941956194,-0.324400585196356,0.460571978193441,0
3.55999755859375,-2.56441688537598,1.86248779296875,2.71007823944092,-2.56613872308604,1.86167857751006,2.71096098677687,2055.518,2053.989,2051.428,2052.424,3.75126767158508,44.9967460632324,358.506408691406,-0.746030449867249,-0.32104080915451,0.455573529005051,-0.741727567798258,-0.319144650954242,0.45310979673751,0
3.57998657226563,-2.57909274101257,1.85617232322693,2.71904158592224,-2.58084213759183,1.85535210901407,2.7199430732562,2058.095,2054.666,2047.442,2050.109,3.79088306427002,44.9966049194336,358.491241455078,-0.733789205551147,-0.315775394439697,0.448173373937607,-0.72940084364523,-0.31384080592,0.445579593307163,0
3.5999755859375,-2.59352111816406,1.84996318817139,2.72785186767578,-2.59529790318687,1.84913219692586,2.72877387488043,2051.29,2051.783,2051.122,2052.812,3.82881546020508,44.996883392334,358.475677490234,-0.721436858177185,-0.310460180044174,0.440511137247086,-0.716950039288888,-0.308483572640672,0.437973591216846,0
3.6199951171875,-2.60770034790039,1.84386134147644,2.73651003837585,-2.60952509409627,1.84301063413925,2.73746504379605,2053.263,2051.891,2049.563,2050.056,3.865802526474,44.997013092041,358.460876464844,-0.708955407142639,-0.305091232061386,0.43290838599205,-0.704361775018033,-0.303067194200314,0.43028361700977,0
3.63998413085938,-2.62162733078003,1.83786797523499,2.74501585960388,-2.623478029369,1.83700707589127,2.7459886742229,2055.964,2052.406,2045.637,2048.131,3.89996671676636,44.9968757629395,358.447875976563,-0.696353793144226,-0.299670994281769,0.425289928913116,-0.691680442442073,-0.297610771068296,0.422536788827407,0
3.66000366210938,-2.63530015945435,1.83198380470276,2.75336456298828,-2.63719712493647,1.83110413233575,2.75436945562281,2049.743,2049.944,2048.947,2050.619,3.93233370780945,44.9971313476563,358.434631347656,-0.683658123016357,-0.294208317995071,0.417430102825165,-0.678873453515702,-0.29210028151913,0.414713199141411,0
3.67999267578125,-2.64871740341187,1.82620978355408,2.76155829429626,-2.65063849381582,1.82532068681534,2.76258057812278,2054.444,2050.946,2045.167,2046.937,3.96227121353149,44.9970741271973,358.423065185547,-0.670848071575165,-0.288697838783264,0.409684330224991,-0.665986083416798,-0.286555206197011,0.406840505851433,0
3.69998168945313,-2.66187620162964,1.82054686546326,2.76959252357483,-2.66382131180924,1.81964848851807,2.77063375592113,2048.461,2048.811,2048.291,2049.341,3.99077248573303,44.9973602294922,358.411285400391,-0.657956421375275,-0.283151149749756,0.401712566614151,-0.653005218467595,-0.280969902652754,0.398910698016369,0
