t,x_s1,x_s2,x_s3,x_s_d1,x_s_d2,x_s_d3,propellers_rpms1,propellers_rpms2,propellers_rpms3,propellers_rpms4,rollRad,pitchRad,yawRad,v_s1,v_s2,v_s3,v_s_d1,v_s_d2,v_s_d3,insideCount
0,-0.0599999986588955,2.94000005722046,1.17999994754791,-0.0599999986588955,2.94000005722046,1.17999994754791,0,0,0,0,0,0,0,0,0,0,-1.06581410364015E-15,4.44089209850063E-16,4.44089209850063E-16,0
0.0200004577636719,-0.0599999986588955,2.94000005722046,1.1771354675293,-0.0600018691155303,2.93999925241522,1.18000110544967,0,0,0,0,0.0163538,-0.002474609,-2.024222E-05,3.71994488546079E-08,3.50004931704007E-08,-0.143225952982903,-0.000279999361409376,-0.000120475902936966,0.000173332942931458,5
0.0400009155273438,-0.0599999986588955,2.94000005722046,1.17048275470734,-0.0600148724204753,2.93999365745638,1.18000915511487,0,0,0,0,0.03270752,-0.004950816,-5.430172E-05,3.62924410524101E-08,3.44428769949445E-08,-0.332637369632721,-0.00111101934050116,-0.00047804058392963,0.00068777389696065,6
0.05999755859375,-0.0600004345178604,2.94013261795044,1.16416549682617,-0.0600498857373401,2.93997859220429,1.18003083002592,3185.383,2835.773,1501.123,2767.668,0.03128012,-0.00494336,-0.01646952,-2.17783708649222E-05,0.00662223063409328,-0.315861493349075,-0.00247936261166862,-0.00106680046642749,0.00153484356504269,6
0.0799980163574219,-0.0599162206053734,2.94038772583008,1.15857708454132,-0.0601175407449857,2.93994948214456,1.18007271169851,3065.766,3067.247,2155.015,2024.055,0.01897524,-0.004310593,-0.04351445,0.00421068305149674,0.0127500370144844,-0.279420375823975,-0.00437227586895222,-0.00188126815916228,0.00270664704326441,6
0.0999984741210938,-0.0596375577151775,2.94068765640259,1.15374839305878,-0.0602281887669101,2.93990187339187,1.18014120809498,2640.338,3831.794,2620.254,1134.749,-0.005853628,-0.002888465,-0.07014447,0.0139331538230181,0.0149978632107377,-0.241432934999466,-0.00677637982016689,-0.00291568692648091,0.00419490191241918,6
0.119998931884766,-0.0590849034488201,2.94089889526367,1.14957022666931,-0.0603919230601972,2.93983142309968,1.18024256742227,2092.169,4101.956,3169.373,755.9762,-0.04011946,-0.0004511395,-0.08993548,0.0276327803730965,0.0105615612119436,-0.208911255002022,-0.00967861374975049,-0.00416443710735115,0.00599152296740588,5
0.139999389648438,-0.0582314841449261,2.94085621833801,1.14596676826477,-0.0606185767455666,2.93973390035084,1.18038287685052,1510.282,4074.807,3735.821,701.981,-0.07649291,0.002388276,-0.09949782,0.042670976370573,-0.00213024392724037,-0.180173859000206,-0.0130660253322238,-0.00562194567796536,0.00808849210174802,4
0.159999847412109,-0.0570994541049004,2.94039487838745,1.14297807216644,-0.0609177249752248,2.93960518522485,1.18056806385509,1135.159,3846.988,4069.836,879.9633,-0.1062788,0.004335311,-0.09870048,0.0566015392541885,-0.0230684764683247,-0.149433210492134,-0.0169257706321904,-0.00728268625174051,0.0104778583075938,4
0.180000305175781,-0.0557377338409424,2.93938803672791,1.14071118831635,-0.0612986871007165,2.9394412678651,1.18080389755851,1100.95,3565.299,4009.97,1148.941,-0.1236293,0.004492138,-0.09000047,0.0680860504508018,-0.0503402315080166,-0.113342419266701,-0.0212451141043368,-0.00914117907931815,0.0131517376757159,3
0.200000762939453,-0.0541964843869209,2.9377772808075,1.13924849033356,-0.0617705288407759,2.93923824754608,1.18109599007255,1373.317,3339.686,3594.84,1386.291,-0.1278759,0.003023076,-0.07724925,0.0770625397562981,-0.0805362313985825,-0.0731326192617416,-0.0260114285934326,-0.0111919910485645,0.016102313395512,3
0.219997406005859,-0.0525142438709736,2.93557620048523,1.13858389854431,-0.0623419453860714,2.93899238297017,1.18144972413443,1790.82,3212.892,3016.939,1527.101,-0.1229763,0.0008612626,-0.06426048,0.084112137556076,-0.110051497817039,-0.0332310870289803,-0.0312111627562649,-0.0134292913950757,0.0193211965399932,3
0.239997863769531,-0.0507195852696896,2.93284702301025,1.13860690593719,-0.0630217183703222,2.93869989564571,1.18187053599376,2159.116,3168.52,2517.392,1558.54,-0.1149655,-0.0009875001,-0.05362115,0.0897328853607178,-0.136453241109848,0.00114923715591431,-0.0368338920540454,-0.0158485947310391,0.02280193382306,3
0.259998321533203,-0.0488372705876827,2.92966485023499,1.13913774490356,-0.063818066443955,2.93835724931701,1.18236351338666,2352.022,3159.068,2273.829,1495.809,-0.1090501,-0.001904693,-0.04623621,0.0941157341003418,-0.15910792350769,0.0265418663620949,-0.04286636357961,-0.0184441987007453,0.0265363210638542,3
0.279998779296875,-0.0468917489051819,2.92608761787415,1.13999605178833,-0.0647390625194898,2.93796097043536,1.18293365383054,2352.67,3152.292,2324.177,1363.605,-0.1078143,-0.001744903,-0.04152188,0.0972760990262032,-0.178861930966377,0.0429142229259014,-0.0492963837173861,-0.0212108567320638,0.030516809833474,3
0.299999237060547,-0.044908732175827,2.92214369773865,1.14106202125549,-0.065792536715479,2.93750768991949,1.18358580454179,2229.279,3144.018,2572.694,1194.497,-0.1110874,-0.000737163,-0.03798626,0.0991507321596146,-0.19719110429287,0.0532988831400871,-0.0561118672418845,-0.0241433688900884,0.0347359188016424,3
0.319999694824219,-0.0429169088602066,2.91783547401428,1.14229393005371,-0.0669860785243584,2.93699414222283,1.18432466377777,2074.007,3132.635,2873.248,1032.522,-0.1169314,0.0006860914,-0.03398034,0.0995914191007614,-0.215406119823456,0.0615980178117752,-0.0633008373176985,-0.0272365818771378,0.0391862337367069,3
0.340000152587891,-0.0409489162266254,2.91315102577209,1.14370727539063,-0.0683270389802989,2.93641716440073,1.1851547821788,1955.229,3107.313,3109.304,921.6478,-0.1228431,0.002069705,-0.02837545,0.0983996763825417,-0.234224066138268,0.0706677958369255,-0.0708514254995047,-0.0304853890327553,0.0438604075056398,3
0.360000610351563,-0.0390401482582092,2.90807723999023,1.14534330368042,-0.0698225328270578,2.93577369517774,1.1860805641102,1904.643,3065.726,3222.326,880.736,-0.1267089,0.003092758,-0.02087119,0.0954383462667465,-0.253692626953125,0.0818011462688446,-0.0787518717320621,-0.0338847303337087,0.0487511600740379,3
0.379997253417969,-0.0372256711125374,2.90261030197144,1.14724338054657,-0.0714791088463715,2.935060916796,1.18710606357981,1923.873,3021.221,3207.144,896.0099,-0.1274211,0.003642256,-0.01188462,0.0907238274812698,-0.273342698812485,0.0950046330690384,-0.0869889214763108,-0.0374289027221294,0.0538502862508218,3
0.399997711181641,-0.035537239164114,2.89676117897034,1.14943134784698,-0.0733040467096699,2.93427569701629,1.18823578705104,1990.995,2989.147,3098.994,939.2615,-0.1250397,0.003790841,-0.00220776,0.0844215154647827,-0.292450904846191,0.109398119151592,-0.0955541759940907,-0.0411142924556206,0.059152586816983,3
0.419998168945313,-0.0340019538998604,2.89055466651917,1.15190577507019,-0.0753034649285836,2.93341540321397,1.18947352217404,2072.479,2974.393,2953.238,986.8055,-0.1205001,0.003707452,0.007337647,0.0767640173435211,-0.310325682163239,0.123720936477184,-0.104434660908044,-0.0449353170220673,0.0646500300148815,3
0.439998626708984,-0.0326425284147263,2.88402462005615,1.15464162826538,-0.0774835548069347,2.93247737144397,1.19082310166083,2136.581,2973.083,2825.191,1022.776,-0.1150757,0.003563754,0.01615087,0.0679715052247047,-0.326507866382599,0.136794313788414,-0.113619049702587,-0.0488871029382406,0.0703356041918149,4
0.459999084472656,-0.0314783826470375,2.8772075176239,1.15760159492493,-0.0798502821969742,2.93145903476675,1.19228821865812,2168.262,2977.54,2748.81,1039.417,-0.1098666,0.003474592,0.0239444,0.0582076236605644,-0.340850561857224,0.147995561361313,-0.123096124252221,-0.0529648233581361,0.0762023647937057,4
0.479999542236328,-0.0305267348885536,2.87013840675354,1.16074776649475,-0.0824093896672336,2.93035792231548,1.19387242808941,2168.235,2984.177,2732.572,1032.711,-0.1055411,0.003481758,0.03074718,0.0475820526480675,-0.353458851575851,0.157310843467712,-0.13285477482153,-0.0571636980729742,0.0822434343651008,4
0.5,-0.0298035945743322,2.86284685134888,1.16405200958252,-0.085166398670376,2.92917165836334,1.1955791479969,2146.714,2989.503,2762.995,1009.134,-0.1022691,0.00356875,0.03679628,0.0361571125686169,-0.364581674337387,0.165214687585831,-0.142884000065179,-0.0614789935111996,0.0884520025491718,4
0.520000457763672,-0.0293243229389191,2.8553569316864,1.16749906539917,-0.0881266117110474,2.92789796139072,1.19741166088358,2116.723,2992.527,2816.994,977.9406,-0.09983978,0.00368614,0.0424103,0.0239636711776257,-0.374494671821594,0.17235292494297,-0.153172907027918,-0.0659060227384819,0.0948213260877149,4
0.540000915527344,-0.029104033485055,2.84768843650818,1.17108559608459,-0.0912951145137283,2.92653464315245,1.19937311505516,2089.079,2991.941,2871.099,950.9258,-0.09782856,0.003777043,0.04785896,0.0110144838690758,-0.383423775434494,0.179324701428413,-0.163710711144578,-0.0704401454577151,0.101344728821151,4
0.55999755859375,-0.029157530516386,2.83985829353333,1.1748161315918,-0.094676112580471,2.92507989413848,1.20146611391775,2070.762,2989.003,2908.688,934.5518,-0.09578858,0.003795487,0.05329506,-0.00267483480274677,-0.391504675149918,0.186524987220764,-0.17448465888317,-0.0750758741803766,0.108014315705644,5
0.579998016357422,-0.029498927295208,2.83188271522522,1.17869830131531,-0.0982755538235842,2.92353115512831,1.2036943395124,2063.645,2985.635,2922.41,931.1194,-0.09339067,0.003717084,0.05874008,-0.0170699786394835,-0.398781448602676,0.194107711315155,-0.185488294752812,-0.0798104312890852,0.11482609048482,5
0.599998474121094,-0.0301411785185337,2.82377815246582,1.18273937702179,-0.102097262171133,2.92188678079254,1.20606015903275,2066.862,2984.369,2912.14,938.6058,-0.09049741,0.003538303,0.06411202,-0.0321126021444798,-0.405233860015869,0.202053368091583,-0.196709126405959,-0.0846384416756885,0.121772319800455,5
0.619998931884766,-0.0310954712331295,2.8155620098114,1.18694198131561,-0.106145477944935,2.92014494663912,1.20856619743999,2074.757,2986.87,2887.029,951.6976,-0.08717538,0.003271901,0.06929226,-0.0477149114012718,-0.410806655883789,0.210129827260971,-0.208136802817102,-0.0895554515830839,0.128846595874672,5
0.639999389648438,-0.0323712006211281,2.80725288391113,1.19130492210388,-0.110424235525481,2.91830391678686,1.21121495220784,2082.751,2991.456,2855.175,969.1901,-0.08359503,0.002940654,0.07414828,-0.0637862533330917,-0.41545757651329,0.218148067593575,-0.219761081350814,-0.0945570538913933,0.136042578028218,5
0.659999847412109,-0.0339757390320301,2.79886960983276,1.1958224773407,-0.114937365519793,2.91636204303257,1.21400879466451,2087.958,2999.344,2826.778,982.8491,-0.08000402,0.002566271,0.07860054,-0.0802268981933594,-0.419169455766678,0.225880473852158,-0.231571827761751,-0.0996388881179631,0.143353992680462,5
0.680000305175781,-0.0359148196876049,2.79043030738831,1.20048725605011,-0.119688496929273,2.91431776391831,1.21694997133476,2087.822,3007.127,2806.551,994.518,-0.07660423,0.002168297,0.08260892,-0.0969539433717728,-0.421970307826996,0.233240902423859,-0.243559016194652,-0.104796640417365,0.150774633349401,6
0.700000762939453,-0.0381926707923412,2.78195190429688,1.20529091358185,-0.124681059317553,2.91216960379868,1.22004060528183,2083.234,3015.245,2797.662,999.7828,-0.07354799,0.001758862,0.08619457,-0.113892443478107,-0.423920482397079,0.240180730819702,-0.255712729184339,-0.110026043581393,0.158298360651655,6
0.719997406005859,-0.0408124960958958,2.77344965934753,1.21022653579712,-0.129917262555645,2.90991661182791,1.22328206452116,2075.081,3021.395,2797.686,1002.644,-0.07088056,0.001344862,0.08940209,-0.130990728735924,-0.425108641386032,0.246782928705215,-0.26802079535749,-0.115321860608138,0.165917639927336,6
0.739997863769531,-0.04377656057477,2.76493716239929,1.21528875827789,-0.135402141159277,2.90755662179454,1.22667746565781,2065.687,3026.554,2804.673,1001.421,-0.06858865,0.0009282256,0.09230126,-0.14820396900177,-0.425628870725632,0.253110468387604,-0.280478211503383,-0.120681938755799,0.173629373950669,6
0.759998321533203,-0.0470867343246937,2.75642561912537,1.22047555446625,-0.141137563960274,2.90508882959244,1.2302279655877,2057.375,3029.838,2811.715,1001.549,-0.06659341,0.0005084652,0.09494101,-0.165508896112442,-0.425577700138092,0.259338080883026,-0.293073051970232,-0.126101146749576,0.181426180175103,6
0.779998779296875,-0.0507440827786922,2.74792504310608,1.2257844209671,-0.147126184485884,2.90251209348295,1.23393520697061,2050.597,3033.411,2819.698,998.8649,-0.06483839,8.279089E-05,0.09738033,-0.182866960763931,-0.425031691789627,0.265444576740265,-0.305795832832518,-0.131575403921268,0.189302187598958,6
0.799999237060547,-0.0547494031488895,2.7394437789917,1.23121619224548,-0.153370467664426,2.8998253528763,1.23780071571459,2045.234,3034.459,2822.103,1003.155,-0.06321759,-0.0003456783,0.09962089,-0.20026633143425,-0.424062848091125,0.271586626768112,-0.318637178554805,-0.1371006762399,0.197251592319181,6
0.819999694824219,-0.0591026730835438,2.73098945617676,1.23676943778992,-0.159872691993147,2.89702762739878,1.24182590231796,2043.32,3038.202,2822.954,1002.453,-0.06172728,-0.0007787083,0.1016886,-0.217663913965225,-0.422718048095703,0.277662724256516,-0.331587821991737,-0.142672976311719,0.205268657531342,6
0.840000152587891,-0.0638035386800766,2.72256851196289,1.24244487285614,-0.166634951706069,2.89411801595997,1.24601206321137,2041.399,3039.801,2818.134,1009.737,-0.0603222,-0.001210673,0.1035553,-0.235043630003929,-0.4210464656353,0.283772438764572,-0.344638604388044,-0.148288363380199,0.213347713529636,6
0.860000610351563,-0.0688506215810776,2.71418690681458,1.24823987483978,-0.173659158941841,2.89109569582005,1.2503603820997,2041.611,3044.471,2814.53,1010.2,-0.05906465,-0.00164104,0.1052354,-0.252354383468628,-0.419081300497055,0.289750307798386,-0.357780475378537,-0.153942943326036,0.221483157706883,6
0.879997253417969,-0.0742422640323639,2.70584964752197,1.25415396690369,-0.180945630646592,2.88796053060595,1.25487105518773,2040.167,3046.557,2808.033,1018.186,-0.05794399,-0.002059689,0.1066983,-0.269581526517868,-0.416868329048157,0.295702993869781,-0.371001963495383,-0.159631780297098,0.229667888678032,6
0.899997711181641,-0.0799756795167923,2.69756078720093,1.26018261909485,-0.188498701076517,2.88471065540831,1.25954676558649,2039.797,3051.464,2807.031,1016.524,-0.05704651,-0.002467152,0.1079755,-0.286671698093414,-0.414442509412766,0.301435381174088,-0.384299280991351,-0.165353244531568,0.237899561647111,7
0.919998168945313,-0.0860482454299927,2.68932366371155,1.26632606983185,-0.196318384305134,2.8813460641717,1.26438752200817,2037.828,3053.016,2802.807,1023.83,-0.05633917,-0.002852245,0.1090413,-0.303628295660019,-0.411859124898911,0.307170301675797,-0.397661187980262,-0.171102499820431,0.246171218589148,7
0.939998626708984,-0.0924561023712158,2.68114066123962,1.2725784778595,-0.204405885800988,2.87786623821667,1.26939407069523,2037.257,3058.235,2807.717,1016.547,-0.05591892,-0.003220827,0.1099619,-0.320391416549683,-0.409156024456024,0.312618136405945,-0.411079067636589,-0.176875838584386,0.254477525278661,7
0.959999084472656,-0.0991959124803543,2.67301273345947,1.27894127368927,-0.212762239776093,2.87427073255068,1.27456705187416,2033.318,3057.102,2807.39,1025.423,-0.05567338,-0.003557983,0.1107007,-0.336991846561432,-0.40639591217041,0.31814044713974,-0.424544411524882,-0.18266959988136,0.262813214588797,7
0.979999542236328,-0.106263250112534,2.66494059562683,1.28540885448456,-0.221388311353785,2.87055917493534,1.27990700109753,2034.222,3062.265,2816.85,1012.792,-0.05570481,-0.003875965,0.1113467,-0.353366881608963,-0.403611034154892,0.32338085770607,-0.438048819599778,-0.188480169406503,0.271173086491326,7
1,-0.113654658198357,2.65692329406738,1.29198515415192,-0.230284798736574,2.86673126495361,1.28541435058594,2030.638,3059.39,2816.995,1023.406,-0.05584755,-0.00415826,0.1118443,-0.369570136070251,-0.400862365961075,0.328812748193741,-0.451584000205995,-0.194303979492187,0.279552008056641,7
1.02000045776367,-0.121365159749985,2.64895987510681,1.29866397380829,-0.239452235373992,2.86278677307706,1.29108943057007,2033.714,3064.969,2828.53,1006.557,-0.05623691,-0.004424043,0.1122978,-0.385525852441788,-0.398168087005615,0.333938956260681,-0.465141770078335,-0.200137509108014,0.287944913453762,7
1.03999710083008,-0.129391431808472,2.64104819297791,1.30545163154602,-0.248889165986195,2.85872632547195,1.29693134016237,2030.663,3060.419,2826.162,1021.605,-0.05665928,-0.004649879,0.1126167,-0.401313275098801,-0.395584493875504,0.339381724596024,-0.478711464817306,-0.205976169660809,0.296345200911388,7
1.05999755859375,-0.137728035449982,2.63318610191345,1.31234002113342,-0.258599401509697,2.85454828239877,1.30294243851408,2036.066,3067.259,2839.809,999.3215,-0.05731815,-0.004862932,0.1129307,-0.416829437017441,-0.393110543489456,0.344419717788696,-0.492290296490434,-0.211818761581115,0.30475114456651,7
1.07999801635742,-0.146371901035309,2.62537002563477,1.31933927536011,-0.268581219802083,2.85025338484727,1.30912165953701,2033.431,3060.961,2832.307,1021.763,-0.05793601,-0.005030711,0.1130982,-0.43219456076622,-0.390804439783096,0.349962711334229,-0.50586781946303,-0.217660790404144,0.31315627807366,7
1.09999847412109,-0.155316978693008,2.6175971031189,1.32643711566925,-0.278834517009062,2.84584167750307,1.31546893894041,2041.991,3071.104,2850.054,988.9553,-0.05884681,-0.005193697,0.113308,-0.447252929210663,-0.388643324375153,0.354889869689941,-0.519436284009554,-0.223498921639497,0.321555803983559,7
1.11999893188477,-0.164560690522194,2.60986304283142,1.33364772796631,-0.289359035362208,2.84131327127672,1.32198411715334,2036.106,3060.6,2838.613,1023.933,-0.05963297,-0.005300223,0.1133455,-0.462186902761459,-0.386698305606842,0.360533148050308,-0.532988048794549,-0.229329867434001,0.329944991945551,8
1.13999938964844,-0.174096241593361,2.60216474533081,1.34095406532288,-0.300154365346813,2.83666834237095,1.3286669406667,2048.717,3074.753,2863.093,976.4033,-0.06078239,-0.005411011,0.1134805,-0.476777881383896,-0.384920567274094,0.365317076444626,-0.546515580872639,-0.235150386571708,0.338319178707607,8
1.15999984741211,-0.183922007679939,2.59449672698975,1.34837675094604,-0.311219947869739,2.83190713134792,1.33551706337518,2039.655,3059.64,2845.867,1026.33,-0.06170118,-0.005454154,0.1134096,-0.491289347410202,-0.383403480052948,0.371135890483856,-0.560011455688534,-0.240957284473894,0.346673768116318,8
1.18000030517578,-0.194030195474625,2.58685541152954,1.35589146614075,-0.322555076427271,2.82702994219644,1.34253404791935,2056.924,3079.092,2880.006,958.9412,-0.06308336,-0.005515939,0.1135153,-0.505409896373749,-0.382063001394272,0.375734061002731,-0.573468357077025,-0.246747413199059,0.355004231116904,8
1.19999694824219,-0.204420655965805,2.57923483848572,1.36352825164795,-0.334156660511822,2.8220381046756,1.34971598112778,2042.883,3057.022,2853.553,1031.72,-0.06407086,-0.005493569,0.1133589,-0.519522786140442,-0.381028026342392,0.381837904453278,-0.58687652428584,-0.252516572968185,0.36330452533874,8
1.21999740600586,-0.215084165334702,2.57163166999817,1.37125170230865,-0.346028131869748,2.8169301422008,1.35706498741494,2066.786,3084.182,2901.451,935.4821,-0.06566343,-0.005512743,0.1134875,-0.533175647258759,-0.380159258842468,0.386173963546753,-0.600233974716476,-0.258263910724523,0.371573423458908,8
1.23999786376953,-0.226022839546204,2.56403875350952,1.37910687923431,-0.358166167196084,2.81170748469733,1.36457900949675,2046.115,3052.29,2858.438,1043.463,-0.06661631,-0.005424326,0.1132527,-0.546934485435486,-0.379644870758057,0.392759323120117,-0.613531154887641,-0.263985315871967,0.379805011417393,8
1.2599983215332,-0.237225279211998,2.55645346641541,1.38704109191895,-0.370569492049568,2.80637068052165,1.37225725843336,2080.865,3092.417,2925.657,902.4499,-0.06842886,-0.005413674,0.1134589,-0.560121119022369,-0.379258722066879,0.396712124347687,-0.626761182173783,-0.269677827009021,0.387995028541113,8
1.27999877929688,-0.248696714639664,2.54886770248413,1.3951199054718,-0.383236695417198,2.80092033679326,1.3800988607405,2046.903,3044.372,2859.869,1065.485,-0.06924751,-0.005255482,0.1131406,-0.573573470115662,-0.379285424947739,0.40394201874733,-0.639917282339435,-0.275338529371412,0.396139281255613,8
1.29999923706055,-0.26042252779007,2.5412802696228,1.40326619148254,-0.396166231882091,2.79535711846185,1.3881028597315,2097.812,3103.134,2954.94,859.2941,-0.07129069,-0.005225655,0.1134735,-0.586290776729584,-0.379369080066681,0.407316088676453,-0.652992789539212,-0.280964554832093,0.404233643085061,8
1.31999969482422,-0.272412598133087,2.53368139266968,1.41157579421997,-0.409356423791328,2.7896817473746,1.39626821685929,2045.989,3033.117,2854.805,1100.333,-0.07185102,-0.004993427,0.1130417,-0.599503219127655,-0.379944115877151,0.415478527545929,-0.665981146317813,-0.286553081901244,0.412274054652251,8
1.34000015258789,-0.284647166728973,2.52607226371765,1.41993474960327,-0.422805463423808,2.78389500134342,1.4045938130584,2119.385,3118.952,2991.255,799.0906,-0.07419567,-0.004963067,0.1135678,-0.611729145050049,-0.380459636449814,0.41795015335083,-0.678875903610019,-0.292101335726266,0.4202565236786,8
1.36000061035156,-0.297142893075943,2.51844048500061,1.42848372459412,-0.436511415158101,2.77799771321212,1.41307845008695,2040.282,3016.099,2840.19,1156.591,-0.07433948,-0.004646151,0.1129663,-0.624786674976349,-0.381585240364075,0.427448183298111,-0.691670720740693,-0.297606588091785,0.42817712498415,9
1.37999725341797,-0.309872418642044,2.51079106330872,1.43705415725708,-0.450469530727146,2.77199192602736,1.42171918854144,2147.225,3142.164,3038.479,713.4026,-0.07711556,-0.004638162,0.1137755,-0.636474311351776,-0.382471084594727,0.428520649671555,-0.704356955827446,-0.303065120637236,0.436030508832034,9
1.39999771118164,-0.322862178087234,2.50310802459717,1.44585287570953,-0.464682951063699,2.76587628833354,1.43051797280888,2026.422,2990.168,2812.32,1244.679,-0.07662234,-0.004216849,0.1129144,-0.649490058422089,-0.384151726961136,0.439936012029648,-0.716933326165324,-0.308476381450513,0.44381588116678,9
1.41999816894531,-0.336073458194733,2.49540162086487,1.45463109016418,-0.47914673136562,2.75965292774086,1.43947174182117,2184.544,3176.326,3100.939,590.382,-0.08002479,-0.004263721,0.1141305,-0.660561501979828,-0.385321617126465,0.438912361860275,-0.729391385793766,-0.313836736470737,0.451528013536465,9
1.43999862670898,-0.349547266960144,2.48765015602112,1.46369385719299,-0.4938584461112,2.75332288788357,1.44857899406484,2002.139,2952.606,2762.237,1378.94,-0.0786016,-0.003709251,0.112872,-0.673693835735321,-0.387575805187225,0.453140318393707,-0.741725227577294,-0.31914364402254,0.459163249142831,9
1.45999908447266,-0.363227367401123,2.47987198829651,1.4726710319519,-0.508815552717244,2.74688726276417,1.45783815555978,2233.816,3226.564,3188.552,411.2289,-0.08296706,-0.003855725,0.1146876,-0.684004724025726,-0.388909697532654,0.448861837387085,-0.753929052770513,-0.324394609067776,0.466717998286247,9
1.47999954223633,-0.377177149057388,2.47203636169434,1.48201644420624,-0.524015393706918,2.74034719582071,1.46724758120123,1958.489,2895.104,2680.092,1587.474,-0.08013985,-0.003111637,0.1128109,-0.697489261627197,-0.391785740852356,0.467273384332657,-0.76599717101811,-0.329587183205524,0.474188738365705,9
1.5,-0.391313493251801,2.4641740322113,1.49117767810822,-0.539455198877605,2.73370387899399,1.4768055561018,2303.893,3302.709,3312.64,144.467,-0.0859711,-0.003421629,0.1155145,-0.706817209720612,-0.393120437860489,0.458063870668411,-0.777924000354858,-0.334718964672088,0.481572013878822,9
1.52000045776367,-0.405733525753021,2.45623970031738,1.50083243846893,-0.555132087468752,2.72695855179478,1.48651029693349,1886.057,2809.455,2547.578,1907.516,-0.08104479,-0.002398443,0.112694,-0.721001505851746,-0.396713644266129,0.482737421989441,-0.789704067205609,-0.339787598340998,0.488864436421842,9
1.53999710083008,-0.4203240275383,2.44827556610107,1.5102459192276,-0.571040013494911,2.72011381564173,1.49635806094328,2205,3567.575,3292.997,0,-0.08745874,-0.002139051,0.1170909,-0.729523122310638,-0.398204535245895,0.470673978328705,-0.801329803423436,-0.344789827850059,0.496061320951293,9
1.55999755859375,-0.435202449560165,2.44023299217224,1.52019190788269,-0.587181951496087,2.71316839067337,1.50635068951315,1906.23,2646.9,2444.221,2169.293,-0.08108474,-0.0003829625,0.1135924,-0.743924558162689,-0.402124971151352,0.497298419475555,-0.812800388649436,-0.349725300221754,0.503162159625937,9
1.57999801635742,-0.450243175029755,2.43216037750244,1.52987790107727,-0.603551689586986,2.70612494969039,1.51648433719019,2153.938,3694.64,3225.975,0,-0.08725208,0.0008496461,0.1182085,-0.752035796642303,-0.40362623333931,0.484299600124359,-0.824108441976122,-0.354590839657789,0.510162383312438,9
1.59999847412109,-0.465563654899597,2.42401456832886,1.54006087779999,-0.620145926473056,2.69898491314762,1.52675696031579,2013.363,2535.601,2451.881,2175.819,-0.0811103,0.003317167,0.1137901,-0.766025304794312,-0.407285988330841,0.509151577949524,-0.835248923368005,-0.359384277571697,0.517058871988737,9
1.61999893188477,-0.481040596961975,2.41584205627441,1.54999220371246,-0.636961261140657,2.69174974440622,1.53716645350051,2188.823,3680.755,3220.313,0,-0.08756687,0.00518566,0.1172381,-0.773844122886658,-0.408629536628723,0.496564954519272,-0.846216901179681,-0.364103492014234,0.523848572731403,9
1.63999938964844,-0.496779441833496,2.40760278701782,1.56036269664764,-0.653994195024907,2.68442094880091,1.54771065096602,2096.293,2521.685,2570.275,1995.448,-0.08311566,0.007897728,0.1121636,-0.786945521831512,-0.411963105201721,0.518523931503296,-0.857007552155828,-0.368746407673381,0.530528499715628,9
1.65999984741211,-0.512668907642365,2.39933490753174,1.57051575183868,-0.671241134177535,2.67700007270724,1.55838732788714,2213.889,3620.642,3271.146,0,-0.09015705,0.009906717,0.1145299,-0.794472932815552,-0.413398057222366,0.507655322551727,-0.867616161431205,-0.373310995874343,0.537095734215228,9
1.68000030517578,-0.528799533843994,2.39099860191345,1.5810512304306,-0.688698391434734,2.66948870260877,1.56919420173384,2128.182,2559.541,2739.396,1759.178,-0.08754929,0.01242635,0.1097176,-0.806533992290497,-0.416816115379333,0.526773929595947,-0.878038122530658,-0.377795274579551,0.543547424602645,9
1.69999694824219,-0.545076012611389,2.38262438774109,1.59140682220459,-0.706358800111611,2.66188992212981,1.58012683598675,2247.293,3508.475,3362.993,0,-0.09469987,0.01408408,0.1116241,-0.813820123672485,-0.418707251548767,0.517781376838684,-0.888267004546665,-0.382196476749158,0.549879589839776,9
1.71999740600586,-0.561580002307892,2.37417078018188,1.60212540626526,-0.724225231782013,2.65420249571236,1.5911870082869,2118.579,2620.454,2867.258,1583.289,-0.09270517,0.01609167,0.1076921,-0.825199663639069,-0.422678351402283,0.53593111038208,-0.898302321135456,-0.386514393123025,0.556091928856661,9
1.73999786376953,-0.578226447105408,2.36566638946533,1.61269450187683,-0.742290383213093,2.64642956573347,1.60237019758524,2271.23,3433.294,3422.521,0,-0.09919689,0.01714368,0.1099959,-0.832324087619781,-0.425220876932144,0.52845561504364,-0.908137821269591,-0.39074633405868,0.562180571969536,9
1.7599983215332,-0.59509539604187,2.35706853866577,1.62363755702972,-0.760550216073323,2.63857286977439,1.61367390396219,2096.409,2668.203,2894.851,1533.95,-0.09647194,0.01857198,0.1070969,-0.843449115753174,-0.429894983768463,0.547150492668152,-0.917769332013572,-0.394890504058555,0.568142935932543,9
1.77999877929688,-0.612103402614594,2.34841012954712,1.6344358921051,-0.779000609654483,2.63063418086074,1.62509557650306,2295.84,3404.083,3430.673,0,-0.1019889,0.01900949,0.110175,-0.850397169589996,-0.432909429073334,0.539917588233948,-0.927192788821983,-0.398945154262308,0.57397650459845,9
1.79999923706055,-0.629335105419159,2.33964896202087,1.64563679695129,-0.79763736303951,2.62261530652977,1.63663261464007,2070.99,2690.184,2833.313,1605.034,-0.09780832,0.01999878,0.1078984,-0.861587643623352,-0.438071221113205,0.560043215751648,-0.936404235539493,-0.402908582446823,0.579678828918647,9
1.81999969482422,-0.646701097488403,2.3308253288269,1.6566778421402,-0.816456197270346,2.61451808789761,1.64828236949435,2301.15,3440.316,3390.595,0,-0.1025626,0.02006258,0.1117599,-0.868297457695007,-0.441186606884003,0.552054107189178,-0.945399824400851,-0.406779133026206,0.585247526943151,9
1.84000015258789,-0.66429340839386,2.32189702987671,1.6681432723999,-0.835452757515797,2.60634439872645,1.66004214521794,2055.522,2681.101,2739.448,1730.58,-0.09711111,0.02088572,0.1095984,-0.879619777202606,-0.446410119533539,0.573272049427032,-0.954175816030892,-0.41055519705179,0.590680283820602,9
1.8599967956543,-0.682014524936676,2.31291174888611,1.67942237854004,-0.854618942724365,2.59809772467243,1.67190692687406,2294.814,3494.79,3344.796,0,-0.1015756,0.02087011,0.1138799,-0.886053442955017,-0.44925844669342,0.563953042030334,-0.962726969681477,-0.41423451957606,0.595973855278252,9
1.87999725341797,-0.699963450431824,2.30382871627808,1.69113457202911,-0.873957566090845,2.58977685529642,1.6838784559643,2051.68,2654.599,2670.601,1837.759,-0.09544769,0.02175493,0.111422,-0.897445261478424,-0.45415598154068,0.585608601570129,-0.971053025860989,-0.417816988947023,0.601128080678429,9
1.89999771118164,-0.71803605556488,2.29469776153564,1.70264005661011,-0.893460418296025,2.58138532283915,1.69595165052899,2278.141,3546.907,3313.733,0,-0.09995536,0.02187883,0.1157489,-0.903634607791901,-0.456544697284698,0.575273394584656,-0.979148917665041,-0.421300425017273,0.606139823365946,9
1.91999816894531,-0.736334800720215,2.28547978401184,1.71457195281982,-0.913122862707269,2.57292512231409,1.70812364027167,2063.061,2626.176,2650.132,1881.616,-0.09379014,0.0229244,0.1128857,-0.914936184883118,-0.460896879434586,0.596594154834747,-0.987011339258123,-0.424683405378145,0.611007036871143,9
1.93999862670898,-0.754753172397614,2.27622413635254,1.72628700733185,-0.932940197657643,2.56439827671719,1.72039151463653,2266.683,3566.237,3310.888,0,-0.09846132,0.02322971,0.1169571,-0.92091977596283,-0.462785392999649,0.585750579833984,-0.99463709319481,-0.4279645542582,0.615727741822989,9
1.95999908447266,-0.773393034934998,2.26689291000366,1.73841524124146,-0.952907658613767,2.55580683609405,1.73275232415044,2078.575,2609.57,2670.584,1865.77,-0.09256881,0.02439417,0.1137595,-0.931994795799255,-0.466562420129776,0.606412947177887,-1.00202309041976,-0.431142542523221,0.620300025949072,9
1.97999954223633,-0.792149066925049,2.25753259658813,1.75032830238342,-0.973020420343666,2.54715287660719,1.74520308176496,2261.507,3563.171,3322.453,0,-0.09731137,0.02480087,0.1175035,-0.937795162200928,-0.468020111322403,0.595654189586639,-1.00916635026771,-0.434216087676217,0.62472204407561,9
2,-0.811119675636292,2.24810671806335,1.7626394033432,-0.993273599084619,2.53843849960327,1.7577407641983,2092.34,2607.743,2706.394,1817.126,-0.09173418,0.02597262,0.114167,-0.948535203933716,-0.471297442913055,0.615556836128235,-1.01606400046349,-0.437183953857422,0.628992018127441,9
2.01999664306641,-0.830202162265778,2.23865866661072,1.77473974227905,-1.01365835337184,2.52966750931758,1.77035989816261,2266.152,3540.214,3340.333,0,-0.09641868,0.02633465,0.1176305,-0.954123377799988,-0.472402215003967,0.605019986629486,-1.02271203275434,-0.440044416427654,0.633107466805174,9
2.03999710083008,-0.849492251873016,2.22915267944336,1.78722858428955,-1.03417746715556,2.52083870789413,1.78306220705567,2095.387,2617.766,2733.347,1772.528,-0.09096026,0.02740002,0.1142947,-0.96450400352478,-0.475284785032272,0.624440610408783,-1.02911032850577,-0.442797424341804,0.637068316668402,9
2.05999755859375,-0.868888735771179,2.21963119506836,1.79950904846191,-1.05482201812353,2.5119559343546,1.79584216754118,2269.641,3522.305,3349.86,0,-0.09547912,0.02761431,0.1176492,-0.969823360443115,-0.476091176271439,0.614022731781006,-1.03525504859546,-0.445441325732794,0.640872191117535,9
2.07999801635742,-0.888485848903656,2.21005821228027,1.81217432022095,-1.07558691007788,2.50302138145056,1.8086966248299,2090.058,2629.578,2736.169,1755.578,-0.08990992,0.02852154,0.1143835,-0.979857623577118,-0.478646785020828,0.633261561393738,-1.04114375428791,-0.447975071280863,0.644517580459114,9
2.09999847412109,-0.908182501792908,2.20047521591187,1.82462513446808,-1.09646699912883,2.4940372624541,1.82162239460902,2268.452,3514.396,3350.031,0,-0.09425034,0.02855822,0.1177721,-0.984830319881439,-0.479150801897049,0.622540712356567,-1.04677411523768,-0.450397658303471,0.648003042098304,9
2.11999893188477,-0.928073585033417,2.19084739685059,1.83746242523193,-1.11745709586255,2.485005810225,1.83461626438416,2077.127,2634.146,2716.921,1773.949,-0.08835783,0.0293288,0.1145248,-0.994555294513702,-0.481384873390198,0.641864001750946,-1.0521439094894,-0.452708130755304,0.651327200538896,9
2.13999938964844,-0.948056221008301,2.18121671676636,1.85007417201996,-1.138551967509,2.47592927627801,1.8476749948214,2259.788,3524.357,3337.219,0,-0.09253473,0.02923953,0.1180222,-0.999130845069885,-0.481548845767975,0.630585551261902,-1.05725102347782,-0.454905579228273,0.654488747383304,8
2.15999984741211,-0.968226969242096,2.17154836654663,1.86307334899902,-1.15974634010981,2.46680992985011,1.86079532108929,2065.682,2628.876,2685.468,1811.416,-0.08628855,0.02993797,0.1147048,-1.00853931903839,-0.483404964208603,0.649958193302155,-1.06209345202774,-0.456989140951513,0.657486441332569,8
2.18000030517578,-0.988480627536774,2.16188526153564,1.8758317232132,-1.18103490068612,2.45765005696766,1.87397395420079,2249.777,3538.25,3320.331,0,-0.0903797,0.02978992,0.1182477,-1.01267945766449,-0.483168959617615,0.637920260429382,-1.06666929835407,-0.458957999791384,0.660319108186354,7
2.19999694824219,-1.00891542434692,2.15219354629517,1.88897669315338,-1.20240821395574,2.44845371736898,1.88720505326679,2057.063,2618.236,2654.06,1850.381,-0.08387093,0.03047219,0.1147473,-1.02173757553101,-0.484579473733902,0.657248795032501,-1.07097597819164,-0.460811043810786,0.662985148161421,7
2.21999740600586,-1.02942359447479,2.14251565933228,1.9018657207489,-1.22386905090202,2.43921971877738,1.90049033365798,2235.462,3555.273,3303.64,0,-0.08796208,0.03032807,0.1182593,-1.02541530132294,-0.483908414840698,0.644449234008789,-1.07501345493598,-0.46254825725983,0.665484538597853,7
2.23999786376953,-1.0501047372818,2.13281869888306,1.91513681411743,-1.24540792547886,2.42995214277345,1.91382392305993,2052.512,2604.838,2630.45,1878.762,-0.08133987,0.03102918,0.1145246,-1.03405630588531,-0.484833031892776,0.663552701473236,-1.07877930973132,-0.464168599372462,0.667815782108711,5
2.2599983215332,-1.07084989547729,2.12314414978027,1.92813909053802,-1.26701939030951,2.42065333321126,1.92720244928693,2222.906,3567.047,3289.577,0,-0.08550292,0.0309126,0.117919,-1.03725528717041,-0.483729332685471,0.65011590719223,-1.08227207933222,-0.465671440555045,0.66997797287536,4
2.27999877929688,-1.09175765514374,2.11346101760864,1.94151389598846,-1.28869796983554,2.41132564607061,1.9406225227075,2048.553,2592.861,2620.012,1890.165,-0.07892065,0.03163037,0.1139623,-1.04539251327515,-0.484168887138367,0.668739080429077,-1.08549040888332,-0.467056197851165,0.67197027217779,3
2.29999923706055,-1.11271977424622,2.1038076877594,1.95460987091064,-1.31043816248474,2.40197144852433,1.95408073758635,2214.023,3566.718,3283.116,0,-0.0831636,0.03151968,0.1171721,-1.04809939861298,-0.482664436101913,0.654799818992615,-1.08843305191934,-0.468322334941636,0.673791908394614,0
2.31999969482422,-1.13383328914642,2.09415435791016,1.96806871891022,-1.33223444283894,2.39259311800549,1.96757367342642,2043.822,2586.924,2616.925,1887.504,-0.07667507,0.03221732,0.1130399,-1.05567979812622,-0.482665538787842,0.672942042350769,-1.09109887036509,-0.469469362144493,0.675442177003072,0
2.34000015258789,-1.15499091148376,2.08453798294067,1.98124098777771,-1.35408126380187,2.38319304127467,1.98109789631088,2204.823,3563.239,3278.789,0,-0.08097501,0.03207409,0.116098,-1.05787575244904,-0.480816125869751,0.658612608909607,-1.09348683453544,-0.470496836415,0.676920440579027,0
2.3599967956543,-1.17628812789917,2.07492876052856,1.99476718902588,-1.37596887940059,2.37377541175173,1.99464737301821,2035.916,2583.936,2613.737,1883.631,-0.07454614,0.03271712,0.1118616,-1.06486713886261,-0.480444014072418,0.676311373710632,-1.09559564748259,-0.471404199712748,0.678225896250009,0
2.37999725341797,-1.19761872291565,2.06536316871643,2.00799822807312,-1.39790005743958,2.36433903852774,2.00822381695123,2196.745,3556.277,3275.346,0,-0.07885673,0.03250358,0.1148168,-1.06652879714966,-0.478296369314194,0.66155469417572,-1.09742530100382,-0.472191448508328,0.679358538938131,0
2.39999771118164,-1.2190774679184,2.05581092834473,2.02157831192017,-1.41986502747765,2.35488812555058,2.02182117974142,2024.979,2582.397,2602.94,1888.096,-0.07237992,0.03307046,0.1105022,-1.07293725013733,-0.477607607841492,0.679004371166229,-1.09897466165884,-0.47285809511406,0.680317666989874,0
2.41999816894531,-1.24055850505829,2.04630708694458,2.03485417366028,-1.44185817738692,2.34542508756209,2.03543598721428,2187.229,3556.301,3264.979,0,-0.07668412,0.0327767,0.1134234,-1.07404589653015,-0.475196003913879,0.663789868354797,-1.10024313330221,-0.473403883025206,0.681102911362803,0
2.43999862670898,-1.2621556520462,2.03682279586792,2.0484733581543,-1.46387388420027,2.33595234396796,2.0490647584853,2011.446,2578.208,2586.546,1902.428,-0.07011358,0.03327185,0.1090452,-1.07985889911652,-0.474215865135193,0.680954158306122,-1.10123022817855,-0.473828602374257,0.681713970113108,0
2.45999908447266,-1.28376364707947,2.02739191055298,2.06177663803101,-1.48590651627916,2.32647231790489,2.06270400730194,2179.87,3553.81,3254.228,0,-0.07440712,0.03289741,0.111923,-1.08039927482605,-0.471547096967697,0.665162444114685,-1.10193556692257,-0.474132089930926,0.682150608395601,0
2.47999954223633,-1.30547606945038,2.01798629760742,2.07541990280151,-1.50795043548148,2.31698743530794,2.07635024338568,1997.415,2574.056,2565.09,1922.224,-0.06771087,0.03332682,0.1074451,-1.08562433719635,-0.470285385847092,0.682166755199432,-1.10235887855907,-0.474314229102152,0.682412658463722,0
2.5,-1.32718777656555,2.00863885879517,2.08873534202576,-1.52999999932945,2.30750012397766,2.08999997377396,2167.893,3559.323,3239.505,0,-0.07201933,0.03289349,0.1103072,-1.08558452129364,-0.467367172241211,0.665777266025543,-1.10250000050292,-0.474374949932098,0.682500019669533,0
2.51999664306641,-1.34899187088013,1.99932217597961,2.10238647460938,-1.55204535801192,2.29801462201262,2.10364710096447,1983.817,2566.479,2542.686,1945.468,-0.06521869,0.03327876,0.1057192,-1.09020519256592,-0.465826362371445,0.682559430599213,-1.10235893238473,-0.47431425226183,0.68241269178437,0
2.53999710083008,-1.37078332901001,1.99006903171539,2.11569690704346,-1.57408927882895,2.2885297387209,2.11729333804778,2156.704,3561.967,3226.611,0,-0.0695607,0.03280445,0.1085368,-1.08957803249359,-0.462660998106003,0.665520846843719,-1.10193567455836,-0.474132136243598,0.68215067502728,0
2.55999755859375,-1.39265525341034,1.98085200786591,2.12933945655823,-1.59612191359838,2.27904971150017,2.13093258853001,1971.379,2558.482,2520.817,1967.4,-0.06267217,0.03315664,0.1038098,-1.0935879945755,-0.460846573114395,0.682129740715027,-1.10123038958312,-0.473828671822132,0.681714070030222,0
2.57999801635742,-1.41450273990631,1.97170317173004,2.14263010025024,-1.6181376241771,2.2695769662859,2.14456136213196,2144.272,3568.43,3210.956,0,-0.06707384,0.03265806,0.1065801,-1.09237468242645,-0.457449734210968,0.664531826972961,-1.10024334841354,-0.473403975581601,0.681103044526962,0
2.59999847412109,-1.43641746044159,1.96259570121765,2.15624570846558,-1.64013077892511,2.26011392621545,2.15817617260023,1959.118,2549.334,2504.214,1984.364,-0.06016667,0.0329849,0.1017325,-1.09573769569397,-0.455371975898743,0.680785775184631,-1.09897493039424,-0.472858210743393,0.680317833349887,0
2.61999893188477,-1.45829629898071,1.95356059074402,2.16949868202209,-1.66209575487342,2.25066301069528,2.17177353904914,2136.404,3565.212,3200.494,0,-0.06463013,0.0324527,0.1044017,-1.09394121170044,-0.451759338378906,0.662650525569916,-1.09742562325992,-0.472191587166126,0.67935873843001,0
2.63999938964844,-1.480229139328,1.94457149505615,2.18307113647461,-1.68402693989188,2.24122663446822,2.18534998730279,1946.575,2544.176,2490.468,1994.798,-0.05772135,0.03273746,0.09943835,-1.09664988517761,-0.449443370103836,0.678623616695404,-1.09559602313537,-0.471404361345641,0.67822612879697,0
2.65999984741211,-1.50211465358734,1.9356586933136,2.1962718963623,-1.70591873485703,2.23180720668066,2.19890205123703,2125.905,3564.847,3189.579,0,-0.06224234,0.03216269,0.1020397,-1.09427189826965,-0.445644795894623,0.660038888454437,-1.09348683453544,-0.470496836414999,0.676920440579028,0
2.67999649047852,-1.52404081821442,1.92679619789124,2.20978617668152,-1.72776139360717,2.22240892083372,2.2124236975135,1932.946,2539.335,2477.248,2004.992,-0.0553277,0.03239743,0.09700285,-1.09631586074829,-0.443122237920761,0.675713002681732,-1.09109935234628,-0.469469569527535,0.67544247537239,0
2.69999694824219,-1.54590797424316,1.91801285743713,2.22291898727417,-1.74955768413056,2.21303058593937,2.22591663964878,2117.515,3559.749,3180.986,0,-0.05988437,0.03176466,0.09954425,-1.09335792064667,-0.439159780740738,0.656645238399506,-1.08843358680109,-0.468322565086308,0.673792239511893,0
2.71999740600586,-1.56780314445496,1.90928387641907,2.23636221885681,-1.77129788800495,2.2036763835632,2.23937486147656,1918.215,2535.858,2460.766,2018.282,-0.05290955,0.0319389,0.09443823,-1.09475314617157,-0.436457246541977,0.67216569185257,-1.08549099645889,-0.467056450668518,0.671970635915057,0
2.73999786376953,-1.58962750434875,1.90063691139221,2.24941539764404,-1.79297647980783,2.19434869114016,2.25279494249708,2107.645,3560.538,3167.642,0,-0.05749658,0.03124798,0.09696185,-1.09122204780579,-0.43234995007515,0.652653753757477,-1.08227271937422,-0.465671715947234,0.669978369091845,0
2.7599983215332,-1.61146676540375,1.89204716682434,2.26277422904968,-1.81458795796224,2.18504987584512,2.26617347697213,1902.339,2530.677,2443.129,2035.16,-0.05045785,0.03136752,0.09180663,-1.09196519851685,-0.429479598999023,0.667940080165863,-1.07878000199166,-0.464168897232749,0.667816210650842,0
2.77999877929688,-1.63322424888611,1.88354253768921,2.27573251724243,-1.83612684690458,2.17578229366013,2.27950707526701,2100.938,3555.985,3156.436,0,-0.05506884,0.03061444,0.09428915,-1.08786880970001,-0.425231575965881,0.647919952869415,-1.07501419914593,-0.462548577472581,0.665484999299265,0
2.79999923706055,-1.6549836397171,1.87509870529175,2.28899431228638,-1.85758769925251,2.16654828844162,2.29279236519255,1886.142,2526.958,2423.509,2053.243,-0.04794382,0.03067651,0.08906463,-1.08797657489777,-0.422200113534927,0.663089096546173,-1.07097677406178,-0.460811386251471,0.662985640842947,0
2.81999969482422,-1.67665028572083,1.86674225330353,2.30184602737427,-1.87896509797278,2.15735019098767,2.30602599334712,2090.708,3557.663,3142.395,0,-0.05258625,0.02987176,0.09153599,-1.08332276344299,-0.417818278074265,0.642589271068573,-1.06666929835407,-0.458957999791384,0.660319108186353,0
2.83999633789063,-1.6983060836792,1.85844969749451,2.31499791145325,-1.90024960698239,2.14819206138118,2.31920211834584,1870.18,2521.404,2403.416,2073.172,-0.04538559,0.02988704,0.08625197,-1.08279550075531,-0.414628833532333,0.657593011856079,-1.06209435025759,-0.456989527434725,0.657486997379635,0
2.8599967956543,-1.71985805034637,1.85024738311768,2.32772922515869,-1.9214439980555,2.13907270700516,2.33232245604895,2082.09,3555.507,3130.555,0,-0.05006317,0.02903536,0.0886943,-1.07759320735931,-0.410114228725433,0.636563181877136,-1.05725197237562,-0.454905987512489,0.654489334796247,0
2.87999725341797,-1.74138677120209,1.84211206436157,2.34075903892517,-1.94253888918396,2.12999616467562,2.34538119854648,1854.614,2516.284,2382.426,2093.439,-0.04277623,0.02900686,0.08333195,-1.07644462585449,-0.406769812107086,0.651491463184357,-1.05214490868305,-0.452708560680416,0.651327819087361,0
2.89999771118164,-1.76280081272125,1.83406949043274,2.35335898399353,-1.96352900640172,2.1209647036328,2.35837508100222,2071.857,3558.342,3115.304,0,-0.04750227,0.02811988,0.0857605,-1.07070672512054,-0.402129113674164,0.629999339580536,-1.04677516433438,-0.450398109700476,0.648003691539142,0
2.91999816894531,-1.78417944908142,1.82609677314758,2.36625337600708,-1.98440911693069,2.11198057539494,2.37130086407726,1838.794,2509.837,2364.004,2112.342,-0.04016952,0.02805647,0.0803376,-1.06892848014832,-0.398632496595383,0.644716024398804,-1.04114485287423,-0.447975543971863,0.644518260536375,0
2.93999862670898,-1.80543303489685,1.81821930408478,2.37870812416077,-2.00517403134858,2.10304601282548,2.38415533527198,2065.416,3553.403,3104.22,0,-0.04494351,0.02712893,0.08271113,-1.06266832351685,-0.393869906663895,0.622740566730499,-1.03525619623725,-0.445441819530995,0.640872901562472,0
2.95999908447266,-1.82663822174072,1.81041479110718,2.39145493507385,-2.02581860575671,2.0941632292003,2.39693531026807,1822.865,2506.201,2346.406,2128.062,-0.03756335,0.02702226,0.07721938,-1.06027162075043,-0.390229791402817,0.63734245300293,-1.02911152474823,-0.442797939051516,0.637069057199471,0
2.97999954223633,-1.84770822525024,1.80270767211914,2.40375399589539,-2.04633774394789,2.08533441727499,2.40963763427052,2055.991,3553.092,3091.442,0,-0.04238581,0.02605539,0.07956909,-1.05350112915039,-0.385357290506363,0.614950597286224,-1.022713277122,-0.440044951844293,0.633108237128031,0
3,-1.86871814727783,1.79507613182068,2.41634202003479,-2.06672639957428,2.07656174835205,2.42225918334961,1806.677,2501.927,2328.987,2144.209,-0.03496518,0.02590631,0.07403611,-1.05048859119415,-0.381584763526917,0.629396617412567,-1.01606400046349,-0.437183953857422,0.628992018127441,0
3.01999664306641,-1.88958239555359,1.78754377365112,2.42847299575806,-2.08697572864857,2.06784902775215,2.4347944826559,2049.258,3548.036,3080.667,0,-0.0398313,0.0248936,0.07635172,-1.04322159290314,-0.376609891653061,0.606554210186005,-1.00916768936771,-0.434216663853534,0.624722873042298,0
3.03999710083008,-1.91037440299988,1.78008961677551,2.44089126586914,-2.10708851762775,2.05919505654068,2.44724525713902,1789.169,2498.679,2311.231,2161.189,-0.03234303,0.02469784,0.07077525,-1.03960871696472,-0.372713208198547,0.620912134647369,-1.00202447609459,-0.431143138740389,0.620300883747801,0
3.05999755859375,-1.93101167678833,1.77273678779602,2.45284461975098,-2.12705600675913,2.05060360379452,2.45960608409476,2041.644,3546.187,3067.537,0,-0.03724165,0.02364023,0.07307588,-1.03186178207397,-0.367642134428024,0.597673356533051,-0.994638524886308,-0.427965170275055,0.615728628108227,0
3.07999801635742,-1.95156502723694,1.76546406745911,2.465083360672,-2.14687337079936,2.04207674568107,2.47187397646763,1772.895,2495.536,2291.386,2178.76,-0.02969798,0.02339839,0.06746666,-1.0276585817337,-0.363624602556229,0.611940562725067,-0.987012816387451,-0.424684040945629,0.611007951284564,0
3.09999847412109,-1.97195398807526,1.75829482078552,2.47684764862061,-2.16653584520328,2.033616532251,2.4840459847772,2034.345,3541.999,3056.289,0,-0.03464559,0.02229557,0.06974952,-1.01944291591644,-0.358459532260895,0.588217675685883,-0.979150439632689,-0.421301079877433,0.606140765536421,0
3.11999893188477,-1.99224710464478,1.75120842456818,2.48889708518982,-2.18603872829175,2.02522498650551,2.49611919846012,1755.102,2491.875,2270.706,2199.529,-0.02701937,0.02201119,0.06409311,-1.01466846466064,-0.354325383901596,0.602472245693207,-0.971054592046769,-0.41781766283301,0.601129050222034,0
3.13999938964844,-2.01236724853516,1.74422693252563,2.50046348571777,-2.20537738341953,2.01690410346351,2.50809074721212,2025.08,3542.529,3042.332,0,-0.03201066,0.02087592,0.06637859,-1.00600171089172,-0.349069714546204,0.578316450119019,-0.962728579444533,-0.414235212212131,0.595974851798267,0
3.15999984741211,-2.0323805809021,1.73733067512512,2.5123131275177,-2.2245472411431,2.00865584922888,2.51995780232997,1738.462,2486.847,2250.438,2219.914,-0.02431999,0.02055923,0.06068501,-1.00066292285919,-0.344817578792572,0.592488169670105,-0.954175816030892,-0.41055519705179,0.590680283820602,0
3.17999649047852,-2.05221176147461,1.73054111003876,2.52367067337036,-2.2435401949712,2.00048371179835,2.53171534550942,2018.893,3538.183,3030.307,0,-0.02935975,0.01939251,0.06294225,-0.991563022136688,-0.339471250772476,0.567874789237976,-0.9454015193052,-0.406779862296197,0.585248576169681,0
3.19999694824219,-2.07192516326904,1.72383904457092,2.53531050682068,-2.2623590635174,1.99238647840124,2.54336512160655,1721.4,2483.208,2231.287,2238.473,-0.02160942,0.01904232,0.05720057,-0.98567122220993,-0.335101902484894,0.581995964050293,-0.936405971974636,-0.402909329586355,0.579679903854719,0
3.21999740600586,-2.09144830703735,1.71724581718445,2.54645037651062,-2.28099585204123,1.98436758895103,2.55490218149615,2011.789,3536.13,3017.04,0,-0.02670139,0.01784688,0.05943559,-0.976154446601868,-0.32966935634613,0.55698949098587,-0.927194566064376,-0.398945918960059,0.573977604796153,0
3.23999786376953,-2.11084246635437,1.71074223518372,2.55787110328674,-2.29944628156995,1.97642888457015,2.56632387629027,1705.423,2480.211,2212.045,2255.299,-0.01892389,0.01746294,0.05365939,-0.969716489315033,-0.325187891721725,0.57103705406189,-0.917771149318993,-0.394891285994308,0.568144060931169,0
3.2599983215332,-2.13003873825073,1.70434856414795,2.56878280639648,-2.31770615117141,1.96857217280235,2.57762760541179,2005.143,3531.031,3006.368,0,-0.02408669,0.01623629,0.05586812,-0.959796488285065,-0.319677084684372,0.545581817626953,-0.908139677873146,-0.390747132903322,0.562181721295578,0
3.27999877929688,-2.14909529685974,1.69804668426514,2.57997512817383,-2.33577134012187,1.96079922667992,2.58881081793642,1687.663,2477.389,2193.488,2273.394,-0.01626606,0.0158185,0.05005722,-0.952828228473663,-0.315095126628876,0.55961412191391,-0.898304216251578,-0.386515208538549,0.556093102023818,0
3.29999923706055,-2.16794562339783,1.69185650348663,2.59065055847168,-2.35363781007389,1.95311178379095,2.59987101393471,1997.197,3528.841,2994.271,0,-0.02148638,0.01456627,0.05226164,-0.942523956298828,-0.309515476226807,0.533768773078918,-0.888268937369113,-0.38219730838866,0.549880786348944,0
3.31999969482422,-2.1866466999054,1.68575954437256,2.60160565376282,-2.37130160722417,1.94551154534655,2.61080574581408,1670.978,2474.069,2174.771,2291.052,-0.0136258,0.01411812,0.04643271,-0.935038447380066,-0.304839551448822,0.547760248184204,-0.878038122530657,-0.377795274579551,0.543547424602645,0
3.33999633789063,-2.20513391494751,1.67977571487427,2.61203575134277,-2.38875555478454,1.93800159931817,2.62161057080077,1991.621,3523.154,2983.448,0,-0.01890205,0.01283792,0.04861944,-0.924369752407074,-0.299196302890778,0.521500110626221,-0.867618167158097,-0.373311858882592,0.53709697585572,0
3.3599967956543,-2.22346186637878,1.67388701438904,2.62274551391602,-2.40600253440574,1.930580705812,2.63228727277387,1653.589,2471.582,2156.122,2308.841,-0.0109898,0.01235786,0.04276695,-0.916383743286133,-0.294431418180466,0.535491108894348,-0.85700959304645,-0.368747285811601,0.530529763124145,0
3.37999725341797,-2.24156904220581,1.66811263561249,2.63292288780212,-2.42303550945299,1.9232518924954,2.64283149572124,1985.751,3519.581,2971.002,0,-0.01632038,0.01105211,0.04494327,-0.905369877815247,-0.288728892803192,0.508864462375641,-0.846218976345105,-0.364104384899943,0.523849857357654,0
3.39999771118164,-2.25950717926025,1.66243481636047,2.64337968826294,-2.43985088596004,1.91601670575165,2.65324101480657,1637.441,2469.543,2136.654,2325.818,-0.008380968,0.01054115,0.0390752,-0.896896421909332,-0.283878535032272,0.522841095924377,-0.835251031898626,-0.359385184813519,0.517060177269636,0
3.41999816894531,-2.27721810340881,1.65687251091003,2.65329551696777,-2.45644516534361,1.90887665092339,2.66351366424015,1980.17,3513.885,2960.521,0,-0.01378612,0.009209967,0.04123688,-0.885554790496826,-0.278123110532761,0.495790719985962,-0.824110582941664,-0.354591760855451,0.510163708672097,0
3.43999862670898,-2.29475069046021,1.65140843391418,2.66349148750305,-2.47281494657125,1.90183319137989,2.67364733862088,1619.97,2467.458,2117.657,2344.157,-0.005809952,0.008669855,0.0353489,-0.876611948013306,-0.273196816444397,0.509802341461182,-0.812802561098952,-0.34972623496609,0.503163504475677,0
3.45999908447266,-2.31204986572266,1.64606034755707,2.6731390953064,-2.48895692832918,1.89488774758421,2.68363999427827,1973.397,3510.927,2948.825,0,-0.01128435,0.007321067,0.03751244,-0.864962637424469,-0.267396509647369,0.482378780841827,-0.801332006385299,-0.344790775723006,0.496062684689628,0
3.47999954223633,-2.3291609287262,1.64081263542175,2.68306684494019,-2.50486791119015,1.88804169616054,2.69348965061443,1603.412,2464.874,2099.303,2361.59,-0.003283678,0.006757715,0.0316189,-0.855565905570984,-0.262401103973389,0.496388494968414,-0.789704067205609,-0.339787598340998,0.488864436421841,0
3.49999618530273,-2.34603381156921,1.63568139076233,2.69243860244751,-2.52054183223243,1.88129764581471,2.703192554392,1969.104,3504.622,2938.365,0,-0.008828912,0.005390705,0.03376871,-0.843631446361542,-0.256562918424606,0.468590348958969,-0.777926261338517,-0.334719937510192,0.481573413535413,0
3.51999664306641,-2.36270952224731,1.63065123558044,2.70209097862244,-2.53598168290031,1.87465430941181,2.7127505574575,1586.326,2463.402,2081.887,2377.933,-0.0008042746,0.00480329,0.02786899,-0.833798229694366,-0.251506477594376,0.482618123292923,-0.765999459475408,-0.329588167864767,0.474190155029786,0
3.53999710083008,-2.37914156913757,1.62573838233948,2.71118068695068,-2.55118156992615,1.86811422266028,2.72216001159753,1964.706,3499.236,2927.499,0,-0.006418751,0.003419215,0.03001006,-0.821598887443542,-0.245638146996498,0.454489260911942,-0.753931367647136,-0.324395605094516,0.466719431305148,0
3.55999755859375,-2.3953685760498,1.62092757225037,2.72055149078369,-2.56613872308604,1.86167857751006,2.73141920191151,1570.487,2462.767,2064.005,2392.965,0.001609315,0.002806722,0.02411435,-0.811346292495728,-0.240528970956802,0.468545436859131,-0.741727567798258,-0.319144650954242,0.459164697851087,0
3.57999801635742,-2.41134691238403,1.61623477935791,2.72935247421265,-2.58085048488145,1.85534851740854,2.74052648328127,1960.231,3492.493,2918.362,0,-0.00408955,0.001405333,0.02625057,-0.79890251159668,-0.234640657901764,0.440044492483139,-0.72939375026341,-0.313837753835969,0.451529477255809,0
3.59999847412109,-2.42711162567139,1.61164522171021,2.73843598365784,-2.59531431270705,1.84912513636775,2.74948028171299,1553.574,2461.967,2046.359,2409.578,0.003956153,0.0007695165,0.02035949,-0.788251876831055,-0.229491785168648,0.454179167747498,-0.716935713767317,-0.308477408768949,0.443817359206151,0
3.61999893188477,-2.44262337684631,1.60717344284058,2.74694299697876,-2.6095277810186,1.84300947803163,2.75827909567923,1955.137,3488.154,2907.901,0,-0.00182107,-0.0006428871,0.02250762,-0.775586068630219,-0.223592847585678,0.425355076789856,-0.704359365424783,-0.303066157419654,0.436032000487571,0
3.63999938964844,-2.45791482925415,1.6028048992157,2.75573372840881,-2.6234885835008,1.83700253474321,2.76692149746096,1537.549,2460.733,2029.167,2425.589,0.006232078,-0.001296427,0.01663463,-0.764558434486389,-0.218413203954697,0.439534932374954,-0.691670720740692,-0.297606588091786,0.428177124984152,0
3.65999603271484,-2.47294878959656,1.59855484962463,2.76394534111023,-2.63719194552437,1.83110636089208,2.77540453133521,1943.126,3487.421,2890.22,11.27872,0.0004494402,-0.002686597,0.01880397,-0.751698851585388,-0.212510913610458,0.410583794116974,-0.678878353700696,-0.292102389931838,0.420258040401444,0
3.67999649047852,-2.48775482177734,1.59440898895264,2.77243614196777,-2.65064103434641,1.825319593696,2.783730157985,1527.087,2458.789,2015.863,2432.597,0.008451974,-0.003335343,0.01297329,-0.740312397480011,-0.207297429442406,0.424544185400009,-0.665983614869008,-0.28655414404986,0.412275582803033,0
3.69999694824219,-2.50230073928833,1.59038090705872,2.78035473823547,-2.66383127580226,1.81964420129024,2.79189554578451,1922,3487.428,2857.653,47.23121,0.002814993,-0.004640292,0.01510971,-0.727291584014893,-0.201391249895096,0.395934611558914,-0.65299527533123,-0.280965624398954,0.404235181908735,0
3.71999740600586,-2.5166118144989,1.58645844459534,2.78853583335876,-2.67676086214623,1.81408096149726,2.79989957565303,1528.494,2460.163,2012.959,2412.896,0.01057588,-0.005248558,0.009364001,-0.715552449226379,-0.196126684546471,0.409060418605804,-0.639919784131907,-0.275339605822821,0.396140829984331,0
3.73999786376953,-2.53065967559814,1.58265399932861,2.79615998268127,-2.68942811570037,1.808630596175,2.80774120902801,1900.863,3471.313,2819.564,106.7363,0.005189105,-0.006433664,0.01130165,-0.702394247055054,-0.19022125005722,0.381209790706635,-0.626763698705669,-0.269678909802388,0.38799658639423,0
3.7599983215332,-2.54446578025818,1.57895565032959,2.80402040481567,-2.70183149102237,1.80329377028414,2.81541948920704,1536.849,2473.114,2025.028,2359.239,0.01248555,-0.006993994,0.005679159,-0.690295338630676,-0.184910237789154,0.393015891313553,-0.613533684877225,-0.263986404455806,0.379806577601466,0
3.77999877929688,-2.55800557136536,1.57537508010864,2.81134819984436,-2.7139695770734,1.79807109095524,2.82293354268985,1877.719,3444.541,2778.674,183.6206,0.007404711,-0.008053931,0.00732028,-0.677000641822815,-0.179032400250435,0.366386473178864,-0.60023651686137,-0.258265004538452,0.371574997167698,0
3.79999923706055,-2.57129645347595,1.5719006061554,2.81887793540955,-2.72584109938593,1.7929631065561,2.83028258052034,1546.891,2498.213,2050.609,2277.763,0.01404548,-0.008575912,0.001925491,-0.664537191390991,-0.173714995384216,0.376484274864197,-0.586879077262983,-0.252517671442928,0.363306105753209,0
3.81999969482422,-2.58431839942932,1.56854248046875,2.82590746879578,-2.73744492223163,1.78797030575888,2.83746589962856,1850.942,3407.131,2735.803,278.4112,0.009358398,-0.009521334,0.003244693,-0.651107132434845,-0.167914181947708,0.351478844881058,-0.573468357077023,-0.246747413199059,0.355004231116903,0
3.83999633789063,-2.59708452224731,1.56528961658478,2.83309984207153,-2.74877791451009,1.78309403578861,2.84448156171422,1557.421,2532.808,2084.741,2177.569,0.01526142,-0.01001988,-0.001801895,-0.638299226760864,-0.162644624710083,0.359619349241257,-0.560014026276881,-0.240958390526246,0.346675359432959,0
3.8599967956543,-2.60957956314087,1.56215047836304,2.83983039855957,-2.75984354851568,1.77833280261403,2.85133171629293,1822.576,3360.794,2690.349,387.6933,0.01108816,-0.01086623,-0.0007973504,-0.624746680259705,-0.156967714428902,0.336531162261963,-0.546518158200277,-0.23515149552379,0.33832077419619,0
3.87999725341797,-2.62181210517883,1.55911445617676,2.84668254852295,-2.77063893010371,1.77368785150474,2.85801457175126,1569.576,2573.845,2120.747,2067.64,0.01625817,-0.01135412,-0.005412608,-0.611638724803925,-0.151783719658852,0.342613458633423,-0.532990631455729,-0.229330978680956,0.329946590735853,0
3.89999771118164,-2.63377213478088,1.55618929862976,2.85311436653137,-2.78116350015273,1.7691594230351,2.8645297819664,1795.935,3309.385,2641.332,504.9149,0.0126797,-0.01211951,-0.004716991,-0.597985744476318,-0.146255642175674,0.321592271327972,-0.519438870577852,-0.223500034567577,0.321557405192552,0
3.91999816894531,-2.64546489715576,1.55336570739746,2.85962605476379,-2.79141684911929,1.7647476934202,2.87087709341145,1582.222,2618.599,2155.012,1955.728,0.01713764,-0.01260208,-0.008867794,-0.584634244441986,-0.141172304749489,0.32558199763298,-0.505870408491346,-0.2176619043907,0.313157880805522,0
