t,x_s1,x_s2,x_s3,x_s_d1,x_s_d2,x_s_d3,propellers_rpms1,propellers_rpms2,propellers_rpms3,propellers_rpms4,rollRad,pitchRad,yawRad,v_s1,v_s2,v_s3,v_s_d1,v_s_d2,v_s_d3,insideCount
0,-0.0599999986588955,2.94000005722046,1.17999994754791,-0.0599999986588955,2.94000005722046,1.17999994754791,0,0,0,0,0,0,0,0,0,0,-1.06581410364015E-15,4.44089209850063E-16,4.44089209850063E-16,0
0.019989013671875,-0.0599999986588955,2.94000005722046,1.1771354675293,-0.0600018659130177,2.93999925379318,1.18000110346716,0,0,0,0,0.0163538,-0.002474609,-2.024222E-05,3.71994488546079E-08,3.50004931704007E-08,-0.143225952982903,-0.000279680311988734,-0.000120338624884473,0.000173135436141649,5
0.040008544921875,-0.0599999986588955,2.94000005722046,1.17048275470734,-0.060014880898484,2.93999365380853,1.18000916036316,0,0,0,0,0.03270752,-0.004950816,-5.430172E-05,3.62924410524101E-08,3.44428769949445E-08,-0.332637369632721,-0.00111143977225461,-0.000478221483967637,0.00068803416424398,6
0.05999755859375,-0.0600004345178604,2.94013261795044,1.16416573524475,-0.0600498857373401,2.93997859220429,1.18003083002592,3185.764,2835.961,1500.703,2767.525,0.03127628,-0.004943892,-0.01646952,-2.17794349737233E-05,0.00662255240604281,-0.31585168838501,-0.00247936261166862,-0.00106680046642749,0.00153484356504269,6
0.079986572265625,-0.0599162317812443,2.9403874874115,1.15857708454132,-0.0601174907153006,2.93994950367094,1.18007268072775,3065.271,3067.156,2155.402,2024.204,0.01896831,-0.004310593,-0.04351392,0.00421017361804843,0.0127491094172001,-0.279430449008942,-0.00437104534358026,-0.00188073869847162,0.00270588528944111,6
0.100006103515625,-0.0596375875174999,2.94068741798401,1.15374827384949,-0.0602282404704493,2.93990185114529,1.18014124010193,2639.974,3831.74,2620.676,1134.785,-0.005857889,-0.002887399,-0.07014127,0.0139322839677334,0.0149951595813036,-0.24144259095192,-0.00677739276378709,-0.00291612276782231,0.00419552897277328,6
0.1199951171875,-0.0590849444270134,2.94089865684509,1.14957022666931,-0.0603918861403606,2.93983143898525,1.18024254456713,2092.885,4101.894,3169.04,755.7148,-0.04012372,-0.0004506069,-0.08993229,0.0276321396231651,0.0105575788766146,-0.208901941776276,-0.00967801353495435,-0.00416417885169243,0.00599115140585487,5
0.1400146484375,-0.0582315698266029,2.94085597991943,1.14596664905548,-0.0606187761383957,2.93973381455767,1.18038300028418,1509.71,4074.836,3736.011,702.2862,-0.07649398,0.002388757,-0.09949357,0.042668741196394,-0.00213387329131365,-0.180177748203278,-0.0130687916036232,-0.00562313592726786,0.00809020455552005,4
0.160003662109375,-0.0570995844900608,2.94039440155029,1.14297819137573,-0.0609177895434042,2.93960515744296,1.18056810382587,1135.974,3846.801,4069.486,879.7296,-0.1062809,0.004335242,-0.09869835,0.0565993376076221,-0.0230732448399067,-0.149423524737358,-0.0169265510445065,-0.00728302204135792,0.0104783414199936,4
0.17999267578125,-0.0557379312813282,2.93938755989075,1.14071118831635,-0.0612985250199726,2.93944133760391,1.18080379722281,1100.207,3565.564,4010.263,1149.078,-0.1236309,0.004492575,-0.08999673,0.0680826902389526,-0.0503432601690292,-0.113348588347435,-0.0212433804254414,-0.00914043312572283,0.0131506644458931,3
0.20001220703125,-0.0541967712342739,2.93777680397034,1.13924849033356,-0.0617708265342762,2.93923811945689,1.181096174359,1373.187,3339.343,3594.979,1386.643,-0.1278706,0.003023469,-0.07724658,0.0770579725503922,-0.080539882183075,-0.073134757578373,-0.0260142813927851,-0.0111932185284278,0.0161040794142088,3
0.220001220703125,-0.0525146014988422,2.93557572364807,1.13858425617218,-0.0623420644491781,2.93899233174064,1.18144979784016,1791.994,3213.004,3016.297,1526.492,-0.1229731,0.0008609226,-0.06426154,0.0841084644198418,-0.11005625128746,-0.0332143567502499,-0.03121219533433,-0.0134297356845702,0.019321835755004,3
0.239990234375,-0.0507200099527836,2.9328465461731,1.13860714435577,-0.0630214373585105,2.93870001655724,1.18187036203406,2158.367,3168.843,2517.722,1558.553,-0.1149671,-0.0009869675,-0.05362062,0.0897296071052551,-0.136454209685326,0.00114165246486664,-0.0368316683029241,-0.015847637913056,0.022800557215184,3
0.260009765625,-0.0488377809524536,2.92966437339783,1.13913786411285,-0.0638185570309634,2.93835703823113,1.18236381708338,2351.656,3158.538,2274.167,1496.384,-0.1090463,-0.001903628,-0.04623727,0.0941115319728851,-0.159109264612198,0.0265346560627222,-0.0428699302682246,-0.0184457333472145,0.0265385290140116,3
0.279998779296875,-0.0468923263251781,2.92608714103699,1.13999652862549,-0.0647390625194898,2.93796097043536,1.18293365383054,2353.869,3152.56,2323.466,1362.904,-0.1078138,-0.001744903,-0.04152561,0.0972727537155151,-0.178865239024162,0.0429324433207512,-0.0492963837173861,-0.0212108567320638,0.030516809833474,3
0.29998779296875,-0.0449093617498875,2.92214322090149,1.14106214046478,-0.0657918945890516,2.93750796620855,1.18358540703494,2228.174,3144.43,2573.364,1194.415,-0.1110927,-0.0007360977,-0.03798467,0.099148228764534,-0.19719073176384,0.0532826855778694,-0.0561078595514081,-0.0241416444928383,0.0347334378503248,3
0.32000732421875,-0.0429176092147827,2.91783499717712,1.14229393005371,-0.0669865614821475,2.93699393441958,1.18432496275165,2073.642,3131.763,2873.559,1033.494,-0.116925,0.0006870595,-0.0339814,0.099587470293045,-0.21540755033493,0.0615912899374962,-0.0633036493784043,-0.0272377918282996,0.0391879745362408,3
0.339996337890625,-0.0409496799111366,2.91315054893494,1.14370775222778,-0.068326768706371,2.93641728069206,1.18515461486636,1956.79,3107.806,3108.29,920.66,-0.1228399,0.002069173,-0.02837918,0.0983966663479805,-0.234227955341339,0.0706928819417953,-0.0708499516420146,-0.0304847548730522,0.0438594951176439,3
0.360015869140625,-0.0390409305691719,2.90807676315308,1.14534342288971,-0.0698237345322385,2.93577317811757,1.18608130802295,1903.451,3066.202,3223.07,880.5596,-0.1267132,0.003093091,-0.020868,0.0954372584819794,-0.253691047430038,0.0817822590470314,-0.0787580297418618,-0.0338873799532906,0.0487549721754506,3
0.3800048828125,-0.0372265055775642,2.90260982513428,1.14724397659302,-0.0714797725314022,2.93506063123087,1.18710647443246,1924.938,3020.271,3206.139,897.0344,-0.1274221,0.003641643,-0.01189101,0.0907212719321251,-0.273346841335297,0.0950290411710739,-0.0869921272359981,-0.0374302820709642,0.0538522707687797,3
0.399993896484375,-0.0355380773544312,2.89676094055176,1.14943134784698,-0.0733036822025899,2.9342758538535,1.18823556140379,1989.973,2990.368,3100.132,937.8004,-0.1250546,0.003791501,-0.002204032,0.0844216346740723,-0.292449504137039,0.109370142221451,-0.0955525119207663,-0.0411135764513579,0.0591515566763244,3
0.420013427734375,-0.0340028703212738,2.89055442810059,1.1519056558609,-0.0753050585276311,2.93341471753282,1.18947450868777,2071.79,2972.802,2953.529,988.9134,-0.1204958,0.003708635,0.007336124,0.0767603516578674,-0.310328751802444,0.123715281486511,-0.104441553474511,-0.0449382827008623,0.0646542968418633,3
0.44000244140625,-0.0326435193419456,2.88402414321899,1.15464222431183,-0.077483988232608,2.93247718495301,1.19082336997196,2138.494,2974.164,2823.94,1021.106,-0.1150757,0.003563057,0.01614849,0.0679675713181496,-0.326514303684235,0.136825799942017,-0.113620829717891,-0.048887868829098,0.0703367061060819,4
0.459991455078125,-0.0314793698489666,2.87720704078674,1.15760147571564,-0.0798493430620752,2.93145943885026,1.19228763728888,2166.877,2977.892,2750.064,1039.036,-0.1098767,0.00347465,0.02395205,0.0582074597477913,-0.340851128101349,0.147965386509895,-0.123092454730403,-0.0529632444654124,0.0762000931848968,4
0.480010986328125,-0.0305278245359659,2.8701376914978,1.16074776649475,-0.0824109101018722,2.93035726811493,1.19387336931088,2167.687,2982.47,2732.517,1035.151,-0.1055256,0.003482479,0.03074584,0.0475771948695183,-0.353463053703308,0.157313972711563,-0.132860437136906,-0.0571661344090936,0.082246939608052,4
0.5,-0.0298047792166471,2.86284589767456,1.16405284404755,-0.085166398670376,2.92917165836334,1.1955791479969,2148.972,2991.065,2761.393,1006.946,-0.1022622,0.003567375,0.03679414,0.0361522361636162,-0.364586859941483,0.165254145860672,-0.142884000065179,-0.0614789935111996,0.0884520025491718,4
0.519989013671875,-0.029325483366847,2.85535597801208,1.16749918460846,-0.0881248588203387,2.92789871561062,1.19741057576073,2115.125,2992.709,2818.489,977.6526,-0.09984723,0.003685663,0.04241792,0.0239647515118122,-0.374492913484573,0.172316059470177,-0.153166947611899,-0.0659034585682559,0.0948176369253132,4
0.540008544921875,-0.0291052851825953,2.84768748283386,1.17108571529388,-0.0912963635428427,2.92653410573011,1.19937388826368,2088.346,2990.039,2870.955,953.8502,-0.09780832,0.003777915,0.04785458,0.0110100340098143,-0.383425086736679,0.179329231381416,-0.163714777034477,-0.0704418948965508,0.101347245800684,4
0.55999755859375,-0.0291588641703129,2.83985733985901,1.17481696605682,-0.094676112580471,2.92507989413848,1.20146611391775,2073.289,2990.916,2907.033,931.7759,-0.09578165,0.003794097,0.05329055,-0.00267895497381687,-0.39150607585907,0.186564683914185,-0.17448465888317,-0.0750758741803766,0.108014315705644,5
0.579986572265625,-0.0295001976191998,2.8318817615509,1.17869830131531,-0.0982734311149,2.92353206847056,1.2036930254546,2062.032,2985.707,2923.989,930.8663,-0.09340239,0.00371607,0.05874538,-0.0170665867626667,-0.398776680231094,0.194067820906639,-0.185481935470438,-0.0798076950675377,0.114822153786096,5
0.600006103515625,-0.0301424898207188,2.8237771987915,1.18273937702179,-0.102098762959148,2.92188613504538,1.20606108809202,2065.749,2982.425,2912.222,941.7268,-0.09048196,0.003539603,0.0641059,-0.0321148559451103,-0.405232131481171,0.202051654458046,-0.196713446836865,-0.0846403006364086,0.121774994352997,5
0.6199951171875,-0.0310968533158302,2.81556105613708,1.18694281578064,-0.106144683970236,2.92014528826426,1.20856570593183,2077.417,2988.781,2885.331,948.8591,-0.08717272,0.003270505,0.06928643,-0.0477180704474449,-0.410806059837341,0.210170090198517,-0.208134604141382,-0.0895545055543457,0.128845234789665,5
0.6400146484375,-0.0323724448680878,2.80725193023682,1.19130456447601,-0.110427588881679,2.91830247393137,1.21121702809507,2080.791,2991.44,2857.537,968.5614,-0.083611,0.002939556,0.07415598,-0.0637796223163605,-0.415451198816299,0.218089133501053,-0.21977002223474,-0.0945609009039674,0.136048112861281,5
0.660003662109375,-0.0339771546423435,2.79886841773987,1.19582378864288,-0.114938248900541,2.91636166293851,1.21400934151928,2089.045,2997.793,2823.315,987.142,-0.07999443,0.002566249,0.07858505,-0.0802351757884026,-0.419173508882523,0.225964084267616,-0.231574097577923,-0.0996398647564507,0.143355397804799,5
0.67999267578125,-0.0359159596264362,2.79042911529541,1.20048630237579,-0.119686638739014,2.91431856344567,1.21694882102647,2087.079,3009.912,2811.379,987.1996,-0.07664684,0.002166349,0.08262797,-0.0969402641057968,-0.421963602304459,0.233123138546944,-0.243554411173546,-0.104794659005432,0.150771782621969,6
0.70001220703125,-0.0381940118968487,2.78195071220398,1.20529127120972,-0.124683985757554,2.91216834463331,1.22004241688759,2081.17,3010.297,2795.101,1009.92,-0.07351176,0.001762987,0.08617824,-0.113902941346169,-0.423925876617432,0.240246385335922,-0.255719729227087,-0.11002905550423,0.158302694011575,6
0.720001220703125,-0.0408137775957584,2.77344846725464,1.21022689342499,-0.129918284978346,2.90991617190799,1.22328269744952,2079.722,3026.841,2797.884,992.0753,-0.07089814,0.001341631,0.08941228,-0.130988836288452,-0.425107598304749,0.246778413653374,-0.268023157655716,-0.11532287703907,0.16591910230247,6
0.739990234375,-0.0437778942286968,2.7649359703064,1.21528923511505,-0.135400001298574,2.90755754251682,1.2266761409821,2062.324,3023.421,2804.513,1008.125,-0.06858652,0.0009279937,0.0923024,-0.148205667734146,-0.425630927085876,0.253114938735962,-0.280473432677602,-0.12067988256057,0.173626415629864,6
0.760009765625,-0.0470880381762981,2.75642442703247,1.22047519683838,-0.141140917956636,2.9050873864615,1.23023004187122,2057.445,3030.24,2813.385,999.343,-0.06658702,0.0005088666,0.09494684,-0.165506511926651,-0.425576537847519,0.259299099445343,-0.293080296154222,-0.126104263719567,0.181430664670081,6
0.779998779296875,-0.0507456250488758,2.7479236125946,1.22578620910645,-0.147126184485884,2.90251209348295,1.23393520697061,2052.815,3033.566,2815.293,1001.177,-0.06481548,8.275203E-05,0.09736785,-0.182880014181137,-0.425035446882248,0.265551775693893,-0.305795832832518,-0.131575403921268,0.189302187598958,6
0.79998779296875,-0.0547506622970104,2.7394425868988,1.23121535778046,-0.153366821193532,2.89982692185086,1.2377984583754,2044.05,3036.44,2827.488,996.408,-0.06325327,-0.0003494067,0.09964301,-0.200250893831253,-0.424056440591812,0.271455317735672,-0.318629798715703,-0.137097500901303,0.197247023847227,6
0.82000732421875,-0.0591042228043079,2.73098826408386,1.23677051067352,-0.159875221826383,2.89702653888221,1.24182746840525,2040.709,3033.142,2819.1,1014.596,-0.06167242,-0.000773382,0.1016664,-0.217678964138031,-0.422720670700073,0.277758657932281,-0.331592781842754,-0.14267511039705,0.205271727915392,6
0.839996337890625,-0.0638049840927124,2.72256755828857,1.2424453496933,-0.166633637018892,2.89411858163313,1.24601124935738,2047.066,3046.077,2819.439,996.0374,-0.06034563,-0.001215999,0.1035669,-0.235037446022034,-0.421039879322052,0.283739298582077,-0.344636106234817,-0.148287288494656,0.213346167053785,6
0.860015869140625,-0.068852111697197,2.71418595314026,1.24824070930481,-0.173664618315387,2.89109334680413,1.25036376171199,2036.672,3040.122,2813.871,1020.287,-0.0590508,-0.001639975,0.1052286,-0.252356916666031,-0.419078916311264,0.289765477180481,-0.357790534090669,-0.153947271308859,0.221489384528856,6
0.8800048828125,-0.0742437988519669,2.70584869384766,1.25415539741516,-0.180948461186242,2.88795931270381,1.25487280742661,2043.716,3049.163,2806.698,1013.363,-0.05795838,-0.002062352,0.1066947,-0.269583612680435,-0.416866093873978,0.295733571052551,-0.371007022483504,-0.159633957038354,0.229671020432672,6
0.899993896484375,-0.0799770355224609,2.69755983352661,1.26018261909485,-0.18849723509595,2.8847112861788,1.25954585807468,2037.248,3050.594,2810.136,1016.684,-0.05707953,-0.002468218,0.1079827,-0.28666216135025,-0.414439976215363,0.301360249519348,-0.384296738353309,-0.165352150505452,0.237897987633041,7
0.920013427734375,-0.0860496461391449,2.68932271003723,1.26632618904114,-0.196324452211266,2.88134345332121,1.26439127833112,2036.536,3050.867,2802.584,1027.819,-0.05632639,-0.002847984,0.1090331,-0.303631454706192,-0.411860555410385,0.307179659605026,-0.397671404529394,-0.171106895716105,0.246177543119742,7
0.94000244140625,-0.0924575924873352,2.68113946914673,1.27257966995239,-0.204407453948074,2.87786556348678,1.26939504145298,2041.462,3061.275,2805.586,1011.469,-0.05592905,-0.003222425,0.1099604,-0.320397257804871,-0.409158289432526,0.312672078609467,-0.411081631631503,-0.176876941799768,0.254479112513653,7
0.959991455078125,-0.0991972386837006,2.67301154136658,1.27894079685211,-0.212759000778906,2.87427212620069,1.27456504678061,2030.266,3056.166,2811.086,1025.441,-0.05570108,-0.003559581,0.1107164,-0.336981981992722,-0.406396836042404,0.318053752183914,-0.424539267042903,-0.182667386354485,0.262810029909387,7
0.980010986328125,-0.106264770030975,2.66493916511536,1.28540945053101,-0.221393324468958,2.87055701793193,1.27991010445463,2032.926,3059.575,2814.862,1019.165,-0.05566539,-0.003870638,0.1113377,-0.353377401828766,-0.403616219758987,0.323434323072433,-0.438056556301695,-0.188483498293199,0.271177875878363,7
1,-0.113656282424927,2.65692186355591,1.2919864654541,-0.230284798736574,2.86673126495361,1.28541435058594,2035.804,3063.615,2815.508,1015.325,-0.05585075,-0.004161988,0.1118501,-0.369574904441833,-0.400863856077194,0.328850269317627,-0.451584000205995,-0.194303979492187,0.279552008056641,7
1.01998901367188,-0.121366694569588,2.64895844459534,1.29866421222687,-0.239446912293295,2.86278906344998,1.29108613532954,2029.677,3062.896,2830.63,1010.38,-0.05624117,-0.004425108,0.1123073,-0.385521769523621,-0.398168325424194,0.333889216184616,-0.46513400752272,-0.200134169097193,0.287940108062054,7
1.04000854492188,-0.129393100738525,2.64104676246643,1.30545210838318,-0.248894644448595,2.85872396824263,1.29693473159157,2030.102,3058.994,2825.698,1024.241,-0.05662253,-0.004646684,0.112611,-0.40131863951683,-0.395583987236023,0.339395552873611,-0.47871923339115,-0.205979512261105,0.296350010028666,7
1.05999755859375,-0.137729912996292,2.63318467140198,1.31234240531921,-0.258599401509697,2.85454828239877,1.30294243851408,2040.736,3070.381,2835.771,995.5978,-0.05730696,-0.004865062,0.1129226,-0.416841238737106,-0.393109172582626,0.34451624751091,-0.492290296490434,-0.211818761581115,0.30475114456651,7
1.07998657226563,-0.146373450756073,2.62536883354187,1.31933891773224,-0.268575430648764,2.85025587575821,1.30911807577533,2029.95,3060.564,2838.021,1019.405,-0.05797276,-0.005035505,0.1131161,-0.432176798582077,-0.390796780586243,0.349822819232941,-0.50586005237609,-0.217657448443621,0.313151469876847,7
1.10000610351563,-0.155318781733513,2.617595911026,1.32643854618073,-0.278838480013141,2.84583997233313,1.31547139222872,2039.434,3066.952,2846.421,999.9131,-0.05879248,-0.00518624,0.1132836,-0.447267353534698,-0.388642519712448,0.354979544878006,-0.519441457145546,-0.223501147495394,0.321559006401169,7
1.1199951171875,-0.16456238925457,2.6098620891571,1.33364856243134,-0.289357002179081,2.84131414609862,1.32198285851614,2042.887,3066.614,2839.742,1009.588,-0.05966226,-0.005306082,0.113354,-0.462179899215698,-0.386689335107803,0.360503792762756,-0.532985466132485,-0.229328756186667,0.329943393154705,8
1.1400146484375,-0.174097940325737,2.60216379165649,1.3409548997879,-0.300162704591434,2.83666475422696,1.32867210305637,2042.734,3070.613,2863.145,986.5657,-0.06077653,-0.005409945,0.1134751,-0.476777136325836,-0.384916007518768,0.365314483642578,-0.54652589017629,-0.235154822377061,0.338325560657667,8
1.16000366210938,-0.183923810720444,2.59449577331543,1.34837877750397,-0.311222084148811,2.83190621216671,1.33551838583369,2043.809,3061.971,2843.25,1022.567,-0.06171556,-0.005455752,0.113402,-0.49129456281662,-0.383401900529861,0.371196925640106,-0.560014026276883,-0.240958390526247,0.34667535943296,8
1.17999267578125,-0.194031625986099,2.5868546962738,1.35589063167572,-0.322550701230474,2.8270318247214,1.34253133946411,2053.88,3078.508,2885.859,956.3729,-0.06313236,-0.005518602,0.1135319,-0.505390644073486,-0.382057815790176,0.37559249997139,-0.573463232144024,-0.246745208083563,0.355001058539242,8
1.20001220703125,-0.204422354698181,2.57923412322998,1.36352896690369,-0.334165615614823,2.82203425154496,1.34972152476313,2040.806,3053.407,2850.41,1041.191,-0.06402718,-0.005486112,0.1133399,-0.519535899162292,-0.381032198667526,0.381918221712112,-0.586886736182789,-0.252520966862155,0.363310846989412,8
1.22000122070313,-0.215085834264755,2.57163095474243,1.37125277519226,-0.346030421585499,2.81692915700008,1.35706640485806,2074.116,3090.104,2900.8,922.5912,-0.06569273,-0.00551807,0.1134968,-0.533174932003021,-0.380158841609955,0.386190116405487,-0.600236516861372,-0.258265004538453,0.371574997167698,8
1.239990234375,-0.226024433970451,2.56403803825378,1.37910711765289,-0.358161486344149,2.81170949873715,1.36457611182642,2040.006,3048.793,2860.184,1051.252,-0.0666291,-0.005424859,0.1132605,-0.546930253505707,-0.379647374153137,0.392718195915222,-0.613526094901141,-0.263983138701136,0.379801879044709,8
1.260009765625,-0.237226903438568,2.55645275115967,1.38704097270966,-0.37057666480527,2.80636759428526,1.37226169871082,2080.895,3091.494,2926.517,902.6269,-0.06840596,-0.005409945,0.1134595,-0.56012225151062,-0.379260748624802,0.396695017814636,-0.626768731761373,-0.26968107538565,0.387999702095469,8
1.27999877929688,-0.248698696494102,2.54886698722839,1.39512240886688,-0.383236695417198,2.80092033679326,1.3800988607405,2051.404,3046.713,2854.485,1064.241,-0.06922621,-0.005255482,0.11313,-0.573590755462646,-0.379291296005249,0.404073089361191,-0.639917282339435,-0.275338529371412,0.396139281255613,8
1.29998779296875,-0.260424047708511,2.54127979278564,1.40326523780823,-0.396158759015336,2.79536033382764,1.388098233671,2095.195,3103.814,2962.235,853.2462,-0.07133543,-0.005230981,0.1135014,-0.586268126964569,-0.379362493753433,0.407139778137207,-0.652985332144132,-0.280961346123326,0.404229026602261,8
1.32000732421875,-0.27241462469101,2.53368067741394,1.41157782077789,-0.409361504843077,2.78967956113998,1.39627136227237,2042.229,3027.792,2848.67,1116.364,-0.07176846,-0.00498384,0.113012,-0.599528253078461,-0.379951357841492,0.415629655122757,-0.6659860834168,-0.286555206197011,0.41227711095171,8
1.33999633789063,-0.284648895263672,2.52607154846191,1.41993534564972,-0.422802873722428,2.78389611561957,1.40459220990988,2128.203,3126.875,2994.103,778.802,-0.07423455,-0.004970524,0.113588,-0.61171692609787,-0.380450785160065,0.417879015207291,-0.678873453515705,-0.29210028151913,0.420255006953505,8
1.36001586914063,-0.297144830226898,2.51843976974487,1.42848551273346,-0.4365219692899,2.77799317206405,1.4130849835973,2032.048,3010.081,2837.681,1173.674,-0.07430752,-0.004641357,0.112953,-0.624796330928802,-0.381586253643036,0.427507042884827,-0.691680442442074,-0.297610771068296,0.428183143180414,9
1.3800048828125,-0.309874266386032,2.51079034805298,1.43705594539642,-0.450474904562636,2.77198961381608,1.4217225152016,2153.475,3146.613,3038.276,702.7241,-0.07714805,-0.004640825,0.1137789,-0.636472344398499,-0.382468342781067,0.428522318601608,-0.704361775018035,-0.303067194200314,0.436033492140578,9
1.39999389648438,-0.322863966226578,2.50310730934143,1.44585347175598,-0.464680216184654,2.76587746507559,1.43051627978847,2021.578,2987.509,2814.855,1249.65,-0.07665376,-0.004215251,0.1129177,-0.64948308467865,-0.384150862693787,0.439874619245529,-0.716930938559026,-0.308475354130225,0.443814403124744,9
1.42001342773438,-0.336075186729431,2.49540090560913,1.4546309709549,-0.479157861067077,2.75964813894125,1.43947863163655,2183.902,3174.976,3102.78,590.7573,-0.08002213,-0.004257329,0.1141281,-0.660560250282288,-0.385321855545044,0.438872575759888,-0.729400843645231,-0.313840805920001,0.451533868397062,9
1.44000244140625,-0.349549442529678,2.4876492023468,1.46369647979736,-0.493861275572861,2.75332167044526,1.4485807456364,2006.909,2954.868,2756.847,1377.632,-0.07859627,-0.003706055,0.1128589,-0.673712849617004,-0.387585043907166,0.453274071216583,-0.741727567798258,-0.319144650954242,0.459164697851088,9
1.45999145507813,-0.363228976726532,2.47987103462219,1.47266972064972,-0.508809800712713,2.74688973769103,1.45783459479497,2231.166,3227.428,3196.922,403.9449,-0.08303044,-0.00385892,0.1147213,-0.683980524539948,-0.388904958963394,0.448663294315338,-0.753924423002454,-0.324392617007921,0.466715132239272,9
1.48001098632813,-0.377179533243179,2.47203493118286,1.48201882839203,-0.524024159888143,2.74034342397783,1.467253007885,1954.035,2889.368,2672.892,1605.813,-0.08005196,-0.003097256,0.1127839,-0.697523713111877,-0.39180326461792,0.467453628778458,-0.766004036374583,-0.329590137176618,0.474192988348404,9
1.5,-0.391315698623657,2.46417260169983,1.49117863178253,-0.539455198877605,2.73370387899399,1.4768055561018,2313.693,3311.697,3315.819,121.7104,-0.08601318,-0.00342589,0.1155483,-0.706809759140015,-0.393119633197784,0.457987606525421,-0.777924000354858,-0.334718964672088,0.481572013878822,9
1.51998901367188,-0.405736207962036,2.45623803138733,1.50083529949188,-0.555123050061237,2.72696244033876,1.48650470234772,1876.716,2802.75,2543.552,1928.008,-0.08099365,-0.002387258,0.1126886,-0.721025466918945,-0.396726906299591,0.482834815979004,-0.789697369743256,-0.339784716610053,0.488860290373601,9
1.54000854492188,-0.420327067375183,2.44827365875244,1.51025068759918,-0.571049184024557,2.72010986981902,1.49636373793799,2197.146,3579.389,3288.741,0,-0.08736607,-0.00208632,0.1171454,-0.72954124212265,-0.398218154907227,0.47076877951622,-0.801336412291853,-0.344792671461508,0.496065412155667,9
1.55999755859375,-0.435206204652786,2.44023084640503,1.52020084857941,-0.587181951496087,2.71316839067337,1.50635068951315,1914.984,2642.773,2434.85,2173.973,-0.0809846,-0.0003009372,0.1136162,-0.743960201740265,-0.402135342359543,0.497506827116013,-0.812800388649436,-0.349725300221754,0.503162159625937,9
1.57998657226563,-0.450246870517731,2.43215847015381,1.52988493442535,-0.603542258451077,2.7061290076447,1.51647849886779,2147.096,3697.625,3229.109,0,-0.08719562,0.0009765913,0.1182504,-0.752031981945038,-0.403614014387131,0.484202980995178,-0.82410201904291,-0.354588076049064,0.510158407210813,9
1.60000610351563,-0.465567857027054,2.42401313781738,1.54006910324097,-0.620152298932711,2.69898217125626,1.52676090517188,2014.902,2526.781,2448.805,2186.717,-0.08097608,0.003490337,0.1137377,-0.766048967838287,-0.407262116670609,0.509210824966431,-0.835253140422976,-0.35938609205264,0.51706148254665,9
1.6199951171875,-0.48104539513588,2.4158411026001,1.55000603199005,-0.636958033083316,2.69175113334911,1.53716445517924,2186.065,3696.171,3207.722,0,-0.08744649,0.00542467,0.1171834,-0.773877918720245,-0.408606052398682,0.496844828128815,-0.846214826007804,-0.364102599125749,0.523847288101157,9
1.6400146484375,-0.49678298830986,2.40760326385498,1.56036937236786,-0.654007271984653,2.68441532215046,1.54771874622704,2101.149,2515.118,2584.073,1981.82,-0.08317212,0.008171966,0.1121236,-0.786880671977997,-0.411887884140015,0.518165290355682,-0.857015715678588,-0.368749920209162,0.530533553325099,9
1.66000366210938,-0.512671709060669,2.39933705329895,1.57051944732666,-0.671244443874359,2.67699864863716,1.55838937674714,2235.751,3593.635,3277.5,0,-0.09025986,0.01014956,0.1142581,-0.794437825679779,-0.413312971591949,0.507501244544983,-0.867618167158098,-0.373311858882592,0.53709697585572,9
1.67999267578125,-0.528800070285797,2.39100289344788,1.58104455471039,-0.688691692550512,2.66949158495151,1.56919005480539,2124.811,2572.387,2761.837,1726.945,-0.08787313,0.01261251,0.1094744,-0.806414604187012,-0.416712671518326,0.526253759860992,-0.878034183119987,-0.377793579561193,0.543544985919778,9
1.70001220703125,-0.545074462890625,2.38263010978699,1.59139573574066,-0.706372354049449,2.66188409024902,1.58013522651994,2251.464,3494.385,3373.848,0,-0.09501786,0.01419036,0.1113186,-0.813723921775818,-0.418641299009323,0.517556965351105,-0.888274735793774,-0.382199803288802,0.549884375850026,9
1.72000122070313,-0.561576306819916,2.37417650222778,1.60211336612701,-0.724228658537036,2.6542010212754,1.5911891296115,2117.558,2635.538,2870.487,1565.899,-0.09310251,0.01611014,0.1075033,-0.825092077255249,-0.42268118262291,0.535883665084839,-0.898304216251578,-0.386515208538549,0.556093102023817,9
1.739990234375,-0.578220069408417,2.36567091941833,1.61267793178558,-0.74228345468553,2.64643254688532,1.60236590849663,2262.161,3431.396,3432.645,0,-0.09958731,0.01709043,0.109961,-0.832188129425049,-0.425278723239899,0.528229355812073,-0.908134108040217,-0.390744736359816,0.562178273303667,9
1.760009765625,-0.595087826251984,2.35706996917725,1.6236252784729,-0.760560719141003,2.63856835059778,1.61368040586141,2086.554,2665.749,2886.154,1555.606,-0.09659072,0.01848668,0.107134,-0.843389511108398,-0.430050879716873,0.54736465215683,-0.91777478390713,-0.394892849856044,0.568146310914365,9
1.77999877929688,-0.61209499835968,2.34840774536133,1.63443052768707,-0.779000609654483,2.63063418086074,1.62509557650306,2293.916,3420.755,3415.472,0,-0.101981,0.01891677,0.110379,-0.850358426570892,-0.433117181062698,0.540262401103973,-0.927192788821983,-0.398945154262308,0.57397650459845,9
1.79998779296875,-0.629326045513153,2.33964228630066,1.64563345909119,-0.797626646773287,2.62261991743975,1.63662598076079,2069.808,2683.617,2827.552,1617.787,-0.09768049,0.01991663,0.1081702,-0.861549258232117,-0.438277930021286,0.560144007205963,-0.936399026186941,-0.402906341007953,0.579675604081262,9
1.82000732421875,-0.646691620349884,2.33081531524658,1.65667307376862,-0.816463410111527,2.61451498441355,1.64828683458664,2316.212,3423.661,3392.545,0,-0.1023549,0.01994954,0.1119389,-0.868277132511139,-0.441352754831314,0.551981925964355,-0.94540321420156,-0.406780591562751,0.585249625391268,9
1.83999633789063,-0.664285004138947,2.32188415527344,1.66814565658569,-0.835449117627072,2.60634596486888,1.66003989195343,2058.671,2689.224,2724.055,1736.179,-0.09683839,0.02075244,0.1096785,-0.879673004150391,-0.446561455726624,0.573630273342133,-0.954174163352093,-0.410554485950274,0.590679260733698,9
1.86001586914063,-0.682006359100342,2.31289672851563,1.67942714691162,-0.854637305360818,2.59808982374295,1.67191829422076,2275.775,3518.902,3338.98,0,-0.1013807,0.02077316,0.1140779,-0.886066555976868,-0.449373513460159,0.56407231092453,-0.962735018414262,-0.414237982720922,0.595978837827261,9
1.8800048828125,-0.69995641708374,2.30381155014038,1.69114649295807,-0.873964974649439,2.58977366760063,1.68388304221498,2054.448,2645.422,2654.664,1860.707,-0.09521813,0.02171108,0.11155,-0.897509336471558,-0.45425933599472,0.585969030857086,-0.971056158224177,-0.417818336715394,0.601130019760457,9
1.89999389648438,-0.71802943944931,2.29467940330505,1.70265090465546,-0.893456683142228,2.58138692997148,1.69594933829086,2263.39,3559.845,3314.949,0,-0.09980302,0.02192679,0.1159452,-0.903650522232056,-0.456602364778519,0.575223505496979,-0.979147395688901,-0.421299770153459,0.606138881190213,9
1.92001342773438,-0.736329436302185,2.28546094894409,1.71458458900452,-0.913137923350175,2.5729186421402,1.70813296352707,2066.112,2610.162,2646.123,1899.67,-0.0935398,0.02306557,0.1129537,-0.915001392364502,-0.460920244455338,0.596687197685242,-0.987017247723777,-0.424685947625853,0.611010694492843,9
1.94000244140625,-0.754749596118927,2.27620530128479,1.72630608081818,-0.932943991899774,2.5643966441608,1.72039386345315,2264.617,3582.281,3297.577,0,-0.09821845,0.02348167,0.1169878,-0.921009004116058,-0.462788492441177,0.586072087287903,-0.994638524886308,-0.427965170275055,0.615728628108227,9
1.95999145507813,-0.773389220237732,2.26687574386597,1.73842632770538,-0.952900013794853,2.55581012544606,1.73274759164336,2087.945,2600.623,2687.699,1847.008,-0.09254378,0.02470983,0.1137641,-0.931981146335602,-0.466472595930099,0.606011807918549,-1.00202031904361,-0.431141350077486,0.620298310335216,9
1.98001098632813,-0.792145371437073,2.25751805305481,1.75033366680145,-0.973031969359004,2.54714790738853,1.74521023115561,2280.5,3531.684,3336.338,0,-0.09730871,0.0251112,0.1172269,-0.937808513641357,-0.467886716127396,0.595366775989532,-1.00917036754089,-0.434217816196637,0.624724530959079,9
2,-0.811115801334381,2.24809503555298,1.76264107227325,-0.993273599084619,2.53843849960327,1.7577407641983,2099.55,2622.974,2716.81,1784.749,-0.09194191,0.02623467,0.1138307,-0.948517382144928,-0.471146613359451,0.615372478961945,-1.01606400046349,-0.437183953857422,0.628992018127441,9
2.01998901367188,-0.830197274684906,2.23864936828613,1.77473926544189,-1.01365055070775,2.52967086658596,1.77035506794184,2250.536,3548.302,3347.366,0,-0.09671376,0.02658257,0.1173543,-0.954074442386627,-0.472281187772751,0.60490894317627,-1.02270954399163,-0.440043345582587,0.633105926142498,9
2.04000854492188,-0.849485814571381,2.22914505004883,1.78722536563873,-1.03418924440916,2.52083364047092,1.78306949773667,2092.071,2615.468,2740.606,1769.986,-0.09126972,0.02763114,0.1140986,-0.96442312002182,-0.475214391946793,0.624307036399841,-1.02911391720548,-0.442798968459032,0.637070538244476,9
2.05999755859375,-0.868880808353424,2.21962356567383,1.7995069026947,-1.05482201812353,2.5119559343546,1.79584216754118,2275.088,3517.895,3348.532,0,-0.09575395,0.02781758,0.1174849,-0.969754159450531,-0.476079314947128,0.614079713821411,-1.03525504859546,-0.445441325732794,0.640872191117535,9
2.07998657226563,-0.888475596904755,2.21005010604858,1.81216728687286,-1.07557499515204,2.50302650811029,1.80868924892322,2086.616,2630.06,2746.717,1746.882,-0.09018955,0.0286929,0.1143189,-0.97973895072937,-0.478670239448547,0.633020162582397,-1.04114045847258,-0.4479736531836,0.644515540192423,9
2.10000610351563,-0.908170223236084,2.20046615600586,1.82461512088776,-1.09647498538954,2.49403382618922,1.82162733848484,2280.082,3496.315,3356.776,0,-0.09442025,0.0286606,0.1176582,-0.984735727310181,-0.479203641414642,0.622394025325775,-1.04677621342161,-0.450398561093403,0.648004340974112,9
2.1199951171875,-0.928060233592987,2.19083642959595,1.83745646476746,-1.11745308225396,2.48500753716864,1.83461377976925,2079.394,2645.946,2708.678,1768.518,-0.08847021,0.02936274,0.1144407,-0.994498133659363,-0.481489390134811,0.642070055007935,-1.0521429102862,-0.45270770082608,0.651326581984514,9
2.1400146484375,-0.948040962219238,2.18120288848877,1.85006809234619,-1.13856809990831,2.47592233495728,1.84768498154507,2246.867,3536.383,3336.947,0,-0.09264551,0.02924233,0.1180939,-0.999036550521851,-0.48167684674263,0.630578994750977,-1.05725481901126,-0.454907212340279,0.654491096999312,8
2.16000366210938,-0.96821141242981,2.17153120040894,1.86307621002197,-1.15975039167652,2.46680818657414,1.86079782920208,2063.994,2624.381,2665.607,1838.015,-0.0862225,0.02994345,0.114771,-1.00852358341217,-0.483589887619019,0.65040647983551,-1.0620943502576,-0.456989527434725,0.657486997379635,8
2.17999267578125,-0.988463759422302,2.1618640422821,1.87583577632904,-1.18102676265167,2.45765355853653,1.8739689163698,2233.586,3557.541,3316.005,0,-0.09030566,0.02984949,0.1184869,-1.01261639595032,-0.483352392911911,0.637976884841919,-1.06666760390386,-0.458957270716794,0.660318059240953,7
2.20001220703125,-1.0088986158371,2.15216875076294,1.88898658752441,-1.20242455577657,2.44844668594002,1.88721516963236,2058.362,2601.688,2639.894,1880.603,-0.08357639,0.03060778,0.1149017,-1.02174711227417,-0.484759926795959,0.657541990280151,-1.07097916161324,-0.460812413548163,0.662987118851036,7
2.22000122070313,-1.02940762042999,2.14248752593994,1.90188324451447,-1.22387315175433,2.43921795429519,1.90049287228091,2236.252,3572.748,3285.6,0,-0.08765635,0.03055571,0.1184129,-1.02544248104095,-0.484065353870392,0.644831418991089,-1.07501419914593,-0.462548577472581,0.665484999299265,7
2.239990234375,-1.05008769035339,2.13278961181641,1.91514885425568,-1.24539969505118,2.42995568409656,1.91381882803312,2059.434,2594.432,2640.123,1871.737,-0.08118327,0.0313211,0.1146278,-1.03400874137878,-0.484900176525116,0.663278460502625,-1.07877792518082,-0.464168003639063,0.667814925005999,5
2.260009765625,-1.07083225250244,2.12311482429504,1.92814660072327,-1.26703177594152,2.42064800401982,1.92721011658316,2240.157,3541.762,3299.105,0,-0.08538094,0.03120928,0.1177564,-1.03723049163818,-0.48373544216156,0.649884700775146,-1.08227399942825,-0.465672266718726,0.669979161506271,4
2.27999877929688,-1.09173917770386,2.11343193054199,1.9415180683136,-1.28869796983554,2.41132564607061,1.9406225227075,2056.361,2605.884,2628.001,1862.193,-0.07902398,0.0318912,0.1137158,-1.0453428030014,-0.484132528305054,0.668573558330536,-1.08549040888332,-0.467056197851165,0.67197027217779,3
2.29998779296875,-1.11269950866699,2.10377955436707,1.95461118221283,-1.31042570636616,2.40197680804417,1.95407302665558,2198.003,3575.339,3290.476,0,-0.08338784,0.03177977,0.1169662,-1.04802024364471,-0.482634663581848,0.654654979705811,-1.08843144721369,-0.468321644481621,0.673790915005368,0
2.32000732421875,-1.13381111621857,2.09412622451782,1.96806597709656,-1.33224276726637,2.39258953623693,1.96757882664355,2040.285,2583.444,2626.62,1884.465,-0.07694192,0.03247271,0.1128922,-1.05557298660278,-0.482663333415985,0.672739863395691,-1.09109983431736,-0.469469776906228,0.675442773735451,0
2.33999633789063,-1.15496695041656,2.0845091342926,1.98123919963837,-1.35407709248145,2.38319483607731,1.98109531406483,2210.147,3559.2,3277.835,0,-0.08121576,0.03231289,0.1159622,-1.05779337882996,-0.480856657028198,0.658664286136627,-1.09348640563071,-0.470496651869278,0.67692017506657,0
2.36001586914063,-1.17626142501831,2.0748987197876,1.99475908279419,-1.3759897762471,2.37376642042246,1.99466030916165,2033.781,2584.698,2628.025,1869.812,-0.07483482,0.03292681,0.1118287,-1.0647314786911,-0.480507165193558,0.675992906093597,-1.09559752564474,-0.471405007833448,0.678227058921845,0
2.3800048828125,-1.19759035110474,2.06533098220825,2.00799012184143,-1.39790843013262,2.36433543599182,2.00822900004707,2216.894,3535.299,3277.263,0,-0.0790799,0.03262843,0.1146798,-1.06644630432129,-0.478393375873566,0.661546468734741,-1.09742594550583,-0.472191725819537,0.679358937915576,0
2.39999389648438,-1.2190465927124,2.05577635765076,2.021564245224,-1.41986083522252,2.35488992936084,2.02181858453579,2018.603,2595.497,2617.117,1866.774,-0.07267287,0.03310718,0.1104773,-1.07281017303467,-0.477725565433502,0.678706467151642,-1.09897439291323,-0.472857979480329,0.680317500623536,0
2.42001342773438,-1.24052560329437,2.04626965522766,2.03483700752258,-1.44187496577138,2.34541786398928,2.035446380024,2197.58,3538.162,3273.52,0,-0.07689505,0.03268939,0.1133672,-1.0739529132843,-0.475339829921722,0.663640320301056,-1.1002439936861,-0.473404253224357,0.681103443981416,0
2.44000244140625,-1.26212215423584,2.03678131103516,2.04846167564392,-1.46387808506052,2.33595053645515,2.04906735901791,2007.114,2594.916,2577.106,1900.229,-0.07025366,0.03308092,0.1090767,-1.07982158660889,-0.474415719509125,0.681232690811157,-1.10123038958312,-0.473828671822132,0.681714070030222,0
2.45999145507813,-1.28372883796692,2.02734565734863,2.06176471710205,-1.48589810917879,2.32647593524532,2.06269880290633,2165.885,3564.823,3256.153,0,-0.07453176,0.03264203,0.1121689,-1.08033871650696,-0.471772074699402,0.665149331092834,-1.10193535162022,-0.474131997292339,0.68215047511319,0
2.48001098632813,-1.30544257164001,2.01793479919434,2.0754177570343,-1.5079630509786,2.31698200721197,2.07635805297935,1986.546,2567.923,2545.771,1959.56,-0.06750953,0.03306997,0.107723,-1.0856785774231,-0.470554113388062,0.682653963565826,-1.10235904000526,-0.474314298567936,0.682412758406602,0
2.5,-1.32715582847595,2.00858211517334,2.08874177932739,-1.52999999932945,2.30750012397766,2.08999997377396,2164.677,3579.825,3221.778,0,-0.07173438,0.03266458,0.1107372,-1.08566331863403,-0.467628002166748,0.666205167770386,-1.10250000050292,-0.474374949932098,0.682500019669533,0
2.51998901367188,-1.34896218776703,1.99926161766052,2.10239744186401,-1.5520369476803,2.29801824074336,2.10364189456856,1982.835,2555.567,2533.293,1966.675,-0.06481016,0.03310286,0.1061325,-1.09032142162323,-0.466032832860947,0.682780504226685,-1.10235904000526,-0.474314298567936,0.682412758406603,0
2.54000854492188,-1.37075650691986,1.99000585079193,2.11570882797241,-1.57410188948011,2.28852431271001,2.11730114464159,2168.737,3552.08,3225.162,0,-0.06911382,0.0326487,0.1088211,-1.0897216796875,-0.46278777718544,0.665568590164185,-1.10193535162022,-0.474131997292339,0.682150475113189,0
2.55999755859375,-1.39263236522675,1.980788230896,2.12935733795166,-1.59612191359838,2.27904971150017,2.13093258853001,1978.091,2563.191,2509.608,1968.575,-0.06225512,0.03301588,0.1039478,-1.09378588199615,-0.460888892412186,0.682431221008301,-1.10123038958312,-0.473828671822132,0.681714070030222,0
2.57998657226563,-1.41448318958282,1.97163963317871,2.14264941215515,-1.61812503288753,2.26958238396605,2.14455356752391,2127.505,3586.559,3209.258,0,-0.06678089,0.03257718,0.1067475,-1.0925452709198,-0.457427084445953,0.664604246616364,-1.1002439936861,-0.473404253224357,0.681103443981416,0
2.60000610351563,-1.43640172481537,1.96253383159637,2.15626621246338,-1.64013916343638,2.26011031859448,2.15818136301212,1958.62,2539.566,2503.429,1995.652,-0.05989449,0.03296914,0.1018199,-1.09591817855835,-0.455286264419556,0.680841684341431,-1.09897439291323,-0.472857979480329,0.680317500623536,0
2.6199951171875,-1.45828425884247,1.95350122451782,2.16952300071716,-1.66209156852628,2.2506648119635,2.17177094750084,2137.564,3570.6,3194.291,0,-0.06442133,0.03250229,0.1044299,-1.09413385391235,-0.451634466648102,0.662838637828827,-1.09742594550583,-0.472191725819537,0.679358937915576,0
2.6400146484375,-1.48021972179413,1.94451594352722,2.18308854103088,-1.68404365734903,2.24121944141343,2.18536033620513,1948.465,2539.963,2506.695,1979.93,-0.05769259,0.03282731,0.09945741,-1.09677338600159,-0.449257224798203,0.678275227546692,-1.09559452046326,-0.471403714787811,0.678225198571351,0
2.66000366210938,-1.502108335495,1.93560719490051,2.19628810882568,-1.70592290617745,2.23180541187802,2.19890463348308,2143.731,3542.979,3194.881,0,-0.06224713,0.03223424,0.1018477,-1.09442687034607,-0.445437371730804,0.659976303577423,-1.09348640563071,-0.470496651869278,0.67692017506657,0
2.67999267578125,-1.52403593063354,1.92674946784973,2.20979285240173,-1.72775723139253,2.2224107117184,2.21242112090437,1930.145,2551.591,2500.146,1971.939,-0.05555567,0.03242221,0.09685779,-1.09638810157776,-0.442893862724304,0.67523729801178,-1.09109983431736,-0.469469776906228,0.675442773735451,0
2.70001220703125,-1.54590487480164,1.91797029972076,2.2229220867157,-1.74957429229274,2.21302343991116,2.22592692089233,2126.341,3540.148,3192.536,0,-0.06009956,0.03170231,0.09930211,-1.0934464931488,-0.438950479030609,0.65645694732666,-1.08843144721369,-0.468321644481621,0.673790915005369,0
2.72000122070313,-1.5678014755249,1.90924429893494,2.23636531829834,-1.77130202882336,2.20367460188472,2.23937742484041,1915.511,2553.006,2464.222,2000.099,-0.05319824,0.0317834,0.09430037,-1.09482514858246,-0.436297237873077,0.672162413597107,-1.08549040888332,-0.467056197851165,0.671970272177789,0
2.739990234375,-1.58962678909302,1.90059959888458,2.24941539764404,-1.79296822271738,2.1943522439355,2.25278983096475,2098.798,3559.349,3176.557,0,-0.05777621,0.03101504,0.096968,-1.09126782417297,-0.432236790657043,0.652499437332153,-1.08227399942825,-0.465672266718727,0.669979161506271,0
2.760009765625,-1.61146807670593,1.8920111656189,2.26278042793274,-1.81460030360772,2.18504456385877,2.26618111951479,1891.315,2530.198,2432.078,2057.943,-0.05047276,0.03110182,0.09188613,-1.09207391738892,-0.429436713457108,0.668247580528259,-1.07877792518082,-0.464168003639063,0.667814925005998,0
2.77999877929688,-1.63322782516479,1.88350689411163,2.27574586868286,-1.83612684690458,2.17578229366013,2.27950707526701,2098.573,3571.833,3141.894,0,-0.0549767,0.0303407,0.09453529,-1.08799183368683,-0.42521607875824,0.648275434970856,-1.07501419914593,-0.462548577472581,0.665484999299265,0
2.79998779296875,-1.6549905538559,1.87506318092346,2.28901171684265,-1.85757544288233,2.1665535620153,2.29278477791556,1882.854,2519.659,2414.285,2072.067,-0.04769828,0.03042461,0.089353,-1.0881222486496,-0.422178655862808,0.663289070129395,-1.07097916161324,-0.460812413548163,0.662987118851036,0
2.82000732421875,-1.67666018009186,1.86670804023743,2.30186319351196,-1.87897323600723,2.1573466894188,2.30603103117811,2102.944,3545.611,3141.928,0,-0.05226028,0.02961029,0.09174161,-1.08348190784454,-0.417754530906677,0.642575442790985,-1.06666760390385,-0.458957270716794,0.660318059240952,0
2.83999633789063,-1.69832015037537,1.8584178686142,2.31502270698547,-1.90024960698239,2.14819206138118,2.31920211834584,1875.052,2526.464,2386.348,2081.237,-0.04499464,0.02962363,0.08633127,-1.08300983905792,-0.414516448974609,0.657980680465698,-1.06209435025759,-0.456989527434725,0.657486997379635,0
2.86001586914063,-1.71987593173981,1.85021841526031,2.32775640487671,-1.9214641634913,2.13906403038149,2.33233493941432,2064.66,3578.914,3123.374,0,-0.04977128,0.02882489,0.08885512,-1.07777428627014,-0.409957975149155,0.636690676212311,-1.05724722779031,-0.454903946049977,0.654486397671922,0
2.8800048828125,-1.74140882492065,1.84208703041077,2.34079098701477,-1.94254691640495,2.12999271078668,2.34538616777867,1857.486,2506.022,2370.112,2113.119,-0.04249393,0.02886199,0.08339957,-1.07664585113525,-0.40657252073288,0.651733577251434,-1.0521429102862,-0.45270770082608,0.651326581984514,0
2.89999389648438,-1.76282596588135,1.83404934406281,2.3533890247345,-1.96352501326936,2.1209664217661,2.35837260906308,2059.963,3567.695,3117.062,0,-0.04731106,0.02807152,0.0858425,-1.07087242603302,-0.40189465880394,0.629897058010101,-1.04677621342161,-0.450398561093403,0.648004340974112,0
2.92001342773438,-1.78420829772949,1.82608187198639,2.36628222465515,-1.98442500350686,2.11197373984504,2.37131069862469,1842.761,2496.867,2364.374,2121.425,-0.03995913,0.02809489,0.08029796,-1.06910002231598,-0.398360133171082,0.644658327102661,-1.04114045847258,-0.4479736531836,0.644515540192422,0
2.94000244140625,-1.80546498298645,1.81821036338806,2.37874054908752,-2.00517798053537,2.10304431360073,2.38415778000673,2063.675,3564.969,3094.746,0,-0.04476454,0.02726592,0.08261763,-1.06284010410309,-0.393577396869659,0.622920155525208,-1.03525504859546,-0.445441325732794,0.640872191117535,0
2.95999145507813,-1.82667219638824,1.81041240692139,2.39147782325745,-2.02581075424974,2.0941666074844,2.39693044981124,1829.535,2500.262,2364.106,2108.115,-0.0376017,0.02721873,0.07711587,-1.06035554409027,-0.389898180961609,0.636863768100739,-1.02911391720548,-0.442798968459032,0.637070538244476,0
2.98001098632813,-1.84774351119995,1.80271244049072,2.40376996994019,-2.04634944795115,2.08532938136936,2.40964487960608,2072.282,3524.56,3104.659,0,-0.0424396,0.02624804,0.0792255,-1.05357909202576,-0.385018020868301,0.6146080493927,-1.02270954399162,-0.440043345582586,0.633105926142498,0
3,-1.86875379085541,1.79508686065674,2.41635274887085,-2.06672639957428,2.07656174835205,2.42225918334961,1812.572,2516.448,2339.177,2113.737,-0.03520752,0.02605233,0.0736634,-1.05050837993622,-0.38126066327095,0.629138946533203,-1.01606400046349,-0.437183953857422,0.628992018127441,0
3.01998901367188,-1.8896176815033,1.78756010532379,2.42848014831543,-2.0869680292999,2.06785234056679,2.43478971639231,2036.442,3553.743,3087.199,0,-0.04014449,0.02501711,0.07604612,-1.04319560527802,-0.376333922147751,0.606375992298126,-1.00917036754089,-0.434217816196637,0.624724530959079,0
3.04000854492188,-1.91040849685669,1.78011012077332,2.44089531898499,-2.10709998486405,2.05919012250926,2.44725235590455,1784.464,2498.229,2316.131,2160.598,-0.03265142,0.02479978,0.07056316,-1.03954291343689,-0.372510105371475,0.62075799703598,-1.00202031904361,-0.431141350077486,0.620298310335216,0
3.05999755859375,-1.93104422092438,1.77276015281677,2.45284843444824,-2.12705600675913,2.05060360379452,2.45960608409476,2045.776,3543.098,3066.036,0,-0.03751169,0.02371248,0.07292116,-1.03178524971008,-0.367498904466629,0.597659707069397,-0.994638524886308,-0.427965170275055,0.615728628108227,0
3.07998657226563,-1.95159518718719,1.76548933982849,2.46508359909058,-2.14686207530873,2.04208160581513,2.47186698402085,1768.076,2495.99,2296.203,2177.408,-0.02992434,0.02344819,0.06740421,-1.02755582332611,-0.363540887832642,0.611761689186096,-0.987017247723776,-0.424685947625853,0.611010694492843,0
3.10000610351563,-1.97198212146759,1.75832104682922,2.47684502601624,-2.16654331551667,2.03361331798384,2.48405060925705,2043.135,3529.868,3059.641,0,-0.03477236,0.02229696,0.06967213,-1.01934361457825,-0.358411401510239,0.588075876235962,-0.979147395688901,-0.421299770153459,0.606138881190213,0
3.1199951171875,-1.99227368831635,1.75123512744904,2.48889756202698,-2.18603502400946,2.02522658035469,2.49611690533293,1757.843,2499.054,2261.703,2198.948,-0.02707742,0.02196463,0.06402718,-1.01458358764648,-0.354312479496002,0.602625072002411,-0.971056158224178,-0.417818336715394,0.601130019760458,0
3.1400146484375,-2.01239156723022,1.74425339698792,2.50046300888062,-2.20539207344272,2.01689778275692,2.50809984103626,2015.723,3552.469,3040.761,0,-0.03207245,0.02081261,0.06642392,-1.00589764118195,-0.34907591342926,0.578273236751556,-0.962722140342815,-0.41423244164655,0.595970865687568,0
3.16000366210938,-2.03240370750427,1.73735618591309,2.51231813430786,-2.22455088103183,2.00865428308644,2.51996005559448,1739.069,2481.817,2235.778,2239.396,-0.02426832,0.02049874,0.06070752,-1.00059378147125,-0.344845920801163,0.592754662036896,-0.954174163352092,-0.410554485950274,0.590679260733698,0
3.17999267578125,-2.05223298072815,1.73056638240814,2.52367496490479,-2.24353658854737,2.00048526354177,2.53171311296128,2007.137,3552.017,3027.318,0,-0.02931874,0.01937597,0.06307384,-0.991479575634003,-0.339500546455383,0.567846655845642,-0.945403214201559,-0.406780591562751,0.585249625391267,0
3.20001220703125,-2.07194542884827,1.72386407852173,2.53531694412231,-2.26237335188561,1.99238033051557,2.54337396678712,1724.08,2470.663,2222.995,2257.186,-0.02144803,0.01907814,0.05726156,-0.985621631145477,-0.335123270750046,0.582101583480835,-0.93639902618694,-0.402906341007952,0.579675604081262,0
3.22000122070313,-2.09146785736084,1.71727049350739,2.54645991325378,-2.28099938900442,1.98436606709459,2.55490437104486,2011.131,3547.759,3006.28,0,-0.02654266,0.01795191,0.0594891,-0.976113438606262,-0.329671263694763,0.557154595851898,-0.927192788821982,-0.398945154262308,0.573976504598449,0
3.239990234375,-2.11086058616638,1.71076738834381,2.55787515640259,-2.2994392795179,1.97643189735754,2.5663195416865,1709.822,2473.149,2219.568,2249.92,-0.0188669,0.01762377,0.0536748,-0.969652533531189,-0.325155735015869,0.570766746997833,-0.917774783907129,-0.394892849856044,0.568146310914365,0
3.260009765625,-2.13005542755127,1.70437479019165,2.56878256797791,-2.31771654397337,1.96856770107001,2.57763403905129,2015.364,3515.611,3012.705,0,-0.02404515,0.01641569,0.05571231,-0.959736585617065,-0.319627553224564,0.545370399951935,-0.908134108040216,-0.390744736359816,0.562178273303667,0
3.27999877929688,-2.14911031723022,1.69807386398315,2.5799708366394,-2.33577134012187,1.96079922667992,2.58881081793642,1694.263,2485.678,2200.146,2252.49,-0.01638537,0.01598334,0.04985184,-0.95273745059967,-0.315037786960602,0.55941641330719,-0.898304216251578,-0.386515208538549,0.556093102023818,0
3.29998779296875,-2.16795873641968,1.69188416004181,2.59064292907715,-2.35362764460945,1.95311615770631,2.59986472102797,1987.646,3532.907,3000.01,0,-0.02168559,0.01473203,0.05207789,-0.942407131195068,-0.309479385614395,0.533603549003601,-0.888274735793772,-0.382199803288803,0.549884375850026,0
3.32000732421875,-2.18665647506714,1.6857875585556,2.60159420967102,-2.37130830610839,1.94550866300381,2.61080989274252,1667.96,2473.249,2181.996,2287.669,-0.01385696,0.01427886,0.04630109,-0.9348965883255,-0.304844439029694,0.547565400600433,-0.878034183119985,-0.377793579561194,0.543544985919778,0
3.33999633789063,-2.20514106750488,1.67980241775513,2.61202430725098,-2.38875555478454,1.93800159931817,2.62161057080077,1994.825,3521.151,2982.695,0,-0.01911617,0.01298458,0.04851349,-0.924226582050323,-0.299238681793213,0.521503627300262,-0.867618167158097,-0.373311858882592,0.53709697585572,0
3.3599853515625,-2.22346544265747,1.67391228675842,2.62273025512695,-2.40599272667425,1.93058492580486,2.63228120132087,1650.589,2473.162,2163.765,2302.186,-0.0112199,0.01248912,0.04274654,-0.916223883628845,-0.2945157289505,0.53529167175293,-0.857015715678588,-0.368749920209162,0.530533553325099,0
3.3800048828125,-2.24156975746155,1.6681352853775,2.63290452957153,-2.42304196557559,1.92324911460621,2.64283549236868,1993.983,3505.829,2977.08,0,-0.01647698,0.01113819,0.04489451,-0.905219733715057,-0.288843065500259,0.50871753692627,-0.846214826007803,-0.364102599125748,0.523847288101157,0
3.39999389648438,-2.25950479507446,1.6624550819397,2.64336371421814,-2.43984769972619,1.91601807669906,2.65323904237604,1639.171,2476.686,2132.177,2322.124,-0.008484831,0.01057817,0.0390461,-0.89675909280777,-0.284021735191345,0.522956073284149,-0.835253140422974,-0.35938609205264,0.51706148254665,0
3.42001342773438,-2.27721309661865,1.65688943862915,2.65328001976013,-2.45645774020782,1.90887124031063,2.66352144868012,1972.552,3521.964,2959.593,0,-0.013874,0.009222208,0.04130961,-0.885416328907013,-0.27828323841095,0.495810955762863,-0.824102019042908,-0.354588076049064,0.510158407210813,0
3.44000244140625,-2.29474353790283,1.6514219045639,2.66348099708557,-2.47281804716281,1.90183185728196,2.67364925803476,1620.72,2463.777,2106.947,2358.165,-0.005797169,0.008671243,0.0354253,-0.876504600048065,-0.273371011018753,0.510054886341095,-0.812800388649434,-0.349725300221754,0.503162159625937,0
3.45999145507813,-2.31204080581665,1.64607059955597,2.67312908172607,-2.48895081463434,1.8948903781363,2.68363620960993,1966.453,3518.927,2947.153,0,-0.01125878,0.007338436,0.03767036,-0.864862978458405,-0.267567694187164,0.482403516769409,-0.80133641229185,-0.344792671461508,0.496065412155666,0
3.48001098632813,-2.32915091514587,1.64081931114197,2.68305993080139,-2.50487694859767,1.88803780761656,2.69349524520019,1604.723,2456.191,2092.416,2376.397,-0.003137736,0.006800453,0.03172674,-0.855503022670746,-0.262558430433273,0.496544271707535,-0.789697369743255,-0.339784716610052,0.488860290373601,0
3.5,-2.346022605896,1.63568568229675,2.69243597984314,-2.5205447997813,1.88129636896134,2.70319439144611,1968.904,3514.519,2928.833,0,-0.008669122,0.005473411,0.03387868,-0.843585133552551,-0.256693601608276,0.46880716085434,-0.777924000354857,-0.334718964672089,0.481572013878822,0
3.51998901367188,-2.36269760131836,1.63065361976624,2.70208668708801,-2.53597583877076,1.87465682397749,2.71274693966292,1589.604,2458.691,2084.971,2375.853,-0.0007078682,0.004923115,0.02794992,-0.833757221698761,-0.251600503921509,0.482529729604721,-0.766004036374581,-0.329590137176618,0.474192988348404,0
3.54000854492188,-2.37912893295288,1.62573957443237,2.71117424964905,-2.55119019794619,1.86811051026429,2.72216535275294,1971.59,3488.411,2932.147,0,-0.006340454,0.003550713,0.02996891,-0.821567058563232,-0.245710089802742,0.454382479190826,-0.753924423002452,-0.324392617007921,0.466715132239272,0
3.55999755859375,-2.39535522460938,1.62092769145966,2.72054409980774,-2.56613872308604,1.86167857751006,2.73141920191151,1574.794,2468.158,2067.287,2380.635,0.00158558,0.002930289,0.02402244,-0.811304152011871,-0.240583121776581,0.468487590551376,-0.741727567798258,-0.319144650954242,0.459164697851087,0
3.57998657226563,-2.41133213043213,1.61623382568359,2.72934412956238,-2.58084213759183,1.85535210901407,2.74052131591136,1951.475,3498.353,2921.437,0,-0.004174771,0.001536507,0.02618465,-0.798846840858459,-0.234698891639709,0.439997047185898,-0.72940084364523,-0.31384080592,0.451533868397061,0
3.60000610351563,-2.42709565162659,1.61164236068726,2.73842597007751,-2.59531978247425,1.84912278287974,2.74948366775945,1551.839,2460.165,2051.038,2408.447,0.003846586,0.0009038244,0.02032563,-0.788187205791473,-0.229566425085068,0.45409631729126,-0.716930938559024,-0.308475354130224,0.443814403124743,0
3.6199951171875,-2.44260597229004,1.60716867446899,2.74693393707275,-2.60952509409627,1.84301063413925,2.75827743234631,1957.278,3486.501,2907.776,0,-0.001921204,-0.0005129248,0.02248613,-0.775522232055664,-0.223682209849358,0.4253930747509,-0.704361775018033,-0.303067194200314,0.436033492140578,0
3.6400146484375,-2.45789575576782,1.60279810428619,2.75572276115417,-2.62349913748426,1.83699799365897,2.76692803087948,1535.296,2461.403,2034.601,2421.498,0.006126989,-0.001171791,0.01666269,-0.76449328660965,-0.218520626425743,0.43943864107132,-0.691660998977508,-0.297602405088683,0.428171106749629,0
3.66000366210938,-2.47292900085449,1.59854590892792,2.76393747329712,-2.63719712493647,1.83110413233575,2.77540773763803,1945.922,3483.429,2885.816,17.53624,0.0004221621,-0.002571548,0.01881288,-0.751645565032959,-0.212628826498985,0.410731196403503,-0.678873453515702,-0.29210028151913,0.420255006953505,0
3.67999267578125,-2.48773384094238,1.59439754486084,2.77242660522461,-2.65063849381582,1.82532068681534,2.78372858527554,1527.301,2462.853,2020.772,2422.846,0.008392563,-0.003232545,0.01303488,-0.740259408950806,-0.207418844103813,0.424461036920547,-0.665986083416798,-0.286555206197011,0.41227711095171,0
3.70001220703125,-2.50227880477905,1.59036707878113,2.78034853935242,-2.66384123964357,1.81963991412768,2.79190171387692,1920.929,3481.302,2852.763,59.96906,0.002869559,-0.004544951,0.01512997,-0.727253258228302,-0.201514691114426,0.396093785762787,-0.65298533214413,-0.280961346123326,0.404229026602262,0
3.72000122070313,-2.51658940315247,1.58644223213196,2.78853011131287,-2.6767633032417,1.81407991116207,2.79990108680742,1534.438,2466.072,2013.791,2399.718,0.01057068,-0.005170794,0.009412269,-0.715514719486237,-0.19623738527298,0.409073173999786,-0.639917282339434,-0.275338529371411,0.396139281255611,0
3.739990234375,-2.53063654899597,1.5826358795166,2.79615616798401,-2.68942333385363,1.80863265367006,2.80773824883709,1896.843,3467.489,2817.06,117.2617,0.005230166,-0.006361227,0.01132328,-0.702365517616272,-0.190328016877174,0.381303131580353,-0.62676873176137,-0.26968107538565,0.387999702095468,0
3.760009765625,-2.54444217681885,1.57893538475037,2.80401611328125,-2.70183851231475,1.80329074921818,2.81542383572149,1537.81,2475.89,2026.951,2353.276,0.01250076,-0.00692848,0.005715037,-0.690268576145172,-0.185006842017174,0.392998307943344,-0.613526094901139,-0.263983138701136,0.379801879044709,0
3.77999877929688,-2.55798172950745,1.57535314559937,2.81134629249573,-2.7139695770734,1.79807109095524,2.82293354268985,1879.294,3442.744,2774.809,188.0161,0.007433943,-0.00799694,0.007329321,-0.676979839801788,-0.179121688008308,0.366509675979614,-0.60023651686137,-0.258265004538452,0.371574997167698,0
3.79998779296875,-2.57127213478088,1.57187724113464,2.81887435913086,-2.72583438304408,1.79296599641037,2.83027842278479,1544.834,2501.589,2055.013,2271.535,0.01401791,-0.008524246,0.001969089,-0.66451632976532,-0.173798233270645,0.376402825117111,-0.586886736182787,-0.252520966862155,0.36331084698941,0
3.82000732421875,-2.58429384231567,1.56851720809937,2.82590556144714,-2.73744929742843,1.78796842323393,2.8374686080838,1849.396,3402.456,2733.696,287.2495,0.009389654,-0.009471266,0.003259618,-0.651093721389771,-0.167996808886528,0.351560801267624,-0.573463232144022,-0.246745208083563,0.355001058539243,0
3.83999633789063,-2.59705972671509,1.56526279449463,2.83309769630432,-2.74877791451009,1.78309403578861,2.84448156171422,1560.797,2537.249,2086.523,2167.703,0.01523929,-0.009980462,-0.001758219,-0.638287484645844,-0.162719920277596,0.359603822231293,-0.560014026276881,-0.240958390526246,0.346675359432959,0
3.8599853515625,-2.60955452919006,1.56212198734283,2.83982920646667,-2.75983729406747,1.77833549372837,2.85132784449154,1819.326,3357.78,2689.666,394.8463,0.01109919,-0.01083001,-0.0007611314,-0.624742388725281,-0.157043009996414,0.336577594280243,-0.546525890176286,-0.235154822377061,0.338325560657667,0
3.8800048828125,-2.62178730964661,1.55908501148224,2.84668135643005,-2.77064299647982,1.77368610185671,2.85801708903178,1569.687,2575.485,2122.398,2064.115,0.01626853,-0.0113227,-0.005357747,-0.611640930175781,-0.15185458958149,0.342602372169495,-0.532985466132484,-0.229328756186666,0.329943393154704,0
3.89999389648438,-2.63374710083008,1.55615854263306,2.85311532020569,-2.78116151864576,1.76916027562219,2.86452855531919,1797.695,3307.779,2638.345,508.0035,0.0127181,-0.01209448,-0.004677576,-0.597995519638062,-0.146320074796677,0.321694165468216,-0.519441457145543,-0.223501147495394,0.321559006401168,0
3.92001342773438,-2.64544010162354,1.55333423614502,2.85962653160095,-2.79142456801014,1.76474437219711,2.87088187177258,1581.101,2620.963,2157.116,1952.018,0.01715416,-0.01258077,-0.008806009,-0.584650635719299,-0.141227945685387,0.325556188821793,-0.505860052376089,-0.217657448443621,0.313151469876846,0
3.94000244140625,-2.65685868263245,1.55061686038971,2.86576151847839,-2.8014005971492,1.76045196555656,2.87705750903383,1772.143,3252.61,2587.62,630.4887,0.0142318,-0.01327799,-0.008450743,-0.570929765701294,-0.135849356651306,0.306743860244751,-0.492290296490434,-0.211818761581115,0.30475114456651,0
