t,x_s1,x_s2,x_s3,x_s_d1,x_s_d2,x_s_d3,propellers_rpms1,propellers_rpms2,propellers_rpms3,propellers_rpms4,rollRad,pitchRad,yawRad,v_s1,v_s2,v_s3,v_s_d1,v_s_d2,v_s_d3,insideCount
0,-0.0599999986588955,2.94000005722046,1.17999994754791,-0.0599999986588955,2.94000005722046,1.17999994754791,0,0,0,0,0,0,0,0,0,0,-1.06581410364015E-15,4.44089209850063E-16,4.44089209850063E-16,0
0.0200042724609375,-0.0599999986588955,2.94000005722046,1.17615437507629,-0.0600018701838461,2.93999925195556,1.18000110611101,0,0,0,0,0,0,0,0,0,-0.192275941371918,-0.000280105751305916,-0.000120521679537258,0.00017339880334547,9
0.0399932861328125,-0.0599999986588955,2.94000005722046,1.16854023933411,-0.060014863945674,2.93999366110285,1.18000914986856,0,0,0,0,0,0,0,-2.58693946061287E-22,-3.88396258331244E-24,-0.380706369876862,-0.00111059898697896,-0.000477859717552347,0.000687513678106196,9
0.05999755859375,-0.0599999986588955,2.94000005722046,1.16209828853607,-0.0600498857373401,2.93997859220429,1.18003083002592,2729.158,2675.419,2549.058,2604.208,-0.001365136,2.001198E-06,-0.0005741775,-1.7994876699845E-09,-4.41060610256727E-09,-0.322100013494492,-0.00247936261166862,-0.00106680046642749,0.00153484356504269,9
0.0800018310546875,-0.0599972531199455,2.93999361991882,1.15672361850739,-0.0601175574246769,2.93994947496775,1.18007272202403,2722.475,2694.417,2468.437,2495.88,-0.005188903,8.089709E-06,-0.00144077,0.000137341252411716,-0.00032654611277394,-0.268735945224762,-0.00437268608126799,-0.00188144466206175,0.00270690098422899,9
0.100006103515625,-0.0599877759814262,2.93996286392212,1.15231907367706,-0.0602282404704493,2.93990185114529,1.18014124010193,2568.693,2685.833,2542.108,2420.32,-0.01059938,1.300776E-05,-0.001048753,0.000473833410069346,-0.0015415494563058,-0.220226958394051,-0.00677739276378709,-0.00291612276782231,0.00419552897277328,9
0.1199951171875,-0.0599736273288727,2.93988347053528,1.14879488945007,-0.0603918861403606,2.93983143898525,1.18024254456713,2452.667,2640.713,2580.76,2390.491,-0.01667299,5.592866E-06,0.001338244,0.000707475410308689,-0.00396862672641873,-0.176207721233368,-0.00967801353495435,-0.00416417885169243,0.00599115140585487,9
0.139999389648438,-0.0599658824503422,2.93972945213318,1.14606821537018,-0.0606185767455666,2.93973390035084,1.18038287685052,2359.553,2554.143,2601.308,2408.723,-0.02222355,-2.730159E-05,0.005766553,0.000387316627893597,-0.0077015059068799,-0.136334329843521,-0.0130660253322238,-0.00562194567796536,0.00808849210174802,9
0.160003662109375,-0.0599843114614487,2.93947815895081,1.14406263828278,-0.0609177895434042,2.93960515744296,1.18056810382587,2308.665,2451.653,2584.52,2448.9,-0.02629073,-8.544143E-05,0.01166411,-0.000921537692192942,-0.0125620337203145,-0.100280962884426,-0.0169265510445065,-0.00728302204135792,0.0104783414199936,9
0.17999267578125,-0.0600543618202209,2.93911480903625,1.14270782470703,-0.0612985250199726,2.93944133760391,1.18080379722281,2300.599,2355.761,2530.045,2487.68,-0.02839356,-0.0001502023,0.01807569,-0.00350248441100121,-0.0181702189147472,-0.0677383616566658,-0.0212433804254414,-0.00914043312572283,0.0131506644458931,8
0.199996948242188,-0.0602026544511318,2.93863344192505,1.14193964004517,-0.0617704296168641,2.93923829023936,1.18109592864822,2325.134,2286.58,2447.912,2504.549,-0.02864549,-0.0001981392,0.02398437,-0.00741462409496307,-0.0240628067404032,-0.0384117290377617,-0.0260104776919234,-0.0111915819022102,0.0161017247421801,8
0.220001220703125,-0.0604525431990623,2.93803691864014,1.14169931411743,-0.0623420644491781,2.93899233174064,1.18144979784016,2364.178,2255.32,2355.861,2488.142,-0.02767823,-0.0002141181,0.0286203,-0.012494433671236,-0.0298262946307659,-0.0120186097919941,-0.03121219533433,-0.0134297356845702,0.019321835755004,8
0.240005493164063,-0.0608209930360317,2.93733286857605,1.14193344116211,-0.0630219993990999,2.93869977472688,1.18187070996396,2394.783,2259.787,2277.401,2439.542,-0.02637275,-0.0002018676,0.03168852,-0.0184225030243397,-0.0352046154439449,0.0117081478238106,-0.0368361158647881,-0.0158495515746756,0.0228033104678445,8
0.259994506835938,-0.0613176561892033,2.93653011322021,1.14259386062622,-0.0638179029240226,2.93835731967507,1.18236341216003,2403.049,2288.101,2226.946,2369.632,-0.02558073,-0.000175236,0.03339779,-0.0248331930488348,-0.040142223238945,0.0330190435051918,-0.0428651747123285,-0.0184436871643672,0.0265355850983733,8
0.279998779296875,-0.0619461163878441,2.93563485145569,1.1436368227005,-0.0647390625194898,2.93796097043536,1.18293365383054,2382.234,2321.753,2212.028,2295.649,-0.02585503,-0.0001459412,0.03434709,-0.0314229279756546,-0.0447665341198444,0.0521451607346535,-0.0492963837173861,-0.0212108567320638,0.030516809833474,8
0.300003051757813,-0.0627066791057587,2.93464851379395,1.14502274990082,-0.0657927507678135,2.93750759781875,1.18358593705038,2338.521,2344.212,2225.902,2234.332,-0.02733682,-0.0001219728,0.03528203,-0.0380280911922455,-0.0493152737617493,0.0692991092801094,-0.0561132031658829,-0.0241439437008635,0.0347367458022363,8
0.32000732421875,-0.0635996386408806,2.9335675239563,1.14671623706818,-0.0669865614821475,2.93699393441958,1.18432496275165,2280.727,2343.31,2259.201,2197.97,-0.02972461,-0.000108657,0.03687016,-0.0446478426456451,-0.0540456436574459,0.0846731513738632,-0.0633036493784043,-0.0272377918282996,0.0391879745362408,8
0.339996337890625,-0.0646280497312546,2.93238472938538,1.1486850976944,-0.068326768706371,2.93641728069206,1.18515461486636,2225.681,2317.16,2292.7,2190.448,-0.0324357,-0.0001081243,0.0394804,-0.0514204502105713,-0.059142280369997,0.0984426066279411,-0.0708499516420146,-0.0304847548730522,0.0438594951176439,8
0.360000610351563,-0.0657991543412209,2.93109154701233,1.15090048313141,-0.0698225328270578,2.93577369517774,1.1860805641102,2185.356,2271.735,2312.734,2207.045,-0.03480592,-0.0001203749,0.04310405,-0.0585553608834743,-0.0646629258990288,0.110768206417561,-0.0787518717320621,-0.0338847303337087,0.0487511600740379,8
0.3800048828125,-0.067124217748642,2.92968106269836,1.15333652496338,-0.0714797725314022,2.93506063123087,1.18710647443246,2169.52,2220.589,2307.536,2235.874,-0.03634363,-0.0001384844,0.04737517,-0.0662532523274422,-0.0705271735787392,0.121802546083927,-0.0869921272359981,-0.0374302820709642,0.0538522707687797,8
0.399993896484375,-0.0686168894171715,2.92814993858337,1.15597033500671,-0.0733036822025899,2.9342758538535,1.18823556140379,2174.3,2176.298,2281.443,2263.435,-0.03682726,-0.0001533981,0.05175164,-0.0746337696909904,-0.0765572413802147,0.131690219044685,-0.0955525119207663,-0.0411135764513579,0.0591515566763244,8
0.419998168945313,-0.0702909454703331,2.92649912834167,1.15878176689148,-0.0753034649285836,2.93341540321397,1.18947352217404,2194.427,2149.575,2239.691,2278.589,-0.03636493,-0.0001565939,0.05568588,-0.083702951669693,-0.082536056637764,0.140568777918816,-0.104434660908044,-0.0449353170220673,0.0646500300148815,8
0.44000244140625,-0.0721580684185028,2.92473363876343,1.16175317764282,-0.077483988232608,2.93247718495301,1.19082336997196,2221.334,2145.717,2191.424,2275.142,-0.03536412,-0.0001459412,0.05877916,-0.093356154859066,-0.088275782763958,0.148571133613586,-0.113620829717891,-0.048887868829098,0.0703367061060819,8
0.460006713867188,-0.0742263048887253,2.92286014556885,1.16486954689026,-0.0798512213598696,2.93145863067119,1.19228880004469,2240.341,2160.564,2154.586,2253.57,-0.03432442,-0.0001272991,0.06092915,-0.103411786258221,-0.0936760529875755,0.155820280313492,-0.123099793815011,-0.0529664022684887,0.0762046364278779,8
0.479995727539063,-0.0764997601509094,2.92088532447815,1.16811811923981,-0.0824088828700873,2.93035814037613,1.19387211435783,2246.669,2186.454,2134.665,2220.494,-0.0337087,-0.0001081243,0.06230849,-0.113672867417336,-0.0987403318285942,0.162428021430969,-0.132852887402757,-0.0571628859694044,0.0822422659629699,8
0.5,-0.078979417681694,2.91881394386292,1.17148792743683,-0.085166398670376,2.92917165836334,1.1955791479969,2236.895,2211.707,2136.529,2185.801,-0.03377794,-9.416479E-05,0.06329484,-0.123982772231102,-0.103564716875553,0.168491899967194,-0.142884000065179,-0.0614789935111996,0.0884520025491718,8
0.520004272460938,-0.0816647186875343,2.91664814949036,1.17496991157532,-0.088127196023106,2.92789770997757,1.19741202260058,2217.403,2228.592,2152.204,2158.662,-0.03458061,-8.725131E-05,0.06430589,-0.13426499068737,-0.108295097947121,0.174098134040833,-0.153174893518032,-0.065906877469682,0.0948225558197254,9
0.539993286132813,-0.0845552906394005,2.914386510849,1.17855632305145,-0.091293865515634,2.92653518056143,1.19937234186584,2190.469,2230.073,2179.958,2145.283,-0.03589941,-8.757782E-05,0.06570871,-0.144528821110725,-0.113083072006702,0.179319202899933,-0.163706645289342,-0.0704383960337938,0.101342211863077,9
0.55999755859375,-0.0876524224877357,2.91202592849731,1.18224060535431,-0.094676112580471,2.92507989413848,1.20146611391775,2166.13,2216.783,2206.654,2147.861,-0.03737161,-9.304775E-05,0.06768911,-0.154856771230698,-0.118032813072205,0.184216126799583,-0.17448465888317,-0.0750758741803766,0.108014315705644,9
0.580001831054688,-0.090959757566452,2.90956234931946,1.18601751327515,-0.0982762614093182,2.92353085067394,1.20369477754168,2153.633,2194.966,2219.818,2163.271,-0.03865578,-0.0001001349,0.07018611,-0.165366947650909,-0.12317331135273,0.188845872879028,-0.185490414529404,-0.0798113433697334,0.11482740272751,9
0.600006103515625,-0.0944830104708672,2.90699315071106,1.18988275527954,-0.102098762959148,2.92188613504538,1.20606108809202,2150.856,2170.576,2222.606,2184.24,-0.03947657,-0.0001049285,0.07298988,-0.176162570714951,-0.128464341163635,0.193260341882706,-0.196713446836865,-0.0846403006364086,0.121774994352997,9
0.6199951171875,-0.0982290655374527,2.90431690216064,1.19383299350739,-0.106144683970236,2.92014528826426,1.20856570593183,2160.182,2152.245,2210.594,2203.944,-0.03974395,-0.0001043959,0.07578703,-0.187302455306053,-0.133811503648758,0.197509631514549,-0.208134604141382,-0.0895545055543457,0.128845234789665,9
0.639999389648438,-0.10220468044281,2.90153479576111,1.19786584377289,-0.110424235525481,2.91830391678686,1.21121495220784,2175.481,2144.259,2191.526,2216.184,-0.03953409,-9.757406E-05,0.07828949,-0.198781296610832,-0.139104023575783,0.2016411870718,-0.219761081350814,-0.0945570538913933,0.136042578028218,9
0.660003662109375,-0.106415405869484,2.89864993095398,1.20197987556458,-0.114938248900541,2.91636166293851,1.21400934151928,2194.789,2150.177,2166.739,2217.942,-0.03911065,-8.554592E-05,0.08028629,-0.210536286234856,-0.144249126315117,0.205703467130661,-0.231574097577923,-0.0996398647564507,0.143355397804799,9
0.67999267578125,-0.110864669084549,2.89566588401794,1.20617461204529,-0.119686638739014,2.91431856344567,1.21694882102647,2206.94,2164.979,2152.233,2209.132,-0.03874473,-7.282447E-05,0.08176123,-0.222463354468346,-0.149208351969719,0.209739595651627,-0.243554411173546,-0.104794659005432,0.150771782621969,9
0.699996948242188,-0.115553803741932,2.89258599281311,1.21045029163361,-0.124680083855354,2.91217002351282,1.22004000142426,2211.161,2183.861,2148.595,2194.507,-0.03866111,-6.35369E-05,0.08284963,-0.234456971287727,-0.153998285531998,0.213784888386726,-0.255710395848158,-0.11002503961202,0.158296916205407,9
0.720001220703125,-0.120482608675957,2.88941240310669,1.21480774879456,-0.129918284978346,2.90991617190799,1.22328269744952,2210.15,2202.412,2151.929,2179.68,-0.03901637,-5.932348E-05,0.08375026,-0.246440663933754,-0.158680185675621,0.217870697379112,-0.268023157655716,-0.11532287703907,0.16591910230247,9
0.740005493164063,-0.125650197267532,2.88614559173584,1.21924817562103,-0.13540428105644,2.90755570105657,1.22667879035609,2200.202,2213.164,2169.168,2168.701,-0.0397807,-6.048859E-05,0.08472137,-0.258379191160202,-0.163345366716385,0.222018972039223,-0.280482990349159,-0.120683994959631,0.173632332283853,9
0.759994506835938,-0.131055980920792,2.88278412818909,1.2237731218338,-0.14113644597991,2.90508931062815,1.2302272735046,2189.175,2215.316,2188.778,2165.956,-0.04081454,-6.577541E-05,0.08595064,-0.2702896296978,-0.168077394366264,0.226245060563087,-0.293070637251543,-0.126100107763583,0.181424685349205,9
0.779998779296875,-0.136700510978699,2.87932562828064,1.22838425636292,-0.147126184485884,2.90251209348295,1.23393520697061,2179.294,2208.359,2208.223,2172.094,-0.04188673,-7.25303E-05,0.087524,-0.282226234674454,-0.172929868102074,0.230557665228844,-0.305795832832518,-0.131575403921268,0.189302187598958,9
0.800003051757813,-0.142585709691048,2.87576746940613,1.2330836057663,-0.153371683173492,2.89982482987671,1.2378014681726,2178.242,2198.625,2215.639,2185.033,-0.04282949,-7.761869E-05,0.08936657,-0.294260025024414,-0.17790924012661,0.234967097640038,-0.318639638509124,-0.13710173468952,0.197253115148089,9
0.82000732421875,-0.148714631795883,2.87210774421692,1.23787319660187,-0.159875221826383,2.89702653888221,1.24182746840525,2180.556,2187.657,2219.836,2199.696,-0.04349421,-7.946644E-05,0.09135316,-0.306445240974426,-0.182987496256828,0.239481389522552,-0.331592781842754,-0.14267511039705,0.205271727915392,9
0.839996337890625,-0.155090808868408,2.8683454990387,1.24275541305542,-0.166633637018892,2.89411858163313,1.24601124935738,2189.463,2181.296,2214.626,2213.093,-0.04385001,-7.707142E-05,0.09330503,-0.318809926509857,-0.188107252120972,0.24410942196846,-0.344636106234817,-0.148287288494656,0.213346167053785,9
0.860000610351563,-0.161717712879181,2.8644814491272,1.24773263931274,-0.173659158941841,2.89109569582005,1.2503603820997,2200.132,2180.422,2207.006,2221.982,-0.04394429,-7.133785E-05,0.09507407,-0.331345081329346,-0.193205982446671,0.248858839273453,-0.357780475378537,-0.153942943326036,0.221483157706883,9
0.8800048828125,-0.16859795153141,2.86051678657532,1.25280749797821,-0.180948461186242,2.88795931270381,1.25487280742661,2214.159,2188.456,2193.24,2225.156,-0.04395334,-6.338953E-05,0.09653894,-0.344012141227722,-0.198231667280197,0.253741532564163,-0.371007022483504,-0.159633957038354,0.229671020432672,9
0.899993896484375,-0.175732925534248,2.85645341873169,1.25798285007477,-0.18849723509595,2.8847112861788,1.25954585807468,2221.689,2199.968,2189.415,2221.631,-0.04402099,-5.651081E-05,0.09771895,-0.356748253107071,-0.203169077634811,0.258765876293182,-0.384296738353309,-0.165352150505452,0.237897987633041,9
0.919998168945313,-0.183122828602791,2.85229277610779,1.26326155662537,-0.196318384305134,2.8813460641717,1.26438752200817,2224.534,2212.443,2192.01,2215.469,-0.04424842,-5.294256E-05,0.09871117,-0.369495153427124,-0.208032131195068,0.263935178518295,-0.397661187980262,-0.171102499820431,0.246171218589148,9
0.94000244140625,-0.190767124295235,2.84803557395935,1.26864659786224,-0.204407453948074,2.87786556348678,1.26939504145298,2226.578,2225.045,2194.776,2210.014,-0.04472939,-5.304718E-05,0.09961434,-0.38221549987793,-0.212855204939842,0.269253104925156,-0.411081631631503,-0.176876941799768,0.254479112513653,9
0.960006713867188,-0.198664963245392,2.84368181228638,1.27414095401764,-0.212765478812529,2.87426933888379,1.27456905699201,2222.076,2231.628,2208.595,2206.136,-0.04542181,-5.631299E-05,0.1005806,-0.394892454147339,-0.217691034078598,0.274717509746552,-0.424549556012544,-0.182671813410681,0.262816399271726,9
0.979995727539063,-0.206815764307976,2.83923006057739,1.27974736690521,-0.22138664033507,2.87055989392801,1.27990596665734,2218.023,2233.443,2221.821,2207.21,-0.04623514,-6.169899E-05,0.1017053,-0.407540172338486,-0.222582504153252,0.280322849750519,-0.438046240701377,-0.188479059778567,0.271171490030365,9
1,-0.215219616889954,2.83467888832092,1.28546857833862,-0.230284798736574,2.86673126495361,1.28541435058594,2214.216,2229.531,2235.548,2213.176,-0.04702077,-6.744736E-05,0.1030291,-0.42019185423851,-0.227553173899651,0.286059409379959,-0.451584000205995,-0.194303979492187,0.279552008056641,9
1.02000427246094,-0.223877370357513,2.83002686500549,1.29130697250366,-0.239454009753966,2.86278600961093,1.2910905289958,2217.557,2225.961,2237.893,2223.127,-0.04771106,-7.087048E-05,0.1044752,-0.432888835668564,-0.23259624838829,0.291922360658646,-0.465144357597929,-0.200138622445408,0.287946515251652,9
1.03999328613281,-0.232790499925613,2.82527303695679,1.29726505279541,-0.248887339851819,2.85872711120656,1.2969302096982,2220.604,2221.26,2242.069,2232.612,-0.04822399,-7.187478E-05,0.1059749,-0.445655792951584,-0.237691000103951,0.297905504703522,-0.478708875293167,-0.205975055460915,0.29634359787259,9
1.05999755859375,-0.241960540413857,2.82041692733765,1.30334508419037,-0.258599401509697,2.85454828239877,1.30294243851408,2226.208,2218.769,2242.097,2241.266,-0.04852865,-7.023758E-05,0.1074402,-0.458502590656281,-0.24279996752739,0.30400151014328,-0.492290296490434,-0.211818761581115,0.30475114456651,9
1.08000183105469,-0.251388937234879,2.81545925140381,1.30954933166504,-0.268583149539609,2.85025255453512,1.30912285413647,2236.949,2222.626,2232.672,2247.852,-0.04872093,-6.625841E-05,0.1087498,-0.471421211957932,-0.247880563139915,0.310209631919861,-0.50587040849135,-0.217661904390701,0.313157880805523,10
1.10000610351563,-0.261076509952545,2.81040096282959,1.31587982177734,-0.278838480013141,2.84583997233313,1.31547139222872,2243.143,2228.213,2231.01,2249.294,-0.04886474,-6.187712E-05,0.109884,-0.484378606081009,-0.252910286188126,0.316527158021927,-0.519441457145546,-0.223501147495394,0.321559006401169,10
1.1199951171875,-0.271023273468018,2.80524325370789,1.32233881950378,-0.289357002179081,2.84131414609862,1.32198285851614,2248.489,2236.704,2229.598,2248.203,-0.04904957,-5.901227E-05,0.1108578,-0.497338056564331,-0.257880240678787,0.322950571775436,-0.532985466132485,-0.229328756186667,0.329943393154705,10
1.13999938964844,-0.281228601932526,2.79998731613159,1.32892823219299,-0.300154365346813,2.83666834237095,1.3286669406667,2249.791,2243.802,2234.427,2245.942,-0.04930576,-5.842675E-05,0.1117391,-0.510266184806824,-0.262799859046936,0.329472452402115,-0.546515580872639,-0.235150386571708,0.338319178707607,10
1.16000366210938,-0.291691482067108,2.79463362693787,1.3356499671936,-0.311222084148811,2.83190621216671,1.33551838583369,2253.053,2252.207,2234.705,2244.828,-0.04970151,-5.987044E-05,0.1125621,-0.523144721984863,-0.267684876918793,0.33608877658844,-0.560014026276883,-0.240958390526247,0.34667535943296,10
1.17999267578125,-0.30241072177887,2.78918242454529,1.34250581264496,-0.322550701230474,2.8270318247214,1.34253133946411,2250.827,2255.835,2245.113,2243.582,-0.0501942,-6.293702E-05,0.1134195,-0.535962343215942,-0.272564679384232,0.342791318893433,-0.573463232144024,-0.246745208083563,0.355001058539242,10
1.19999694824219,-0.313385248184204,2.7836332321167,1.34949719905853,-0.334156660511822,2.8220381046756,1.34971598112778,2248.314,2255.851,2255.944,2245.422,-0.05070179,-6.736507E-05,0.1143723,-0.548726618289948,-0.277458995580673,0.349567353725433,-0.58687652428584,-0.252516572968185,0.36330452533874,10
1.22000122070313,-0.324614435434341,2.77798581123352,1.35662543773651,-0.346030421585499,2.81692915700008,1.35706640485806,2251.101,2256.413,2257.172,2250.881,-0.0512062,-7.061323E-05,0.1153863,-0.56145840883255,-0.28237047791481,0.356409579515457,-0.600236516861372,-0.258265004538453,0.371574997167698,10
1.24000549316406,-0.336097806692123,2.77223992347717,1.3638916015625,-0.358170848086624,2.8117054706409,1.36458190719098,2251.383,2253.864,2264.068,2256.01,-0.05163017,-7.279837E-05,0.1164561,-0.574170649051666,-0.287298053503036,0.363308548927307,-0.613536214864368,-0.263987493038594,0.379808143784027,10
1.25999450683594,-0.347835302352905,2.76639533042908,1.3712967634201,-0.3705671011502,2.80637170925886,1.37225577835275,2254.716,2252.669,2265.403,2262.007,-0.05194602,-7.319616E-05,0.1175333,-0.586874902248383,-0.292224526405334,0.370255827903748,-0.626758665639206,-0.269676744214496,0.387993470686331,10
1.27999877929688,-0.359826773405075,2.76045274734497,1.37884163856506,-0.383236695417198,2.80092033679326,1.3800988607405,2257.728,2251.321,2267.428,2267.351,-0.05212286,-7.252045E-05,0.1185774,-0.599572241306305,-0.297127068042755,0.377241104841232,-0.639917282339435,-0.275338529371412,0.396139281255613,10
1.30000305175781,-0.372071862220764,2.75441312789917,1.38652682304382,-0.396168722856641,2.79535604666509,1.38810440176341,2265.745,2255.379,2259.432,2272.125,-0.05224323,-6.99712E-05,0.1194998,-0.612255811691284,-0.301977217197418,0.3842613697052,-0.652995275331231,-0.280965624398954,0.404235181908735,10
1.32000732421875,-0.384569883346558,2.74827790260315,1.39435303211212,-0.409361504843077,2.78967956113998,1.39627136227237,2268.886,2259.053,2260.565,2272.686,-0.05233538,-6.775101E-05,0.1203063,-0.624900162220001,-0.306764304637909,0.391311556100845,-0.6659860834168,-0.286555206197011,0.41227711095171,10
1.33999633789063,-0.397319495677948,2.7420482635498,1.40232074260712,-0.422802873722428,2.78389611561957,1.40459220990988,2272.081,2264.553,2260.434,2272.284,-0.05244936,-6.673372E-05,0.1210105,-0.637481391429901,-0.311483412981033,0.398386031389236,-0.678873453515705,-0.29210028151913,0.420255006953505,11
1.36000061035156,-0.410319030284882,2.73572540283203,1.41043019294739,-0.436511415158101,2.77799771321212,1.41307845008695,2272.195,2268.06,2265.432,2271.337,-0.05258198,-6.711794E-05,0.1216617,-0.649978399276733,-0.316139817237854,0.405475288629532,-0.691670720740693,-0.297606588091785,0.42817712498415,11
1.3800048828125,-0.423566699028015,2.72931051254272,1.4186817407608,-0.450474904562636,2.77198961381608,1.4217225152016,2275.759,2273.94,2262.933,2271.862,-0.05279557,-6.833694E-05,0.1222558,-0.662381529808044,-0.320738852024078,0.412575542926788,-0.704361775018035,-0.303067194200314,0.436033492140578,11
1.39999389648438,-0.437060296535492,2.7228045463562,1.42707526683807,-0.464680216184654,2.76587746507559,1.43051627978847,2274.138,2275.668,2270.736,2271.073,-0.0530523,-7.071213E-05,0.1228562,-0.674680054187775,-0.325298100709915,0.419679015874863,-0.716930938559026,-0.308475354130225,0.443814403124744,11
1.41999816894531,-0.450797826051712,2.71620798110962,1.4356107711792,-0.47914673136562,2.75965292774086,1.43947174182117,2272.354,2275.042,2278.554,2272.31,-0.05329039,-7.3635E-05,0.123504,-0.686876177787781,-0.329826712608337,0.426773935556412,-0.729391385793766,-0.313836736470737,0.451528013536465,11
1.44000244140625,-0.46477746963501,2.70952153205872,1.44428789615631,-0.493861275572861,2.75332167044526,1.4485807456364,2275.806,2276.495,2276.012,2276.411,-0.05352741,-7.54488E-05,0.124153,-0.698981463909149,-0.334321290254593,0.433855265378952,-0.741727567798258,-0.319144650954242,0.459164697851088,11
1.46000671386719,-0.478997349739075,2.70274591445923,1.45310616493225,-0.508821304757097,2.74688478782212,1.45784171634646,2275.581,2274.936,2281.482,2278.852,-0.0537117,-7.653424E-05,0.1248128,-0.710997223854065,-0.338782012462616,0.440915435552597,-0.753933682518823,-0.324396601119133,0.466720864320996,11
1.47999572753906,-0.493455916643143,2.69588184356689,1.46206510066986,-0.524012471663969,2.74034845309416,1.46724577231745,2277.627,2274.676,2282.228,2282.114,-0.05383047,-7.67208E-05,0.1254577,-0.722926735877991,-0.34319794178009,0.447947382926941,-0.765994882555672,-0.329586198544069,0.474187321698441,11
1.5,-0.508151233196259,2.68893074989319,1.4711639881134,-0.539455198877605,2.73370387899399,1.4768055561018,2278.561,2273.237,2285.095,2285.061,-0.05385071,-7.650216E-05,0.1260753,-0.734767317771912,-0.347555935382843,0.454941689968109,-0.777924000354858,-0.334718964672088,0.481572013878822,11
1.52000427246094,-0.523081541061401,2.68189406394958,1.48040187358856,-0.555135099954955,2.72695725560613,1.48651216180595,2284.626,2276.793,2277.19,2288.47,-0.05384805,-7.48266E-05,0.1265916,-0.746514737606049,-0.351836383342743,0.461896628141403,-0.789706299681991,-0.339788558913217,0.48886581843107,11
1.53999328613281,-0.538244545459747,2.67477345466614,1.4897780418396,-0.571036956668503,2.72011513090874,1.49635616862212,2285.573,2278.611,2279.56,2288.108,-0.05382675,-7.365509E-05,0.1270261,-0.758148849010468,-0.356035768985748,0.46880778670311,-0.801327600455846,-0.344788879974649,0.496059957209413,11
1.55999755859375,-0.553637623786926,2.66757035255432,1.49929141998291,-0.587181951496087,2.71316839067337,1.50635068951315,2285.622,2280.21,2282.762,2287.532,-0.05378147,-7.356979E-05,0.1274072,-0.769653379917145,-0.360151350498199,0.475666880607605,-0.812800388649436,-0.349725300221754,0.503162159625937,11
1.58000183105469,-0.569257974624634,2.66028666496277,1.5089408159256,-0.60355483331529,2.70612359703193,1.51648628330776,2289.663,2285.187,2277.03,2288.335,-0.0537884,-7.368267E-05,0.1277046,-0.781019389629364,-0.364179760217667,0.482472538948059,-0.824110582941666,-0.354591760855452,0.510163708672098,11
1.60000610351563,-0.585102617740631,2.65292406082153,1.51872515678406,-0.620152298932711,2.69898217125626,1.52676090517188,2288.203,2286.576,2282.538,2286.642,-0.05382515,-7.462482E-05,0.1279716,-0.792231261730194,-0.368133127689362,0.489219456911087,-0.835253140422976,-0.35938609205264,0.51706148254665,11
1.6199951171875,-0.6011683344841,2.64548373222351,1.5286431312561,-0.636958033083316,2.69175113334911,1.53716445517924,2287.798,2287.893,2285.302,2286.373,-0.05388374,-7.647362E-05,0.1282335,-0.803284645080566,-0.372018933296204,0.495901644229889,-0.846214826007804,-0.364102599125749,0.523847288101157,11
1.63999938964844,-0.617451906204224,2.6379668712616,1.53869330883026,-0.653994195024907,2.68442094880091,1.54771065096602,2285.683,2286.043,2291.456,2287.11,-0.05390504,-7.860721E-05,0.1285205,-0.814180314540863,-0.3758425116539,0.502509236335754,-0.857007552155828,-0.368746407673381,0.530528499715628,11
1.66000366210938,-0.633950352668762,2.63037490844727,1.54887413978577,-0.671244443874359,2.67699864863716,1.55838937674714,2289.102,2287.573,2286.233,2290.158,-0.05392848,-7.958778E-05,0.1287785,-0.824926316738129,-0.379597187042236,0.50903993844986,-0.867618167158098,-0.373311858882592,0.53709697585572,11
1.67999267578125,-0.650660693645477,2.62270927429199,1.55918395519257,-0.688691692550512,2.66949158495151,1.56919005480539,2288.151,2286.023,2290.538,2290.805,-0.05391303,-7.994937E-05,0.129024,-0.835518598556519,-0.38328430056572,0.515488803386688,-0.878034183119987,-0.377793579561193,0.543544985919778,11
1.69999694824219,-0.667579889297485,2.61497139930725,1.56962084770203,-0.706358800111611,2.66188992212981,1.58012683598675,2287.482,2284.042,2293.865,2292.102,-0.05381929,-8.023132E-05,0.1292611,-0.845956146717072,-0.38689649105072,0.521847248077393,-0.888267004546665,-0.382196476749158,0.549879589839776,11
1.72000122070313,-0.684704601764679,2.6071629524231,1.58018314838409,-0.724228658537036,2.6542010212754,1.5911891296115,2292.13,2286.397,2285.863,2294.933,-0.05371383,-7.916227E-05,0.1294197,-0.856240034103394,-0.390418857336044,0.528114914894104,-0.898304216251578,-0.386515208538549,0.556093102023817,11
1.74000549316406,-0.702031791210175,2.59928584098816,1.59086894989014,-0.742297311768984,2.64642658456943,1.60237448669139,2291.747,2286.467,2288.436,2294.18,-0.05358493,-7.839904E-05,0.1295203,-0.866355895996094,-0.393850237131119,0.534288465976715,-0.908141534469281,-0.390747931744771,0.562182870617028,12
1.75999450683594,-0.719557642936707,2.59134221076965,1.60167622566223,-0.760546715064628,2.63857437616062,1.61367173667103,2292.492,2287.916,2287.852,2293.756,-0.05344964,-7.800559E-05,0.1295656,-0.876294076442719,-0.397187381982803,0.540364325046539,-0.917767514700581,-0.394889722119545,0.568141810929231,12
1.77999877929688,-0.737278521060944,2.58333349227905,1.61260294914246,-0.779000609654483,2.63063418086074,1.62509557650306,2291.022,2287.198,2291.343,2293.162,-0.05328026,-7.85703E-05,0.1295815,-0.886045098304749,-0.400430232286453,0.546335101127625,-0.927192788821983,-0.398945154262308,0.57397650459845,12
1.80000305175781,-0.755190551280975,2.57526206970215,1.6236469745636,-0.797640935141499,2.62261376955408,1.63663482594136,2294.392,2290.52,2284.366,2294.021,-0.05314711,-7.875183E-05,0.1295255,-0.89560604095459,-0.403573572635651,0.552200973033905,-0.936405971974637,-0.402909329586356,0.579679903854719,12
1.81999206542969,-0.773289918899536,2.56712961196899,1.63480615615845,-0.816448984455027,2.61452119137054,1.64827790441807,2292.386,2290.292,2288.686,2292.197,-0.053023,-7.944986E-05,0.1294398,-0.904964864253998,-0.406626582145691,0.557958602905273,-0.945396434568188,-0.406777674475912,0.585245428475252,12
1.83999633789063,-0.791572272777557,2.55893778800964,1.64607810974121,-0.835449117627072,2.60634596486888,1.66003989195343,2289.968,2288.755,2293.27,2291.364,-0.05286748,-8.09449E-05,0.1293584,-0.914118051528931,-0.409592509269714,0.563600122928619,-0.954174163352093,-0.410554485950274,0.590679260733698,12
1.86000061035156,-0.810033619403839,2.55068850517273,1.65746057033539,-0.854622615239374,2.59809614449182,1.6719092003358,2292.875,2290.619,2286.546,2293,-0.05273325,-8.160486E-05,0.1292304,-0.923070132732391,-0.412466466426849,0.569125533103943,-0.962728579444532,-0.414235212212131,0.595974851798267,12
1.8800048828125,-0.828669965267181,2.54238343238831,1.66895115375519,-0.873964974649439,2.58977366760063,1.68388304221498,2290.754,2289.035,2290.685,2291.948,-0.05258358,-8.21379E-05,0.1290868,-0.931814551353455,-0.415254205465317,0.574531257152557,-0.971056158224177,-0.417818336715394,0.601130019760457,12
1.89999389648438,-0.847476959228516,2.53402423858643,1.68054747581482,-0.893456683142228,2.58138692997148,1.69594933829086,2290.401,2288.401,2290.725,2291.99,-0.05241314,-8.261303E-05,0.1289261,-0.940351247787476,-0.417954057455063,0.579813778400421,-0.979147395688901,-0.421299770153459,0.606138881190213,12
1.91999816894531,-0.866450548171997,2.5256130695343,1.69224679470062,-0.913122862707269,2.57292512231409,1.70812364027167,2288.418,2285.55,2293.952,2292.24,-0.05217665,-8.330935E-05,0.1287597,-0.948679566383362,-0.420563012361526,0.584965944290161,-0.987011339258123,-0.424683405378145,0.611007036871143,12
1.94000244140625,-0.885586619377136,2.51715159416199,1.70404660701752,-0.932943991899774,2.5643966441608,1.72039386345315,2292.091,2287.249,2285.295,2294.065,-0.05194016,-8.259746E-05,0.1285211,-0.956802189350128,-0.423068791627884,0.589988887310028,-0.994638524886308,-0.427965170275055,0.615728628108227,12
1.96000671386719,-0.904880702495575,2.50864219665527,1.71594417095184,-0.952915303453826,2.55580354673295,1.73275705667061,2290.461,2286.259,2287.825,2292.408,-0.0516845,-8.21077E-05,0.1282363,-0.964707314968109,-0.425473213195801,0.59488046169281,-1.00202586176059,-0.431143734953757,0.620301741541062,12
1.97999572753906,-0.9243283867836,2.50008678436279,1.72793698310852,-0.973016570682103,2.54715453300902,1.74520069864106,2290.251,2286.578,2286.706,2291.389,-0.05142244,-8.203689E-05,0.1279074,-0.972388744354248,-0.427774131298065,0.599638342857361,-1.00916501115878,-0.434215511495054,0.624721215103391,12
2,-0.943925201892853,2.49148726463318,1.74002206325531,-0.993273599084619,2.53843849960327,1.7577407641983,2287.813,2284.586,2289.759,2290.292,-0.05111938,-8.267906E-05,0.127559,-0.979840517044067,-0.429971843957901,0.604256272315979,-1.01606400046349,-0.437183953857422,0.628992018127441,12
2.02000427246094,-0.963666498661041,2.48284602165222,1.75219678878784,-1.01366615605493,2.52966415204104,1.77036472839513,2290.706,2286.831,2281.548,2290.802,-0.05084454,-8.291616E-05,0.1271409,-0.987062871456146,-0.432059675455093,0.608735859394073,-1.02271452148052,-0.440045487257004,0.633109007445237,12
2.03999328613281,-0.983547389507294,2.47416520118713,1.76445829868317,-1.03417354141348,2.52084039703127,1.78305977683431,2288.049,2285.672,2284.916,2288.409,-0.0505713,-8.340365E-05,0.1266918,-0.99404501914978,-0.434045732021332,0.613075256347656,-1.02910913225408,-0.442796909628122,0.637067576131623,12
2.05999755859375,-1.00356304645538,2.46544647216797,1.77680361270905,-1.05482201812353,2.5119559343546,1.79584216754118,2285.067,2283.442,2288.339,2286.925,-0.05026184,-8.455235E-05,0.126242,-1.00078403949738,-0.435931921005249,0.617268025875092,-1.03525504859546,-0.445441325732794,0.640872191117535,12
2.08000183105469,-1.02370870113373,2.45669221878052,1.78922986984253,-1.07559088172821,2.50301967256038,1.80869908347065,2287.54,2284.829,2280.388,2287.667,-0.04997635,-8.491855E-05,0.125739,-1.00728452205658,-0.437712460756302,0.621315538883209,-1.04114485287423,-0.447975543971863,0.644518260536375,12
2.10000610351563,-1.04397964477539,2.44790434837341,1.80173420906067,-1.09647498538954,2.49403382618922,1.82162733848484,2284.656,2282.773,2283.696,2285.687,-0.04967967,-8.53383E-05,0.1252157,-1.0135395526886,-0.439394354820251,0.625216007232666,-1.04677621342161,-0.450398561093403,0.648004340974112,12
2.1199951171875,-1.06437063217163,2.43908476829529,1.81431353092194,-1.11745308225396,2.48500753716864,1.83461377976925,2283.493,2281.703,2283.07,2284.679,-0.04936968,-8.580508E-05,0.1246744,-1.01954901218414,-0.440977096557617,0.628967046737671,-1.0521429102862,-0.45270770082608,0.651326581984514,12
2.13999938964844,-1.08487677574158,2.43023562431335,1.8269647359848,-1.138551967509,2.47592927627801,1.8476749948214,2280.56,2278.27,2285.803,2284.028,-0.04900003,-8.64469E-05,0.1241308,-1.0253130197525,-0.442459404468536,0.632562696933746,-1.05725102347782,-0.454905579228273,0.654488747383304,12
2.16000366210938,-1.10549366474152,2.42135906219482,1.83968484401703,-1.15975039167652,2.46680818657414,1.86079782920208,2283.495,2279.295,2276.602,2284.924,-0.04863731,-8.605468E-05,0.1235208,-1.03083598613739,-0.443830788135529,0.636005103588104,-1.0620943502576,-0.456989527434725,0.657486997379635,12
2.17999267578125,-1.12621581554413,2.41245722770691,1.85247075557709,-1.18102676265167,2.45765355853653,1.8739689163698,2280.871,2277.377,2278.816,2282.656,-0.04825754,-8.585124E-05,0.122872,-1.03610801696777,-0.44509482383728,0.639293193817139,-1.06666760390386,-0.458957270716794,0.660318059240953,12
2.19999694824219,-1.14703822135925,2.40353226661682,1.86531913280487,-1.20240821395574,2.44845371736898,1.88720505326679,2278.058,2275.009,2280.749,2280.897,-0.04783144,-8.630727E-05,0.1222068,-1.04112529754639,-0.446249693632126,0.642421722412109,-1.07097597819164,-0.460811043810786,0.662985148161421,12
2.22000122070313,-1.16795611381531,2.39458656311035,1.87822699546814,-1.22387315175433,2.43921795429519,1.90049287228091,2280.633,2276.5,2271.596,2280.925,-0.04743037,-8.616624E-05,0.1214701,-1.04588937759399,-0.447288006544113,0.645393431186676,-1.07501419914593,-0.462548577472581,0.665484999299265,12
2.24000549316406,-1.18896377086639,2.38562226295471,1.89119112491608,-1.24541615591711,2.42994860144581,1.91382901809327,2277.382,2274.806,2274.212,2277.95,-0.04702929,-8.66245E-05,0.1207001,-1.0503898859024,-0.448217272758484,0.648207306861877,-1.07878069424208,-0.464169195088763,0.667816639186824,12
2.25999450683594,-1.21005630493164,2.37664151191711,1.90420830249786,-1.26701526177039,2.4206551096063,1.92719989352455,2275.698,2274.076,2273.185,2275.856,-0.04663248,-8.734497E-05,0.1199075,-1.05462467670441,-0.449039489030838,0.650861859321594,-1.08227143928024,-0.465671165158559,0.669977576652695,12
2.27999877929688,-1.23122811317444,2.36764645576477,1.91727530956268,-1.28869796983554,2.41132564607061,1.9406225227075,2271.851,2270.517,2276.149,2274.371,-0.04619147,-8.843446E-05,0.1191175,-1.05859339237213,-0.449757397174835,0.653351664543152,-1.08549040888332,-0.467056197851165,0.67197027217779,12
2.30000305175781,-1.25247430801392,2.35863924026489,1.93038892745972,-1.31044231452835,2.40196966201596,1.95408330789913,2274.043,2271.119,2267.263,2274.495,-0.04576909,-8.860219E-05,0.1182735,-1.06230211257935,-0.450363874435425,0.655679225921631,-1.08843358680109,-0.468322565086307,0.673792239511894,12
2.31999206542969,-1.27378916740417,2.34962177276611,1.94354581832886,-1.33222611841886,2.3925966997709,1.96756852021384,2270.576,2268.5,2269.689,2271.965,-0.04533286,-8.89836E-05,0.1174066,-1.06574440002441,-0.450865000486374,0.65784364938736,-1.09109790637238,-0.469468947365361,0.675441580245663,11
2.33999633789063,-1.29516756534576,2.3405966758728,1.95674264431,-1.35407709248145,2.38319483607731,1.98109531406483,2267.098,2265.235,2271.64,2270.187,-0.04484497,-8.95678E-05,0.1165378,-1.06891989707947,-0.451259762048721,0.659840166568756,-1.09348640563071,-0.470496651869278,0.67692017506657,11
2.36000061035156,-1.31660425662994,2.33156585693359,1.96997606754303,-1.37597305876702,2.37377361348711,1.99464996024512,2269.445,2265.669,2262.168,2270.279,-0.04437199,-8.930393E-05,0.1156059,-1.07183384895325,-0.451539695262909,0.661671578884125,-1.09559602313537,-0.471404361345641,0.678226128796969,11
2.3800048828125,-1.33809375762939,2.32253193855286,1.98324286937714,-1.39790843013262,2.36433543599182,2.00822900004707,2266.001,2263.332,2264.069,2267.345,-0.04388783,-8.934073E-05,0.1146427,-1.07447803020477,-0.45170995593071,0.663337469100952,-1.09742594550583,-0.472191725819537,0.679358937915576,11
2.39999389648438,-1.35963082313538,2.31349658966064,1.99653959274292,-1.41986083522252,2.35488992936084,2.02181858453579,2264.292,2262.035,2262.153,2265.249,-0.04339781,-8.961846E-05,0.1136512,-1.07685101032257,-0.45177036523819,0.664837062358856,-1.09897439291323,-0.472857979480329,0.680317500623536,11
2.41999816894531,-1.38120985031128,2.30446195602417,2.00986289978027,-1.44185817738692,2.34542508756209,2.03543598721428,2260.375,2258.44,2264.157,2263.374,-0.04286038,-9.016218E-05,0.1126539,-1.07895183563232,-0.451721757650375,0.666165709495544,-1.10024313330221,-0.473403883025206,0.681102911362803,11
2.44000244140625,-1.40282547473907,2.29543113708496,2.0232093334198,-1.46387808506052,2.33595053645515,2.04906735901791,2262.462,2258.928,2254.754,2262.803,-0.04234373,-9.015109E-05,0.1115951,-1.08078491687775,-0.451556652784348,0.667326807975769,-1.10123038958312,-0.473828671822132,0.681714070030222,11
2.46000671386719,-1.42447233200073,2.28640556335449,2.03657579421997,-1.48591492338117,2.32646870056377,2.06270921169857,2258.727,2256.395,2256.452,2259.779,-0.04182175,-9.026867E-05,0.1105065,-1.0823427438736,-0.451281845569611,0.668320178985596,-1.10193578218388,-0.474132182551855,0.682150741652607,10
2.47999572753906,-1.44614481925964,2.27738761901855,2.0499587059021,-1.50794623031618,2.31698924467309,2.07634764018804,2256.576,2254.965,2254.791,2257.234,-0.04129658,-9.066658E-05,0.1093964,-1.08362448215485,-0.450898110866547,0.669145166873932,-1.10235882472314,-0.474314205938057,0.682412625136718,10
2.5,-1.46783757209778,2.26837921142578,2.06335473060608,-1.52999999932945,2.30750012397766,2.08999997377396,2252.405,2251.027,2256.588,2255.416,-0.04072506,-9.137937E-05,0.1082856,-1.08463072776794,-0.45040699839592,0.669797360897064,-1.10250000050292,-0.474374949932098,0.682500019669533,10
2.52000427246094,-1.48954486846924,2.2593834400177,2.07676029205322,-1.55205376834272,2.29801100328223,2.10365230735988,2254.265,2251.054,2247.305,2254.68,-0.04017165,-9.131931E-05,0.1071185,-1.08536720275879,-0.4498011469841,0.670280277729034,-1.10235882472314,-0.474314205938057,0.682412625136718,10
2.53999328613281,-1.51126134395599,2.25040173530579,2.09017205238342,-1.57408507527774,2.28853154739156,2.11729073584934,2250.406,2248.242,2248.658,2251.688,-0.03960919,-9.14708E-05,0.105924,-1.08582770824432,-0.449086785316467,0.670593976974487,-1.10193578218388,-0.474132182551855,0.682150741652607,9
2.55999755859375,-1.53298139572144,2.24143648147583,2.10358667373657,-1.59612191359838,2.27904971150017,2.13093258853001,2246.278,2244.83,2250.063,2249.187,-0.03900253,-9.189468E-05,0.1047267,-1.0860116481781,-0.44826403260231,0.670734584331512,-1.10123038958312,-0.473828671822132,0.681714070030222,9
2.58000183105469,-1.55470013618469,2.23249006271362,2.11700081825256,-1.61814182127198,2.26957516039323,2.14456396033363,2248.099,2244.793,2240.597,2248.238,-0.0384177,-9.187943E-05,0.1034714,-1.08592450618744,-0.447326183319092,0.670705795288086,-1.10024313330221,-0.473403883025206,0.681102911362804,9
2.60000610351563,-1.57641124725342,2.2235643863678,2.13041090965271,-1.64013916343638,2.26011031859448,2.15818136301212,2243.897,2241.966,2242.103,2244.962,-0.03782701,-9.202286E-05,0.1021908,-1.0855598449707,-0.446280092000961,0.670507609844208,-1.09897439291323,-0.472857979480329,0.680317500623536,8
2.6199951171875,-1.59810972213745,2.21466183662415,2.1438136100769,-1.66209156852628,2.2506648119635,2.17177094750084,2241.571,2240.23,2239.923,2242.246,-0.03723365,-9.239977E-05,0.1008908,-1.08491802215576,-0.445126682519913,0.670139968395233,-1.09742594550583,-0.472191725819537,0.679358937915576,6
2.63999938964844,-1.61978960037231,2.20578455924988,2.15720558166504,-1.68402693989188,2.24122663446822,2.18534998730279,2237.074,2236.018,2241.343,2240.275,-0.0365945,-9.297646E-05,0.09959099,-1.08400046825409,-0.443867713212967,0.669599413871765,-1.09559602313537,-0.471404361345641,0.67822612879697,5
2.66000366210938,-1.64144599437714,2.19693470001221,2.17058348655701,-1.70592290617745,2.23180541187802,2.19890463348308,2238.811,2235.678,2231.908,2239.071,-0.03597398,-9.296738E-05,0.09823664,-1.08281326293945,-0.442495942115784,0.668889582157135,-1.09348640563071,-0.470496651869278,0.67692017506657,0
2.67999267578125,-1.66307294368744,2.18811440467834,2.18394374847412,-1.72775723139253,2.2224107117184,2.21242112090437,2234.535,2232.687,2233.053,2235.802,-0.03534494,-9.293827E-05,0.09685794,-1.08135068416595,-0.441017687320709,0.668010890483856,-1.09109983431736,-0.469469776906228,0.675442773735451,0
2.69999694824219,-1.68466520309448,2.1793258190155,2.19728302955627,-1.74955768413056,2.21303058593937,2.22591663964878,2230.259,2229.129,2233.798,2233.214,-0.03467436,-9.330311E-05,0.09547649,-1.07961332798004,-0.43943327665329,0.666960179805756,-1.08843358680109,-0.468322565086308,0.673792239511893,0
2.72000122070313,-1.70621716976166,2.17057108879089,2.21059775352478,-1.77130202882336,2.20367460188472,2.23937742484041,2231.801,2228.665,2224.536,2231.752,-0.03402667,-9.341473E-05,0.0940402,-1.07760679721832,-0.437736690044403,0.665741503238678,-1.08549040888332,-0.467056197851165,0.671970272177789,0
2.74000549316406,-1.72772371768951,2.16185235977173,2.22388482093811,-1.79298473688851,2.19434513834902,2.25280005402337,2227.378,2225.828,2225.527,2228.242,-0.0333758,-9.333908E-05,0.09258131,-1.07532548904419,-0.435934811830521,0.664355397224426,-1.08227143928024,-0.465671165158559,0.669977576652695,0
2.75999450683594,-1.74917924404144,2.15317177772522,2.23714089393616,-1.81458384274179,2.18505164650952,2.26617092945464,2224.699,2223.684,2223.293,2225.392,-0.03272333,-9.374693E-05,0.09110596,-1.07277059555054,-0.434029430150986,0.662802219390869,-1.07878069424208,-0.464169195088763,0.667816639186824,0
2.77999877929688,-1.77057814598083,2.14453125,2.25036239624023,-1.83612684690458,2.17578229366013,2.27950707526701,2220.027,2219.465,2224.202,2223.207,-0.03202771,-9.430146E-05,0.08963297,-1.06994426250458,-0.432022303342819,0.661079108715057,-1.07501419914593,-0.462548577472581,0.665484999299265,0
2.80000305175781,-1.79191529750824,2.13593316078186,2.26354622840881,-1.85759178470316,2.16654653058634,2.29279489428112,2221.493,2218.676,2215.042,2221.57,-0.03135126,-9.416445E-05,0.08811043,-1.06685316562653,-0.429906934499741,0.659190058708191,-1.07097597819164,-0.460811043810786,0.662985148161422,0
2.81999206542969,-1.81318485736847,2.12737941741943,2.27668905258179,-1.87895695992541,2.1573536925621,2.30602095550813,2217.043,2215.549,2215.69,2218.261,-0.0306679,-9.434659E-05,0.08656638,-1.06349301338196,-0.427689701318741,0.657136023044586,-1.06667099276523,-0.458958728849171,0.660320157107579,0
2.83999633789063,-1.83438229560852,2.11887192726135,2.28978729248047,-1.90024960698239,2.14819206138118,2.31920211834584,2212.574,2211.917,2216.043,2215.53,-0.02994565,-9.459353E-05,0.08502167,-1.05986499786377,-0.425371170043945,0.654914379119873,-1.06209435025759,-0.456989527434725,0.657486997379635,0
2.86000061035156,-1.85550165176392,2.11041307449341,2.30283784866333,-1.9214480311499,2.13907097167731,2.33232495272651,2213.844,2210.984,2207.136,2213.677,-0.02924524,-9.45252E-05,0.08342717,-1.05597507953644,-0.422945827245712,0.652529418468475,-1.05725102347782,-0.454905579228273,0.654488747383304,0
2.8800048828125,-1.87653815746307,2.10200476646423,2.31583738327026,-1.94254691640495,2.12999271078668,2.34538616777867,2209.345,2208.069,2207.549,2210.156,-0.02854323,-9.449637E-05,0.08181211,-1.05181896686554,-0.42042064666748,0.649982273578644,-1.0521429102862,-0.45270770082608,0.651326581984514,0
2.89999389648438,-1.89748620986938,2.09364867210388,2.32878279685974,-1.96352501326936,2.1209664217661,2.35837260906308,2206.469,2205.756,2205.176,2207.107,-0.02784122,-9.467499E-05,0.08018304,-1.04739832878113,-0.417797356843948,0.647273659706116,-1.04677621342161,-0.450398561093403,0.648004340974112,0
2.91999816894531,-1.91834044456482,2.08534741401672,2.34167075157166,-1.98440911693069,2.11198057539494,2.37130086407726,2201.669,2201.608,2205.654,2204.75,-0.02709979,-9.495176E-05,0.07855841,-1.04271590709686,-0.415078043937683,0.644401490688324,-1.04114485287423,-0.447975543971863,0.644518260536375,0
2.94000244140625,-1.93909597396851,2.07710218429565,2.35449814796448,-2.00517798053537,2.10304431360073,2.38415778000673,2202.974,2200.386,2196.752,2202.811,-0.02637968,-9.489095E-05,0.076888,-1.03777885437012,-0.412257134914398,0.641369998455048,-1.03525504859546,-0.445441325732794,0.640872191117535,0
2.96000671386719,-1.95974779129028,2.06891536712646,2.3672616481781,-2.02582645724542,2.09415985092405,2.3969401707136,2198.279,2197.339,2197.182,2199.289,-0.02565423,-9.475488E-05,0.07520142,-1.0325835943222,-0.409341156482697,0.638180494308472,-1.02910913225408,-0.442796909628122,0.637067576131623,0
2.97999572753906,-1.98029029369354,2.06078863143921,2.37995839118958,-2.04633384260397,2.08533609591429,2.40963521915279,2195.51,2194.853,2194.476,2196.347,-0.02492665,-9.492328E-05,0.07350145,-1.0271327495575,-0.406331360340118,0.634834170341492,-1.02271452148052,-0.440045487257004,0.633109007445237,0
3,-2.00071883201599,2.0527241230011,2.39258503913879,-2.06672639957428,2.07656174835205,2.42225918334961,2190.803,2190.764,2194.56,2193.968,-0.02416126,-9.494536E-05,0.07180441,-1.02142906188965,-0.403229087591171,0.63132917881012,-1.01606400046349,-0.437183953857422,0.628992018127441,0
3.02000427246094,-2.02102851867676,2.04472351074219,2.40513849258423,-2.0869834279768,2.06784571494631,2.43479924890685,2191.999,2189.404,2185.917,2191.767,-0.02341558,-9.477809E-05,0.07006272,-1.01547932624817,-0.400029182434082,0.627670049667358,-1.00916501115878,-0.434215511495054,0.624721215103391,0
3.03999328613281,-2.04121446609497,2.03678846359253,2.41761565208435,-2.10708469520508,2.05919670122237,2.4472428908773,2187.362,2186.417,2185.984,2188.262,-0.02266776,-9.496931E-05,0.0683039,-1.00928020477295,-0.396737813949585,0.623858392238617,-1.00202586176059,-0.431143734953757,0.620301741541063,0
3.05999755859375,-2.06127119064331,2.02892160415649,2.43001341819763,-2.12705600675913,2.05060360379452,2.45960608409476,2182.694,2182.81,2185.853,2185.44,-0.02188852,-9.504047E-05,0.06654792,-1.00283360481262,-0.393356561660767,0.61989289522171,-0.994638524886308,-0.427965170275055,0.615728628108227,0
3.08000183105469,-2.08119416236877,2.0211238861084,2.44232892990112,-2.14687713595163,2.04207512564123,2.47187630727625,2183.83,2181.499,2177.341,2182.994,-0.02113591,-9.494043E-05,0.06474967,-0.996146261692047,-0.389881312847137,0.615778148174286,-0.987011339258122,-0.424683405378145,0.611007036871143,0
3.10000610351563,-2.10097813606262,2.01339721679688,2.45455932617188,-2.16654331551667,2.03361331798384,2.48405060925705,2178.918,2178.619,2177.613,2179.341,-0.0203865,-9.492882E-05,0.06294061,-0.98921525478363,-0.386319667100906,0.611515760421753,-0.979147395688901,-0.421299770153459,0.606138881190213,0
3.1199951171875,-2.12061929702759,2.00574374198914,2.46670150756836,-2.18603502400946,2.02522658035469,2.49611690533293,2175.921,2176.186,2175.022,2176.159,-0.01964188,-9.512519E-05,0.06112693,-0.982044100761414,-0.382674396038055,0.607107400894165,-0.971056158224178,-0.417818336715394,0.601130019760458,0
3.13999938964844,-2.14011168479919,1.99816513061523,2.47875261306763,-2.20537738341953,2.01690410346351,2.50809074721212,2170.938,2171.842,2175.131,2174.036,-0.01886264,-9.514213E-05,0.0593237,-0.974637448787689,-0.378948301076889,0.602551937103271,-0.962728579444533,-0.414235212212131,0.595974851798267,0
3.16000366210938,-2.15945196151733,1.99066209793091,2.49070978164673,-2.22455088103183,2.00865428308644,2.51996005559448,2172.043,2170.25,2166.909,2171.513,-0.0181047,-9.48942E-05,0.05748668,-0.967003107070923,-0.375136494636536,0.597854018211365,-0.954174163352092,-0.410554485950274,0.590679260733698,0
3.17999267578125,-2.17863440513611,1.98323750495911,2.50257015228271,-2.24353658854737,2.00048526354177,2.53171311296128,2167.214,2167.076,2166.929,2168.249,-0.01734144,-9.470194E-05,0.05564187,-0.959139704704285,-0.371245175600052,0.593015551567078,-0.945403214201559,-0.406780591562751,0.585249625391267,0
3.19999694824219,-2.19765567779541,1.97589159011841,2.51433086395264,-2.2623590635174,1.99238647840124,2.54336512160655,2162.937,2163.424,2166.028,2165.721,-0.01654942,-9.456689E-05,0.05380123,-0.95105117559433,-0.367275387048721,0.588036119937897,-0.936405971974636,-0.402909329586355,0.579679903854719,0
3.22000122070313,-2.21651029586792,1.96862721443176,2.52598929405212,-2.28099938900442,1.98436606709459,2.55490437104486,2163.607,2161.83,2158.527,2162.903,-0.0157787,-9.434797E-05,0.05192803,-0.942743897438049,-0.363223195075989,0.582920372486115,-0.927192788821982,-0.398945154262308,0.573976504598449,0
3.24000549316406,-2.23519468307495,1.96144533157349,2.53754258155823,-2.29945328359428,1.9764258717947,2.56632821087688,2159.235,2158.917,2157.817,2159.656,-0.01501117,-9.414573E-05,0.05004335,-0.934216618537903,-0.3590949177742,0.577670514583588,-0.91776751470058,-0.394889722119544,0.568141810929231,0
3.25999450683594,-2.25370407104492,1.95434761047363,2.54898834228516,-2.31770268688992,1.96857366338589,2.57762546085652,2156.175,2156.51,2155.313,2156.396,-0.01424951,-9.423429E-05,0.04815467,-0.925472378730774,-0.354893147945404,0.572288691997528,-0.90814153446928,-0.390747931744771,0.562182870617026,0
3.27999877929688,-2.27203464508057,1.9473352432251,2.56032371520996,-2.33577134012187,1.96079922667992,2.58881081793642,2151.536,2152.737,2154.794,2154.01,-0.01346281,-9.406866E-05,0.04627645,-0.916515648365021,-0.350620746612549,0.566774725914001,-0.898304216251578,-0.386515208538549,0.556093102023818,0
3.30000305175781,-2.29018139839172,1.94040966033936,2.57154631614685,-2.35364119854729,1.95311032582551,2.59987311156116,2152.152,2150.922,2147.59,2151.23,-0.01269955,-9.370107E-05,0.04437245,-0.907353818416595,-0.346274673938751,0.56113338470459,-0.888267004546666,-0.382196476749158,0.549879589839776,0
3.31999206542969,-2.30814123153687,1.93357276916504,2.58265376091003,-2.37129490830989,1.94551442770222,2.61080159886703,2147.668,2148.094,2146.992,2147.979,-0.01194002,-9.366614E-05,0.04246542,-0.897986829280853,-0.341861248016357,0.555367052555084,-0.878042061913513,-0.37779696958594,0.54354986326829,0
3.33999633789063,-2.32590985298157,1.92682492733002,2.59364318847656,-2.38875555478454,1.93800159931817,2.62161057080077,2143.096,2144.48,2146.395,2145.536,-0.01115758,-9.33535E-05,0.04057023,-0.888419151306152,-0.337383091449738,0.549475908279419,-0.867618167158097,-0.373311858882592,0.53709697585572,0
3.36000061035156,-2.34348297119141,1.92016816139221,2.60451245307922,-2.406005803634,1.93057929915441,2.6322892965819,2143.682,2142.764,2139.427,2142.555,-0.01039858,-9.309272E-05,0.03865358,-0.8786581158638,-0.332837134599686,0.543464839458466,-0.857007552155826,-0.36874640767338,0.530528499715627,0
3.3800048828125,-2.36085677146912,1.91360354423523,2.61525917053223,-2.42304196557559,1.92324911460621,2.64283549236868,2139.28,2139.856,2138.714,2139.539,-0.009644904,-9.275672E-05,0.03673555,-0.868704438209534,-0.328229814767838,0.537336409091949,-0.846214826007803,-0.364102599125748,0.523847288101157,0
3.39999389648438,-2.37802791595459,1.90713214874268,2.62588095664978,-2.43984769972619,1.91601807669906,2.65323904237604,2136.398,2137.407,2136.121,2136.469,-0.008897088,-9.250593E-05,0.03482097,-0.858562529087067,-0.323563873767853,0.531093239784241,-0.835253140422974,-0.35938609205264,0.51706148254665,0
3.41999816894531,-2.39499282836914,1.90075540542603,2.63637566566467,-2.45644516534361,1.90887665092339,2.66351366424015,2131.888,2133.746,2135.472,2134.266,-0.008127435,-9.213213E-05,0.03292253,-0.848237931728363,-0.318841993808746,0.524735927581787,-0.824110582941664,-0.354591760855451,0.510163708672097,0
3.44000244140625,-2.41174745559692,1.89447402954102,2.64674115180969,-2.47281804716281,1.90183185728196,2.67364925803476,2132.492,2131.708,2128.785,2131.517,-0.007379087,-9.174988E-05,0.03100549,-0.837738394737244,-0.314061224460602,0.51826936006546,-0.812800388649434,-0.349725300221754,0.503162159625937,0
3.45999145507813,-2.42828869819641,1.88828957080841,2.65697503089905,-2.48895081463434,1.8948903781363,2.68363620960993,2128.266,2129.071,2127.919,2128.437,-0.006635532,-9.145375E-05,0.02908991,-0.82706481218338,-0.309227377176285,0.511696398258209,-0.80133641229185,-0.344792671461508,0.496065412155666,0
3.47999572753906,-2.44461345672607,1.88220274448395,2.66707539558411,-2.50486489870395,1.88804299234919,2.69348778574196,2124.082,2125.854,2126.944,2125.999,-0.005875999,-9.114902E-05,0.02718866,-0.816221833229065,-0.304342865943909,0.505018174648285,-0.789706299681989,-0.339788558913217,0.488865818431069,0
3.5,-2.46071743965149,1.87621474266052,2.67704010009766,-2.5205447997813,1.88129636896134,2.70319439144611,2124.489,2124.001,2120.717,2123.021,-0.005142031,-9.078852E-05,0.02527264,-0.805216789245605,-0.299405872821808,0.498239606618881,-0.777924000354857,-0.334718964672089,0.481572013878822,0
3.52000427246094,-2.47659873962402,1.87032604217529,2.68686747550964,-2.53598752699493,1.87465179486116,2.71275417523047,2120.364,2121.528,2119.791,2119.976,-0.004419249,-9.031085E-05,0.02336175,-0.794050872325897,-0.294422805309296,0.491363734006882,-0.765994882555673,-0.32958619854407,0.474187321698442,0
3.53999328613281,-2.49225330352783,1.86453795433044,2.69655537605286,-2.55117869390181,1.86811546013321,2.72215823120146,2117.348,2119.141,2117.613,2117.069,-0.003706587,-8.997048E-05,0.0214631,-0.782729268074036,-0.289397150278091,0.484393566846848,-0.753933682518821,-0.324396601119134,0.466720864320997,0
3.55999755859375,-2.50767850875854,1.85885155200958,2.70610189437866,-2.56613872308604,1.86167857751006,2.73141920191151,2113.313,2115.849,2116.581,2114.964,-0.002981143,-8.963699E-05,0.01958631,-0.771258473396301,-0.284332066774368,0.47733062505722,-0.741727567798258,-0.319144650954242,0.459164697851087,0
3.58000183105469,-2.52287149429321,1.853266954422,2.71550559997559,-2.58085326729328,1.85534732021446,2.74052820572674,2113.607,2113.743,2110.836,2112.233,-0.002278601,-8.919431E-05,0.01770283,-0.759646713733673,-0.279226094484329,0.470179915428162,-0.729391385793765,-0.313836736470737,0.451528013536464,0
3.60000610351563,-2.53782916069031,1.84778523445129,2.724764585495,-2.59531978247425,1.84912278287974,2.74948366775945,2109.559,2111.259,2109.97,2109.446,-0.001583516,-8.865387E-05,0.01583101,-0.747896313667297,-0.27408492565155,0.462944775819778,-0.716930938559024,-0.308475354130224,0.443814403124743,0
3.6199951171875,-2.55254983901978,1.84240686893463,2.73387718200684,-2.60952509409627,1.84301063413925,2.75827743234631,2107.085,2108.948,2107.408,2106.715,-0.0008990832,-8.818099E-05,0.01397267,-0.736013293266296,-0.268911093473434,0.455628484487534,-0.704361775018033,-0.303067194200314,0.436033492140578,0
3.63999938964844,-2.56702947616577,1.83713281154633,2.74284172058105,-2.6234885835008,1.83700253474321,2.76692149746096,2103.091,2105.756,2106.511,2104.77,-0.000201335,-8.765051E-05,0.0121375,-0.724003791809082,-0.26370757818222,0.448233067989349,-0.691670720740692,-0.297606588091786,0.428177124984152,0
3.66000366210938,-2.58126711845398,1.83196330070496,2.75165700912476,-2.63719712493647,1.83110413233575,2.77540773763803,2103.656,2103.944,2100.837,2101.856,0.0004698048,-8.71082E-05,0.01029844,-0.711875736713409,-0.258472740650177,0.440763711929321,-0.678873453515702,-0.29210028151913,0.420255006953505,0
3.67999267578125,-2.59525966644287,1.82689893245697,2.76032137870789,-2.65063849381582,1.82532068681534,2.78372858527554,2099.675,2101.543,2100.071,2099.29,0.001130944,-8.676211E-05,0.008473323,-0.699631571769714,-0.253212541341782,0.433223873376846,-0.665986083416798,-0.286555206197011,0.41227711095171,0
3.69999694824219,-2.60900521278381,1.82194030284882,2.76883363723755,-2.66383127580226,1.81964420129024,2.79189554578451,2096.191,2099.017,2098.79,2096.941,0.001794955,-8.622023E-05,0.006672787,-0.68727719783783,-0.247929781675339,0.425615906715393,-0.65299527533123,-0.280965624398954,0.404235181908735,0
3.72000122070313,-2.62250137329102,1.81708788871765,2.77719259262085,-2.6767633032417,1.81407991116207,2.79990108680742,2096.251,2097.147,2093.931,2094.168,0.002430242,-8.568811E-05,0.004875686,-0.674820363521576,-0.242624640464783,0.417944967746735,-0.639917282339434,-0.275338529371411,0.396139281255611,0
3.74000549316406,-2.63574695587158,1.81234169006348,2.78539681434631,-2.6894328975087,1.80862853869646,2.80774416919516,2092.604,2095.004,2092.981,2091.603,0.003049145,-8.527936E-05,0.003098485,-0.662264585494995,-0.237303465604782,0.410214871168137,-0.626758665639204,-0.269676744214497,0.387993470686332,0
3.75999450683594,-2.64873933792114,1.80770254135132,2.79344534873962,-2.70182915057228,1.80329477731443,2.81541804035694,2089.988,2092.915,2091.038,2089.093,0.003653055,-8.480111E-05,0.001346956,-0.649616420269012,-0.231969907879829,0.402429401874542,-0.613536214864365,-0.263987493038594,0.379808143784027,0
3.77999877929688,-2.66147708892822,1.80316996574402,2.80133724212646,-2.7139695770734,1.79807109095524,2.82293354268985,2086.673,2090.158,2089.846,2087.301,0.004258698,-8.418089E-05,-0.0003728425,-0.636883437633514,-0.226627394556999,0.394591331481934,-0.60023651686137,-0.258265004538452,0.371574997167698,0
3.80000305175781,-2.67395830154419,1.79874432086945,2.80907130241394,-2.72584333814708,1.79296214327972,2.83028396642013,2086.582,2088.314,2085.543,2084.692,0.004839038,-8.347002E-05,-0.002078864,-0.624074161052704,-0.221276015043259,0.386705845594406,-0.586876524285838,-0.252516572968186,0.363304525338741,0
3.81999206542969,-2.68618249893188,1.79442572593689,2.81664681434631,-2.73744054699573,1.78797218830065,2.83746319114912,2083.345,2086.183,2084.445,2082.471,0.005405236,-8.293879E-05,-0.003759851,-0.611193478107452,-0.215920954942703,0.378777056932449,-0.573473482003301,-0.246749618311662,0.355007403690404,0
3.83999633789063,-2.69814729690552,1.79021453857422,2.82406306266785,-2.74877791451009,1.78309403578861,2.84448156171422,2080.125,2083.725,2083.377,2080.653,0.005972471,-8.236853E-05,-0.005407282,-0.598248243331909,-0.210565343499184,0.370807975530624,-0.560014026276881,-0.240958390526246,0.346675359432959,0
3.86000061035156,-2.70985245704651,1.78611052036285,2.83131909370422,-2.75984563331209,1.77833190558438,2.85133300688122,2080.362,2082.04,2079.056,2078.078,0.006511107,-8.181153E-05,-0.007040865,-0.585246860980988,-0.205209136009216,0.362803995609283,-0.546515580872635,-0.235150386571708,0.338319178707605,0
3.8800048828125,-2.7212963104248,1.78211331367493,2.83841443061829,-2.77064299647982,1.77368610185671,2.85801708903178,2077.138,2080.116,2078.17,2075.943,0.007032708,-8.130844E-05,-0.008646752,-0.572193682193756,-0.199858009815216,0.354769349098206,-0.532985466132484,-0.229328756186666,0.329943393154704,0
