t,x_s1,x_s2,x_s3,x_s_d1,x_s_d2,x_s_d3,propellers_rpms1,propellers_rpms2,propellers_rpms3,propellers_rpms4,rollRad,pitchRad,yawRad,v_s1,v_s2,v_s3,v_s_d1,v_s_d2,v_s_d3,insideCount
0,-0.0599999986588955,2.94000005722046,1.17999994754791,-0.0599999986588955,2.94000005722046,1.17999994754791,0,0,0,0,0,0,0,0,0,0,-1.06581410364015E-15,4.44089209850063E-16,4.44089209850063E-16,0
0.0200042724609375,-0.0599999986588955,2.94000005722046,1.1771354675293,-0.0600018701838461,2.93999925195556,1.18000110611101,0,0,0,0,0.0163538,-0.002474609,-2.024222E-05,3.71994488546079E-08,3.50004931704007E-08,-0.143225952982903,-0.000280105751305916,-0.000120521679537258,0.00017339880334547,5
0.040008544921875,-0.0599999986588955,2.94000005722046,1.17048275470734,-0.060014880898484,2.93999365380853,1.18000916036316,0,0,0,0,0.03270752,-0.004950816,-5.430172E-05,3.62924410524101E-08,3.44428769949445E-08,-0.332637369632721,-0.00111143977225461,-0.000478221483967637,0.00068803416424398,6
0.05999755859375,-0.0600004345178604,2.94013261795044,1.16416549682617,-0.0600498857373401,2.93997859220429,1.18003083002592,3185.406,2835.785,1501.1,2767.662,0.03127991,-0.00494336,-0.01646952,-2.17784399865195E-05,0.0066222520545125,-0.315860867500305,-0.00247936261166862,-0.00106680046642749,0.00153484356504269,6
0.0800018310546875,-0.0599162206053734,2.94038772583008,1.15857696533203,-0.0601175574246769,2.93994947496775,1.18007272202403,3065.603,3067.191,2155.165,2024.121,0.01897616,-0.004310593,-0.04351445,0.00421066209673882,0.0127498498186469,-0.279423803091049,-0.00437268608126799,-0.00188144466206175,0.00270690098422899,6
0.100006103515625,-0.0596375502645969,2.94068765640259,1.15374839305878,-0.0602282404704493,2.93990185114529,1.18014124010193,2640.55,3831.823,2620.117,1134.666,-0.00585203,-0.002888465,-0.070145,0.0139334313571453,0.0149977942928672,-0.241429135203362,-0.00677739276378709,-0.00291612276782231,0.00419552897277328,6
0.1199951171875,-0.0590848885476589,2.94089889526367,1.14957022666931,-0.0603918861403606,2.93983143898525,1.18024254456713,2092.257,4101.995,3169.267,755.9441,-0.04011946,-0.0004511395,-0.08993602,0.0276331827044487,0.010561915114522,-0.208908408880234,-0.00967801353495435,-0.00416417885169243,0.00599115140585487,5
0.139999389648438,-0.0582314729690552,2.94085621833801,1.14596664905548,-0.0606185767455666,2.93973390035084,1.18038287685052,1509.855,4074.803,3736.029,702.1855,-0.07649131,0.002388559,-0.09949782,0.0426708832383156,-0.00212948210537434,-0.180178716778755,-0.0130660253322238,-0.00562194567796536,0.00808849210174802,4
0.160003662109375,-0.0570994354784489,2.94039487838745,1.14297807216644,-0.0609177895434042,2.93960515744296,1.18056810382587,1135.512,3846.901,4069.715,879.8438,-0.1062772,0.00433537,-0.09870101,0.0566019415855408,-0.0230683255940676,-0.14942978322506,-0.0169265510445065,-0.00728302204135792,0.0104783414199936,4
0.180007934570313,-0.0557376965880394,2.93938803672791,1.14071130752563,-0.0612988491946875,2.93944119812059,1.1808039979024,1101.067,3565.422,4009.876,1148.784,-0.1236298,0.004492212,-0.09000153,0.0680869668722153,-0.0503395609557629,-0.113339848816395,-0.0212468478482708,-0.00914192506089775,0.0131528109458008,3
0.199996948242188,-0.0541964247822762,2.9377772808075,1.13924860954285,-0.0617704296168641,2.93923829023936,1.18109592864822,1373.293,3339.69,3594.843,1386.305,-0.1278791,0.003022907,-0.07725032,0.0770636424422264,-0.0805353000760078,-0.0731324404478073,-0.0260104776919234,-0.0111915819022102,0.0161017247421801,3
0.220001220703125,-0.0525141768157482,2.93557620048523,1.13858377933502,-0.0623420644491781,2.93899233174064,1.18144979784016,1790.206,3212.872,3017.312,1527.349,-0.1229773,0.0008617942,-0.06425941,0.0841125175356865,-0.110050216317177,-0.0332397148013115,-0.03121219533433,-0.0134297356845702,0.019321835755004,3
0.240005493164063,-0.0507195144891739,2.93284702301025,1.13860690593719,-0.0630219993990999,2.93869977472688,1.18187070996396,2159.71,3168.368,2517.11,1558.431,-0.1149649,-0.0009880328,-0.05362222,0.0897331759333611,-0.136454284191132,0.00115685164928436,-0.0368361158647881,-0.0158495515746756,0.0228033104678445,3
0.259994506835938,-0.0488371849060059,2.92966485023499,1.13913774490356,-0.0638179029240226,2.93835731967507,1.18236341216003,2352.021,3159.399,2273.759,1495.527,-0.1090532,-0.001904693,-0.04623567,0.0941165611147881,-0.159108281135559,0.0265440363436937,-0.0428651747123285,-0.0184436871643672,0.0265355850983733,3
0.279998779296875,-0.0468916594982147,2.92608761787415,1.13999581336975,-0.0647390625194898,2.93796097043536,1.18293365383054,2352.024,3152.033,2324.588,1364.079,-0.1078138,-0.001744371,-0.04151975,0.0972762703895569,-0.178861603140831,0.0429048202931881,-0.0492963837173861,-0.0212108567320638,0.030516809833474,3
0.300003051757813,-0.0449086502194405,2.92214369773865,1.14106202125549,-0.0657927507678135,2.93750759781875,1.18358593705038,2229.843,3143.851,2572.365,1194.483,-0.1110826,-0.000737163,-0.03798626,0.0991504713892937,-0.197192579507828,0.0533078610897064,-0.0561132031658829,-0.0241439437008635,0.0347367458022363,3
0.32000732421875,-0.0429168120026588,2.91783547401428,1.142294049263,-0.0669865614821475,2.93699393441958,1.18432496275165,2074.221,3133.061,2873.049,1032.047,-0.1169314,0.0006859347,-0.0339798,0.0995920151472092,-0.21540641784668,0.0616032257676125,-0.0633036493784043,-0.0272377918282996,0.0391879745362408,3
0.339996337890625,-0.0409488044679165,2.91315102577209,1.14370739459991,-0.068326768706371,2.93641728069206,1.18515461486636,1955.192,3107.153,3109.252,921.8911,-0.1228468,0.002069717,-0.02837545,0.0984004512429237,-0.234223887324333,0.0706693753600121,-0.0708499516420146,-0.0304847548730522,0.0438594951176439,3
0.360000610351563,-0.0390400290489197,2.90807723999023,1.14534306526184,-0.0698225328270578,2.93577369517774,1.1860805641102,1903.816,3065.677,3222.968,880.9465,-0.1267105,0.003093507,-0.0208696,0.0954386368393898,-0.253691136837006,0.0817861929535866,-0.0787518717320621,-0.0338847303337087,0.0487511600740379,3
0.3800048828125,-0.0372255742549896,2.90261030197144,1.14724338054657,-0.0714797725314022,2.93506063123087,1.18710647443246,1924.501,3020.922,3206.733,896.1713,-0.1274163,0.003642477,-0.01188675,0.090722881257534,-0.273344397544861,0.0950158163905144,-0.0869921272359981,-0.0374302820709642,0.0538522707687797,3
0.400009155273438,-0.0355371311306953,2.89676117897034,1.14943146705627,-0.0733051402689975,2.93427522648826,1.18823646401636,1991.465,2989.831,3098.735,938.3331,-0.1250439,0.003790827,-0.00220776,0.0844219699501991,-0.292451471090317,0.109404943883419,-0.0955591682828665,-0.0411164404980124,0.0591556772815509,3
0.419998168945313,-0.0340018346905708,2.89055466651917,1.15190589427948,-0.0753034649285836,2.93341540321397,1.18947352217404,2072.187,2974.12,2953.292,987.3151,-0.1205091,0.003707779,0.00733765,0.076764777302742,-0.310326278209686,0.123720340430737,-0.104434660908044,-0.0449353170220673,0.0646500300148815,3
0.44000244140625,-0.0326423980295658,2.88402462005615,1.1546413898468,-0.077483988232608,2.93247718495301,1.19082336997196,2135.626,2972.89,2826.118,1022.99,-0.115081,0.003565118,0.01615341,0.0679718628525734,-0.32650762796402,0.136773377656937,-0.113620829717891,-0.048887868829098,0.0703367061060819,4
0.460006713867188,-0.0314783006906509,2.8772075176239,1.15760159492493,-0.0798512213598696,2.93145863067119,1.19228880004469,2168.998,2977.211,2748.185,1039.754,-0.1098618,0.003475062,0.02394227,0.0582049340009689,-0.340854555368423,0.148013114929199,-0.123099793815011,-0.0529664022684887,0.0762046364278779,4
0.479995727539063,-0.0305266734212637,2.87013840675354,1.16074788570404,-0.0824088828700873,2.93035814037613,1.19387211435783,2168.619,2985.117,2732.525,1031.373,-0.1055459,0.003481635,0.03075038,0.0475814342498779,-0.353461056947708,0.157313510775566,-0.132852887402757,-0.0571628859694044,0.0822422659629699,4
0.5,-0.0298035517334938,2.86284685134888,1.16405189037323,-0.085166398670376,2.92917165836334,1.1955791479969,2145.651,2988.681,2763.64,1010.348,-0.1022665,0.003569706,0.03679946,0.0361562669277191,-0.36458283662796,0.16520069539547,-0.142884000065179,-0.0614789935111996,0.0884520025491718,4
0.520004272460938,-0.029324347153306,2.8553569316864,1.16749942302704,-0.088127196023106,2.92789770997757,1.19741202260058,2117.576,2992.459,2816.119,978.1088,-0.09982859,0.003686676,0.04240787,0.0239600632339716,-0.374498099088669,0.172375842928886,-0.153174893518032,-0.065906877469682,0.0948225558197254,4
0.540008544921875,-0.0291040651500225,2.84768843650818,1.17108595371246,-0.0912963635428427,2.92653410573011,1.19937388826368,2089.474,2992.882,2871.05,949.5405,-0.09783015,0.003776537,0.04786114,0.0110139464959502,-0.383424311876297,0.179326266050339,-0.163714777034477,-0.0704418948965508,0.101347245800684,4
0.55999755859375,-0.0291575901210308,2.83985829353333,1.17481660842896,-0.094676112580471,2.92507989413848,1.20146611391775,2070.441,2988.353,2908.364,935.8679,-0.09579124,0.003795458,0.053293,-0.00267613586038351,-0.391506195068359,0.186533257365227,-0.17448465888317,-0.0750758741803766,0.108014315705644,5
0.580001831054688,-0.029498964548111,2.83188271522522,1.17869818210602,-0.0982762614093182,2.92353085067394,1.20369477754168,2062.947,2985.821,2923.609,930.3763,-0.09339759,0.003717967,0.05874235,-0.0170686990022659,-0.398780554533005,0.194079667329788,-0.185490414529404,-0.0798113433697334,0.11482740272751,5
0.600006103515625,-0.0301412977278233,2.82377791404724,1.18273973464966,-0.102098762959148,2.92188613504538,1.20606108809202,2067.328,2983.74,2911.188,939.8747,-0.09049155,0.00353934,0.06410619,-0.0321166105568409,-0.405237138271332,0.202078461647034,-0.196713446836865,-0.0846403006364086,0.121774994352997,5
0.6199951171875,-0.0310955829918385,2.81556177139282,1.1869421005249,-0.106144683970236,2.92014528826426,1.20856570593183,2075.263,2988.199,2887.592,949.1912,-0.08718816,0.003271641,0.06929615,-0.0477141216397285,-0.410807281732559,0.210117399692535,-0.208134604141382,-0.0895545055543457,0.128845234789665,5
0.639999389648438,-0.0323713310062885,2.80725264549255,1.19130480289459,-0.110424235525481,2.91830391678686,1.21121495220784,2081.211,2989.964,2855.881,971.5547,-0.08359236,0.002941956,0.07414923,-0.0637871697545052,-0.415459275245667,0.21813328564167,-0.219761081350814,-0.0945570538913933,0.136042578028218,5
0.660003662109375,-0.0339759476482868,2.79886913299561,1.19582295417786,-0.114938248900541,2.91636166293851,1.21400934151928,2089.19,2999.815,2825.805,982.1964,-0.07999337,0.002567185,0.07859828,-0.0802315026521683,-0.419172823429108,0.225906312465668,-0.231574097577923,-0.0996398647564507,0.143355397804799,5
0.680007934570313,-0.0359150357544422,2.79042959213257,1.20048773288727,-0.119690355154666,2.91431696437584,1.21695112166479,2088.2,3007.949,2806.583,993.1739,-0.07660743,0.002167772,0.082613,-0.0969547927379608,-0.421971529722214,0.233240872621536,-0.243563621239988,-0.104798621839723,0.150777484091833,6
0.699996948242188,-0.0381929539144039,2.78195118904114,1.20529162883759,-0.124680083855354,2.91217002351282,1.22004000142426,2082.805,3014.54,2797.028,1001.59,-0.07354799,0.001758701,0.08619371,-0.113895535469055,-0.423923283815384,0.240196734666824,-0.255710395848158,-0.11002503961202,0.158296916205407,6
0.720001220703125,-0.0408127121627331,2.7734489440918,1.21022629737854,-0.129918284978346,2.90991617190799,1.22328269744952,2074.178,3021.471,2799.741,1001.305,-0.07088589,0.001345534,0.08940849,-0.13098768889904,-0.425108015537262,0.24673455953598,-0.268023157655716,-0.11532287703907,0.16591910230247,6
0.740005493164063,-0.0437769927084446,2.76493620872498,1.2152898311615,-0.13540428105644,2.90755570105657,1.22667879035609,2066.647,3025.769,2801.957,1004.236,-0.06856894,0.0009297535,0.09229075,-0.148213893175125,-0.425633192062378,0.253178417682648,-0.280482990349159,-0.120683994959631,0.173632332283853,6
0.759994506835938,-0.0470870546996593,2.75642466545105,1.22047567367554,-0.14113644597991,2.90508931062815,1.2302272735046,2058.237,3032.294,2813.729,995.8987,-0.06661738,0.0005059104,0.09495258,-0.165503665804863,-0.425576061010361,0.259289592504501,-0.293070637251543,-0.126100107763583,0.181424685349205,6
0.779998779296875,-0.0507444925606251,2.74792408943176,1.22578489780426,-0.147126184485884,2.90251209348295,1.23393520697061,2047.883,3030.154,2819.169,1005.588,-0.06482241,8.54859E-05,0.09737439,-0.18287193775177,-0.425034254789352,0.265459805727005,-0.305795832832518,-0.131575403921268,0.189302187598958,6
0.800003051757813,-0.0547498352825642,2.73944282531738,1.23121654987335,-0.153371683173492,2.89982482987671,1.2378014681726,2047.591,3036.666,2822.428,998.1833,-0.06321759,-0.0003456783,0.09962399,-0.200267136096954,-0.424062341451645,0.2715804874897,-0.318639638509124,-0.13710173468952,0.197253115148089,6
0.82000732421875,-0.0591032318770885,2.73098850250244,1.23677051067352,-0.159875221826383,2.89702653888221,1.24182746840525,2042.86,3037.519,2821.632,1004.974,-0.06172089,-0.0007787083,0.1016858,-0.217669308185577,-0.422719210386276,0.277695626020432,-0.331592781842754,-0.14267511039705,0.205271727915392,6
0.839996337890625,-0.0638040602207184,2.72256755828857,1.24244558811188,-0.166633637018892,2.89411858163313,1.24601124935738,2041.703,3040.625,2818.889,1007.72,-0.06033605,-0.001212804,0.1035601,-0.235042467713356,-0.421046137809753,0.283754259347916,-0.344636106234817,-0.148287288494656,0.213346167053785,6
0.860000610351563,-0.0688511580228806,2.71418595314026,1.24824011325836,-0.173659158941841,2.89109569582005,1.2503603820997,2039.716,3042.853,2815.592,1012.706,-0.05906039,-0.001639442,0.1052357,-0.25235441327095,-0.419081419706345,0.289726465940475,-0.357780475378537,-0.153942943326036,0.221483157706883,6
0.8800048828125,-0.0742429196834564,2.70584869384766,1.25415480136871,-0.180948461186242,2.88795931270381,1.25487280742661,2041.802,3047.215,2806.686,1017.357,-0.05793068,-0.002059156,0.1066936,-0.269587814807892,-0.416868835687637,0.295737445354462,-0.371007022483504,-0.159633957038354,0.229671020432672,6
0.900009155273438,-0.0799763649702072,2.69755983352661,1.26018357276917,-0.188503099076414,2.88470876307182,1.25954948815793,2040.624,3052.668,2806.933,1014.457,-0.05705716,-0.002469283,0.1079791,-0.286672711372375,-0.414441853761673,0.301437854766846,-0.384306908919572,-0.165356526615982,0.237904283698049,7
0.919998168945313,-0.0860489904880524,2.68932271003723,1.26632726192474,-0.196318384305134,2.8813460641717,1.26438752200817,2036.75,3052.132,2802.269,1026.374,-0.05634929,-0.002852778,0.1090402,-0.303631603717804,-0.411861032247543,0.307183623313904,-0.397661187980262,-0.171102499820431,0.246171218589148,7
0.94000244140625,-0.0924567133188248,2.68113970756531,1.27257812023163,-0.204407453948074,2.87786556348678,1.26939504145298,2036.125,3057.896,2810.806,1014.831,-0.05593437,-0.003220294,0.1099696,-0.320385485887527,-0.409156084060669,0.312545895576477,-0.411081631631503,-0.176876941799768,0.254479112513653,7
0.960006713867188,-0.0991968214511871,2.67301177978516,1.27894258499146,-0.212765478812529,2.87426933888379,1.27456905699201,2034.123,3056.233,2804.006,1029.26,-0.05564888,-0.003554255,0.1106876,-0.337006002664566,-0.406400561332703,0.318226218223572,-0.424549556012544,-0.182671813410681,0.262816399271726,7
0.979995727539063,-0.106264010071754,2.66493964195251,1.28540885448456,-0.22138664033507,2.87055989392801,1.27990596665734,2036.021,3065.183,2819.773,1004.748,-0.0557357,-0.003879693,0.1113628,-0.353359639644623,-0.403610318899155,0.323312044143677,-0.438046240701377,-0.188479059778567,0.271171490030365,7
1,-0.113655611872673,2.65692234039307,1.29198598861694,-0.230284798736574,2.86673126495361,1.28541435058594,2026.939,3055.528,2815.21,1033.077,-0.05581826,-0.004154531,0.1118355,-0.369580686092377,-0.400866776704788,0.328859627246857,-0.451584000205995,-0.194303979492187,0.279552008056641,7
1.02000427246094,-0.12136609852314,2.6489589214325,1.29866421222687,-0.239454009753966,2.86278600961093,1.2910905289958,2037.213,3068.046,2829.847,998.4273,-0.05624064,-0.004425641,0.1123066,-0.385524362325668,-0.398166865110397,0.333909094333649,-0.465144357597929,-0.200138622445408,0.287946515251652,7
1.04000854492188,-0.129392623901367,2.64104723930359,1.30545341968536,-0.248894644448595,2.85872396824263,1.29693473159157,2029.365,3058.867,2822.982,1027.827,-0.05663638,-0.004649347,0.1126078,-0.401325851678848,-0.395586729049683,0.339459389448166,-0.47871923339115,-0.205979512261105,0.296350010028666,7
1.05999755859375,-0.137729123234749,2.63318514823914,1.31234085559845,-0.258599401509697,2.85454828239877,1.30294243851408,2037.668,3069.528,2841.788,993.1426,-0.05734798,-0.004867193,0.1129412,-0.416824400424957,-0.393108755350113,0.344370871782303,-0.492290296490434,-0.211818761581115,0.30475114456651,7
1.08000183105469,-0.146373063325882,2.62536907196045,1.31934010982513,-0.268583149539609,2.85025255453512,1.30912285413647,2029.688,3057.718,2832.43,1028.849,-0.05792695,-0.005028048,0.1130918,-0.432198643684387,-0.39080622792244,0.349961787462234,-0.50587040849135,-0.217661904390701,0.313157880805523,7
1.10000610351563,-0.155318170785904,2.61759614944458,1.32643783092499,-0.278838480013141,2.84583997233313,1.31547139222872,2044.848,3072.998,2850.322,983.9435,-0.05885107,-0.005193697,0.1133074,-0.447255074977875,-0.388643145561218,0.354885995388031,-0.519441457145546,-0.223501147495394,0.321559006401169,7
1.1199951171875,-0.164562031626701,2.6098620891571,1.33364903926849,-0.289357002179081,2.84131414609862,1.32198285851614,2035.764,3060.42,2837.601,1025.523,-0.0596367,-0.005300223,0.1133429,-0.462192624807358,-0.386700123548508,0.360559791326523,-0.532985466132485,-0.229328756186667,0.329943393154705,8
1.13999938964844,-0.174097448587418,2.60216379165649,1.3409538269043,-0.300154365346813,2.83666834237095,1.3286669406667,2047.275,3074.349,2866.505,974.6412,-0.06079304,-0.005411011,0.1134906,-0.47677093744278,-0.384919047355652,0.36523762345314,-0.546515580872639,-0.235150386571708,0.338319178707607,8
1.16000366210938,-0.183923587203026,2.59449553489685,1.34837889671326,-0.311222084148811,2.83190621216671,1.33551838583369,2040.349,3058.571,2841.225,1031.757,-0.06166123,-0.005450426,0.1133938,-0.491307735443115,-0.383407741785049,0.371251076459885,-0.560014026276883,-0.240958390526247,0.34667535943296,8
1.18000793457031,-0.194031566381454,2.58685445785522,1.35589170455933,-0.322559451663168,2.82702805965467,1.34253675639879,2059.3,3082.547,2883.899,948.647,-0.06311585,-0.005521798,0.1135357,-0.505398392677307,-0.382057815790176,0.375639706850052,-0.573473482003304,-0.246749618311663,0.355007403690405,8
1.19999694824219,-0.20442245900631,2.5792338848114,1.36353135108948,-0.334156660511822,2.8220381046756,1.34971598112778,2039.696,3053.19,2847.531,1045.306,-0.06403411,-0.00548984,0.1133375,-0.519545018672943,-0.38103461265564,0.381983548402786,-0.58687652428584,-0.252516572968185,0.36330452533874,8
1.22000122070313,-0.215085417032242,2.57163095474243,1.37125051021576,-0.346030421585499,2.81692915700008,1.35706640485806,2068.922,3088.018,2910.372,919.802,-0.06572149,-0.005519135,0.1135189,-0.533149182796478,-0.380150139331818,0.385958284139633,-0.600236516861372,-0.258265004538453,0.371574997167698,8
1.24000549316406,-0.226024925708771,2.56403779983521,1.37911105155945,-0.358170848086624,2.8117054706409,1.36458190719098,2042.76,3046.565,2847.503,1064.611,-0.06653588,-0.005414207,0.1132089,-0.546974539756775,-0.379656851291656,0.393025904893875,-0.613536214864368,-0.263987493038594,0.379808143784027,8
1.25999450683594,-0.237226545810699,2.55645298957825,1.3870393037796,-0.3705671011502,2.80637170925886,1.37225577835275,2087.381,3101.114,2937.99,873.5541,-0.06853326,-0.005425392,0.1135098,-0.560081243515015,-0.379244536161423,0.396413147449493,-0.626758665639206,-0.269676744214496,0.387993470686331,8
1.27999877929688,-0.248698979616165,2.54886698722839,1.39512431621552,-0.383236695417198,2.80092033679326,1.3800988607405,2036.805,3033.23,2847.352,1100.737,-0.06913619,-0.005239503,0.1130869,-0.573621690273285,-0.3793024122715,0.404247969388962,-0.639917282339435,-0.275338529371412,0.396139281255613,8
1.30000305175781,-0.260423839092255,2.54128003120422,1.40326356887817,-0.396168722856641,2.79535604666509,1.38810440176341,2108.812,3115.044,2969.552,820.166,-0.07139615,-0.005237905,0.1135351,-0.58624404668808,-0.379350244998932,0.406962454319,-0.652995275331231,-0.280965624398954,0.404235181908735,8
1.32000732421875,-0.272415310144424,2.53368067741394,1.41158258914948,-0.409361504843077,2.78967956113998,1.39627136227237,2036.003,3021.169,2835.21,1143.736,-0.07170561,-0.004975318,0.1129699,-0.599573612213135,-0.379968464374542,0.415952920913696,-0.6659860834168,-0.286555206197011,0.41227711095171,8
1.33999633789063,-0.284648418426514,2.52607202529907,1.41993069648743,-0.422802873722428,2.78389611561957,1.40459220990988,2130.995,3133.937,3013.545,747.7883,-0.0743741,-0.004982242,0.113662,-0.61165577173233,-0.380431771278381,0.417407155036926,-0.678873453515705,-0.29210028151913,0.420255006953505,8
1.36000061035156,-0.297145992517471,2.51843953132629,1.42849159240723,-0.436511415158101,2.77799771321212,1.41307845008695,2023.393,2997.1,2815.533,1219.91,-0.07413068,-0.004614726,0.112867,-0.62488055229187,-0.381620764732361,0.428046107292175,-0.691670720740693,-0.297606588091785,0.42817712498415,9
1.3800048828125,-0.309873640537262,2.51079082489014,1.43704771995544,-0.450474904562636,2.77198961381608,1.4217225152016,2166.279,3163.94,3067.789,640.1414,-0.07732914,-0.004658934,0.1139,-0.636380195617676,-0.38243156671524,0.427808612585068,-0.704361775018035,-0.303067194200314,0.436033492140578,9
1.40000915527344,-0.322866320610046,2.50310659408569,1.44586515426636,-0.464691155755482,2.76587275808388,1.43052305190393,2006.723,2967.017,2773.642,1330.008,-0.07633578,-0.004174771,0.1127753,-0.649633765220642,-0.384206801652908,0.440870195627213,-0.716940488958393,-0.308479463400265,0.443820315276901,9
1.41999816894531,-0.336074650287628,2.49540138244629,1.45462143421173,-0.47914673136562,2.75965292774086,1.43947174182117,2207.411,3206.044,3146.103,487.8674,-0.08037899,-0.004294081,0.1143269,-0.660416781902313,-0.385264068841934,0.437812626361847,-0.729391385793766,-0.313836736470737,0.451528013536465,9
1.44000244140625,-0.349552720785141,2.48764801025391,1.46370995044708,-0.493861275572861,2.75332167044526,1.4485807456364,1969.078,2915.906,2709.206,1507.474,-0.07817123,-0.003635748,0.112677,-0.673904180526733,-0.387663275003433,0.454423129558563,-0.741727567798258,-0.319144650954242,0.459164697851088,9
1.46000671386719,-0.363228976726532,2.47987151145935,1.47265660762787,-0.508821304757097,2.74688478782212,1.45784171634646,2270.931,3271.278,3251.471,259.8663,-0.08342725,-0.003886085,0.1149738,-0.683813750743866,-0.388830214738846,0.447332471609116,-0.753933682518823,-0.324396601119133,0.466720864320996,9
1.47999572753906,-0.377185344696045,2.47203302383423,1.48204135894775,-0.524012471663969,2.74034845309416,1.46724577231745,1913.817,2845.818,2598.652,1771.037,-0.07949589,-0.002996056,0.1125426,-0.697820723056793,-0.391924768686295,0.469237923622131,-0.765994882555672,-0.329586198544069,0.474187321698441,9
1.5,-0.391319245100021,2.46417093276978,1.49118256568909,-0.539455198877605,2.73370387899399,1.4768055561018,2293.578,3409.951,3351.532,0,-0.08615699,-0.003210707,0.116081,-0.706692099571228,-0.393110334873199,0.457061231136322,-0.777924000354858,-0.334718964672088,0.481572013878822,9
1.52000427246094,-0.405747383832932,2.45623326301575,1.5008819103241,-0.555135099954955,2.72695725560613,1.48651216180595,1858.711,2726.185,2451.465,2121.026,-0.08000509,-0.001863147,0.1126339,-0.721408486366272,-0.396889209747314,0.484969198703766,-0.789706299681991,-0.339788558913217,0.48886581843107,9
1.54000854492188,-0.420342743396759,2.44826579093933,1.51032972335815,-0.571049184024557,2.72010986981902,1.49636373793799,2096.732,3750.546,3212.563,0,-0.08632743,-0.0008985506,0.1178724,-0.72976690530777,-0.398375302553177,0.472389698028564,-0.801336412291853,-0.344792671461508,0.496065412155667,9
1.55999755859375,-0.435224086046219,2.44022464752197,1.52028226852417,-0.587181951496087,2.71316839067337,1.50635068951315,1972.531,2536.079,2418.673,2234.962,-0.07990655,0.001439287,0.113957,-0.744070708751678,-0.402063280344009,0.497629791498184,-0.812800388649436,-0.349725300221754,0.503162159625937,9
1.58000183105469,-0.450266659259796,2.43215823173523,1.52996277809143,-0.60355483331529,2.70612359703193,1.51648628330776,2197.021,3650.555,3228.054,0,-0.08622889,0.003127647,0.1177109,-0.752129733562469,-0.40331768989563,0.484028607606888,-0.824110582941666,-0.354591760855452,0.510163708672098,9
1.60000610351563,-0.465584099292755,2.42402529716492,1.54012131690979,-0.620152298932711,2.69898217125626,1.52676090517188,2069.302,2519.509,2498.02,2090.481,-0.08091163,0.005816689,0.1125412,-0.765871524810791,-0.406644612550735,0.507929980754852,-0.835253140422976,-0.35938609205264,0.51706148254665,9
1.6199951171875,-0.481057077646255,2.41586637496948,1.55005216598511,-0.636958033083316,2.69175113334911,1.53716445517924,2174.17,3699.514,3218.79,0,-0.08785821,0.00794012,0.1154064,-0.773647725582123,-0.407944202423096,0.496544420719147,-0.846214826007804,-0.364102599125749,0.523847288101157,9
1.63999938964844,-0.496779590845108,2.40764331817627,1.56037139892578,-0.653994195024907,2.68442094880091,1.54771065096602,2126.75,2523.197,2675.37,1851.646,-0.08486322,0.01065996,0.1104012,-0.786125838756561,-0.411152452230453,0.515961587429047,-0.857007552155828,-0.368746407673381,0.530528499715628,9
1.66000366210938,-0.512652337551117,2.39938807487488,1.57049441337585,-0.671244443874359,2.67699864863716,1.55838937674714,2255.752,3517.419,3335.726,0,-0.0922242,0.01249923,0.1121088,-0.793640077114105,-0.412757813930511,0.506151795387268,-0.867618167158098,-0.373311858882592,0.53709697585572,9
1.68000793457031,-0.528759121894836,2.39105939865112,1.5809850692749,-0.688705090349012,2.66948582025311,1.56919834868089,2123.512,2606.394,2835.881,1617.862,-0.09042124,0.01470245,0.1076871,-0.805335223674774,-0.416436821222305,0.524531841278076,-0.878042061913515,-0.377796969585941,0.543549863268291,9
1.69999694824219,-0.545012235641479,2.38268399238586,1.59132254123688,-0.706358800111611,2.66188992212981,1.58012683598675,2249.067,3467.063,3403.753,0,-0.09741364,0.01600481,0.1097766,-0.812657654285431,-0.418770164251328,0.516874372959137,-0.888267004546665,-0.382196476749158,0.549879589839776,9
1.72000122070313,-0.561490118503571,2.3742196559906,1.60202062129974,-0.724228658537036,2.6542010212754,1.5911891296115,2100.455,2651.885,2910.174,1523.684,-0.09533051,0.01763551,0.106615,-0.823892831802368,-0.423221051692963,0.534903645515442,-0.898304216251578,-0.386515208538549,0.556093102023817,9
1.74000549316406,-0.57811176776886,2.36569619178772,1.61257874965668,-0.742297311768984,2.64642658456943,1.60237448669139,2298.317,3384.458,3443.575,0,-0.1012853,0.01823286,0.1093152,-0.831086814403534,-0.426175087690353,0.527905642986298,-0.908141534469281,-0.390747931744771,0.562182870617028,9
1.75999450683594,-0.594959378242493,2.35706996917725,1.62353181838989,-0.760546715064628,2.63857437616062,1.61367173667103,2074.313,2694.943,2869.302,1555.405,-0.09775772,0.01930057,0.1069447,-0.842377483844757,-0.431309193372726,0.547656059265137,-0.917767514700581,-0.394889722119545,0.568141810929231,9
1.77999877929688,-0.61194634437561,2.34837889671326,1.63433575630188,-0.779000609654483,2.63063418086074,1.62509557650306,2295.802,3421.115,3411.7,0,-0.102757,0.01941927,0.1106424,-0.84935075044632,-0.434554696083069,0.540196597576141,-0.927192788821983,-0.398945154262308,0.57397650459845,9
1.80000305175781,-0.629162847995758,2.33957958221436,1.64556467533112,-0.797640935141499,2.62261376955408,1.63663482594136,2056.205,2689.967,2765.65,1689.935,-0.09765865,0.02023773,0.1085877,-0.860821843147278,-0.43996074795723,0.561447560787201,-0.936405971974637,-0.402909329586356,0.579679903854719,9
1.82000732421875,-0.646513283252716,2.33071827888489,1.65661764144897,-0.816463410111527,2.61451498441355,1.64828683458664,2296.645,3478.655,3355.634,0,-0.1021972,0.02019721,0.112887,-0.867523670196533,-0.443062007427216,0.552647411823273,-0.94540321420156,-0.406780591562751,0.585249625391268,9
1.83999633789063,-0.664095640182495,2.32175302505493,1.66810810565948,-0.835449117627072,2.60634596486888,1.66003989195343,2048.315,2662.858,2678.501,1821.196,-0.09617367,0.02104208,0.1106013,-0.879118978977203,-0.448259353637695,0.574521243572235,-0.954174163352093,-0.410554485950274,0.590679260733698,9
1.86000061035156,-0.681806981563568,2.31273436546326,1.67939591407776,-0.854622615239374,2.59809614449182,1.6719092003358,2280.421,3535.798,3319.762,0,-0.1006771,0.02111929,0.1150349,-0.88556045293808,-0.450928777456284,0.564390778541565,-0.962728579444532,-0.414235212212131,0.595974851798267,9
1.8800048828125,-0.699750065803528,2.30362176895142,1.69112205505371,-0.873964974649439,2.58977366760063,1.68388304221498,2059.349,2631.396,2638.624,1890.516,-0.09441758,0.02213798,0.1122772,-0.89715963602066,-0.455625742673874,0.586305797100067,-0.971056158224177,-0.417818336715394,0.601130019760457,9
1.89999389648438,-0.717818081378937,2.29446578025818,1.70263421535492,-0.893456683142228,2.58138692997148,1.69594933829086,2262.924,3578.771,3300.714,0,-0.09912924,0.02244794,0.1165383,-0.903397381305695,-0.457800835371017,0.575607597827911,-0.979147395688901,-0.421299770153459,0.606138881190213,9
1.91999816894531,-0.736113131046295,2.28522801399231,1.7145631313324,-0.913122862707269,2.57292512231409,1.70812364027167,2074.662,2604.321,2661.827,1884.005,-0.09320638,0.02364484,0.1134243,-0.914756178855896,-0.461884200572968,0.596443891525269,-0.987011339258123,-0.424683405378145,0.611007036871143,9
1.94000244140625,-0.754530310630798,2.27595567703247,1.72627997398376,-0.932943991899774,2.5643966441608,1.72039386345315,2271.026,3560.854,3317.039,0,-0.09802457,0.02407697,0.1171939,-0.920854508876801,-0.463600128889084,0.585844933986664,-0.994638524886308,-0.427965170275055,0.615728628108227,9
1.96000671386719,-0.77316814661026,2.26661276817322,1.73839855194092,-0.952915303453826,2.55580354673295,1.73275705667061,2093.871,2609.925,2704.494,1818.563,-0.09257574,0.02528003,0.11388,-0.931898951530457,-0.467162489891052,0.605930268764496,-1.00202586176059,-0.431143734953757,0.620301741541062,9
1.97999572753906,-0.791924297809601,2.25724196434021,1.75031101703644,-0.973016570682103,2.54715453300902,1.74520069864106,2268.098,3542.099,3340.912,0,-0.09742216,0.0256835,0.1173678,-0.937806725502014,-0.468537092208862,0.595621228218079,-1.00916501115878,-0.434215511495054,0.624721215103391,9
2,-0.810894250869751,2.24780750274658,1.7626131772995,-0.993273599084619,2.53843849960327,1.7577407641983,2094.918,2618.239,2743.968,1767.201,-0.09214644,0.02679007,0.114092,-0.94849956035614,-0.471721231937408,0.615106761455536,-1.01606400046349,-0.437183953857422,0.628992018127441,9
2.02000427246094,-0.829978168010712,2.2383508682251,1.77471590042114,-1.01366615605493,2.52966415204104,1.77036472839513,2276.546,3516.975,3355.41,0,-0.09677342,0.0270406,0.1174481,-0.954194724559784,-0.472829967737198,0.605136871337891,-1.02271452148052,-0.440045487257004,0.633109007445237,9
2.04000854492188,-0.849269509315491,2.22883653640747,1.78720545768738,-1.03418924440916,2.52083364047092,1.78306949773667,2093.89,2635.099,2751.148,1738.451,-0.09140768,0.02796907,0.1142891,-0.964568972587585,-0.475719720125198,0.624480128288269,-1.02911391720548,-0.442798968459032,0.637070538244476,9
2.05999755859375,-0.868668377399445,2.21930551528931,1.7994898557663,-1.05482201812353,2.5119559343546,1.79584216754118,2276.314,3505.062,3360.443,0,-0.09582586,0.02801854,0.1177014,-0.969944596290588,-0.476552218198776,0.614218413829803,-1.03525504859546,-0.445441325732794,0.640872191117535,9
2.08000183105469,-0.888269543647766,2.2097225189209,1.81216430664063,-1.07559088172821,2.50301967256038,1.80869908347065,2077.575,2640.17,2734.409,1759.029,-0.09004041,0.0287984,0.1145902,-0.980053246021271,-0.479151010513306,0.633721053600311,-1.04114485287423,-0.447975543971863,0.644518260536375,9
2.10000610351563,-0.9079709649086,2.20012903213501,1.82462573051453,-1.09647498538954,2.49403382618922,1.82162733848484,2271.183,3517.267,3343.572,0,-0.09420879,0.02870772,0.1181348,-0.985076665878296,-0.479662418365479,0.623071670532227,-1.04677621342161,-0.450398561093403,0.648004340974112,9
2.1199951171875,-0.927869021892548,2.19049119949341,1.83747887611389,-1.11745308225396,2.48500753716864,1.83461377976925,2070.459,2638.673,2697.636,1794.946,-0.08806754,0.02939931,0.1149824,-0.994898915290833,-0.481893211603165,0.642657995223999,-1.0521429102862,-0.45270770082608,0.651326581984514,9
2.13999938964844,-0.947858572006226,2.18085169792175,1.85009837150574,-1.138551967509,2.47592927627801,1.8476749948214,2258.834,3527.852,3333.23,0,-0.09215762,0.02923689,0.1185962,-0.999477565288544,-0.481986731290817,0.630976617336273,-1.05725102347782,-0.454905579228273,0.654488747383304,8
2.16000366210938,-0.968039512634277,2.17117595672607,1.86311721801758,-1.15975039167652,2.46680818657414,1.86079782920208,2060.29,2626.917,2655.665,1849.544,-0.08561051,0.02992217,0.1151995,-1.00904381275177,-0.483787536621094,0.650944232940674,-1.0620943502576,-0.456989527434725,0.657486997379635,8
2.18000793457031,-0.988303005695343,2.16150665283203,1.87588882446289,-1.18104303873349,2.45764655539322,1.87397899203979,2234.862,3569.43,3302.514,0,-0.08971711,0.02981627,0.1188941,-1.0131744146347,-0.483449399471283,0.638578057289124,-1.06667099276523,-0.458958728849171,0.660320157107579,7
2.19999694824219,-1.00874900817871,2.15181231498718,1.8890472650528,-1.20240821395574,2.44845371736898,1.88720505326679,2058.013,2603.413,2634.56,1883.623,-0.0831098,0.03057199,0.1152794,-1.02230739593506,-0.484729111194611,0.657924890518188,-1.07097597819164,-0.460811043810786,0.662985148161421,7
2.22000122070313,-1.02926862239838,2.14213418960571,1.90194189548492,-1.22387315175433,2.43921795429519,1.90049287228091,2232.031,3561.611,3300.145,0,-0.08727019,0.03050808,0.118724,-1.0259758234024,-0.483911573886871,0.644733786582947,-1.07501419914593,-0.462548577472581,0.665484999299265,7
2.24000549316406,-1.04996192455292,2.1324405670166,1.91522061824799,-1.24541615591711,2.42994860144581,1.91382901809327,2058.778,2596.039,2622.938,1889.415,-0.08067514,0.03128305,0.1147857,-1.03467071056366,-0.484681129455566,0.663938164710999,-1.07878069424208,-0.464169195088763,0.667816639186824,5
2.25999450683594,-1.07071936130524,2.12277126312256,1.92823004722595,-1.26701526177039,2.4206551096063,1.92719989352455,2212.296,3584.075,3282.79,0,-0.08495857,0.03126895,0.118114,-1.03786659240723,-0.483462661504745,0.650473296642303,-1.08227143928024,-0.465671165158559,0.669977576652695,4
2.27999877929688,-1.09163820743561,2.11309623718262,1.94160234928131,-1.28869796983554,2.41132564607061,1.9406225227075,2054.47,2582.469,2632.878,1880.406,-0.07858083,0.03205488,0.1140619,-1.04594016075134,-0.483754336833954,0.668615341186523,-1.08549040888332,-0.467056197851165,0.67197027217779,4
2.30000305175781,-1.1126115322113,2.10345268249512,1.95469927787781,-1.31044231452835,2.40196966201596,1.95408330789913,2223.776,3551.332,3288.963,0,-0.08289994,0.03197283,0.1170483,-1.04866540431976,-0.482166051864624,0.654846608638763,-1.08843358680109,-0.468322565086307,0.673792239511894,0
2.32000732421875,-1.13373458385468,2.09381103515625,1.96815264225006,-1.33224276726637,2.39258953623693,1.96757882664355,2049.306,2593.389,2635.74,1855.291,-0.07668253,0.0326495,0.1128757,-1.0561615228653,-0.482078641653061,0.672667264938354,-1.09109983431736,-0.469469776906228,0.675442773735451,0
2.33999633789063,-1.15490186214447,2.08420705795288,1.98132383823395,-1.35407709248145,2.38319483607731,1.98109531406483,2206.879,3551.745,3287.701,0,-0.08105757,0.03246587,0.115825,-1.05835568904877,-0.480211466550827,0.658560812473297,-1.09348640563071,-0.470496651869278,0.67692017506657,0
2.36000061035156,-1.17620718479156,2.07461047172546,1.99484384059906,-1.37597305876702,2.37377361348711,1.99464996024512,2031.554,2590.914,2632.265,1860.418,-0.07477357,0.03304859,0.1116657,-1.06526374816895,-0.479831367731094,0.675999701023102,-1.09559602313537,-0.471404361345641,0.678226128796969,0
2.3800048828125,-1.19754576683044,2.06505608558655,2.00807428359985,-1.39790843013262,2.36433543599182,2.00822900004707,2204.965,3541.598,3280.925,0,-0.07905221,0.03274426,0.114583,-1.06693577766418,-0.477713704109192,0.661525785923004,-1.09742594550583,-0.472191725819537,0.679358937915576,0
2.39999389648438,-1.21901178359985,2.05551481246948,2.02165246009827,-1.41986083522252,2.35488992936084,2.02181858453579,2020.008,2593.397,2609.613,1873.389,-0.07261002,0.03321863,0.1103929,-1.07329726219177,-0.477064311504364,0.678907811641693,-1.09897439291323,-0.472857979480329,0.680317500623536,0
2.41999816894531,-1.24049949645996,2.04602122306824,2.03492498397827,-1.44185817738692,2.34542508756209,2.03543598721428,2189.222,3544.612,3273.015,0,-0.07684551,0.03281859,0.1133698,-1.0743864774704,-0.47468501329422,0.663625240325928,-1.10024313330221,-0.473403883025206,0.681102911362803,0
2.44000244140625,-1.26210427284241,2.03654599189758,2.04855036735535,-1.46387808506052,2.33595053645515,2.04906735901791,2004.554,2585.102,2572.927,1915.389,-0.07007203,0.03324132,0.109046,-1.08025097846985,-0.473765313625336,0.681270658969879,-1.10123038958312,-0.473828671822132,0.681714070030222,0
2.46000671386719,-1.28371977806091,2.02712345123291,2.06185722351074,-1.48591492338117,2.32646870056377,2.06270921169857,2170.277,3571.135,3244.162,0,-0.07430912,0.03283154,0.1121147,-1.08076202869415,-0.471120864152908,0.665338635444641,-1.10193578218388,-0.474132182551855,0.682150741652607,0
2.47999572753906,-1.30544018745422,2.01772594451904,2.07550764083862,-1.50794623031618,2.31698924467309,2.07634764018804,1993.247,2566.843,2545.929,1951.666,-0.06741313,0.03326767,0.1076493,-1.08602905273438,-0.469874739646912,0.682518899440765,-1.10235882472314,-0.474314205938057,0.682412625136718,0
2.5,-1.32715940475464,2.00838756561279,2.08882260322571,-1.52999999932945,2.30750012397766,2.08999997377396,2165.294,3564.528,3235.164,0,-0.07168537,0.03285256,0.1105626,-1.08595430850983,-0.466923534870148,0.665743589401245,-1.10250000050292,-0.474374949932098,0.682500019669533,0
2.52000427246094,-1.34897220134735,1.99908077716827,2.10248041152954,-1.55205376834272,2.29801100328223,2.10365230735988,1986.144,2559.534,2522.676,1970.363,-0.06472334,0.03327821,0.1058412,-1.09063827991486,-0.465345531702042,0.682889521121979,-1.10235882472314,-0.474314205938057,0.682412625136718,0
2.54000854492188,-1.37077176570892,1.98983812332153,2.11579442024231,-1.57410188948011,2.28852431271001,2.11730114464159,2145.782,3586.209,3211.963,0,-0.0691314,0.03288713,0.1087027,-1.08997821807861,-0.462133556604385,0.665695071220398,-1.10193535162022,-0.474131997292339,0.682150475113189,0
2.55999755859375,-1.39265072345734,1.98063325881958,2.12943506240845,-1.59612191359838,2.27904971150017,2.13093258853001,1976.524,2545.88,2516.77,1977.898,-0.06232649,0.03331755,0.1038712,-1.09395432472229,-0.460247606039047,0.682037830352783,-1.10123038958312,-0.473828671822132,0.681714070030222,0
2.58000183105469,-1.41450500488281,1.97149741649628,2.14271998405457,-1.61814182127198,2.26957516039323,2.14456396033363,2145.238,3562.646,3215.493,0,-0.06681924,0.03288707,0.1065014,-1.09270656108856,-0.456794410943985,0.664241850376129,-1.10024313330221,-0.473403883025206,0.681102911362804,0
2.60000610351563,-1.43642568588257,1.96240389347076,2.15633010864258,-1.64013916343638,2.26011031859448,2.15818136301212,1965.961,2547.175,2508.949,1975.045,-0.06004469,0.03325185,0.1015197,-1.0960351228714,-0.454668045043945,0.680505037307739,-1.09897439291323,-0.472857979480329,0.680317500623536,0
2.6199951171875,-1.45830988883972,1.95338296890259,2.16958045959473,-1.66209156852628,2.2506648119635,2.17177094750084,2127.609,3575.396,3198.869,0,-0.06461148,0.03277967,0.104151,-1.09420800209045,-0.451051592826843,0.662521004676819,-1.09742594550583,-0.472191725819537,0.679358937915576,0
2.63999938964844,-1.48024606704712,1.94440829753876,2.18314099311829,-1.68402693989188,2.24122663446822,2.18534998730279,1949.339,2539.066,2508.026,1978.002,-0.05789712,0.03309137,0.09920254,-1.09681153297424,-0.448727399110794,0.678027868270874,-1.09559602313537,-0.471404361345641,0.67822612879697,0
2.66000366210938,-1.50213444232941,1.93550944328308,2.19633460044861,-1.70592290617745,2.23180541187802,2.19890463348308,2138.348,3544.375,3198.001,0,-0.06243461,0.03249789,0.1016518,-1.09442603588104,-0.44495365023613,0.659675717353821,-1.09348640563071,-0.470496651869278,0.67692017506657,0
2.68000793457031,-1.52406227588654,1.9266597032547,2.20983839035034,-1.72777388024004,2.22240354818443,2.21243142733407,1934.747,2549.163,2492.551,1977.185,-0.05568403,0.03267994,0.09665743,-1.09638714790344,-0.442470014095306,0.675185739994049,-1.09109790637238,-0.469468947365361,0.675441580245664,0
2.69999694824219,-1.54593062400818,1.91788840293884,2.22296524047852,-1.74955768413056,2.21303058593937,2.22591663964878,2120.414,3551.008,3186.703,0,-0.06025455,0.03198003,0.09918328,-1.09341144561768,-0.438572913408279,0.656347751617432,-1.08843358680109,-0.468322565086308,0.673792239511893,0
2.72000122070313,-1.5678254365921,1.9091694355011,2.23639988899231,-1.77130202882336,2.20367460188472,2.23937742484041,1911.127,2542.968,2471.926,2005.994,-0.05331435,0.03208743,0.09420215,-1.09474313259125,-0.435951560735703,0.671727359294891,-1.08549040888332,-0.467056197851165,0.671970272177789,0
2.74000549316406,-1.58964967727661,1.9005309343338,2.2494478225708,-1.79298473688851,2.19434513834902,2.25280005402337,2116.133,3548.382,3171.169,0,-0.05782948,0.03130412,0.09674679,-1.09120988845825,-0.431918144226074,0.652396023273468,-1.08227143928024,-0.465671165158559,0.669977576652695,0
2.75999450683594,-1.61148834228516,1.89194846153259,2.26280379295349,-1.81458384274179,2.18505164650952,2.26617092945464,1897.005,2539.982,2441.461,2032.442,-0.05072629,0.03134525,0.09170268,-1.09194183349609,-0.429132670164108,0.667797327041626,-1.07878069424208,-0.464169195088763,0.667816639186824,0
2.77999877929688,-1.63324475288391,1.88344955444336,2.27575707435608,-1.83612684690458,2.17578229366013,2.27950707526701,2100.304,3553.188,3159.175,0,-0.05526698,0.03051613,0.0942861,-1.08782923221588,-0.424939334392548,0.647662460803986,-1.07501419914593,-0.462548577472581,0.665484999299265,0
2.80000305175781,-1.65500473976135,1.87501013278961,2.28902268409729,-1.85759178470316,2.16654653058634,2.29279489428112,1881.372,2529.237,2407.573,2072.262,-0.04793264,0.03053675,0.08909475,-1.0879909992218,-0.4219731092453,0.663275718688965,-1.07097597819164,-0.460811043810786,0.662985148161422,0
2.82000732421875,-1.67667126655579,1.86665785312653,2.30187487602234,-1.87897323600723,2.1573466894188,2.30603103117811,2083.078,3574.1,3132.643,0,-0.05253618,0.02972628,0.09172227,-1.08332407474518,-0.417615920305252,0.642608344554901,-1.06666760390385,-0.458957270716794,0.660318059240952,0
2.83999633789063,-1.69832813739777,1.85836887359619,2.31502985954285,-1.90024960698239,2.14819206138118,2.31920211834584,1868.905,2513.045,2387.588,2098.914,-0.04518159,0.02976814,0.08641727,-1.08284187316895,-0.414438277482986,0.657754063606262,-1.06209435025759,-0.456989527434725,0.657486997379635,0
2.86000061035156,-1.71988081932068,1.85017108917236,2.3277587890625,-1.9214480311499,2.13907097167731,2.33232495272651,2079.944,3561.479,3126.481,0,-0.04984745,0.02895708,0.08887932,-1.0776309967041,-0.409903317689896,0.636444807052612,-1.05725102347782,-0.454905579228273,0.654488747383304,0
2.8800048828125,-1.74141108989716,1.84204041957855,2.34079003334045,-1.94254691640495,2.12999271078668,2.34538616777867,1859.089,2509.43,2371.298,2108.046,-0.0424902,0.02897524,0.08339878,-1.07652199268341,-0.406527727842331,0.651561081409454,-1.0521429102862,-0.45270770082608,0.651326581984514,0
2.89999389648438,-1.76282644271851,1.83400356769562,2.35338997840881,-1.96352501326936,2.1209664217661,2.35837260906308,2064.676,3573.734,3107.284,0,-0.04727697,0.0281639,0.08582392,-1.0707745552063,-0.401857435703278,0.630001842975616,-1.04677621342161,-0.450398561093403,0.648004340974112,0
2.91999816894531,-1.7842059135437,1.82603704929352,2.36627840995789,-1.98440911693069,2.11198057539494,2.37130086407726,1842.408,2500.948,2368.924,2112.686,-0.0400369,0.02816506,0.0803314,-1.06896781921387,-0.398317694664001,0.64442253112793,-1.04114485287423,-0.447975543971863,0.644518260536375,0
2.94000244140625,-1.80546009540558,1.81816649436951,2.37872958183289,-2.00517798053537,2.10304431360073,2.38415778000673,2072.574,3545.759,3105.82,0,-0.04486361,0.02727876,0.08255904,-1.06270909309387,-0.393534064292908,0.622555732727051,-1.03525504859546,-0.445441325732794,0.640872191117535,0
2.96000671386719,-1.82666516304016,1.8103688955307,2.39146780967712,-2.02582645724542,2.09415985092405,2.3969401707136,1827.555,2510.094,2359.052,2106.967,-0.03768533,0.02718037,0.07703246,-1.06025683879852,-0.389877498149872,0.636914551258087,-1.02910913225408,-0.442796909628122,0.637067576131623,0
2.97999572753906,-1.84773468971252,1.80266857147217,2.40376162528992,-2.04633384260397,2.08533609591429,2.40963521915279,2057.649,3545.557,3098.278,0,-0.04258022,0.02620699,0.07930063,-1.05347418785095,-0.38502448797226,0.614688515663147,-1.02271452148052,-0.440045487257004,0.633109007445237,0
3,-1.86874282360077,1.79504287242889,2.41634035110474,-2.06672639957428,2.07656174835205,2.42225918334961,1803.275,2507.276,2344.483,2126.656,-0.03528316,0.02603486,0.0738272,-1.05040526390076,-0.381290197372437,0.628941416740417,-1.01606400046349,-0.437183953857422,0.628992018127441,0
3.02000427246094,-1.88960564136505,1.78751516342163,2.42846751213074,-2.0869834279768,2.06784571494631,2.43479924890685,2054.787,3537.754,3086.269,0,-0.04012798,0.02497568,0.07612224,-1.04313814640045,-0.376366913318634,0.606355667114258,-1.00916501115878,-0.434215511495054,0.624721215103391,0
3.04000854492188,-1.91039562225342,1.78006458282471,2.4408814907074,-2.10709998486405,2.05919012250926,2.44725235590455,1787.027,2507.148,2317.345,2148.644,-0.03267645,0.02472638,0.07064857,-1.03949785232544,-0.372535794973373,0.620704710483551,-1.00202031904361,-0.431141350077486,0.620298310335216,0
3.05999755859375,-1.93103051185608,1.77271413803101,2.45283150672913,-2.12705600675913,2.05060360379452,2.45960608409476,2044.713,3538.237,3072.563,0,-0.03753672,0.02360306,0.07299619,-1.03174829483032,-0.367520570755005,0.597498059272766,-0.994638524886308,-0.427965170275055,0.615728628108227,0
3.08000183105469,-1.95158171653748,1.76544284820557,2.46507000923157,-2.14687713595163,2.04207512564123,2.47187630727625,1765.422,2499.517,2289.73,2184.287,-0.02986575,0.02331604,0.06746339,-1.02756011486053,-0.363566964864731,0.611929774284363,-0.987011339258122,-0.424683405378145,0.611007036871143,0
3.10000610351563,-1.97196912765503,1.75827383995056,2.47683548927307,-2.16654331551667,2.03361331798384,2.48405060925705,2036.492,3544.707,3051.455,0,-0.03472443,0.02217061,0.06982602,-1.01935756206512,-0.358435988426208,0.588279724121094,-0.979147395688901,-0.421299770153459,0.606138881190213,0
3.1199951171875,-1.99226117134094,1.7511875629425,2.48888802528381,-2.18603502400946,2.02522658035469,2.49611690533293,1753.488,2493.038,2261.937,2208.838,-0.02699433,0.02186333,0.06421306,-1.01460993289948,-0.354325354099274,0.602623701095581,-0.971056158224178,-0.417818336715394,0.601130019760458,0
3.13999938964844,-2.01238012313843,1.74420619010925,2.50045323371887,-2.20537738341953,2.01690410346351,2.50809074721212,2026.322,3541.061,3042.287,0,-0.03194728,0.02070669,0.06652777,-1.0059494972229,-0.349067896604538,0.578256964683533,-0.962728579444533,-0.414235212212131,0.595974851798267,0
3.16000366210938,-2.03239345550537,1.73730993270874,2.51230812072754,-2.22455088103183,2.00865428308644,2.51996005559448,1738.246,2485.931,2237.529,2234.967,-0.02413197,0.02038777,0.06077816,-1.00065863132477,-0.344807684421539,0.592747032642365,-0.954174163352092,-0.410554485950274,0.590679260733698,0
3.18000793457031,-2.0522243976593,1.73052108287811,2.52366876602173,-2.24355101420387,2.00047905658478,2.53172204312984,2010.717,3554.93,3021.388,0,-0.02919251,0.01925413,0.06310765,-0.991560637950897,-0.339441418647766,0.568028509616852,-0.945396434568188,-0.406777674475913,0.585245428475253,0
3.19999694824219,-2.07193827629089,1.72382032871246,2.53531074523926,-2.2623590635174,1.99238647840124,2.54336512160655,1723.714,2475.431,2224.701,2250.635,-0.02143791,0.01894751,0.05731993,-0.985688745975494,-0.33504256606102,0.582094430923462,-0.936405971974636,-0.402909329586355,0.579679903854719,0
3.22000122070313,-2.09146189689636,1.71722841262817,2.54644846916199,-2.28099938900442,1.98436606709459,2.55490437104486,2010.337,3535.317,3019.474,0,-0.02656397,0.01779879,0.05951153,-0.976172804832458,-0.329582422971725,0.556881844997406,-0.927192788821982,-0.398945154262308,0.573976504598449,0
3.24000549316406,-2.11085653305054,1.71072721481323,2.55786919593811,-2.29945328359428,1.9764258717947,2.56632821087688,1709.862,2476.544,2210.726,2256.825,-0.01879872,0.01745131,0.05364162,-0.969748616218567,-0.325072288513184,0.571040093898773,-0.91776751470058,-0.394889722119544,0.568141810929231,0
3.25999450683594,-2.13005328178406,1.70433616638184,2.56878232955933,-2.31770268688992,1.96857366338589,2.57762546085652,1998.218,3542.155,3002.555,0,-0.0240068,0.01628239,0.05584982,-0.959823846817017,-0.319546729326248,0.54565167427063,-0.90814153446928,-0.390747931744771,0.562182870617026,0
3.27999877929688,-2.14910984039307,1.69803726673126,2.57997035980225,-2.33577134012187,1.96079922667992,2.58881081793642,1690.113,2472.139,2201.587,2267.752,-0.01627618,0.01590821,0.05002892,-0.952831447124481,-0.314949601888657,0.559401333332062,-0.898304216251578,-0.386515208538549,0.556093102023818,0
3.30000305175781,-2.16796016693115,1.69184970855713,2.59064388275146,-2.35364119854729,1.95311032582551,2.59987311156116,2005.193,3517.729,2998.232,0,-0.02150769,0.01467045,0.05212417,-0.942528009414673,-0.309369146823883,0.533675134181976,-0.888267004546666,-0.382196476749158,0.549879589839776,0
3.32000732421875,-2.1866602897644,1.68575584888458,2.60159492492676,-2.37130830610839,1.94550866300381,2.61080989274252,1673.113,2479.64,2183.726,2274.465,-0.01375896,0.01421506,0.04629349,-0.935010671615601,-0.304699927568436,0.547556757926941,-0.878034183119985,-0.377793579561194,0.543544985919778,0
3.33999633789063,-2.20514678955078,1.67977428436279,2.61202359199524,-2.38875555478454,1.93800159931817,2.62161057080077,1992.38,3519.238,2987.066,0,-0.01906078,0.0129179,0.04845467,-0.924330413341522,-0.299079716205597,0.521434962749481,-0.867618167158097,-0.373311858882592,0.53709697585572,0
3.36000061035156,-2.22347331047058,1.67388713359833,2.62273025512695,-2.406005803634,1.93057929915441,2.6322892965819,1650.084,2475.887,2163.435,2300.469,-0.0111954,0.01241664,0.04266275,-0.916316568851471,-0.294350892305374,0.535337388515472,-0.857007552155826,-0.36874640767338,0.530528499715627,0
3.3800048828125,-2.24157929420471,1.66811347007751,2.63290667533875,-2.42304196557559,1.92324911460621,2.64283549236868,1989.588,3513.116,2973.877,0,-0.01650201,0.01107422,0.04484665,-0.905298709869385,-0.288682132959366,0.508822023868561,-0.846214826007803,-0.364102599125748,0.523847288101157,0
3.39999389648438,-2.2595157623291,1.66243577003479,2.64336347579956,-2.43984769972619,1.91601807669906,2.65323904237604,1634.731,2474.232,2137.455,2322.979,-0.008541822,0.01052976,0.03904015,-0.896818816661835,-0.28387126326561,0.522846162319183,-0.835253140422974,-0.35938609205264,0.51706148254665,0
3.41999816894531,-2.27722501754761,1.65687322616577,2.65327835083008,-2.45644516534361,1.90887665092339,2.66351366424015,1979.873,3511.324,2963.167,0,-0.0139033,0.009164043,0.04125202,-0.885477006435394,-0.278142213821411,0.495748281478882,-0.824110582941664,-0.354591760855451,0.510163708672097,0
3.44000244140625,-2.29475617408752,1.6514083147049,2.66347813606262,-2.47281804716281,1.90183185728196,2.67364925803476,1618.951,2468.21,2110.503,2351.933,-0.005820072,0.0085996,0.03538185,-0.876554071903229,-0.273239284753799,0.509994089603424,-0.812800388649434,-0.349725300221754,0.503162159625937,0
3.46000671386719,-2.31205463409424,1.64605951309204,2.67312836647034,-2.4889630419904,1.89488511704659,2.68364377892579,1970.152,3518.784,2943.689,0,-0.01126677,0.007245255,0.03762115,-0.864910662174225,-0.267443031072617,0.482507973909378,-0.801327600455845,-0.344788879974649,0.496059957209413,0
3.47999572753906,-2.3291654586792,1.64081048965454,2.68305945396423,-2.50486489870395,1.88804299234919,2.69348778574196,1603.558,2460.416,2092.221,2372.916,-0.003193663,0.006690488,0.03171856,-0.855537354946136,-0.262442499399185,0.496557503938675,-0.789706299681989,-0.339788558913217,0.488865818431069,0
3.5,-2.3460373878479,1.63567852973938,2.69243168830872,-2.5205447997813,1.88129636896134,2.70319439144611,1968.539,3505.797,2937.479,0,-0.008724515,0.005339044,0.03386801,-0.843612670898438,-0.256589293479919,0.468606412410736,-0.777924000354857,-0.334718964672089,0.481572013878822,0
3.52000427246094,-2.36271357536316,1.63064861297607,2.70208692550659,-2.53598752699493,1.87465179486116,2.71275417523047,1590.146,2460.533,2076.135,2383.211,-0.0006689861,0.004766242,0.02790447,-0.833798408508301,-0.251508951187134,0.482756465673447,-0.765994882555673,-0.32958619854407,0.474187321698442,0
3.53999328613281,-2.37914538383484,1.62573647499084,2.71117854118347,-2.55117869390181,1.86811546013321,2.72215823120146,1959.781,3508.051,2923.47,0,-0.006318616,0.003416654,0.03005328,-0.821599900722504,-0.245620474219322,0.454581767320633,-0.753933682518821,-0.324396601119134,0.466720864320997,0
3.55999755859375,-2.39537239074707,1.62092661857605,2.72054839134216,-2.56613872308604,1.86167857751006,2.73141920191151,1571.424,2458.045,2066.239,2394.333,0.001671542,0.002837408,0.02412833,-0.811346769332886,-0.240491166710854,0.468487530946732,-0.741727567798258,-0.319144650954242,0.459164697851087,0
3.58000183105469,-2.4113507270813,1.61623454093933,2.72934913635254,-2.58085326729328,1.85534732021446,2.74052820572674,1963.351,3489.276,2918.893,0,-0.004048005,0.001458672,0.02620186,-0.79890376329422,-0.234592169523239,0.44003689289093,-0.729391385793765,-0.313836736470737,0.451528013536464,0
3.60000610351563,-2.42711544036865,1.61164569854736,2.73843026161194,-2.59531978247425,1.84912278287974,2.74948366775945,1555.45,2463.853,2052.011,2400.163,0.003909462,0.0008326423,0.02029841,-0.78823846578598,-0.22943751513958,0.454054087400436,-0.716930938559024,-0.308475354130224,0.443814403124743,0
3.6199951171875,-2.44262671470642,1.60717463493347,2.74693632125854,-2.60952509409627,1.84301063413925,2.75827743234631,1955.64,3484.905,2911.079,0,-0.001897236,-0.0005784386,0.02241464,-0.775564908981323,-0.223546922206879,0.425299614667892,-0.704361775018033,-0.303067194200314,0.436033492140578,0
3.63999938964844,-2.45791721343994,1.60280704498291,2.75572443008423,-2.6234885835008,1.83700253474321,2.76692149746096,1535.258,2463.314,2035.606,2418.832,0.006112474,-0.001237305,0.01657148,-0.764520943164825,-0.218385919928551,0.439405232667923,-0.691670720740692,-0.297606588091786,0.428177124984152,0
3.66000366210938,-2.47295045852661,1.59855699539185,2.76393699645996,-2.63719712493647,1.83110413233575,2.77540773763803,1942.995,3485.545,2889.487,14.44546,0.0003644688,-0.002634399,0.01874497,-0.751657485961914,-0.212502434849739,0.410632014274597,-0.678873453515702,-0.29210028151913,0.420255006953505,0
3.68000793457031,-2.48775577545166,1.59441089630127,2.77242708206177,-2.65064865588166,1.82531631436231,2.78373487607838,1527.724,2461.748,2018.682,2425.815,0.008339947,-0.003295928,0.0129669,-0.740262627601624,-0.207308501005173,0.424501419067383,-0.665976209205203,-0.286550957599616,0.412270998344358,0
3.69999694824219,-2.50230050086975,1.59038269519806,2.7803475856781,-2.66383127580226,1.81964420129024,2.79189554578451,1920.395,3483.948,2855.205,54.99052,0.002767486,-0.004607801,0.01510515,-0.727246403694153,-0.201418519020081,0.39601942896843,-0.65299527533123,-0.280965624398954,0.404235181908735,0
3.72000122070313,-2.51661086082458,1.58645915985107,2.78852820396423,-2.6767633032417,1.81407991116207,2.79990108680742,1528.796,2462.194,2014.985,2408.156,0.01053584,-0.005222992,0.009395506,-0.715508043766022,-0.196163684129715,0.40903177857399,-0.639917282339434,-0.275338529371411,0.396139281255611,0
3.74000549316406,-2.53065776824951,1.58265399932861,2.79615497589111,-2.6894328975087,1.80862853869646,2.80774416919516,1902.007,3468.224,2814.971,113.5818,0.005219966,-0.006413957,0.01131071,-0.702357947826385,-0.190260991454124,0.381341278553009,-0.626758665639204,-0.269676744214497,0.387993470686332,0
3.75999450683594,-2.54446315765381,1.57895517349243,2.80401515960693,-2.70182915057228,1.80329477731443,2.81541804035694,1539.115,2476.587,2025.816,2352.234,0.01248269,-0.006981743,0.005709062,-0.690259337425232,-0.184944272041321,0.393009752035141,-0.613536214864365,-0.263987493038594,0.379808143784027,0
3.77999877929688,-2.55800223350525,1.57537412643433,2.81134438514709,-2.7139695770734,1.79807109095524,2.82293354268985,1875.725,3441.26,2775.94,191.8043,0.007447178,-0.008041148,0.007320972,-0.676970481872559,-0.179064199328423,0.366465598344803,-0.60023651686137,-0.258265004538452,0.371574997167698,0
3.80000305175781,-2.57129240036011,1.57189917564392,2.8188738822937,-2.72584333814708,1.79296214327972,2.83028396642013,1549.316,2501.096,2051.336,2271.45,0.01404903,-0.008567389,0.001932648,-0.664505779743195,-0.173738941550255,0.376475661993027,-0.586876524285838,-0.252516572968186,0.363304525338741,0
3.82000732421875,-2.58431386947632,1.56854033470154,2.82590436935425,-2.73744929742843,1.78796842323393,2.8374686080838,1850.042,3405.6,2734.169,282.6099,0.009364555,-0.009513344,0.003232851,-0.651077270507813,-0.167936071753502,0.351527839899063,-0.573463232144022,-0.246745208083563,0.355001058539243,0
3.83999633789063,-2.59707951545715,1.5652871131897,2.83309602737427,-2.74877791451009,1.78309403578861,2.84448156171422,1557.269,2534.841,2086.803,2173.426,0.01522491,-0.01001242,-0.001799232,-0.638267457485199,-0.162666201591492,0.359577566385269,-0.560014026276881,-0.240958390526246,0.346675359432959,0
3.86000061035156,-2.60957384109497,1.56214725971222,2.83982682228088,-2.75984563331209,1.77833190558438,2.85133300688122,1820.697,3358.807,2690.624,391.5049,0.01106655,-0.01085771,-0.0008010789,-0.624716579914093,-0.156994268298149,0.336536586284637,-0.546515580872635,-0.235150386571708,0.338319178707605,0
3.8800048828125,-2.62180590629578,1.55911087989807,2.84667873382568,-2.77064299647982,1.77368610185671,2.85801708903178,1570.441,2575.277,2122.138,2063.948,0.01622119,-0.01134773,-0.005399826,-0.61160945892334,-0.151814311742783,0.34259307384491,-0.532985466132484,-0.229328756186666,0.329943393154704,0
3.89999389648438,-2.63376498222351,1.55618488788605,2.85311102867126,-2.78116151864576,1.76916027562219,2.86452855531919,1795.41,3308.316,2641.016,506.9874,0.01265806,-0.01211472,-0.004701545,-0.597959816455841,-0.146290794014931,0.32161545753479,-0.519441457145543,-0.223501147495394,0.321559006401168,0
3.91999816894531,-2.64545726776123,1.55336081981659,2.85962224006653,-2.79141684911929,1.7647476934202,2.87087709341145,1581.535,2619.25,2156.299,1954.419,0.01712214,-0.01259782,-0.008836368,-0.584612727165222,-0.141210585832596,0.325566500425339,-0.505870408491346,-0.2176619043907,0.313157880805522,0
