t,x_s1,x_s2,x_s3,x_s_d1,x_s_d2,x_s_d3,propellers_rpms1,propellers_rpms2,propellers_rpms3,propellers_rpms4,rollRad,pitchRad,yawRad,v_s1,v_s2,v_s3,v_s_d1,v_s_d2,v_s_d3,insideCount
0,-0.0599999986588955,2.94000005722046,1.17999994754791,-0.0599999986588955,2.94000005722046,1.17999994754791,0,0,0,0,0,0,0,0,0,0,-1.06581410364015E-15,4.44089209850063E-16,4.44089209850063E-16,0
0.02001953125,-0.0599999986588955,2.94000005722046,1.17811644077301,-0.0600018744611685,2.93999925011514,1.18000110875888,0,0,0,0,-0.01635288,0.0001297794,-0.01587137,-1.10653664009419E-09,-7.76775763711157E-08,-0.0941759571433067,-0.000280531511337879,-0.000120704872184653,0.000173662369087018,5
0.040008544921875,-0.0599999986588955,2.94000005722046,1.17242503166199,-0.060014880898484,2.93999365380853,1.18000916036316,0,0,0,0,-0.03270202,0.0005238493,-0.03175127,-1.08383135799528E-09,-7.60859677484405E-08,-0.284568399190903,-0.00111143977225461,-0.000478221483967637,0.00068803416424398,5
0.05999755859375,-0.0599058829247952,2.93990302085876,1.16596519947052,-0.0600498857373401,2.93997859220429,1.18003083002592,1867.736,3252.71,3184.193,1722.621,-0.04941975,0.0003290266,-0.01369397,0.0047058523632586,-0.00484938966110349,-0.32299131155014,-0.00247936261166862,-0.00106680046642749,0.00153484356504269,5
0.08001708984375,-0.0598203651607037,2.93960738182068,1.16000318527222,-0.0601176241590912,2.9399494462538,1.18007276333581,1925.461,2314.329,3252.036,2829.56,-0.07542498,-0.002136388,0.02094826,0.00427588727325201,-0.0147778820246458,-0.29810044169426,-0.00437432711648753,-0.0018821507536715,0.00270791686320324,5
0.100006103515625,-0.0599374249577522,2.93904519081116,1.15498638153076,-0.0602282404704493,2.93990185114529,1.18014124010193,980.8941,1499.05,3914.259,3896.424,-0.1031879,-0.008061389,0.06330394,-0.00585292186588049,-0.0281138196587563,-0.2508385181427,-0.00677739276378709,-0.00291612276782231,0.00419552897277328,4
0.1199951171875,-0.0604638159275055,2.93818378448486,1.15081310272217,-0.0603918861403606,2.93983143898525,1.18024254456713,346.3103,980.2162,4173.258,4613.318,-0.1214268,-0.01541917,0.103996,-0.026319608092308,-0.0430653318762779,-0.208663403987885,-0.00967801353495435,-0.00416417885169243,0.00599115140585487,4
0.1400146484375,-0.0615635514259338,2.93704152107239,1.1472829580307,-0.0606187761383957,2.93973381455767,1.18038300028418,352.7106,747.0981,3975.694,4854.795,-0.1253955,-0.02116521,0.1351004,-0.0549868047237396,-0.057111207395792,-0.176508039236069,-0.0130687916036232,-0.00562313592726786,0.00809020455552005,4
0.160003662109375,-0.0633406862616539,2.93568134307861,1.14427495002747,-0.0609177895434042,2.93960515744296,1.18056810382587,821.4221,815.4136,3461.944,4692.236,-0.1184585,-0.0235221,0.152264,-0.0888567939400673,-0.0680107250809669,-0.150400415062904,-0.0169265510445065,-0.00728302204135792,0.0104783414199936,3
0.17999267578125,-0.0658466517925262,2.93417286872864,1.14182555675507,-0.0612985250199726,2.93944133760391,1.18080379722281,1348.469,1083.057,3007.374,4255.184,-0.1079827,-0.02277855,0.155775,-0.125298202037811,-0.075427733361721,-0.122469238936901,-0.0212433804254414,-0.00914043312572283,0.0131506644458931,3
0.20001220703125,-0.0690846294164658,2.9325544834137,1.14006197452545,-0.0617708265342762,2.93923811945689,1.181096174359,1636.001,1380.852,2919.01,3666.489,-0.09982646,-0.02030128,0.1501576,-0.161898881196976,-0.0809138715267181,-0.0881803780794144,-0.0260142813927851,-0.0111932185284278,0.0161040794142088,3
0.220001220703125,-0.0730098038911819,2.93082690238953,1.139035820961,-0.0623420644491781,2.93899233174064,1.18144979784016,1642.03,1581.17,3147.054,3113.147,-0.09584025,-0.01735422,0.1421894,-0.196258738636971,-0.0863831117749214,-0.0513086915016174,-0.03121219533433,-0.0134297356845702,0.019321835755004,3
0.239990234375,-0.0775494426488876,2.92897439002991,1.13863348960876,-0.0630214373585105,2.93870001655724,1.18187036203406,1523.904,1623.886,3418.304,2777.532,-0.09475953,-0.01467775,0.1377345,-0.226982206106186,-0.0926218181848526,-0.0201164800673723,-0.0368316683029241,-0.015847637913056,0.022800557215184,3
0.260009765625,-0.0826382711529732,2.92699337005615,1.13863611221313,-0.0638185570309634,2.93835703823113,1.18236381708338,1438.325,1500.504,3533.943,2744.448,-0.09438828,-0.0125893,0.1393051,-0.254441499710083,-0.0990563780069351,0.000129202380776405,-0.0428699302682246,-0.0184457333472145,0.0265385290140116,3
0.279998779296875,-0.0882440060377121,2.92490172386169,1.13885235786438,-0.0647390625194898,2.93796097043536,1.18293365383054,1401.396,1276.6,3475.213,2977.563,-0.0932101,-0.01110432,0.1456822,-0.280286937952042,-0.104580998420715,0.0108148790895939,-0.0492963837173861,-0.0212108567320638,0.030516809833474,3
0.300018310546875,-0.0943697243928909,2.92273354530334,1.13920748233795,-0.0657936070281142,2.93750722939386,1.1835864671163,1350.51,1061.377,3345.767,3324.567,-0.09053522,-0.009934124,0.1533072,-0.30628564953804,-0.108403876423836,0.0177534185349941,-0.0561185469977389,-0.0241462430024218,0.0347400538887172,3
0.32000732421875,-0.101034924387932,2.92052674293518,1.13972556591034,-0.0669865614821475,2.93699393441958,1.18432496275165,1281.087,941.4404,3237.088,3590.491,-0.08598708,-0.008523181,0.1583563,-0.333260536193848,-0.110340148210526,0.0259041413664818,-0.0633036493784043,-0.0272377918282996,0.0391879745362408,3
0.339996337890625,-0.108250476419926,2.91831302642822,1.14046251773834,-0.068326768706371,2.93641728069206,1.18515461486636,1252.61,943.8666,3172.097,3649.597,-0.07945541,-0.006292517,0.1584775,-0.360777586698532,-0.110680736601353,0.03684963285923,-0.0708499516420146,-0.0304847548730522,0.0438594951176439,4
0.360015869140625,-0.116001978516579,2.91611576080322,1.14145374298096,-0.0698237345322385,2.93577317811757,1.18608130802295,1318.922,1046.706,3121.467,3498.499,-0.07154689,-0.002965163,0.1534815,-0.387574851512909,-0.109862305223942,0.0495615005493164,-0.0787580297418618,-0.0338873799532906,0.0487549721754506,4
0.3800048828125,-0.124250173568726,2.9139506816864,1.14270794391632,-0.0714797725314022,2.93506063123087,1.18710647443246,1456.869,1182.443,3088.506,3231.273,-0.06361333,0.001259333,0.1450427,-0.412410259246826,-0.108257904648781,0.0627126023173332,-0.0869921272359981,-0.0374302820709642,0.0538522707687797,4
0.399993896484375,-0.132941946387291,2.91182732582092,1.14421761035919,-0.0733036822025899,2.9342758538535,1.18823556140379,1579.58,1273.411,3105.351,2981.577,-0.05702467,0.005825539,0.1357504,-0.434588879346848,-0.106164388358593,0.075485423207283,-0.0955525119207663,-0.0411135764513579,0.0591515566763244,4
0.420013427734375,-0.142022356390953,2.90975117683411,1.14595854282379,-0.0753050585276311,2.93341471753282,1.18947450868777,1629.452,1287.906,3160.486,2845.738,-0.0524419,0.01017213,0.127864,-0.454020768404007,-0.103803396224976,0.0870488360524178,-0.104441553474511,-0.0449382827008623,0.0646542968418633,4
0.44000244140625,-0.151444733142853,2.90772533416748,1.14789593219757,-0.077483988232608,2.93247718495301,1.19082336997196,1608.183,1238.869,3217.588,2842.615,-0.04965623,0.01397517,0.1224601,-0.471118986606598,-0.10129164904356,0.0968695357441902,-0.113620829717891,-0.048887868829098,0.0703367061060819,4
0.459991455078125,-0.161175474524498,2.90575265884399,1.14999759197235,-0.0798493430620752,2.93145943885026,1.19228763728888,1541.82,1158.236,3253.382,2937.42,-0.0478879,0.01718635,0.1193365,-0.486537426710129,-0.0986396297812462,0.105080232024193,-0.123092454730403,-0.0529632444654124,0.0762000931848968,4
0.480010986328125,-0.171192333102226,2.90383696556091,1.15224003791809,-0.0824109101018722,2.93035726811493,1.19387336931088,1472.759,1085.629,3249.421,3067.841,-0.04628521,0.01998512,0.1173803,-0.500843405723572,-0.0957802906632423,0.112121269106865,-0.132860437136906,-0.0571661344090936,0.082246939608052,5
0.5,-0.181479707360268,2.90198421478271,1.15461611747742,-0.085166398670376,2.92917165836334,1.1955791479969,1433.596,1047.058,3214.306,3169.097,-0.04433098,0.02264551,0.1152186,-0.5143683552742,-0.0926403626799583,0.118801765143871,-0.142884000065179,-0.0614789935111996,0.0884520025491718,5
0.52001953125,-0.192022919654846,2.90019965171814,1.15713548660278,-0.0881295333471192,2.92789670429234,1.19741346951549,1423.676,1044.936,3178.342,3209.676,-0.04192455,0.02537927,0.1118828,-0.527160823345184,-0.0892274975776672,0.125966280698776,-0.153182839569029,-0.0659102964334391,0.0948274748038155,5
0.540008544921875,-0.202803134918213,2.89848685264587,1.1598105430603,-0.0912963635428427,2.92653410573011,1.19937388826368,1445.325,1073.464,3148.261,3185.33,-0.03930986,0.02828748,0.10705,-0.53901195526123,-0.0856404528021812,0.133751109242439,-0.163714777034477,-0.0704418948965508,0.101347245800684,5
0.55999755859375,-0.213796481490135,2.8968460559845,1.16265416145325,-0.094676112580471,2.92507989413848,1.20146611391775,1483.374,1113.663,3140.105,3113.786,-0.03690342,0.03132465,0.1010635,-0.549667835235596,-0.0820365026593208,0.142181217670441,-0.17448465888317,-0.0750758741803766,0.108014315705644,5
0.58001708984375,-0.224974855780602,2.89527440071106,1.16566956043243,-0.0982790918331175,2.92352963282165,1.20369652970884,1518.992,1148.144,3146.935,3036.294,-0.03512976,0.03434037,0.09467057,-0.558918237686157,-0.0785852000117302,0.15076756477356,-0.185498893714783,-0.0798149917263209,0.114832651747179,5
0.600006103515625,-0.23630952835083,2.89376592636108,1.16885197162628,-0.102098762959148,2.92188613504538,1.20606108809202,1543.816,1167.703,3160.29,2978.222,-0.03428287,0.03716204,0.08861949,-0.566733837127686,-0.075425811111927,0.15911777317524,-0.196713446836865,-0.0846403006364086,0.121774994352997,5
0.6199951171875,-0.247774943709373,2.89231252670288,1.17219531536102,-0.106144683970236,2.92014528826426,1.20856570593183,1535.62,1167.351,3182.785,2962.897,-0.03442242,0.03963224,0.0834584,-0.573271870613098,-0.0726685672998428,0.167165502905846,-0.208134604141382,-0.0895545055543457,0.128845234789665,5
0.6400146484375,-0.25935035943985,2.89090490341187,1.17568838596344,-0.110427588881679,2.91830247393137,1.21121702809507,1502.932,1155.716,3196.543,2989.596,-0.03535133,0.04169262,0.07930889,-0.57876980304718,-0.070384755730629,0.174650877714157,-0.21977002223474,-0.0945609009039674,0.136048112861281,5
0.660003662109375,-0.271020203828812,2.88953280448914,1.17932116985321,-0.114938248900541,2.91636166293851,1.21400934151928,1469.194,1144.896,3195.401,3030.403,-0.03677719,0.04338593,0.07590111,-0.583493649959564,-0.068600133061409,0.1816366314888,-0.231574097577923,-0.0996398647564507,0.143355397804799,5
0.67999267578125,-0.282773345708847,2.88818621635437,1.18309092521667,-0.119686638739014,2.91431856344567,1.21694882102647,1430.099,1139.869,3191.635,3073.302,-0.03844539,0.04477793,0.07287583,-0.587657690048218,-0.0673287063837051,0.188486471772194,-0.243554411173546,-0.104794659005432,0.150771782621969,5
0.70001220703125,-0.294600486755371,2.88685464859009,1.18699407577515,-0.124683985757554,2.91216834463331,1.22004241688759,1400.949,1145.699,3178.716,3104.465,-0.04016739,0.04596397,0.06986457,-0.591356575489044,-0.0665802583098412,0.195156842470169,-0.255719729227087,-0.11002905550423,0.158302694011575,5
0.720001220703125,-0.306492835283279,2.88552737236023,1.19102931022644,-0.129918284978346,2.90991617190799,1.22328269744952,1397.183,1163.35,3160.766,3105.337,-0.04192135,0.04702413,0.06662104,-0.5946164727211,-0.0663634389638901,0.201763063669205,-0.268023157655716,-0.11532287703907,0.16591910230247,5
0.739990234375,-0.318441331386566,2.88419318199158,1.19520056247711,-0.135400001298574,2.90755754251682,1.2266761409821,1392.938,1185.226,3154.691,3092.463,-0.04383244,0.04795423,0.06321291,-0.597427248954773,-0.0667117312550545,0.208564043045044,-0.280473432677602,-0.12067988256057,0.173626415629864,5
0.760009765625,-0.330436527729034,2.8828399181366,1.1995062828064,-0.141140917956636,2.9050873864615,1.23023004187122,1387.964,1206.964,3151.302,3077.917,-0.04600664,0.04872935,0.05982441,-0.599760711193085,-0.0676656886935234,0.215285494923592,-0.293080296154222,-0.126104263719567,0.181430664670081,5
0.779998779296875,-0.342469424009323,2.88145470619202,1.2039430141449,-0.147126184485884,2.90251209348295,1.23393520697061,1390.942,1226.83,3148.304,3057.681,-0.04853238,0.04932072,0.0566446,-0.601643264293671,-0.0692573189735413,0.221834182739258,-0.305795832832518,-0.131575403921268,0.189302187598958,5
0.800018310546875,-0.354532539844513,2.88002419471741,1.20851004123688,-0.153376545303595,2.89982273783796,1.23780447806275,1374.708,1240.842,3155.245,3052.66,-0.05147358,0.04966209,0.05392927,-0.603155374526978,-0.0715215653181076,0.228350177407265,-0.318649478366155,-0.137105968505107,0.197259206488328,5
0.82000732421875,-0.366620361804962,2.87853479385376,1.21319961547852,-0.159875221826383,2.89702653888221,1.24182746840525,1351.904,1250.873,3155.229,3063.827,-0.05476524,0.04973792,0.05176113,-0.604392647743225,-0.0744692832231522,0.234478294849396,-0.331592781842754,-0.14267511039705,0.205271727915392,4
0.839996337890625,-0.378730326890945,2.87697267532349,1.21800875663757,-0.166633637018892,2.89411858163313,1.24601124935738,1326.058,1259.458,3157.612,3077.11,-0.05827316,0.04955687,0.05010667,-0.605496644973755,-0.0781038030982018,0.240456193685532,-0.344636106234817,-0.148287288494656,0.213346167053785,4
0.860015869140625,-0.390861541032791,2.87532472610474,1.22293090820313,-0.173664618315387,2.89109334680413,1.25036376171199,1296.331,1268.655,3153.021,3100.114,-0.06188228,0.04914474,0.04888241,-0.60656213760376,-0.0824016183614731,0.246108576655388,-0.357790534090669,-0.153947271308859,0.221489384528856,4
0.8800048828125,-0.403015047311783,2.87357807159424,1.22796094417572,-0.180948461186242,2.88795931270381,1.25487280742661,1282.682,1281.179,3142.185,3111.082,-0.06549725,0.04855705,0.04791522,-0.607674777507782,-0.0873302146792412,0.251500487327576,-0.371007022483504,-0.159633957038354,0.229671020432672,4
0.899993896484375,-0.415192931890488,2.87172055244446,1.23309993743896,-0.18849723509595,2.8847112861788,1.25954585807468,1260.625,1295.531,3139.395,3121.874,-0.06911329,0.04780737,0.04717681,-0.608894228935242,-0.0928742364048958,0.256951361894608,-0.384296738353309,-0.165352150505452,0.237897987633041,4
0.920013427734375,-0.427397668361664,2.86974048614502,1.23834419250488,-0.196324452211266,2.88134345332121,1.26439127833112,1240.698,1310.433,3134.092,3132.458,-0.07267553,0.04692687,0.04662882,-0.610235810279846,-0.0990015342831612,0.262212663888931,-0.397671404529394,-0.171106895716105,0.246177543119742,4
0.94000244140625,-0.439632058143616,2.86762690544128,1.2436900138855,-0.204407453948074,2.87786556348678,1.26939504145298,1240.634,1326.706,3125.722,3126.53,-0.07617013,0.04595089,0.04622532,-0.61172342300415,-0.105676099658012,0.267289668321609,-0.411081631631503,-0.176876941799768,0.254479112513653,4
0.959991455078125,-0.451899826526642,2.86536931991577,1.24913907051086,-0.212759000778906,2.87427212620069,1.27456504678061,1227.966,1341.417,3127.236,3126.339,-0.07967113,0.04485478,0.04609229,-0.613386332988739,-0.112881019711494,0.272450983524323,-0.424539267042903,-0.182667386354485,0.262810029909387,3
0.980010986328125,-0.464204639196396,2.86295771598816,1.25468730926514,-0.221393324468958,2.87055701793193,1.27991010445463,1211.603,1352.99,3126.584,3134.793,-0.08315188,0.04364027,0.04628349,-0.615244090557098,-0.120576597750187,0.277410387992859,-0.438056556301695,-0.188483498293199,0.271177875878363,3
1,-0.476551651954651,2.86038327217102,1.26033067703247,-0.230284798736574,2.86673126495361,1.28541435058594,1210.222,1363.726,3121.936,3134.265,-0.08657457,0.04233135,0.04676157,-0.617347300052643,-0.128719925880432,0.28216952085495,-0.451584000205995,-0.194303979492187,0.279552008056641,3
1.02001953125,-0.48894664645195,2.85763740539551,1.26607096195221,-0.239461107372567,2.86278295570393,1.29109492275982,1192.928,1372.674,3125.671,3144.041,-0.08995999,0.04091037,0.047595,-0.619752824306488,-0.137287780642509,0.287017017602921,-0.465154707681581,-0.200143075797255,0.287952922446475,3
1.04000854492188,-0.501396358013153,2.85471296310425,1.27190339565277,-0.248894644448595,2.85872396824263,1.29693473159157,1178.769,1380.15,3122.359,3158.841,-0.09323887,0.0394059,0.04872715,-0.622487008571625,-0.146221101284027,0.291621953248978,-0.47871923339115,-0.205979512261105,0.296350010028666,3
1.05999755859375,-0.513908505439758,2.85160326957703,1.27782917022705,-0.258599401509697,2.85454828239877,1.30294243851408,1168.156,1387.207,3124.652,3166.137,-0.09633186,0.03784468,0.05009194,-0.625607907772064,-0.155489221215248,0.296291679143906,-0.492290296490434,-0.211818761581115,0.30475114456651,3
1.08001708984375,-0.526490867137909,2.84830284118652,1.28384566307068,-0.268590868588476,2.85024923324404,1.30912763259543,1157.048,1394.316,3122.191,3178.969,-0.0992134,0.03624914,0.05165538,-0.629116296768188,-0.165026172995567,0.300825148820877,-0.505880764601332,-0.21766636033551,0.313164291730931,3
1.10000610351563,-0.53915137052536,2.84480738639832,1.28995096683502,-0.278838480013141,2.84583997233313,1.31547139222872,1163.571,1402.079,3115.744,3179.24,-0.1018776,0.03465781,0.05332358,-0.633028507232666,-0.174773335456848,0.305264174938202,-0.519441457145546,-0.223501147495394,0.321559006401169,3
1.1199951171875,-0.551898598670959,2.84111332893372,1.29615008831024,-0.289357002179081,2.84131414609862,1.32198285851614,1155.636,1408.708,3120.305,3185.482,-0.1043885,0.03305678,0.05515402,-0.637362778186798,-0.184708774089813,0.309953808784485,-0.532985466132485,-0.229328756186667,0.329943393154705,3
1.1400146484375,-0.564740598201752,2.83721780776978,1.30244207382202,-0.300162704591434,2.83666475422696,1.32867210305637,1146.343,1413.201,3122.736,3196.795,-0.1066974,0.03146401,0.05713438,-0.642099320888519,-0.194776713848114,0.31459641456604,-0.54652589017629,-0.235154822377061,0.338325560657667,3
1.16000366210938,-0.577685534954071,2.83311939239502,1.3088253736496,-0.311222084148811,2.83190621216671,1.33551838583369,1157.445,1418.045,3119.872,3193.967,-0.1087784,0.02991525,0.05918708,-0.647243201732635,-0.204921141266823,0.319165349006653,-0.560014026276883,-0.240958390526247,0.34667535943296,3
1.17999267578125,-0.590741693973541,2.82881689071655,1.31530511379242,-0.322550701230474,2.8270318247214,1.34253133946411,1154.249,1421.253,3126.478,3198.881,-0.1106986,0.02838741,0.06138797,-0.652810037136078,-0.215120181441307,0.323986530303955,-0.573463232144024,-0.246745208083563,0.355001058539242,3
1.20001220703125,-0.603917300701141,2.82431054115295,1.32188069820404,-0.334165615614823,2.82203425154496,1.34972152476313,1148.652,1422.191,3129.989,3210.927,-0.1124211,0.02689248,0.06372362,-0.658779859542847,-0.225317448377609,0.328782230615616,-0.586886736182789,-0.252520966862155,0.363310846989412,3
1.22000122070313,-0.617220461368561,2.81960129737854,1.3285516500473,-0.346030421585499,2.81692915700008,1.35706640485806,1161.25,1423.822,3127.708,3210.989,-0.1139268,0.02546535,0.06609847,-0.665159404277802,-0.235459953546524,0.333545416593552,-0.600236516861372,-0.258265004538453,0.371574997167698,3
1.239990234375,-0.630659759044647,2.81469058990479,1.33532416820526,-0.358161486344149,2.81170949873715,1.36457611182642,1158.643,1424.059,3135.785,3218.266,-0.1152696,0.02408617,0.06856013,-0.671964704990387,-0.245535612106323,0.338626176118851,-0.613526094901141,-0.263983138701136,0.379801879044709,2
1.260009765625,-0.644243061542511,2.80958080291748,1.34219872951508,-0.37057666480527,2.80636759428526,1.37226169871082,1154.63,1422.855,3140.578,3230.745,-0.1163988,0.02277232,0.07107356,-0.679161071777344,-0.255493640899658,0.343728542327881,-0.626768731761373,-0.26968107538565,0.387999702095469,2
1.27999877929688,-0.657977759838104,2.80427503585815,1.34917521476746,-0.383236695417198,2.80092033679326,1.3800988607405,1171.128,1423.213,3138.566,3228.982,-0.1172984,0.021562,0.07353535,-0.686738073825836,-0.265284061431885,0.348821640014648,-0.639917282339435,-0.275338529371412,0.396139281255613,2
1.30001831054688,-0.671871781349182,2.79877710342407,1.3562605381012,-0.396178686849666,2.79535175943725,1.38811056994974,1173.279,1422.162,3147.315,3233.212,-0.1180414,0.02042925,0.07600521,-0.694699943065643,-0.274901628494263,0.354266852140427,-0.653005218467598,-0.280969902652754,0.404241337183804,2
1.32000732421875,-0.68593168258667,2.79309105873108,1.36345458030701,-0.409361504843077,2.78967956113998,1.39627136227237,1178.401,1420.659,3149.347,3240.866,-0.1186252,0.01938801,0.07845604,-0.702992737293243,-0.284296542406082,0.359704971313477,-0.6659860834168,-0.286555206197011,0.41227711095171,2
1.33999633789063,-0.700164258480072,2.78722167015076,1.37076306343079,-0.422802873722428,2.78389611561957,1.40459220990988,1184.355,1417.669,3158.99,3242.056,-0.1190215,0.01844217,0.0808688,-0.711628556251526,-0.293465673923492,0.365424454212189,-0.678873453515705,-0.29210028151913,0.420255006953505,2
1.36001586914063,-0.714575350284576,2.78117442131042,1.37818658351898,-0.4365219692899,2.77799317206405,1.4130849835973,1188.867,1414.698,3163.487,3249.218,-0.1192356,0.01759376,0.0832462,-0.720555126667023,-0.302365034818649,0.371178030967712,-0.691680442442074,-0.297610771068296,0.428183143180414,2
1.3800048828125,-0.729170441627502,2.77495527267456,1.38572573661804,-0.450474904562636,2.77198961381608,1.4217225152016,1208.95,1413.12,3161.667,3246.577,-0.1193038,0.01686307,0.08551831,-0.729754328727722,-0.310958057641983,0.376959830522537,-0.704361775018035,-0.303067194200314,0.436033492140578,2
1.39999389648438,-0.743955075740814,2.76856994628906,1.39338874816895,-0.464680216184654,2.76587746507559,1.43051627978847,1211.108,1409.145,3173.11,3251.36,-0.1192942,0.01621437,0.08775253,-0.739234924316406,-0.319262355566025,0.383152604103088,-0.716930938559026,-0.308475354130225,0.443814403124744,2
1.42001342773438,-0.758933901786804,2.76202487945557,1.40117704868317,-0.479157861067077,2.75964813894125,1.43947863163655,1210.009,1404.119,3181.498,3261.686,-0.119152,0.015656,0.08993403,-0.748938262462616,-0.327254682779312,0.389416605234146,-0.729400843645231,-0.313840805920001,0.451533868397062,2
1.44000244140625,-0.774110615253448,2.75532674789429,1.40909016132355,-0.493861275572861,2.75332167044526,1.4485807456364,1229.988,1401.618,3180.684,3257.944,-0.1188601,0.01522099,0.09196839,-0.758836507797241,-0.33490264415741,0.395653486251831,-0.741727567798258,-0.319144650954242,0.459164697851088,2
1.45999145507813,-0.789489209651947,2.74848222732544,1.41713488101959,-0.508809800712713,2.74688973769103,1.45783459479497,1235.919,1397.264,3190.941,3259.587,-0.1184899,0.0148741,0.09392308,-0.768934726715088,-0.342222183942795,0.402238935232162,-0.753924423002454,-0.324392617007921,0.466715132239272,2
1.48001098632813,-0.805072724819183,2.74149823188782,1.4253123998642,-0.524024159888143,2.74034342397783,1.467253007885,1237.677,1392.129,3197.702,3268.11,-0.1180228,0.01461449,0.09579878,-0.779172360897064,-0.349194675683975,0.408873677253723,-0.766004036374583,-0.329590137176618,0.474192988348404,2
1.5,-0.82086318731308,2.73438215255737,1.43362236022949,-0.539455198877605,2.73370387899399,1.4768055561018,1257.307,1389.439,3196.485,3264.515,-0.1174635,0.01446804,0.09751211,-0.789524137973785,-0.355799496173859,0.415495485067368,-0.777924000354858,-0.334718964672088,0.481572013878822,1
1.52001953125,-0.836863219738007,2.7271409034729,1.44207191467285,-0.555147149984933,2.72695207081487,1.48651962134853,1260.954,1384.427,3208.023,3266.609,-0.1168712,0.01439699,0.09913307,-0.799997866153717,-0.362066090106964,0.422477930784225,-0.789715229532175,-0.33979240117828,0.488871346433721,1
1.54000854492188,-0.853073596954346,2.71978139877319,1.45066010951996,-0.571049184024557,2.72010986981902,1.49636373793799,1266.986,1380.321,3211.06,3272.285,-0.1162337,0.01440898,0.1006433,-0.810520470142365,-0.367976933717728,0.429408401250839,-0.801336412291853,-0.344792671461508,0.496065412155667,1
1.55999755859375,-0.869495630264282,2.71231031417847,1.45939123630524,-0.587181951496087,2.71316839067337,1.50635068951315,1273.935,1374.898,3221.242,3271.061,-0.1155141,0.0145029,0.1020298,-0.821103990077972,-0.37355375289917,0.436559319496155,-0.812800388649436,-0.349725300221754,0.503162159625937,1
1.58001708984375,-0.88612949848175,2.70473480224609,1.46826457977295,-0.603567408310176,2.70611818636293,1.51649406782863,1279.568,1370.362,3225.035,3275.562,-0.1147183,0.0146743,0.103302,-0.83168637752533,-0.378779798746109,0.443668723106384,-0.824119146742882,-0.35459544561987,0.510169010073001,0
1.60000610351563,-0.902974367141724,2.69706201553345,1.47727906703949,-0.620152298932711,2.69898217125626,1.52676090517188,1299.845,1368.42,3221.194,3270.902,-0.1138986,0.01493665,0.1043975,-0.842245995998383,-0.383642613887787,0.450726866722107,-0.835253140422976,-0.35938609205264,0.51706148254665,0
1.6199951171875,-0.920030415058136,2.68929815292358,1.48644208908081,-0.636958033083316,2.69175113334911,1.53716445517924,1300.667,1363.351,3233.052,3272.979,-0.1131162,0.01524596,0.1053955,-0.852801203727722,-0.38818895816803,0.45814973115921,-0.846214826007804,-0.364102599125749,0.523847288101157,0
1.6400146484375,-0.937296092510223,2.68144965171814,1.49575304985046,-0.654007271984653,2.68441532215046,1.54771874622704,1297.063,1357.901,3241.264,3281.037,-0.1123034,0.01560525,0.1062983,-0.863283395767212,-0.392425864934921,0.465549767017365,-0.857015715678588,-0.368749920209162,0.530533553325099,0
1.66000366210938,-0.954769372940063,2.67352294921875,1.50520873069763,-0.671244443874359,2.67699864863716,1.55838937674714,1315.934,1356.109,3237.893,3274.502,-0.1114421,0.01604763,0.1070174,-0.8736612200737,-0.39633983373642,0.472784817218781,-0.867618167158098,-0.373311858882592,0.53709697585572,0
1.67999267578125,-0.972448408603668,2.66552352905273,1.51481401920319,-0.688691692550512,2.66949158495151,1.56919005480539,1320.39,1351.937,3246.768,3272.892,-0.1106021,0.01652958,0.1076343,-0.88395369052887,-0.399965643882751,0.480267256498337,-0.878034183119987,-0.377793579561193,0.543544985919778,0
1.70001220703125,-0.990330457687378,2.65745735168457,1.52456772327423,-0.706372354049449,2.66188409024902,1.58013522651994,1318.649,1347.374,3251.879,3279.694,-0.1097654,0.01704415,0.1081675,-0.894102334976196,-0.40330895781517,0.487683057785034,-0.888274735793774,-0.382199803288802,0.549884375850026,0
1.72000122070313,-1.00841212272644,2.64933013916016,1.53446662425995,-0.724228658537036,2.6542010212754,1.5911891296115,1334.767,1345.968,3247.771,3274.617,-0.1089323,0.01761666,0.1085363,-0.904087960720062,-0.406366348266602,0.494947493076324,-0.898304216251578,-0.386515208538549,0.556093102023817,0
1.739990234375,-1.02669084072113,2.6411464214325,1.54451584815979,-0.74228345468553,2.64643254688532,1.60236590849663,1334.492,1341.844,3257.79,3274.469,-0.1081483,0.0182069,0.1088167,-0.913935303688049,-0.409183233976364,0.502462983131409,-0.908134108040217,-0.390744736359816,0.562178273303667,0
1.760009765625,-1.04516243934631,2.63291096687317,1.55471289157867,-0.760560719141003,2.63856835059778,1.61368040586141,1330.049,1337.725,3262.924,3281.153,-0.1073605,0.01881572,0.109017,-0.923582315444946,-0.411768049001694,0.50985312461853,-0.91777478390713,-0.394892849856044,0.568146310914365,0
1.77999877929688,-1.06382274627686,2.62462878227234,1.5650532245636,-0.779000609654483,2.63063418086074,1.62509557650306,1346.916,1337.333,3256.918,3274.063,-0.1065659,0.01947325,0.1090518,-0.933008968830109,-0.414112597703934,0.51701408624649,-0.927192788821983,-0.398945154262308,0.57397650459845,0
1.80001831054688,-1.08266758918762,2.61630368232727,1.57554090023041,-0.797655223615693,2.62260762162281,1.63664367118754,1347.228,1334.235,3264.99,3272.442,-0.1058308,0.02013494,0.1090068,-0.942245304584503,-0.416258931159973,0.52438485622406,-0.936412917636689,-0.402912318110697,0.579684203550397,0
1.82000732421875,-1.10169208049774,2.60793948173523,1.58617162704468,-0.816463410111527,2.61451498441355,1.64828683458664,1347.342,1332.482,3264.11,3276.822,-0.1051517,0.02080319,0.1088809,-0.951227188110352,-0.418210834264755,0.531535983085632,-0.94540321420156,-0.406780591562751,0.585249625391268,0
1.83999633789063,-1.1208918094635,2.59953927993774,1.59694695472717,-0.835449117627072,2.60634596486888,1.66003989195343,1347.659,1329.189,3271.804,3273.617,-0.104471,0.02147845,0.1086663,-0.959987759590149,-0.420004397630692,0.538764655590057,-0.954174163352093,-0.410554485950274,0.590679260733698,0
1.86001586914063,-1.14026129245758,2.5911066532135,1.6078622341156,-0.854637305360818,2.59808982374295,1.67191829422076,1346.487,1327.109,3272.116,3276.779,-0.1037781,0.02215766,0.1083786,-0.968473970890045,-0.421636074781418,0.545762658119202,-0.962735018414262,-0.414237982720922,0.595978837827261,0
1.8800048828125,-1.15979480743408,2.58264470100403,1.6189124584198,-0.873964974649439,2.58977366760063,1.68388304221498,1362.346,1328.229,3263.271,3269.44,-0.1031171,0.02285875,0.1079517,-0.976679027080536,-0.423098295927048,0.552511811256409,-0.971056158224177,-0.417818336715394,0.601130019760457,0
1.89999389648438,-1.17948770523071,2.57415580749512,1.63010215759277,-0.893456683142228,2.58138692997148,1.69594933829086,1357.54,1326.025,3271.588,3269.004,-0.1025503,0.023535,0.1074784,-0.984643936157227,-0.424442023038864,0.559483587741852,-0.979147395688901,-0.421299770153459,0.606138881190213,0
1.92001342773438,-1.199334025383,2.56564211845398,1.64142739772797,-0.913137923350175,2.5729186421402,1.70813296352707,1346.465,1323.492,3275.873,3276.665,-0.1020049,0.02419002,0.1069711,-0.992313921451569,-0.425682932138443,0.566259384155273,-0.987017247723777,-0.424685947625853,0.611010694492843,0
1.94000244140625,-1.21932744979858,2.55710577964783,1.65288126468658,-0.932943991899774,2.5643966441608,1.72039386345315,1359.901,1324.785,3268.044,3268.19,-0.1014473,0.02486299,0.1063341,-0.999675810337067,-0.426811248064041,0.572696208953857,-0.994638524886308,-0.427965170275055,0.615728628108227,0
1.95999145507813,-1.23946297168732,2.54854846000671,1.66446614265442,-0.952900013794853,2.55581012544606,1.73274759164336,1358.208,1323.676,3273.583,3264.483,-0.1009418,0.02551105,0.1056583,-1.00676774978638,-0.427860736846924,0.579244613647461,-1.00202031904361,-0.431141350077486,0.620298310335216,0
1.98001098632813,-1.25973391532898,2.53997182846069,1.6761771440506,-0.973031969359004,2.54714790738853,1.74521023115561,1349.433,1322.184,3274.505,3270.979,-0.1004624,0.02612979,0.1049687,-1.01354467868805,-0.428836762905121,0.585551917552948,-1.00917036754089,-0.434217816196637,0.624724530959079,0
2,-1.28013396263123,2.53137707710266,1.68800806999207,-0.993273599084619,2.53843849960327,1.7577407641983,1361.092,1323.875,3265.749,3263.765,-0.1000006,0.02675102,0.1041756,-1.02000665664673,-0.429732412099838,0.591545522212982,-1.01606400046349,-0.437183953857422,0.628992018127441,0
2.02001953125,-1.3006579875946,2.52276515960693,1.69996154308319,-1.01368176147806,2.52965743746343,1.77037438889544,1354.824,1322.914,3272.328,3262.063,-0.09960169,0.02733415,0.1033663,-1.02619659900665,-0.430588155984879,0.597675919532776,-1.0227194988233,-0.440047628868552,0.633112088657522,0
2.04000854492188,-1.32129919528961,2.51413750648499,1.71203052997589,-1.03418924440916,2.52083364047092,1.78306949773667,1349.636,1323.285,3268.496,3266.569,-0.09924217,0.02788988,0.1025332,-1.03205847740173,-0.43140035867691,0.60344922542572,-1.02911391720548,-0.442798968459032,0.637070538244476,0
2.05999755859375,-1.34205186367035,2.50549364089966,1.72421431541443,-1.05482201812353,2.5119559343546,1.79584216754118,1347.568,1322.429,3272.554,3261.385,-0.09885654,0.02842518,0.1016585,-1.03763771057129,-0.432193070650101,0.609190106391907,-1.03525504859546,-0.445441325732794,0.640872191117535,0
2.08001708984375,-1.36290979385376,2.49683451652527,1.73650658130646,-1.07560676837143,2.50301283698163,1.80870891805959,1343.156,1322.683,3269.384,3263.77,-0.09844801,0.02893673,0.1007648,-1.04289424419403,-0.432953894138336,0.614611089229584,-1.0411492471255,-0.447977434695423,0.644520980787238,0
2.10000610351563,-1.38386654853821,2.48816108703613,1.74890077114105,-1.09647498538954,2.49403382618922,1.82162733848484,1355.661,1325.563,3258.057,3255.585,-0.09805972,0.02944377,0.09978645,-1.04783320426941,-0.433668702840805,0.619712293148041,-1.04677621342161,-0.450398561093403,0.648004340974112,0
2.1199951171875,-1.40491652488708,2.47947359085083,1.76140022277832,-1.11745308225396,2.48500753716864,1.83461377976925,1346.408,1325.364,3264.238,3254.967,-0.09775026,0.02990255,0.09881959,-1.05250227451324,-0.43437984585762,0.624975144863129,-1.0521429102862,-0.45270770082608,0.651326581984514,0
2.1400146484375,-1.42605376243591,2.47077178955078,1.77399933338165,-1.13856809990831,2.47592233495728,1.84768498154507,1331.331,1324.619,3265.873,3262.85,-0.09743814,0.03032248,0.09787162,-1.05685710906982,-0.435092598199844,0.629954397678375,-1.05725481901126,-0.454907212340279,0.654491096999312,0
2.16000366210938,-1.44727158546448,2.46205615997314,1.78668975830078,-1.15975039167652,2.46680818657414,1.86079782920208,1343.034,1327.223,3255.724,3252.796,-0.09707861,0.03074724,0.09683805,-1.06089627742767,-0.435787260532379,0.634523749351501,-1.0620943502576,-0.456989527434725,0.657486997379635,0
2.17999267578125,-1.46856474876404,2.45332646369934,1.79947280883789,-1.18102676265167,2.45765355853653,1.8739689163698,1338.628,1327.788,3258.931,3248.449,-0.09674571,0.03113472,0.09581684,-1.06466150283813,-0.43648636341095,0.639153897762299,-1.06666760390386,-0.458957270716794,0.660318059240953,0
2.20001220703125,-1.48992705345154,2.44458270072937,1.81234240531921,-1.20242455577657,2.44844668594002,1.88721516963236,1326.85,1327.596,3257.519,3255.142,-0.09641122,0.03148348,0.09483091,-1.06811714172363,-0.437183767557144,0.643482506275177,-1.07097916161324,-0.460812413548163,0.662987118851036,0
2.22000122070313,-1.5113525390625,2.43582534790039,1.82529139518738,-1.22387315175433,2.43921795429519,1.90049287228091,1336.921,1330.001,3247.057,3246.9,-0.09605756,0.03182929,0.09378269,-1.07127249240875,-0.437863349914551,0.647450983524323,-1.07501419914593,-0.462548577472581,0.665484999299265,0
2.239990234375,-1.53283596038818,2.42705416679382,1.83832180500031,-1.24539969505118,2.42995568409656,1.91381882803312,1328.274,1330.236,3251.614,3245.028,-0.09573585,0.03213392,0.09276157,-1.07417154312134,-0.438554167747498,0.651519179344177,-1.07877792518082,-0.464168003639063,0.667814925005999,0
2.260009765625,-1.55437159538269,2.41826915740967,1.85142707824707,-1.26703177594152,2.42064800401982,1.92721011658316,1314.61,1329.915,3250.792,3252.137,-0.09538378,0.03240589,0.09177346,-1.07677507400513,-0.43924868106842,0.655266165733337,-1.08227399942825,-0.465672266718726,0.669979161506271,0
2.27999877929688,-1.57595348358154,2.4094705581665,1.86459934711456,-1.28869796983554,2.41132564607061,1.9406225227075,1326.57,1332.472,3239.427,3241.957,-0.09497365,0.03268626,0.09071323,-1.07908797264099,-0.439923018217087,0.658613443374634,-1.08549040888332,-0.467056197851165,0.67197027217779,0
2.30001831054688,-1.597576379776,2.40065884590149,1.87784028053284,-1.31045892272318,2.4019625159737,1.95409358916289,1320.283,1333.129,3242.482,3238.39,-0.09458216,0.03293274,0.08967933,-1.08115172386169,-0.440599292516708,0.662047684192657,-1.08843572622736,-0.468323485621664,0.673793563918671,0
2.32000732421875,-1.61923468112946,2.39183354377747,1.89114212989807,-1.33224276726637,2.39258953623693,1.96757882664355,1313.593,1334.171,3236.04,3242.845,-0.09420133,0.03315442,0.08866753,-1.08292245864868,-0.441260576248169,0.665092051029205,-1.09109983431736,-0.469469776906228,0.675442773735451,0
2.33999633789063,-1.64092397689819,2.38299512863159,1.90450441837311,-1.35407709248145,2.38319483607731,1.98109531406483,1309.293,1333.701,3239.185,3237.082,-0.09376244,0.03336015,0.08765689,-1.08445084095001,-0.441924542188644,0.668111979961395,-1.09348640563071,-0.470496651869278,0.67692017506657,0
2.36001586914063,-1.66263771057129,2.37414383888245,1.91791999340057,-1.3759897762471,2.37376642042246,1.99466030916165,1301.786,1334.033,3234.81,3240.317,-0.09325644,0.03355018,0.08666779,-1.0857001543045,-0.442567229270935,0.6707763671875,-1.09559752564474,-0.471405007833448,0.678227058921845,0
2.3800048828125,-1.68437135219574,2.36528062820435,1.9313817024231,-1.39790843013262,2.36433543599182,2.00822900004707,1314.985,1336.417,3222.247,3230.027,-0.09270836,0.03375148,0.08561842,-1.0866791009903,-0.443163305521011,0.67308509349823,-1.09742594550583,-0.472191725819537,0.679358937915576,0
2.39999389648438,-1.70611977577209,2.35640573501587,1.94489240646362,-1.41986083522252,2.35488992936084,2.02181858453579,1305.854,1336.596,3226.089,3228.476,-0.09219597,0.03392026,0.08460986,-1.08742964267731,-0.443740338087082,0.675535559654236,-1.09897439291323,-0.472857979480329,0.680317500623536,0
2.42001342773438,-1.72787821292877,2.34751987457275,1.95844626426697,-1.44187496577138,2.34541786398928,2.035446380024,1290.237,1335.645,3225.872,3236.399,-0.09164683,0.03406682,0.08364566,-1.08791625499725,-0.444291591644287,0.677693903446198,-1.1002439936861,-0.473404253224357,0.681103443981416,0
2.44000244140625,-1.74964094161987,2.33862400054932,1.97203528881073,-1.46387808506052,2.33595053645515,2.04906735901791,1301.961,1337.114,3215.255,3225.489,-0.09100767,0.0342354,0.08261312,-1.08814191818237,-0.444791734218597,0.679451406002045,-1.10123038958312,-0.473828671822132,0.681714070030222,0
2.45999145507813,-1.77140390872955,2.32971882820129,1.98566079139709,-1.48589810917879,2.32647593524532,2.06269880290633,1297.253,1337.344,3217.333,3220.582,-0.09035626,0.03438739,0.08160848,-1.08814036846161,-0.445254743099213,0.681275188922882,-1.10193535162022,-0.474131997292339,0.68215047511319,0
2.48001098632813,-1.79316163063049,2.32080554962158,1.99931657314301,-1.5079630509786,2.31698200721197,2.07635805297935,1285.639,1336.432,3214.746,3226.798,-0.08966544,0.03452374,0.08064894,-1.08787930011749,-0.445665240287781,0.682792067527771,-1.10235904000526,-0.474314298567936,0.682412758406602,0
2.5,-1.81490898132324,2.31188559532166,2.01299571990967,-1.52999999932945,2.30750012397766,2.08999997377396,1297.356,1337.378,3203.846,3216.771,-0.08891016,0.03468103,0.07963125,-1.08736824989319,-0.446001440286636,0.683956563472748,-1.10250000050292,-0.474374949932098,0.682500019669533,0
2.52001953125,-1.83664155006409,2.30295991897583,2.026700258255,-1.55207058900185,2.29800376582252,2.10366272014916,1289.781,1336.983,3207.052,3213.952,-0.08815915,0.03482116,0.07864795,-1.08664166927338,-0.44628369808197,0.685231685638428,-1.10235860927677,-0.474314113237503,0.682412491765153,0
2.54000854492188,-1.85835480690002,2.29403018951416,2.04042267799377,-1.57410188948011,2.28852431271001,2.11730114464159,1283.392,1336.608,3200.761,3217.871,-0.08738577,0.03495733,0.07768273,-1.0856591463089,-0.44649213552475,0.686120867729187,-1.10193535162022,-0.474131997292339,0.682150475113189,0
2.55999755859375,-1.88004398345947,2.28509736061096,2.05416226387024,-1.59612191359838,2.27904971150017,2.13093258853001,1281.216,1335.123,3202.727,3210.845,-0.08652291,0.03510043,0.07670761,-1.08446264266968,-0.446637451648712,0.686976552009583,-1.10123038958312,-0.473828671822132,0.681714070030222,0
2.58001708984375,-1.90170431137085,2.27616357803345,2.06791234016418,-1.6181586096433,2.26956793682606,2.14457435313522,1276.108,1334.429,3197.467,3212.507,-0.08557749,0.03524895,0.07574304,-1.0830180644989,-0.446693301200867,0.687499403953552,-1.10024227275454,-0.473403512755585,0.681102378642802,0
2.60000610351563,-1.92333102226257,2.26723074913025,2.08166646957397,-1.64013916343638,2.26011031859448,2.15818136301212,1290.205,1335.14,3185.22,3201.598,-0.08457986,0.03542581,0.07471315,-1.08133137226105,-0.44663605093956,0.687700808048248,-1.09897439291323,-0.472857979480329,0.680317500623536,0
2.6199951171875,-1.94491982460022,2.25830078125,2.09542775154114,-1.66209156852628,2.2506648119635,2.17177094750084,1281.975,1334.275,3188.672,3199.449,-0.08361154,0.0355891,0.0737161,-1.07943546772003,-0.446491062641144,0.68806403875351,-1.09742594550583,-0.472191725819537,0.679358937915576,0
2.6400146484375,-1.96646571159363,2.24937629699707,2.10919070243835,-1.68404365734903,2.24121944141343,2.18536033620513,1267.3,1332.038,3188.225,3206.823,-0.08259954,0.03574819,0.07275264,-1.0772979259491,-0.446252077817917,0.688153028488159,-1.09559452046326,-0.471403714787811,0.678225198571351,0
2.66000366210938,-1.98796427249908,2.2404580116272,2.12294793128967,-1.70592290617745,2.23180541187802,2.19890463348308,1280.603,1331.702,3177.952,3194.676,-0.08148581,0.03594674,0.0717077,-1.07492065429688,-0.445896655321121,0.687862038612366,-1.09348640563071,-0.470496651869278,0.67692017506657,0
2.67999267578125,-2.0094108581543,2.23154926300049,2.13670110702515,-1.72775723139253,2.2224107117184,2.21242112090437,1277.577,1330.848,3179.679,3188.447,-0.08035503,0.03614559,0.0706794,-1.0723283290863,-0.445437103509903,0.687657713890076,-1.09109983431736,-0.469469776906228,0.675442773735451,0
2.70001220703125,-2.03080034255981,2.22265195846558,2.1504442691803,-1.74957429229274,2.21302343991116,2.22592692089233,1267.115,1328.612,3176.595,3194.265,-0.07918803,0.03634373,0.06968592,-1.06949067115784,-0.444859564304352,0.687157511711121,-1.08843144721369,-0.468321644481621,0.673790915005369,0
2.72000122070313,-2.05212879180908,2.21376895904541,2.16417098045349,-1.77130202882336,2.20367460188472,2.23937742484041,1280.35,1327.722,3166.261,3182.922,-0.07795392,0.03657594,0.06862151,-1.0664176940918,-0.444147437810898,0.686337292194366,-1.08549040888332,-0.467056197851165,0.671970272177789,0
2.739990234375,-2.07339143753052,2.20490264892578,2.1778838634491,-1.79296822271738,2.1943522439355,2.25278983096475,1273.686,1326.277,3168.909,3179.698,-0.07672993,0.03680415,0.06757999,-1.06313383579254,-0.443319618701935,0.685639441013336,-1.08227399942825,-0.465672266718727,0.669979161506271,0
2.760009765625,-2.09458374977112,2.1960551738739,2.19157695770264,-1.81460030360772,2.18504456385877,2.26618111951479,1261.812,1323.53,3166.974,3185.705,-0.07545961,0.03703564,0.06655995,-1.05961048603058,-0.442367702722549,0.684655606746674,-1.07877792518082,-0.464168003639063,0.667814925005998,0
2.77999877929688,-2.11570072174072,2.1872296333313,2.2052435874939,-1.83612684690458,2.17578229366013,2.27950707526701,1275.943,1322.402,3156.686,3173.106,-0.07410086,0.03730819,0.06545323,-1.05585181713104,-0.441273659467697,0.683329164981842,-1.07501419914593,-0.462548577472581,0.665484999299265,0
2.80001831054688,-2.13673853874207,2.17842888832092,2.21888566017151,-1.85760812647542,2.16653949917827,2.29280501061661,1272.162,1321.079,3158.069,3167.852,-0.07274371,0.03758274,0.06435692,-1.05187690258026,-0.440051406621933,0.682101547718048,-1.07097279461286,-0.460809674005774,0.6629831773745,0
2.82000732421875,-2.15769171714783,2.16965508460999,2.23249626159668,-1.87897323600723,2.1573466894188,2.30603103117811,1268.022,1319.107,3151.267,3170.432,-0.07138337,0.03786599,0.06326305,-1.04765439033508,-0.438688188791275,0.680525124073029,-1.06666760390385,-0.458957270716794,0.660318059240952,0
2.83999633789063,-2.17855596542358,2.16091084480286,2.24607539176941,-1.90024960698239,2.14819206138118,2.31920211834584,1266.916,1316.213,3153.183,3162.525,-0.06996124,0.03816473,0.06214675,-1.04321873188019,-0.437199324369431,0.67895632982254,-1.06209435025759,-0.456989527434725,0.657486997379635,0
2.86001586914063,-2.19932675361633,2.15219950675964,2.25961709022522,-1.9214641634913,2.13906403038149,2.33233493941432,1261.582,1313.961,3148.5,3163.944,-0.06847893,0.03847627,0.06103037,-1.03854072093964,-0.435568898916245,0.677088022232056,-1.05724722779031,-0.454903946049977,0.654486397671922,0
2.8800048828125,-2.21999931335449,2.1435239315033,2.27311539649963,-1.94254691640495,2.12999271078668,2.34538616777867,1276.204,1312.586,3137.369,3151.861,-0.06694761,0.03882296,0.0598355,-1.03362417221069,-0.433781653642654,0.674915254116058,-1.0521429102862,-0.45270770082608,0.651326581984514,0
2.89999389648438,-2.24056911468506,2.13488698005676,2.2865731716156,-1.96352501326936,2.1209664217661,2.35837260906308,1270.376,1310.833,3139.412,3148.051,-0.06545411,0.03916594,0.05865627,-1.02848935127258,-0.431858122348785,0.672886729240417,-1.04677621342161,-0.450398561093403,0.648004340974112,0
2.92001342773438,-2.26103115081787,2.12629103660583,2.29998517036438,-1.98442500350686,2.11197373984504,2.37131069862469,1257.687,1307.57,3137.938,3154.155,-0.0639425,0.03951068,0.05749555,-1.02311420440674,-0.429798930883408,0.670603275299072,-1.04114045847258,-0.4479736531836,0.644515540192422,0
2.94000244140625,-2.28138136863708,2.11773920059204,2.31334495544434,-2.00517798053537,2.10304431360073,2.38415778000673,1270.961,1305.489,3128.814,3141.222,-0.06235259,0.039894,0.056246,-1.01750338077545,-0.427593529224396,0.667990744113922,-1.03525504859546,-0.445441325732794,0.640872191117535,0
2.95999145507813,-2.30161476135254,2.10923385620117,2.32665395736694,-2.02581075424974,2.0941666074844,2.39693044981124,1268.088,1303.86,3129.592,3134.975,-0.06076854,0.04027979,0.05500159,-1.01166892051697,-0.425253391265869,0.665453672409058,-1.02911391720548,-0.442798968459032,0.637070538244476,0
2.98001098632813,-2.32172656059265,2.10077857971191,2.33990693092346,-2.04634944795115,2.08532938136936,2.40964487960608,1259.203,1300.744,3126.241,3138.902,-0.05916745,0.04066829,0.05377443,-1.00559115409851,-0.422774404287338,0.662643253803253,-1.02270954399162,-0.440043345582586,0.633105926142498,0
3,-2.34171223640442,2.09237551689148,2.35309767723083,-2.06672639957428,2.07656174835205,2.42225918334961,1272.29,1298.479,3116.562,3126.91,-0.05751895,0.04108788,0.05247009,-0.999278247356415,-0.420148581266403,0.659533858299255,-1.01606400046349,-0.437183953857422,0.628992018127441,0
3.01998901367188,-2.36156702041626,2.0840277671814,2.36622834205627,-2.0869680292999,2.06785234056679,2.43478971639231,1267.203,1296.658,3118.051,3122.133,-0.05590188,0.04150338,0.05117792,-0.992744743824005,-0.417392522096634,0.656537771224976,-1.00917036754089,-0.434217816196637,0.624724530959079,0
3.04000854492188,-2.38128614425659,2.07573795318604,2.37929368019104,-2.10709998486405,2.05919012250926,2.44725235590455,1256.169,1293.373,3115.381,3127.211,-0.05427096,0.04191912,0.04990144,-0.985973179340363,-0.414506405591965,0.653270244598389,-1.00202031904361,-0.431141350077486,0.620298310335216,0
3.05999755859375,-2.40086555480957,2.06750798225403,2.39228749275208,-2.12705600675913,2.05060360379452,2.45960608409476,1269.705,1290.999,3105.998,3114.106,-0.05257719,0.04236748,0.04853845,-0.978970766067505,-0.4114830493927,0.649692296981812,-0.994638524886308,-0.427965170275055,0.615728628108227,0
3.08001708984375,-2.42030048370361,2.05934143066406,2.40521168708801,-2.14689219650438,2.04206864550612,2.47188563047583,1266.198,1289.462,3106.6,3108.054,-0.05090899,0.04281295,0.0471831,-0.971746981143951,-0.408334732055664,0.646206200122833,-0.987005430654711,-0.424680863071165,0.611003379164165,0
3.10000610351563,-2.43958640098572,2.05123996734619,2.41805934906006,-2.16654331551667,2.03361331798384,2.48405060925705,1261.977,1286.813,3099.664,3110.071,-0.04925889,0.04326034,0.04582898,-0.964283466339111,-0.405058234930038,0.642380356788635,-0.979147395688901,-0.421299770153459,0.606138881190213,0
3.1199951171875,-2.4587185382843,2.04320645332336,2.43083047866821,-2.18603502400946,2.02522658035469,2.49611690533293,1261.992,1283.76,3100.424,3101.001,-0.04757151,0.04371678,0.04444801,-0.956607460975647,-0.401668041944504,0.638556957244873,-0.971056158224178,-0.417818336715394,0.601130019760458,0
3.1400146484375,-2.47769260406494,2.03524351119995,2.44351959228516,-2.20539207344272,2.01689778275692,2.50809984103626,1256.653,1281.373,3095.214,3101.851,-0.04585804,0.0441769,0.04306725,-0.948700070381165,-0.398157089948654,0.634456157684326,-0.962722140342815,-0.41423244164655,0.595970865687568,0
3.16000366210938,-2.49650382995605,2.02735280990601,2.45612120628357,-2.22455088103183,2.00865428308644,2.51996005559448,1269.852,1279.2,3085.265,3089.458,-0.04411686,0.04465992,0.04161472,-0.940567016601563,-0.394519597291946,0.630083620548248,-0.954174163352092,-0.410554485950274,0.590679260733698,0
3.17999267578125,-2.5151481628418,2.01953792572021,2.46863770484924,-2.24353658854737,2.00048526354177,2.53171311296128,1264.47,1277.724,3086.077,3084.772,-0.04243161,0.04513194,0.04017998,-0.932218670845032,-0.390771150588989,0.625829875469208,-0.945403214201559,-0.406780591562751,0.585249625391267,0
3.20001220703125,-2.53362107276917,2.01179933547974,2.48106408119202,-2.26237335188561,1.99238033051557,2.54337396678712,1252.565,1274.601,3083.327,3090.101,-0.04075648,0.04559667,0.03876586,-0.923646688461304,-0.386917918920517,0.621320962905884,-0.93639902618694,-0.402906341007952,0.579675604081262,0
3.22000122070313,-2.55191802978516,2.0041401386261,2.49339461326599,-2.28099938900442,1.98436606709459,2.55490437104486,1264.791,1272.007,3075.257,3076.596,-0.03902596,0.04608553,0.03727414,-0.914861023426056,-0.382958322763443,0.616530776023865,-0.927192788821982,-0.398945154262308,0.573976504598449,0
3.239990234375,-2.57003545761108,1.99656212329865,2.50563049316406,-2.2994392795179,1.97643189735754,2.5663195416865,1261.356,1270.823,3074.719,3070.598,-0.03732633,0.04656604,0.03579669,-0.905864596366882,-0.378899931907654,0.61179256439209,-0.917774783907129,-0.394892849856044,0.568146310914365,0
3.260009765625,-2.58796858787537,1.98906695842743,2.51776647567749,-2.31771654397337,1.96856770107001,2.57763403905129,1252.911,1267.922,3070.645,3073.635,-0.03563363,0.04703942,0.03434026,-0.896652221679688,-0.374745070934296,0.606795191764832,-0.908134108040216,-0.390744736359816,0.562178273303667,0
3.27999877929688,-2.60571336746216,1.9816575050354,2.52979731559753,-2.33577134012187,1.96079922667992,2.58881081793642,1264.444,1265.377,3062.163,3061.335,-0.03391109,0.04752885,0.03282199,-0.887234628200531,-0.370492815971375,0.601542115211487,-0.898304216251578,-0.386515208538549,0.556093102023818,0
3.30001831054688,-2.62326574325562,1.97433400154114,2.54172468185425,-2.35365475236716,1.95310449399547,2.59988150202132,1259.205,1264.193,3061.872,3056.86,-0.03223756,0.04800472,0.03132568,-0.877617120742798,-0.366153091192245,0.596364617347717,-0.88825927318574,-0.382193150160541,0.549874803759067,0
3.32000732421875,-2.64062166213989,1.96709990501404,2.55354237556458,-2.37130830610839,1.94550866300381,2.61080989274252,1254.35,1261.62,3055.771,3058.022,-0.03058854,0.04847419,0.02983731,-0.867796540260315,-0.361729830503464,0.59088796377182,-0.878034183119985,-0.377793579561194,0.543544985919778,0
3.33999633789063,-2.65777730941772,1.95995497703552,2.56525015830994,-2.38875555478454,1.93800159931817,2.62161057080077,1253.989,1259.126,3055.185,3049.55,-0.02891287,0.04894451,0.02833054,-0.857791483402252,-0.357232719659805,0.58538430929184,-0.867618167158097,-0.373311858882592,0.53709697585572,0
3.36001586914063,-2.674729347229,1.95290195941925,2.57684278488159,-2.40601888046917,1.93057367255756,2.63229739176581,1249.882,1257.228,3049.757,3048.628,-0.02722177,0.04941156,0.02682859,-0.847593188285828,-0.352658152580261,0.579637289047241,-0.856999388527103,-0.368742895092007,0.53052344604056,0
3.3800048828125,-2.69147324562073,1.94594192504883,2.58831572532654,-2.42304196557559,1.92324911460621,2.64283549236868,1260.876,1255.151,3040.616,3037.232,-0.02551788,0.04988854,0.02527735,-0.83720725774765,-0.348003327846527,0.573648810386658,-0.846214826007803,-0.364102599125748,0.523847288101157,0
3.39999389648438,-2.70800614356995,1.93907642364502,2.59967088699341,-2.43984769972619,1.91601807669906,2.65323904237604,1255.936,1254.236,3040.17,3032.488,-0.02387843,0.0503482,0.02375384,-0.826639294624329,-0.343277931213379,0.567756354808807,-0.835253140422974,-0.35938609205264,0.51706148254665,0
3.42001342773438,-2.72432374954224,1.93230652809143,2.6109037399292,-2.45645774020782,1.90887124031063,2.66352144868012,1244.658,1251.698,3037.046,3036.969,-0.02226456,0.0507934,0.02226196,-0.81589287519455,-0.338490545749664,0.561643779277802,-0.824102019042908,-0.354588076049064,0.510158407210813,0
3.44000244140625,-2.74042367935181,1.92563378810883,2.62200951576233,-2.47281804716281,1.90183185728196,2.67364925803476,1254.53,1249.178,3029.822,3024.838,-0.02061074,0.05125032,0.02071477,-0.804979801177979,-0.333642840385437,0.555286645889282,-0.812800388649434,-0.349725300221754,0.503162159625937,0
3.45999145507813,-2.75630140304565,1.91905927658081,2.63298892974854,-2.48895081463434,1.8948903781363,2.68363620960993,1251.093,1248.582,3028.447,3019.008,-0.01899153,0.05169357,0.01919122,-0.793899476528168,-0.328737914562225,0.54897278547287,-0.80133641229185,-0.344792671461508,0.496065412155666,0
3.48001098632813,-2.77195477485657,1.91258311271667,2.64383745193481,-2.50487694859767,1.88803780761656,2.69349524520019,1243.489,1246.271,3023.928,3021.242,-0.01738938,0.05212413,0.01769708,-0.782655417919159,-0.323779731988907,0.542426705360413,-0.789697369743255,-0.339784716610052,0.488860290373601,0
3.5,-2.78737998008728,1.90620803833008,2.65455102920532,-2.5205447997813,1.88129636896134,2.70319439144611,1253.244,1243.925,3016.657,3009.527,-0.01576698,0.05256085,0.01616296,-0.771259307861328,-0.318769335746765,0.535677492618561,-0.777924000354857,-0.334718964672089,0.481572013878822,0
3.51998901367188,-2.80257415771484,1.89993357658386,2.66513061523438,-2.53597583877076,1.87465682397749,2.71274693966292,1247.98,1243.342,3015.221,3005.781,-0.01419944,0.05297901,0.0146642,-0.759711921215057,-0.313711076974869,0.528981983661652,-0.766004036374581,-0.329590137176618,0.474192988348404,0
3.54000854492188,-2.81753468513489,1.89376139640808,2.67557239532471,-2.55119019794619,1.86811051026429,2.72216535275294,1239.456,1241.053,3011.532,3008.223,-0.01264895,0.05338336,0.01319541,-0.748021900653839,-0.30861160159111,0.522084295749664,-0.753924423002452,-0.324392617007921,0.466715132239272,0
3.55999755859375,-2.83225870132446,1.88769221305847,2.68587183952332,-2.56613872308604,1.86167857751006,2.73141920191151,1248.111,1238.81,3004.433,2997.387,-0.01107289,0.05379371,0.0116871,-0.736199557781219,-0.303471952676773,0.514977276325226,-0.741727567798258,-0.319144650954242,0.459164697851087,0
3.58001708984375,-2.8467435836792,1.88172626495361,2.69603037834167,-2.58086439685043,1.85534253147694,2.74053509545279,1244.57,1238.447,3002.777,2992.119,-0.009538378,0.05418854,0.01020789,-0.724243819713593,-0.298294246196747,0.507922947406769,-0.729381927869994,-0.313832666990361,0.451522158631107,0
3.60000610351563,-2.86098670959473,1.8758647441864,2.70604300498962,-2.59531978247425,1.84912278287974,2.74948366775945,1240.646,1236.471,2996.673,2992.545,-0.00803742,0.0545712,0.008752532,-0.712161958217621,-0.293083310127258,0.500626921653748,-0.716930938559024,-0.308475354130224,0.443814403124743,0
3.6199951171875,-2.87498593330383,1.87010788917542,2.71590971946716,-2.60952509409627,1.84301063413925,2.75827743234631,1240.539,1234.71,2995.481,2984.554,-0.006530603,0.05494697,0.007300458,-0.699966788291931,-0.287844836711884,0.493333429098129,-0.704361775018033,-0.303067194200314,0.436033492140578,0
3.6400146484375,-2.88873910903931,1.8644562959671,2.72562670707703,-2.62349913748426,1.83699799365897,2.76692803087948,1235.551,1233.373,2990.389,2984.575,-0.005033907,0.05531127,0.005875556,-0.687659502029419,-0.28257828950882,0.485855489969254,-0.691660998977508,-0.297602405088683,0.428171106749629,0
3.66000366210938,-2.90224409103394,1.85891056060791,2.73519086837769,-2.63719712493647,1.83110413233575,2.77540773763803,1243.767,1231.381,2983.418,2974.547,-0.003531352,0.05567677,0.00442851,-0.675248861312866,-0.277283996343613,0.478209674358368,-0.678873453515702,-0.29210028151913,0.420255006953505,0
3.67999267578125,-2.91549873352051,1.85347104072571,2.74460363388062,-2.65063849381582,1.82532068681534,2.78372858527554,1239.369,1231.064,2981.835,2970.609,-0.002086853,0.05602363,0.003022283,-0.662734925746918,-0.271964639425278,0.470633953809738,-0.665986083416798,-0.286555206197011,0.41227711095171,0
3.70001220703125,-2.92850112915039,1.8481388092041,2.75386142730713,-2.66384123964357,1.81963991412768,2.79190171387692,1230.987,1229.164,2978.277,2973.316,-0.0006721818,0.05635489,0.001655568,-0.650130391120911,-0.266627222299576,0.462893664836884,-0.65298533214413,-0.280961346123326,0.404229026602262,0
3.72000122070313,-2.94125032424927,1.84291315078735,2.7629611492157,-2.6767633032417,1.81407991116207,2.79990108680742,1238.385,1227.016,2972.325,2963.385,0.0007618066,0.05668878,0.0002636597,-0.637446761131287,-0.261274367570877,0.454991817474365,-0.639917282339434,-0.275338529371411,0.396139281255611,0
3.739990234375,-2.95374393463135,1.8377947807312,2.77190399169922,-2.68942333385363,1.80863265367006,2.80773824883709,1235.173,1226.919,2970.551,2958.491,0.002153727,0.05700698,-0.001091363,-0.624681055545807,-0.255905777215958,0.44714680314064,-0.62676873176137,-0.26968107538565,0.387999702095468,0
3.760009765625,-2.96598076820374,1.83278477191925,2.78068661689758,-2.70183851231475,1.80329074921818,2.81542383572149,1228.613,1225.174,2966.403,2960.296,0.003519954,0.05731115,-0.002405367,-0.611844837665558,-0.250526189804077,0.439135640859604,-0.613526094901139,-0.263983138701136,0.379801879044709,0
3.77999877929688,-2.97795963287354,1.82788181304932,2.78930640220642,-2.7139695770734,1.79807109095524,2.82293354268985,1236.29,1223.082,2960.497,2950.572,0.004894808,0.05761551,-0.003736415,-0.598948955535889,-0.245137497782707,0.430989652872086,-0.60023651686137,-0.258265004538452,0.371574997167698,0
3.80001831054688,-2.98967909812927,1.82308685779572,2.79776477813721,-2.72585229309426,1.79295829021612,2.83028950995902,1232.564,1223.025,2958.848,2946.532,0.006215361,0.05790249,-0.005022189,-0.585991084575653,-0.239739686250687,0.422918200492859,-0.586866312357872,-0.25251217906087,0.363298203668867,0
3.82000732421875,-3.00113916397095,1.81840002536774,2.80605816841125,-2.73744929742843,1.78796842323393,2.8374686080838,1228.217,1221.214,2953.775,2947.661,0.007497078,0.0581761,-0.006271212,-0.572985827922821,-0.234339267015457,0.41466811299324,-0.573463232144022,-0.246745208083563,0.355001058539243,0
3.83999633789063,-3.01233768463135,1.81382131576538,2.81418704986572,-2.74877791451009,1.78309403578861,2.84448156171422,1228.705,1219.746,2952.399,2940.469,0.008778468,0.0584426,-0.007508516,-0.559942364692688,-0.228939369320869,0.406440317630768,-0.560014026276881,-0.240958390526246,0.346675359432959,0
3.86001586914063,-3.02327489852905,1.80935060977936,2.82214879989624,-2.7598539723994,1.77832831750807,2.85133816917351,1224.977,1218.8,2947.739,2940.121,0.01004002,0.05869774,-0.008712265,-0.546865165233612,-0.223540067672729,0.398089796304703,-0.546505271550556,-0.235145950758426,0.338312796746137,0
3.8800048828125,-3.03395009040833,1.80498766899109,2.82994174957275,-2.77064299647982,1.77368610185671,2.85801708903178,1231.307,1217.08,2942.329,2931.82,0.01129487,0.05895023,-0.009918145,-0.533762276172638,-0.218142583966255,0.389643967151642,-0.532985466132484,-0.229328756186666,0.329943393154704,0
3.89999389648438,-3.04436326026917,1.80073261260986,2.83756709098816,-2.78116151864576,1.76916027562219,2.86452855531919,1227.941,1216.925,2940.488,2928.555,0.01248962,0.05918612,-0.01107715,-0.520633101463318,-0.212747424840927,0.381270945072174,-0.519441457145543,-0.223501147495394,0.321559006401168,0
3.92001342773438,-3.0545129776001,1.79658567905426,2.8450231552124,-2.79142456801014,1.76474437219711,2.87088187177258,1221.673,1215.385,2937.327,2930.34,0.01364565,0.05940779,-0.01219142,-0.507492959499359,-0.207361489534378,0.372799277305603,-0.505860052376089,-0.217657448443621,0.313151469876846,0
