t,x_s1,x_s2,x_s3,x_s_d1,x_s_d2,x_s_d3,propellers_rpms1,propellers_rpms2,propellers_rpms3,propellers_rpms4,rollRad,pitchRad,yawRad,v_s1,v_s2,v_s3,v_s_d1,v_s_d2,v_s_d3,insideCount
0,-0.0599999986588955,2.94000005722046,1.17999994754791,-0.0599999986588955,2.94000005722046,1.17999994754791,0,0,0,0,0,0,0,0,0,0,-1.06581410364015E-15,4.44089209850063E-16,4.44089209850063E-16,0
0.02001953125,-0.0599999986588955,2.94000005722046,1.17811644077301,-0.0600018744611685,2.93999925011514,1.18000110875888,0,0,0,0,-0.01635288,0.0001297794,-0.01587137,-1.10653664009419E-09,-7.76775763711157E-08,-0.0941759571433067,-0.000280531511337879,-0.000120704872184653,0.000173662369087018,5
0.040008544921875,-0.0599999986588955,2.94000005722046,1.17242503166199,-0.060014880898484,2.93999365380853,1.18000916036316,0,0,0,0,-0.03270202,0.0005238493,-0.03175127,-1.08383135799528E-09,-7.60859677484405E-08,-0.284568399190903,-0.00111143977225461,-0.000478221483967637,0.00068803416424398,5
0.05999755859375,-0.0599058829247952,2.93990302085876,1.16596519947052,-0.0600498857373401,2.93997859220429,1.18003083002592,1867.736,3252.71,3184.193,1722.621,-0.04941975,0.0003290266,-0.01369397,0.0047058523632586,-0.00484938966110349,-0.32299131155014,-0.00247936261166862,-0.00106680046642749,0.00153484356504269,5
0.08001708984375,-0.0598203651607037,2.93960738182068,1.16000318527222,-0.0601176241590912,2.9399494462538,1.18007276333581,1925.461,2314.329,3252.036,2829.56,-0.07542498,-0.002136388,0.02094826,0.00427588727325201,-0.0147778820246458,-0.29810044169426,-0.00437432711648753,-0.0018821507536715,0.00270791686320324,5
0.100006103515625,-0.0599374249577522,2.93904519081116,1.15498638153076,-0.0602282404704493,2.93990185114529,1.18014124010193,980.8941,1499.05,3914.259,3896.424,-0.1031879,-0.008061389,0.06330394,-0.00585292186588049,-0.0281138196587563,-0.2508385181427,-0.00677739276378709,-0.00291612276782231,0.00419552897277328,4
0.120025634765625,-0.0604638159275055,2.93818378448486,1.15081310272217,-0.0603921815631679,2.93983131187307,1.18024272744792,346.3103,980.2162,4173.258,4613.318,-0.1214268,-0.01541917,0.103996,-0.026319608092308,-0.0430653318762779,-0.208663403987885,-0.00968281574750508,-0.00416624510959472,0.00599412420418488,4
0.1400146484375,-0.0615635365247726,2.93704152107239,1.14728283882141,-0.0606187761383957,2.93973381455767,1.18038300028418,353.2358,747.509,3974.929,4854.67,-0.1254019,-0.02116467,0.1350984,-0.0549859739840031,-0.057110209017992,-0.176516115665436,-0.0130687916036232,-0.00562313592726786,0.00809020455552005,4
0.160003662109375,-0.0633407458662987,2.93568134307861,1.14427518844604,-0.0609177895434042,2.93960515744296,1.18056810382587,820.5985,814.7068,3463.516,4692.228,-0.1184627,-0.02352317,0.1522659,-0.0888604894280434,-0.0680135563015938,-0.150379687547684,-0.0169265510445065,-0.00728302204135792,0.0104783414199936,3
0.180023193359375,-0.065846711397171,2.93417263031006,1.14182579517365,-0.061299173422313,2.9394410586145,1.18080419861474,1348.335,1083.146,3007.173,4255.315,-0.1079805,-0.02278015,0.1557801,-0.125298470258713,-0.0754313617944717,-0.122470378875732,-0.0212503155312517,-0.00914341710800856,0.0131549576067545,3
0.20001220703125,-0.0690846368670464,2.93255424499512,1.14006173610687,-0.0617708265342762,2.93923811945689,1.181096174359,1637.052,1381.636,2917.247,3666.471,-0.09983019,-0.02030021,0.1501593,-0.161896422505379,-0.0809141099452972,-0.0882037729024887,-0.0260142813927851,-0.0111932185284278,0.0161040794142088,3
0.220001220703125,-0.0730099156498909,2.93082642555237,1.13903594017029,-0.0623420644491781,2.93899233174064,1.18144979784016,1641.192,1580.263,3148.796,3113.259,-0.09584397,-0.01735529,0.1421928,-0.196264028549194,-0.0863851234316826,-0.0512894839048386,-0.03121219533433,-0.0134297356845702,0.019321835755004,3
0.240020751953125,-0.0775496289134026,2.92897391319275,1.13863372802734,-0.0630225615075555,2.93869953286731,1.18187105793587,1523.476,1623.851,3418.417,2777.774,-0.09475581,-0.01467934,0.137739,-0.226985767483711,-0.0926249846816063,-0.0201125722378492,-0.0368405636651345,-0.0158514653389075,0.022806063868137,3
0.260009765625,-0.0826384574174881,2.92699289321899,1.13863587379456,-0.0638185570309634,2.93835703823113,1.18236381708338,1439.781,1501.459,3531.915,2744.104,-0.09438989,-0.01258823,0.1393027,-0.254441529512405,-0.0990563333034515,0.000104406848549843,-0.0428699302682246,-0.0184457333472145,0.0265385290140116,3
0.279998779296875,-0.0882443487644196,2.92490124702454,1.13885271549225,-0.0647390625194898,2.93796097043536,1.18293365383054,1400.423,1275.792,3477.162,2977.518,-0.0932133,-0.01110538,0.1456824,-0.28029453754425,-0.104583077132702,0.0108418148010969,-0.0492963837173861,-0.0212108567320638,0.030516809833474,3
0.300018310546875,-0.0943701416254044,2.92273306846619,1.13920795917511,-0.0657936070281142,2.93750722939386,1.1835864671163,1349.873,1061.223,3346.041,3324.935,-0.09053043,-0.009935722,0.1533107,-0.306289792060852,-0.108407497406006,0.017759321257472,-0.0561185469977389,-0.0241462430024218,0.0347400538887172,3
0.32000732421875,-0.101035371422768,2.92052626609802,1.13972568511963,-0.0669865614821475,2.93699393441958,1.18432496275165,1281.897,941.8986,3235.974,3590.302,-0.08597802,-0.008522648,0.1583565,-0.333261519670486,-0.110341578722,0.0258889757096767,-0.0633036493784043,-0.0272377918282996,0.0391879745362408,3
0.339996337890625,-0.108250960707664,2.91831278800964,1.14046251773834,-0.068326768706371,2.93641728069206,1.18515461486636,1253.089,943.9747,3171.68,3649.515,-0.07945061,-0.006291452,0.1584741,-0.360779225826263,-0.110679268836975,0.0368419960141182,-0.0708499516420146,-0.0304847548730522,0.0438594951176439,4
0.360015869140625,-0.11600250005722,2.91611552238464,1.14145386219025,-0.0698237345322385,2.93577317811757,1.18608130802295,1318.607,1046.586,3121.844,3498.607,-0.07154796,-0.002964631,0.1534768,-0.387578010559082,-0.109860278666019,0.0495690666139126,-0.0787580297418618,-0.0338873799532906,0.0487549721754506,4
0.3800048828125,-0.124250769615173,2.91395044326782,1.14270842075348,-0.0714797725314022,2.93506063123087,1.18710647443246,1456.475,1182.403,3088.993,3231.186,-0.06361493,0.001259385,0.1450383,-0.412413418292999,-0.10825739055872,0.0627255812287331,-0.0869921272359981,-0.0374302820709642,0.0538522707687797,4
0.4000244140625,-0.132942572236061,2.91182708740234,1.14421820640564,-0.0733065984369745,2.93427459907931,1.1882373666918,1579.567,1273.45,3105.425,2981.411,-0.05702307,0.00582585,0.1357474,-0.434590071439743,-0.106165207922459,0.0754898488521576,-0.0955658248284375,-0.0411193046236092,0.0591597980003546,4
0.420013427734375,-0.142022907733917,2.90975093841553,1.14595866203308,-0.0753050585276311,2.93341471753282,1.18947450868777,1631.276,1288.755,3158.486,2845.136,-0.05245309,0.01017436,0.1278572,-0.454017132520676,-0.103802874684334,0.0870229601860046,-0.104441553474511,-0.0449382827008623,0.0646542968418633,4
0.44000244140625,-0.151445388793945,2.9077250957489,1.14789700508118,-0.077483988232608,2.93247718495301,1.19082336997196,1606.19,1237.825,3220.656,2842.7,-0.04967062,0.01397247,0.1224654,-0.471124559640884,-0.101294308900833,0.0969183593988419,-0.113620829717891,-0.048887868829098,0.0703367061060819,4
0.46002197265625,-0.161176159977913,2.90575218200684,1.14999854564667,-0.0798530997696509,2.93145782244394,1.19228996286983,1540.13,1157.672,3253.688,2939.065,-0.0478863,0.01718212,0.1193518,-0.486538827419281,-0.0986464470624924,0.105078309774399,-0.123107133063502,-0.0529695601420796,0.0762091797723108,4
0.480010986328125,-0.171192973852158,2.90383648872375,1.15223979949951,-0.0824109101018722,2.93035726811493,1.19387336931088,1476.732,1087,3245.606,3066.375,-0.04628414,0.01998809,0.1173796,-0.500840425491333,-0.0957831963896751,0.112062141299248,-0.132860437136906,-0.0571661344090936,0.082246939608052,5
0.5,-0.181480512022972,2.90198373794556,1.15461671352386,-0.085166398670376,2.92917165836334,1.1955791479969,1432.065,1046.211,3217.081,3168.997,-0.0443395,0.02264336,0.115224,-0.514377057552338,-0.0926419273018837,0.118845239281654,-0.142884000065179,-0.0614789935111996,0.0884520025491718,5
0.52001953125,-0.19202384352684,2.90019917488098,1.15713620185852,-0.0881295333471192,2.92789670429234,1.19741346951549,1420.943,1044.297,3179.102,3212.028,-0.04192348,0.02537392,0.1118957,-0.527167081832886,-0.0892322212457657,0.125974178314209,-0.153182839569029,-0.0659102964334391,0.0948274748038155,5
0.540008544921875,-0.202804177999496,2.89848637580872,1.15981078147888,-0.0912963635428427,2.92653410573011,1.19937388826368,1447.417,1074.166,3146.664,3184.049,-0.03929175,0.02828903,0.1070475,-0.539016962051392,-0.0856435671448708,0.133729368448257,-0.163714777034477,-0.0704418948965508,0.101347245800684,5
0.55999755859375,-0.213797613978386,2.89684557914734,1.16265416145325,-0.094676112580471,2.92507989413848,1.20146611391775,1484.719,1113.961,3139.452,3112.948,-0.03688904,0.03132818,0.1010534,-0.549671828746796,-0.0820353850722313,0.142170503735542,-0.17448465888317,-0.0750758741803766,0.108014315705644,5
0.58001708984375,-0.224976032972336,2.8952739238739,1.16566967964172,-0.0982790918331175,2.92352963282165,1.20369652970884,1518.608,1148.148,3147.3,3036.425,-0.0351271,0.03434208,0.09466124,-0.558921277523041,-0.0785822048783302,0.150777578353882,-0.185498893714783,-0.0798149917263209,0.114832651747179,5
0.600006103515625,-0.236310750246048,2.89376544952393,1.16885232925415,-0.102098762959148,2.92188613504538,1.20606108809202,1543.031,1167.661,3160.895,2978.426,-0.03428553,0.03716276,0.08861292,-0.566735744476318,-0.0754237920045853,0.159134909510612,-0.196713446836865,-0.0846403006364086,0.121774994352997,5
0.620025634765625,-0.247776195406914,2.89231204986572,1.17219579219818,-0.106151036002673,2.92014255516215,1.2085696381425,1535.421,1167.332,3183.031,2962.791,-0.03442296,0.0396327,0.08345427,-0.573272168636322,-0.0726682990789413,0.16717429459095,-0.208152193747382,-0.0895620738704106,0.128856123593688,5
0.6400146484375,-0.259351491928101,2.89090442657471,1.17568802833557,-0.110427588881679,2.91830247393137,1.21121702809507,1506.015,1156.368,3194.187,2988.304,-0.03536465,0.04169603,0.07929865,-0.578765511512756,-0.0703839734196663,0.174613490700722,-0.21977002223474,-0.0945609009039674,0.136048112861281,5
0.660003662109375,-0.271021455526352,2.88953232765198,1.17932236194611,-0.114938248900541,2.91636166293851,1.21400934151928,1465.887,1144.179,3199.284,3030.726,-0.03680169,0.04338119,0.07591178,-0.583497881889343,-0.0686032995581627,0.181713864207268,-0.231574097577923,-0.0996398647564507,0.143355397804799,5
0.680023193359375,-0.28277462720871,2.88818550109863,1.18309187889099,-0.119694071710854,2.91431536524554,1.21695342239012,1426.539,1139.083,3191.742,3077.048,-0.03845072,0.04477022,0.07290132,-0.587658941745758,-0.0673367828130722,0.188477694988251,-0.243572831403349,-0.104802584715715,0.150783185621694,5
0.70001220703125,-0.294601768255234,2.88685393333435,1.18699336051941,-0.124683985757554,2.91216834463331,1.22004241688759,1408.383,1146.77,3174.228,3100.523,-0.04015781,0.04596861,0.06985801,-0.591357052326202,-0.0665842667222023,0.195073649287224,-0.255719729227087,-0.11002905550423,0.158302694011575,5
0.720001220703125,-0.306494295597076,2.88552665710449,1.19103002548218,-0.129918284978346,2.90991617190799,1.22328269744952,1394.591,1163.041,3164.142,3105.323,-0.04193254,0.04702098,0.06662901,-0.594626247882843,-0.0663667917251587,0.201832354068756,-0.268023157655716,-0.11532287703907,0.16591910230247,5
0.740020751953125,-0.318442970514297,2.88419222831726,1.19520139694214,-0.135408560960145,2.90755385953358,1.22668143982036,1387.901,1184.514,3155.15,3097.346,-0.0438383,0.04794601,0.06323414,-0.597434103488922,-0.0667172893881798,0.208566024899483,-0.280492548100696,-0.120688107393104,0.173638248987353,5
0.760009765625,-0.3304383456707,2.88283896446228,1.19950580596924,-0.141140917956636,2.9050873864615,1.23023004187122,1395.485,1207.987,3147.41,3073.309,-0.04599599,0.0487349,0.05980631,-0.599766969680786,-0.0676679536700249,0.215217784047127,-0.293080296154222,-0.126104263719567,0.181430664670081,5
0.779998779296875,-0.342471450567245,2.8814537525177,1.20394420623779,-0.147126184485884,2.90251209348295,1.23393520697061,1388.073,1226.806,3152.078,3057.218,-0.04854144,0.04931897,0.05664245,-0.601655840873718,-0.0692619234323502,0.221921280026436,-0.305795832832518,-0.131575403921268,0.189302187598958,5
0.800018310546875,-0.354534685611725,2.88002324104309,1.20851123332977,-0.153376545303595,2.89982273783796,1.23780447806275,1369.911,1240.165,3155.492,3057.423,-0.05147517,0.04965636,0.05394414,-0.603161811828613,-0.0715280622243881,0.228349044919014,-0.318649478366155,-0.137105968505107,0.197259206488328,5
0.82000732421875,-0.366622686386108,2.87853384017944,1.21320009231567,-0.159875221826383,2.89702653888221,1.24182746840525,1356.993,1251.123,3153.626,3060.024,-0.05473382,0.04974296,0.05174953,-0.604399740695953,-0.0744732394814491,0.234445095062256,-0.331592781842754,-0.14267511039705,0.205271727915392,4
0.839996337890625,-0.378732681274414,2.87697172164917,1.21800899505615,-0.166633637018892,2.89411858163313,1.24601124935738,1327.458,1259.799,3156.862,3076.399,-0.05825292,0.04956175,0.05009541,-0.605500817298889,-0.0781027004122734,0.240444272756577,-0.344636106234817,-0.148287288494656,0.213346167053785,4
0.860015869140625,-0.390864014625549,2.87532377243042,1.22293138504028,-0.173664618315387,2.89109334680413,1.25036376171199,1295.174,1268.574,3153.351,3101.168,-0.06188121,0.0491459,0.04887827,-0.606564223766327,-0.0823982805013657,0.246118769049644,-0.357790534090669,-0.153947271308859,0.221489384528856,4
0.8800048828125,-0.403017520904541,2.87357711791992,1.22796177864075,-0.180948461186242,2.88795931270381,1.25487280742661,1281.437,1281.051,3142.883,3111.713,-0.06550258,0.04855694,0.04791327,-0.607676565647125,-0.0873279124498367,0.251521289348602,-0.371007022483504,-0.159633957038354,0.229671020432672,4
0.9000244140625,-0.415195405483246,2.87171959877014,1.23310112953186,-0.188508963212068,2.88470623989808,1.25955311833725,1260.247,1295.497,3139.739,3121.817,-0.06911329,0.04780782,0.04717382,-0.608895301818848,-0.0928733050823212,0.256964713335037,-0.384317079523421,-0.165360902742685,0.237910579786325,4
0.920013427734375,-0.4274001121521,2.86973977088928,1.23834431171417,-0.196324452211266,2.88134345332121,1.26439127833112,1245.616,1310.956,3131.192,3130.028,-0.07268565,0.04693236,0.04661238,-0.610232770442963,-0.098997138440609,0.262161254882813,-0.397671404529394,-0.171106895716105,0.246177543119742,4
0.94000244140625,-0.439634621143341,2.86762619018555,1.243692278862,-0.204407453948074,2.87786556348678,1.26939504145298,1235.702,1326.453,3130.328,3127.375,-0.07620209,0.04594547,0.04623765,-0.611728370189667,-0.105682693421841,0.267396301031113,-0.411081631631503,-0.176876941799768,0.254479112513653,4
0.96002197265625,-0.451902389526367,2.86536836624146,1.24914109706879,-0.21277195700315,2.87426655149935,1.27457306730061,1222.699,1340.591,3127.293,3131.683,-0.07968231,0.04484564,0.04612248,-0.613386631011963,-0.112889051437378,0.272443443536758,-0.424559845004915,-0.182676240476657,0.262822768648136,3
0.980010986328125,-0.464207291603088,2.86295676231384,1.25468719005585,-0.221393324468958,2.87055701793193,1.27991010445463,1222.744,1353.54,3121.634,3128.127,-0.08313217,0.0436479,0.04626684,-0.615245461463928,-0.120576344430447,0.277303367853165,-0.438056556301695,-0.188483498293199,0.271177875878363,3
1,-0.476554453372955,2.8603823184967,1.26033234596252,-0.230284798736574,2.86673126495361,1.28541435058594,1206.143,1364.04,3125.645,3134.951,-0.08659002,0.04232736,0.04677141,-0.617358505725861,-0.128727272152901,0.282260030508041,-0.451584000205995,-0.194303979492187,0.279552008056641,3
1.02001953125,-0.488949626684189,2.85763645172119,1.26607275009155,-0.239461107372567,2.86278295570393,1.29109492275982,1185.946,1371.871,3126.167,3150.779,-0.08997276,0.04090024,0.04762413,-0.61975884437561,-0.137294456362724,0.287020534276962,-0.465154707681581,-0.200143075797255,0.287952922446475,3
1.04000854492188,-0.501399517059326,2.85471200942993,1.27190446853638,-0.248894644448595,2.85872396824263,1.29693473159157,1184.414,1380.151,3120.955,3154.415,-0.09320372,0.0394098,0.04871615,-0.622496545314789,-0.146224662661552,0.291587144136429,-0.47871923339115,-0.205979512261105,0.296350010028666,3
1.05999755859375,-0.513911783695221,2.85160231590271,1.27783000469208,-0.258599401509697,2.85454828239877,1.30294243851408,1170.327,1387.95,3123.467,3164.699,-0.0963015,0.03785141,0.05007257,-0.625614941120148,-0.155487298965454,0.296276152133942,-0.492290296490434,-0.211818761581115,0.30475114456651,3
1.08001708984375,-0.526494145393372,2.84830188751221,1.28384673595428,-0.268590868588476,2.85024923324404,1.30912763259543,1156.413,1394.426,3122.371,3179.527,-0.09920435,0.03625363,0.0516404,-0.62911981344223,-0.165021598339081,0.300834208726883,-0.505880764601332,-0.21766636033551,0.313164291730931,3
1.10000610351563,-0.539154708385468,2.844806432724,1.28995251655579,-0.278838480013141,2.84583997233313,1.31547139222872,1162.498,1401.96,3116.6,3179.589,-0.1018798,0.03466076,0.05331262,-0.633029460906982,-0.174769893288612,0.30528849363327,-0.519441457145546,-0.223501147495394,0.321559006401169,3
1.12002563476563,-0.551901996135712,2.8411123752594,1.29615199565887,-0.28937326791995,2.84130714740473,1.32199292778458,1155.079,1408.595,3120.888,3185.454,-0.1043895,0.03305904,0.05514684,-0.637360811233521,-0.184707120060921,0.309971898794174,-0.533006127404302,-0.22933764615472,0.329956183466192,3
1.1400146484375,-0.564743757247925,2.83721709251404,1.30244278907776,-0.300162704591434,2.83666475422696,1.32867210305637,1151.905,1413.791,3119.465,3194.055,-0.1067145,0.03147077,0.05711654,-0.642091155052185,-0.194769069552422,0.31453949213028,-0.54652589017629,-0.235154822377061,0.338325560657667,3
1.16000366210938,-0.577688753604889,2.8331184387207,1.30882847309113,-0.311222084148811,2.83190621216671,1.33551838583369,1151.223,1417.482,3125.305,3195.587,-0.108821,0.02990735,0.05920666,-0.647247791290283,-0.204931482672691,0.31928539276123,-0.560014026276883,-0.240958390526247,0.34667535943296,3
1.18002319335938,-0.590744912624359,2.82881569862366,1.31530809402466,-0.322568202252263,2.82702429452064,1.34254217343029,1148.381,1420.257,3126.854,3204.536,-0.1107124,0.02837492,0.06142849,-0.652807354927063,-0.215131431818008,0.323983579874039,-0.573483731835696,-0.246754028528194,0.355013748824923,3
1.20001220703125,-0.60392040014267,2.82430934906006,1.32188105583191,-0.334165615614823,2.82203425154496,1.34972152476313,1161.083,1423.044,3123.656,3204.023,-0.1124003,0.02689991,0.06371138,-0.658776342868805,-0.225314036011696,0.32864835858345,-0.586886736182789,-0.252520966862155,0.363310846989412,3
1.22000122070313,-0.617223978042603,2.81959986686707,1.32855379581451,-0.346030421585499,2.81692915700008,1.35706640485806,1156.979,1423.983,3131.726,3211.827,-0.1139444,0.02546026,0.06611068,-0.665174722671509,-0.235468342900276,0.333636611700058,-0.600236516861372,-0.258265004538453,0.371574997167698,3
1.24002075195313,-0.630663454532623,2.81468892097473,1.33532667160034,-0.358180209983518,2.8117014424782,1.36458770265112,1150.737,1423.2,3137.033,3225.199,-0.1152824,0.02407388,0.06859191,-0.671973586082458,-0.24554468691349,0.338645428419113,-0.613546334788502,-0.263991847359231,0.379814408499145,2
1.260009765625,-0.644246757030487,2.80957913398743,1.34219920635223,-0.37057666480527,2.80636759428526,1.37226169871082,1165.674,1423.86,3135.25,3224.004,-0.1163812,0.02278157,0.07104716,-0.679166078567505,-0.255490660667419,0.343625724315643,-0.626768731761373,-0.26968107538565,0.387999702095469,2
1.27999877929688,-0.657981932163239,2.80427312850952,1.34917783737183,-0.383236695417198,2.80092033679326,1.3800988607405,1167.341,1423.313,3143.282,3228.575,-0.117309,0.02156108,0.07353009,-0.686758577823639,-0.265295416116714,0.348929822444916,-0.639917282339435,-0.275338529371412,0.396139281255613,2
1.30001831054688,-0.671876013278961,2.79877495765686,1.35626339912415,-0.396178686849666,2.79535175943725,1.38811056994974,1166.81,1421.343,3148.306,3238.91,-0.1180414,0.02042201,0.07602458,-0.694707155227661,-0.274912804365158,0.354280948638916,-0.653005218467598,-0.280969902652754,0.404241337183804,2
1.32000732421875,-0.685935974121094,2.79308891296387,1.36345636844635,-0.409361504843077,2.78967956113998,1.39627136227237,1184.755,1420.782,3146.958,3236.592,-0.1185799,0.01939524,0.07844313,-0.702996551990509,-0.28429964184761,0.359649181365967,-0.6659860834168,-0.286555206197011,0.41227711095171,2
1.33999633789063,-0.700168550014496,2.78721976280212,1.37076425552368,-0.422802873722428,2.78389611561957,1.40459220990988,1187.127,1418.365,3157.226,3240.78,-0.1189916,0.01845072,0.0808515,-0.711631417274475,-0.293460011482239,0.36539414525032,-0.678873453515705,-0.29210028151913,0.420255006953505,2
1.36001586914063,-0.71457976102829,2.78117251396179,1.37818825244904,-0.4365219692899,2.77799317206405,1.4130849835973,1186.967,1414.636,3164.156,3250.788,-0.1192382,0.01759647,0.08323807,-0.720558762550354,-0.302357822656631,0.371197253465652,-0.691680442442074,-0.297610771068296,0.428183143180414,2
1.3800048828125,-0.729174911975861,2.77495336532593,1.38572824001312,-0.450474904562636,2.77198961381608,1.4217225152016,1206.566,1412.789,3163.285,3247.566,-0.1193139,0.01686289,0.08551408,-0.729758143424988,-0.310955226421356,0.377000540494919,-0.704361775018035,-0.303067194200314,0.436033492140578,2
1.4000244140625,-0.743959605693817,2.76856803894043,1.39339160919189,-0.464702095472036,2.76586805102946,1.43052982410961,1210.787,1409.031,3173.688,3250.953,-0.1192904,0.01621614,0.08774665,-0.739234983921051,-0.319262266159058,0.383171111345291,-0.716950039288891,-0.308483572640673,0.443826227386424,2
1.42001342773438,-0.758938133716583,2.76202321052551,1.40117835998535,-0.479157861067077,2.75964813894125,1.43947863163655,1217.173,1405.424,3176.731,3258.178,-0.1191642,0.01566588,0.08991043,-0.748927414417267,-0.32724466919899,0.389339447021484,-0.729400843645231,-0.313840805920001,0.451533868397062,2
1.44000244140625,-0.774115025997162,2.75532507896423,1.40909397602081,-0.493861275572861,2.75332167044526,1.4485807456364,1223.672,1400.436,3187.198,3259.317,-0.1189006,0.01521357,0.09198445,-0.758846461772919,-0.334912419319153,0.395782768726349,-0.741727567798258,-0.319144650954242,0.459164697851088,2
1.46002197265625,-0.78949373960495,2.74848031997681,1.41713893413544,-0.50883280894277,2.74687983789241,1.45784883798541,1229.307,1396.045,3191.964,3265.51,-0.1185,0.01486014,0.09396628,-0.7689328789711,-0.342235505580902,0.402247250080109,-0.753942941956197,-0.324400585196357,0.466726596353819,2
1.48001098632813,-0.805076897144318,2.74149656295776,1.42531335353851,-0.524024159888143,2.74034342397783,1.467253007885,1250.409,1393.831,3189.629,3261.77,-0.1180052,0.01462345,0.09578767,-0.779162287712097,-0.349189221858978,0.408719897270203,-0.766004036374583,-0.329590137176618,0.474192988348404,2
1.5,-0.820867836475372,2.73438048362732,1.43362522125244,-0.539455198877605,2.73370387899399,1.4768055561018,1253.257,1388.942,3201.461,3264.91,-0.1174843,0.01446298,0.0975221,-0.789543390274048,-0.355805486440659,0.415593028068542,-0.777924000354858,-0.334718964672088,0.481572013878822,1
1.52001953125,-0.836867928504944,2.72713899612427,1.44207549095154,-0.555147149984933,2.72695207081487,1.48651962134853,1252.338,1383.348,3210.086,3273.604,-0.1168829,0.01438309,0.09916588,-0.800009429454803,-0.362076640129089,0.422511994838715,-0.789715229532175,-0.33979240117828,0.488871346433721,1
1.54000854492188,-0.853078544139862,2.71977925300598,1.45066261291504,-0.571049184024557,2.72010986981902,1.49636373793799,1272.574,1380.781,3208.613,3268.301,-0.1161884,0.01441389,0.100633,-0.810528039932251,-0.367981553077698,0.429358631372452,-0.801336412291853,-0.344792671461508,0.496065412155667,1
1.55999755859375,-0.869500696659088,2.71230840682983,1.45939302444458,-0.587181951496087,2.71316839067337,1.50635068951315,1278.258,1375.963,3218.908,3268.391,-0.1154704,0.01451478,0.1020007,-0.821108877658844,-0.373547852039337,0.436519473791122,-0.812800388649436,-0.349725300221754,0.503162159625937,1
1.58001708984375,-0.886134564876556,2.70473289489746,1.46826660633087,-0.603567408310176,2.70611818636293,1.51649406782863,1278.928,1370.592,3225.303,3276.109,-0.1147087,0.01468172,0.1032779,-0.831689953804016,-0.378769844770432,0.443680316209793,-0.824119146742882,-0.35459544561987,0.510169010073001,0
1.60000610351563,-0.90297943353653,2.69706010818481,1.47728204727173,-0.620152298932711,2.69898217125626,1.52676090517188,1297.537,1368.102,3223.042,3271.697,-0.1139071,0.01493921,0.1043825,-0.842248022556305,-0.383636832237244,0.450771659612656,-0.835253140422976,-0.35938609205264,0.51706148254665,0
1.6199951171875,-0.920035362243652,2.68929624557495,1.48644554615021,-0.636958033083316,2.69175113334911,1.53716445517924,1299.693,1363.061,3234.135,3272.913,-0.1131183,0.01524781,0.1053876,-0.85279780626297,-0.388187855482101,0.458177447319031,-0.846214826007804,-0.364102599125749,0.523847288101157,0
1.6400146484375,-0.937300860881805,2.68144774436951,1.49575638771057,-0.654007271984653,2.68441532215046,1.54771874622704,1298.205,1357.852,3240.765,3280.275,-0.1122938,0.01560884,0.1062946,-0.863273739814758,-0.39242422580719,0.465540885925293,-0.857015715678588,-0.368749920209162,0.530533553325099,0
1.66000366210938,-0.954773783683777,2.67352104187012,1.50521171092987,-0.671244443874359,2.67699864863716,1.55838937674714,1317.102,1356.119,3236.934,3274.324,-0.1114346,0.01605035,0.107019,-0.873649418354034,-0.396334320306778,0.472763478755951,-0.867618167158098,-0.373311858882592,0.53709697585572,0
1.68002319335938,-0.972452700138092,2.66552186012268,1.51481699943542,-0.688718488267733,2.66948005550297,1.56920664263081,1319.989,1351.812,3246.573,3273.697,-0.1106059,0.01652891,0.107641,-0.883944571018219,-0.399957895278931,0.480261743068695,-0.87804994059578,-0.377800359562815,0.543554740547927,0
1.70001220703125,-0.990334451198578,2.6574559211731,1.52456939220428,-0.706372354049449,2.66188409024902,1.58013522651994,1323.162,1348.737,3247.585,3278.393,-0.1098075,0.01704714,0.1081568,-0.894088864326477,-0.403294116258621,0.487619757652283,-0.888274735793774,-0.382199803288802,0.549884375850026,0
1.72000122070313,-1.00841653347015,2.6493284702301,1.5344717502594,-0.724228658537036,2.6542010212754,1.5911891296115,1326.377,1344.147,3256.729,3276.04,-0.1089893,0.01760268,0.1085582,-0.904105544090271,-0.406377464532852,0.495120346546173,-0.898304216251578,-0.386515208538549,0.556093102023817,0
1.74002075195313,-1.02669525146484,2.64114451408386,1.54452109336853,-0.742311168965756,2.64642062220478,1.6023830649563,1328.249,1340.714,3258.802,3279.627,-0.1081451,0.01819215,0.1088583,-0.913935780525208,-0.409202992916107,0.502469301223755,-0.908148960779607,-0.390751127078638,0.562187467856884,0
1.760009765625,-1.04516649246216,2.63290929794312,1.55471408367157,-0.760560719141003,2.63856835059778,1.61368040586141,1346.19,1340.387,3252.199,3273.166,-0.1073233,0.01883077,0.1089935,-0.92356538772583,-0.411764532327652,0.50965017080307,-0.91777478390713,-0.394892849856044,0.568146310914365,0
1.77999877929688,-1.06382715702057,2.62462711334229,1.56505620479584,-0.779000609654483,2.63063418086074,1.62509557650306,1343.934,1336.722,3262.165,3273.587,-0.1065829,0.01947156,0.1090524,-0.93302583694458,-0.414114356040955,0.517107844352722,-0.927192788821983,-0.398945154262308,0.57397650459845,0
1.80001831054688,-1.08267223834991,2.61630177497864,1.57554495334625,-0.797655223615693,2.62260762162281,1.63664367118754,1336.199,1332.8,3268.142,3281.177,-0.1058553,0.02011795,0.1090442,-0.942255556583405,-0.416268229484558,0.524436771869659,-0.936412917636689,-0.402912318110697,0.579684203550397,0
1.82000732421875,-1.10169672966003,2.60793733596802,1.5861748456955,-0.816463410111527,2.61451498441355,1.64828683458664,1351.911,1332.784,3262.133,3273.386,-0.1051144,0.02080513,0.1088776,-0.951233386993408,-0.418218165636063,0.531495034694672,-0.94540321420156,-0.406780591562751,0.585249625391268,0
1.83999633789063,-1.12089657783508,2.59953737258911,1.59694921970367,-0.835449117627072,2.60634596486888,1.66003989195343,1352.642,1330.271,3269.196,3270.445,-0.1044252,0.02148935,0.1086406,-0.959990322589874,-0.42000138759613,0.538716435432434,-0.954174163352093,-0.410554485950274,0.590679260733698,0
1.86001586914063,-1.14026618003845,2.59110450744629,1.60786437988281,-0.854637305360818,2.59808982374295,1.67191829422076,1346.636,1327.46,3271.848,3276.99,-0.1037642,0.022165,0.1083559,-0.968474984169006,-0.421626716852188,0.545760154724121,-0.962735018414262,-0.414237982720922,0.595978837827261,0
1.8800048828125,-1.15979969501495,2.58264303207397,1.61891543865204,-0.873964974649439,2.58977366760063,1.68388304221498,1360.052,1327.958,3265.009,3270.369,-0.1031256,0.02286059,0.1079385,-0.976679980754852,-0.4230917096138,0.552551865577698,-0.971056158224177,-0.417818336715394,0.601130019760457,0
1.9000244140625,-1.17949259281158,2.57415413856506,1.63010561466217,-0.893486564535158,2.58137407284289,1.69596783629653,1355.992,1325.711,3272.782,3269.444,-0.1025562,0.02353539,0.1074719,-0.984640777111053,-0.424440383911133,0.55951189994812,-0.979159571260204,-0.421305008961645,0.606146418448853,0
1.92001342773438,-1.19933843612671,2.5656406879425,1.64142918586731,-0.913137923350175,2.5729186421402,1.70813296352707,1353.624,1325.015,3270.636,3273.378,-0.1020321,0.02419856,0.1069473,-0.992296993732452,-0.425674557685852,0.566177308559418,-0.987017247723777,-0.424685947625853,0.611010694492843,0
1.94000244140625,-1.21933221817017,2.55710411071777,1.65288615226746,-0.932943991899774,2.5643966441608,1.72039386345315,1353.072,1323.045,3276.229,3268.933,-0.1014968,0.02485286,0.1063545,-0.999686539173126,-0.426823556423187,0.57285088300705,-0.994638524886308,-0.427965170275055,0.615728628108227,0
1.96002197265625,-1.23946762084961,2.54854655265808,1.66447103023529,-0.952930593197372,2.55579696798345,1.73276652175022,1350.656,1322.255,3274.426,3271.535,-0.1009498,0.02549402,0.1057133,-1.00676369667053,-0.427879959344864,0.579242765903473,-1.00203140433628,-0.431146119769234,0.620305172659443,0
1.98001098632813,-1.2597382068634,2.53996968269348,1.67617809772491,-0.973031969359004,2.54714790738853,1.74521023115561,1364.608,1324.39,3264.262,3263.902,-0.1004401,0.02613984,0.1049594,-1.01352918148041,-0.428835064172745,0.585354089736938,-1.00917036754089,-0.434217816196637,0.624724530959079,0
2,-1.28013861179352,2.53137516975403,1.68801128864288,-0.993273599084619,2.53843849960327,1.7577407641983,1356.991,1323.208,3271.856,3263.481,-0.1000241,0.02674446,0.1041881,-1.02002847194672,-0.429738014936447,0.591660976409912,-1.01606400046349,-0.437183953857422,0.628992018127441,0
2.02001953125,-1.30066299438477,2.5227632522583,1.69996559619904,-1.01368176147806,2.52965743746343,1.77037438889544,1343.516,1321.662,3274.849,3271.347,-0.09962086,0.02731552,0.1034092,-1.02621066570282,-0.430600494146347,0.597717225551605,-1.0227194988233,-0.440047628868552,0.633112088657522,0
2.04000854492188,-1.32130432128906,2.51413512229919,1.71203339099884,-1.03418924440916,2.52083364047092,1.78306949773667,1356.18,1323.812,3265.724,3261.775,-0.0991905,0.02789515,0.1025217,-1.03206896781921,-0.431408137083054,0.603390991687775,-1.02911391720548,-0.442798968459032,0.637070538244476,0
2.05999755859375,-1.34205722808838,2.50549125671387,1.72421622276306,-1.05482201812353,2.5119559343546,1.79584216754118,1353.077,1323.688,3269.97,3257.654,-0.09880327,0.02843952,0.1016228,-1.0376443862915,-0.432189226150513,0.60914409160614,-1.03525504859546,-0.445441325732794,0.640872191117535,0
2.08001708984375,-1.36291527748108,2.49683237075806,1.73650860786438,-1.07560676837143,2.50301283698163,1.80870891805959,1342.592,1322.998,3269.627,3264.276,-0.09843417,0.0289454,0.100737,-1.04289746284485,-0.432944148778915,0.614621162414551,-1.0411492471255,-0.447977434695423,0.644520980787238,0
2.10000610351563,-1.38387167453766,2.4881591796875,1.74890375137329,-1.09647498538954,2.49403382618922,1.82162733848484,1353.004,1325.232,3259.919,3256.771,-0.09806931,0.02944678,0.09977098,-1.04783391952515,-0.433662086725235,0.619756579399109,-1.04677621342161,-0.450398561093403,0.648004340974112,0
2.1199951171875,-1.40492165088654,2.4794716835022,1.76140379905701,-1.11745308225396,2.48500753716864,1.83461377976925,1345.208,1325.024,3265.461,3255.04,-0.09775559,0.02990451,0.09881178,-1.05249845981598,-0.434378504753113,0.625005304813385,-1.0521429102862,-0.45270770082608,0.651326581984514,0
2.1400146484375,-1.42605876922607,2.47076988220215,1.77400279045105,-1.13856809990831,2.47592233495728,1.84768498154507,1332.249,1324.48,3265.635,3262.116,-0.09743068,0.03032579,0.09786873,-1.05684804916382,-0.435092151165009,0.629949688911438,-1.05725481901126,-0.454907212340279,0.654491096999312,0
2.16000366210938,-1.44727647304535,2.46205425262451,1.78669285774231,-1.15975039167652,2.46680818657414,1.86079782920208,1344.281,1327.177,3254.798,3252.53,-0.09707009,0.03075011,0.09684061,-1.0608845949173,-0.435783505439758,0.634501338005066,-1.0620943502576,-0.456989527434725,0.657486997379635,0
2.18002319335938,-1.46856951713562,2.45332431793213,1.79947566986084,-1.18105931486702,2.45763955222766,1.87398906774178,1338.519,1327.679,3258.531,3249.153,-0.09674625,0.0311347,0.09582439,-1.06465172767639,-0.436479598283768,0.639142870903015,-1.0666743814704,-0.458960186914335,0.660322254877504,0
2.20001220703125,-1.48993158340454,2.4445812702179,1.81234383583069,-1.20242455577657,2.44844668594002,1.88721516963236,1332.159,1328.859,3252.892,3253.528,-0.09645224,0.03148695,0.09481955,-1.06810319423676,-0.437169373035431,0.643408358097076,-1.07097916161324,-0.460812413548163,0.662987118851036,0
2.22000122070313,-1.51135730743408,2.43582391738892,1.82529664039612,-1.22387315175433,2.43921795429519,1.90049287228091,1327.529,1328.511,3256.314,3248.756,-0.09612094,0.03181447,0.09380792,-1.0712890625,-0.437873631715775,0.647639453411102,-1.07501419914593,-0.462548577472581,0.665484999299265,0
2.24002075195313,-1.53284072875977,2.42705249786377,1.83832716941833,-1.24543261682529,2.42994151877688,1.91383920817958,1320.604,1329.087,3252.561,3251.583,-0.09574011,0.03211815,0.09280685,-1.07417345046997,-0.438573837280273,0.651525437831879,-1.07878346314438,-0.464170386470068,0.667818353269249,0
2.260009765625,-1.5543760061264,2.41826748847961,1.85142827033997,-1.26703177594152,2.42064800401982,1.92721011658316,1332.846,1332.019,3240.349,3242.296,-0.0953385,0.03242288,0.09174222,-1.07676339149475,-0.439247757196426,0.655055463314056,-1.08227399942825,-0.465672266718726,0.669979161506271,0
2.27999877929688,-1.57595801353455,2.40946865081787,1.86460268497467,-1.28869796983554,2.41132564607061,1.9406225227075,1323.575,1332.38,3244.823,3240.918,-0.09498643,0.0326855,0.0907119,-1.07910478115082,-0.439927190542221,0.658721387386322,-1.08549040888332,-0.467056197851165,0.67197027217779,0
2.30001831054688,-1.59758114814758,2.40065670013428,1.87784445285797,-1.31045892272318,2.4019625159737,1.95409358916289,1307.954,1331.856,3245.008,3248.838,-0.09460986,0.03291541,0.08972225,-1.08115947246552,-0.440608561038971,0.662089705467224,-1.08843572622736,-0.468323485621664,0.673793563918671,0
2.32000732421875,-1.61923968791962,2.39183139801025,1.89114534854889,-1.33224276726637,2.39258953623693,1.96757882664355,1319.257,1334.121,3234.169,3238.576,-0.09416192,0.03315706,0.08866325,-1.08292996883392,-0.441267460584641,0.665045022964478,-1.09109983431736,-0.469469776906228,0.675442773735451,0
2.33999633789063,-1.64092874526978,2.38299298286438,1.90450668334961,-1.35407709248145,2.38319483607731,1.98109531406483,1314.073,1334.75,3236.813,3233.949,-0.09371611,0.03337078,0.08763125,-1.08445572853088,-0.441921919584274,0.668068408966064,-1.09348640563071,-0.470496651869278,0.67692017506657,0
2.36001586914063,-1.66264295578003,2.37414169311523,1.91792225837708,-1.3759897762471,2.37376642042246,1.99466030916165,1301.663,1334.393,3234.686,3240.627,-0.09324206,0.03355715,0.08664653,-1.08570218086243,-0.442558914422989,0.670778155326843,-1.09559752564474,-0.471405007833448,0.678227058921845,0
2.3800048828125,-1.68437647819519,2.36527848243713,1.93138468265533,-1.39790843013262,2.36433543599182,2.00822900004707,1312.646,1336.209,3223.74,3231.158,-0.09271529,0.03375366,0.08560614,-1.08667945861816,-0.443156838417053,0.673121213912964,-1.09742594550583,-0.472191725819537,0.679358937915576,0
2.4000244140625,-1.70612502098083,2.35640382766724,1.94489598274231,-1.41989437329222,2.3548754988664,2.02183934619858,1304.615,1336.336,3227.216,3228.64,-0.0921997,0.03392206,0.08460235,-1.08742666244507,-0.443737953901291,0.675563275814056,-1.09897654259203,-0.472858904427064,0.68031883137712,0
2.42001342773438,-1.72788286209106,2.3475182056427,1.9584481716156,-1.44187496577138,2.34541786398928,2.035446380024,1297.705,1336.768,3220.865,3232.975,-0.0916708,0.03407584,0.08362024,-1.08790135383606,-0.444282472133636,0.677607774734497,-1.1002439936861,-0.473404253224357,0.681103443981416,0
2.44000244140625,-1.74964594841003,2.33862209320068,1.97204041481018,-1.46387808506052,2.33595053645515,2.04906735901791,1294.78,1335.986,3223.126,3226.323,-0.09105933,0.03422569,0.08263352,-1.08814978599548,-0.444802671670914,0.679613649845123,-1.10123038958312,-0.473828671822132,0.681714070030222,0
2.46002197265625,-1.77140867710114,2.32971668243408,1.98566591739655,-1.48593173759011,2.32646146587939,2.06271962049488,1288.685,1336.012,3218.037,3228.657,-0.09037118,0.03437053,0.08166416,-1.08813643455505,-0.445271641016006,0.681273400783539,-1.10193621258339,-0.474132367740737,0.682151008090402,0
2.48001098632813,-1.79316592216492,2.32080340385437,1.99931788444519,-1.5079630509786,2.31698200721197,2.07635805297935,1302.165,1337.718,3205.521,3218.227,-0.08963561,0.03453447,0.08063444,-1.08786928653717,-0.445664316415787,0.682596206665039,-1.10235904000526,-0.474314298567936,0.682412758406602,0
2.5,-1.81491363048553,2.31188297271729,2.01299929618835,-1.52999999932945,2.30750012397766,2.08999997377396,1293.191,1337.466,3209.269,3216.507,-0.08893093,0.03467531,0.07964372,-1.08738625049591,-0.446007549762726,0.684073448181152,-1.10250000050292,-0.474374949932098,0.682500019669533,0
2.52001953125,-1.83664667606354,2.30295729637146,2.02670454978943,-1.55207058900185,2.29800376582252,2.10366272014916,1277.777,1335.943,3209.104,3224.194,-0.08818259,0.03480282,0.07869437,-1.08665287494659,-0.446294248104095,0.685267448425293,-1.10235860927677,-0.474314113237503,0.682412491765153,0
2.54000854492188,-1.85836017131805,2.29402732849121,2.0404257774353,-1.57410188948011,2.28852431271001,2.11730114464159,1290.315,1336.606,3198.535,3212.682,-0.0873341,0.03496184,0.07767195,-1.08567094802856,-0.446498692035675,0.686063468456268,-1.10193535162022,-0.474131997292339,0.682150475113189,0
2.55999755859375,-1.88004958629608,2.28509473800659,2.05416440963745,-1.59612191359838,2.27904971150017,2.13093258853001,1286.619,1336.356,3200.283,3207.091,-0.08646805,0.03511347,0.07667311,-1.08447062969208,-0.446633487939835,0.686933398246765,-1.10123038958312,-0.473828671822132,0.681714070030222,0
2.58001708984375,-1.90171003341675,2.27616119384766,2.0679144859314,-1.6181586096433,2.26956793682606,2.14457435313522,1275.575,1334.833,3197.488,3213.094,-0.08556151,0.03525737,0.07571618,-1.08302068710327,-0.4466832280159,0.687506079673767,-1.10024227275454,-0.473403512755585,0.681102378642802,0
2.60000610351563,-1.92333650588989,2.26722860336304,2.08166933059692,-1.64013916343638,2.26011031859448,2.15818136301212,1287.743,1334.893,3186.894,3202.712,-0.08458839,0.03542929,0.0746971,-1.0813307762146,-0.446628034114838,0.687741994857788,-1.09897439291323,-0.472857979480329,0.680317500623536,0
2.6199951171875,-1.94492530822754,2.25829887390137,2.09543132781982,-1.66209156852628,2.2506648119635,2.17177094750084,1280.627,1333.965,3189.921,3199.638,-0.0836174,0.03559145,0.0737072,-1.07943093776703,-0.446487545967102,0.688095092773438,-1.09742594550583,-0.472191725819537,0.679358937915576,0
2.6400146484375,-1.96647095680237,2.24937391281128,2.10919427871704,-1.68404365734903,2.24121944141343,2.18536033620513,1268.081,1331.862,3188.108,3206.138,-0.08259315,0.03575185,0.0727478,-1.07728898525238,-0.446249753236771,0.688150227069855,-1.09559452046326,-0.471403714787811,0.678225198571351,0
2.66000366210938,-1.98796916007996,2.24045610427856,2.12295126914978,-1.70592290617745,2.23180541187802,2.19890463348308,1282.004,1331.625,3177.28,3194.026,-0.08147568,0.03595012,0.07170817,-1.07490956783295,-0.445892125368118,0.687844455242157,-1.09348640563071,-0.470496651869278,0.67692017506657,0
2.68002319335938,-2.0094153881073,2.23154759407043,2.13670420646667,-1.72779052905813,2.22239638466312,2.21244173374556,1277.507,1330.751,3179.075,3189.29,-0.0803545,0.03614581,0.07068656,-1.07231748104095,-0.445429533720016,0.687641739845276,-1.09109597826566,-0.469468117754907,0.675440386655758,0
2.70001220703125,-2.0308051109314,2.22265076637268,2.15044593811035,-1.74957429229274,2.21302343991116,2.22592692089233,1272.724,1329.426,3172.376,3192.38,-0.07922319,0.0363472,0.06967495,-1.06947731971741,-0.444845288991928,0.687081456184387,-1.08843144721369,-0.468321644481621,0.673790915005369,0
2.72000122070313,-2.05213356018066,2.21376752853394,2.16417622566223,-1.77130202882336,2.20367460188472,2.23937742484041,1270.793,1326.975,3174.516,3185.232,-0.07801943,0.03656192,0.06864783,-1.06642711162567,-0.444153785705566,0.686519682407379,-1.08549040888332,-0.467056197851165,0.671970272177789,0
2.74002075195313,-2.0733962059021,2.20490074157715,2.17788910865784,-1.79300125102058,2.19433803277934,2.25281027705779,1265.403,1325.21,3169.86,3186.813,-0.07674272,0.03678891,0.06762455,-1.06313514709473,-0.443334668874741,0.685648024082184,-1.08226887897249,-0.465670063529659,0.669975991700231,0
2.760009765625,-2.09458804130554,2.19605350494385,2.19157838821411,-1.81460030360772,2.18504456385877,2.26618111951479,1279.995,1324.586,3158.31,3175.11,-0.07540954,0.03705109,0.06652693,-1.05960524082184,-0.442368358373642,0.684462070465088,-1.07877792518082,-0.464168003639063,0.667814925005998,0
2.77999877929688,-2.1157054901123,2.18722796440125,2.205246925354,-1.83612684690458,2.17578229366013,2.27950707526701,1273.56,1323.091,3160.779,3171.906,-0.07410672,0.03730864,0.06545038,-1.05586242675781,-0.441276550292969,0.683424353599548,-1.07501419914593,-0.462548577472581,0.665484999299265,0
2.80001831054688,-2.13674306869507,2.17842674255371,2.21888947486877,-1.85760812647542,2.16653949917827,2.29280501061661,1260.278,1320.123,3159.786,3178.445,-0.07277301,0.03756773,0.06439722,-1.05188024044037,-0.440056502819061,0.682130098342896,-1.07097279461286,-0.460809674005774,0.6629831773745,0
2.82000732421875,-2.15769600868225,2.16965293884277,2.23249912261963,-1.87897323600723,2.1573466894188,2.30603103117811,1273.553,1318.626,3150.243,3165.969,-0.07134981,0.03786843,0.06325732,-1.04766154289246,-0.4386927485466,0.680488049983978,-1.06666760390385,-0.458957270716794,0.660318059240952,0
2.83999633789063,-2.17856073379517,2.16090869903564,2.24607753753662,-1.90024960698239,2.14819206138118,2.31920211834584,1270.814,1317.172,3151.334,3159.783,-0.06992076,0.03817311,0.06212434,-1.0432231426239,-0.437197089195251,0.678924679756165,-1.06209435025759,-0.456989527434725,0.657486997379635,0
2.86001586914063,-2.19933128356934,2.15219783782959,2.25961923599243,-1.9214641634913,2.13906403038149,2.33233493941432,1261.402,1314.283,3148.313,3164.317,-0.06846455,0.03848164,0.06101307,-1.03854084014893,-0.435561746358871,0.677087426185608,-1.05724722779031,-0.454903946049977,0.654486397671922,0
2.8800048828125,-2.22000360488892,2.14352202415466,2.273118019104,-1.94254691640495,2.12999271078668,2.34538616777867,1274.616,1312.467,3138.269,3152.743,-0.0669524,0.03882527,0.05982469,-1.0336217880249,-0.433774620294571,0.67493748664856,-1.0521429102862,-0.45270770082608,0.651326581984514,0
2.9000244140625,-2.24057340621948,2.13488483428955,2.28657627105713,-1.96355695821617,2.12095267674793,2.3583923845069,1269.331,1310.648,3140.439,3148.126,-0.0654589,0.0391675,0.0586497,-1.02848541736603,-0.431854158639908,0.672911822795868,-1.04676782045836,-0.450394949835786,0.647999145330045,0
2.92001342773438,-2.26103544235229,2.12628889083862,2.29998683929443,-1.98442500350686,2.11197373984504,2.37131069862469,1263.972,1308.134,3134.166,3151.187,-0.06396327,0.03951717,0.05747525,-1.02310311794281,-0.429791688919067,0.670532047748566,-1.04114045847258,-0.4479736531836,0.644515540192422,0
2.94000244140625,-2.28138566017151,2.11773681640625,2.31334948539734,-2.00517798053537,2.10304431360073,2.38415778000673,1264.251,1305.045,3135.264,3142.245,-0.06239946,0.03988507,0.05626721,-1.01750552654266,-0.427600085735321,0.668134987354279,-1.03525504859546,-0.445441325732794,0.640872191117535,0
2.96002197265625,-2.30161905288696,2.10923147201538,2.32665824890137,-2.02584216016808,2.09415309439512,2.39694989157076,1260.319,1302.761,3129.821,3142.615,-0.06078399,0.04026565,0.05505148,-1.01166605949402,-0.425265043973923,0.665443658828735,-1.02910434715508,-0.442794850733705,0.637064613927399,0
2.98001098632813,-2.32173109054565,2.10077571868896,2.3399076461792,-2.04634944795115,2.08532938136936,2.40964487960608,1274.753,1301.078,3119.012,3130.272,-0.05913336,0.04067766,0.05375789,-1.00558865070343,-0.422775417566299,0.662471413612366,-1.02270954399162,-0.440043345582586,0.633105926142498,0
3,-2.34171676635742,2.09237289428711,2.35310053825378,-2.06672639957428,2.07656174835205,2.42225918334961,1268.476,1299.275,3120.903,3126.576,-0.0575344,0.04108301,0.05248085,-0.999289751052856,-0.420151859521866,0.659642994403839,-1.01606400046349,-0.437183953857422,0.628992018127441,0
3.02001953125,-2.36157178878784,2.08402466773987,2.36623167991638,-2.08699882657197,2.06783908936099,2.4348087813708,1255.889,1295.898,3119.208,3132.385,-0.05592692,0.04148788,0.05122042,-0.992752075195313,-0.417397975921631,0.656558275222778,-1.0091596546337,-0.434213206731958,0.624717899159203,0
3.04000854492188,-2.38129138946533,2.07573461532593,2.37929487228394,-2.10709998486405,2.05919012250926,2.44725235590455,1269.033,1293.511,3110.487,3118.974,-0.05424752,0.0419277,0.04987218,-0.98598176240921,-0.414506942033768,0.653155982494354,-1.00202031904361,-0.431141350077486,0.620298310335216,0
3.05999755859375,-2.40087080001831,2.06750512123108,2.39229106903076,-2.12705600675913,2.05060360379452,2.45960608409476,1266.369,1291.944,3110.64,3112.559,-0.05258252,0.04236709,0.04853013,-0.978986978530884,-0.41148853302002,0.649815678596497,-0.994638524886308,-0.427965170275055,0.615728628108227,0
3.08001708984375,-2.42030596733093,2.05933833122253,2.4052152633667,-2.14689219650438,2.04206864550612,2.47188563047583,1257.929,1288.813,3106.887,3116.035,-0.05091272,0.04280575,0.04720523,-0.971753418445587,-0.408341258764267,0.646206557750702,-0.987005430654711,-0.424680863071165,0.611003379164165,0
3.10000610351563,-2.43959188461304,2.05123710632324,2.41806173324585,-2.16654331551667,2.03361331798384,2.48405060925705,1270.262,1286.323,3097.865,3103.933,-0.04920563,0.04326965,0.04580879,-0.964290678501129,-0.405061095952988,0.642321169376373,-0.979147395688901,-0.421299770153459,0.606138881190213,0
3.1199951171875,-2.45872402191162,2.04320383071899,2.43083238601685,-2.18603502400946,2.02522658035469,2.49611690533293,1264.751,1284.598,3098.806,3099.511,-0.04753689,0.04372564,0.04442796,-0.956609487533569,-0.401662439107895,0.638531029224396,-0.971056158224178,-0.417818336715394,0.601130019760458,0
3.1400146484375,-2.47769832611084,2.035240650177,2.44352173805237,-2.20539207344272,2.01689778275692,2.50809984103626,1254.36,1281.374,3095.76,3103.869,-0.04586017,0.04417923,0.04306162,-0.9486985206604,-0.398147851228714,0.634473025798798,-0.962722140342815,-0.41423244164655,0.595970865687568,0
3.16000366210938,-2.49650955200195,2.02735042572021,2.45612406730652,-2.22455088103183,2.00865428308644,2.51996005559448,1267.261,1278.905,3086.736,3090.768,-0.04412911,0.04465932,0.04161442,-0.940565586090088,-0.394512623548508,0.630120933055878,-0.954174163352092,-0.410554485950274,0.590679260733698,0
3.18002319335938,-2.5151538848877,2.01953530311584,2.46864104270935,-2.24356543975693,2.00047284967231,2.53173097323436,1263.79,1277.58,3086.53,3084.878,-0.04243108,0.04513321,0.04017671,-0.932216703891754,-0.390766799449921,0.62584400177002,-0.945389654806993,-0.406774757334075,0.585241231480108,0
3.20001220703125,-2.53362679481506,2.01179695129395,2.48106598854065,-2.26237335188561,1.99238033051557,2.54337396678712,1259.701,1274.994,3079.761,3086.248,-0.04075915,0.04560503,0.03874179,-0.923640370368958,-0.386910796165466,0.621248662471771,-0.93639902618694,-0.402906341007952,0.579675604081262,0
3.22000122070313,-2.55192375183105,2.00413799285889,2.49339914321899,-2.28099938900442,1.98436606709459,2.55490437104486,1259.206,1272.174,3080.236,3077.427,-0.03906059,0.04608104,0.03728594,-0.914860129356384,-0.382958143949509,0.61665403842926,-0.927192788821982,-0.398945154262308,0.573976504598449,0
3.24002075195313,-2.57004117965698,1.99655985832214,2.50563478469849,-2.29946728755973,1.97641984627959,2.5663368799986,1253.792,1269.913,3074.917,3078.061,-0.03734391,0.04655634,0.03583411,-0.905861854553223,-0.378904104232788,0.611787140369415,-0.917760245372928,-0.394886594330938,0.568137310869129,0
3.260009765625,-2.58797407150269,1.98906469345093,2.51776814460754,-2.31771654397337,1.96856770107001,2.57763403905129,1266.392,1267.691,3065.543,3065.478,-0.03560273,0.04704913,0.03431859,-0.896652340888977,-0.374744892120361,0.606664478778839,-0.908134108040216,-0.390744736359816,0.562178273303667,0
3.27999877929688,-2.6057186126709,1.98165488243103,2.52980089187622,-2.33577134012187,1.96079922667992,2.58881081793642,1261.023,1266.478,3065.581,3061.013,-0.03392228,0.04752709,0.032827,-0.887238562107086,-0.370492458343506,0.60164088010788,-0.898304216251578,-0.386515208538549,0.556093102023818,0
3.30001831054688,-2.62327146530151,1.9743320941925,2.54172849655151,-2.35365475236716,1.95310449399547,2.59988150202132,1249.816,1263.564,3062.506,3065.657,-0.03225834,0.04799433,0.03135969,-0.877618670463562,-0.366154402494431,0.596375226974487,-0.88825927318574,-0.382193150160541,0.549874803759067,0
3.32000732421875,-2.64062762260437,1.96709728240967,2.5535454750061,-2.37130830610839,1.94550866300381,2.61080989274252,1260.683,1260.991,3054.621,3053.185,-0.03054965,0.04847922,0.02982465,-0.867803335189819,-0.361730694770813,0.590843439102173,-0.878034183119985,-0.377793579561194,0.543544985919778,0
3.33999633789063,-2.65778350830078,1.95995271205902,2.56525278091431,-2.38875555478454,1.93800159931817,2.62161057080077,1257.26,1260.085,3053.979,3046.859,-0.02887453,0.04895312,0.02830627,-0.857794284820557,-0.357227772474289,0.58536970615387,-0.867618167158097,-0.373311858882592,0.53709697585572,0
3.36001586914063,-2.67473530769348,1.95289981365204,2.57684564590454,-2.40601888046917,1.93057367255756,2.63229739176581,1248.72,1257.484,3049.622,3049.9,-0.02721058,0.04941645,0.02681359,-0.847589552402496,-0.352648854255676,0.579639494419098,-0.856999388527103,-0.368742895092007,0.53052344604056,0
3.3800048828125,-2.69147920608521,1.94593977928162,2.58831906318665,-2.42304196557559,1.92324911460621,2.64283549236868,1259.97,1254.98,3041.464,3037.492,-0.02551948,0.04989182,0.02526562,-0.837200880050659,-0.34799388051033,0.573669195175171,-0.846214826007803,-0.364102599125748,0.523847288101157,0
3.4000244140625,-2.70801186561584,1.93907475471497,2.59967446327209,-2.43987318937177,1.91600710921667,2.65325482168089,1254.9,1254.159,3040.869,3032.784,-0.02388216,0.05035069,0.02374669,-0.826631128787994,-0.343270272016525,0.567775785923004,-0.835236272052476,-0.359378834064062,0.51705104022176,0
3.42001342773438,-2.72432947158813,1.9323046207428,2.61090612411499,-2.45645774020782,1.90887124031063,2.66352144868012,1249.58,1251.705,3034.489,3034.633,-0.02227574,0.05079926,0.02224359,-0.815881907939911,-0.338482916355133,0.561587035655975,-0.824102019042908,-0.354588076049064,0.510158407210813,0
3.44000244140625,-2.74042892456055,1.92563188076019,2.62201404571533,-2.47281804716281,1.90183185728196,2.67364925803476,1249.747,1249.466,3034.149,3025.269,-0.02064536,0.05124579,0.02072721,-0.804971277713776,-0.33364075422287,0.555396854877472,-0.812800388649434,-0.349725300221754,0.503162159625937,0
3.46002197265625,-2.75630664825439,1.91905736923218,2.63299322128296,-2.48897526921199,1.89487985601472,2.68365134815842,1244.457,1247.828,3028.313,3025.786,-0.01901018,0.05168466,0.01922643,-0.793892502784729,-0.328740417957306,0.548959851264954,-0.801318788528228,-0.344785088448372,0.496054502206447,0
3.48001098632813,-2.77196002006531,1.9125816822052,2.64383935928345,-2.50487694859767,1.88803780761656,2.69349524520019,1255.652,1245.71,3019.849,3013.711,-0.01735955,0.0521312,0.01767973,-0.78265368938446,-0.323780536651611,0.542310237884521,-0.789697369743255,-0.339784716610052,0.488860290373601,0
3.5,-2.78738498687744,1.90620648860931,2.65455436706543,-2.5205447997813,1.88129636896134,2.70319439144611,1250.31,1245.207,3019.009,3009.512,-0.01577657,0.05255828,0.01616879,-0.771256685256958,-0.318767845630646,0.535753965377808,-0.777924000354857,-0.334718964672089,0.481572013878822,0
3.52001953125,-2.80257940292358,1.89993226528168,2.66513419151306,-2.53599921507943,1.87464676580493,2.71276141071155,1239.773,1242.868,3015.608,3013.607,-0.01422075,0.05296976,0.01469282,-0.759709477424622,-0.313710778951645,0.528986930847168,-0.765985728654519,-0.329582259876133,0.474181654997567,0
3.54000854492188,-2.81753969192505,1.89375996589661,2.67557430267334,-2.55119019794619,1.86811051026429,2.72216535275294,1248.912,1240.472,3008.924,3001.871,-0.01263084,0.05338928,0.0131714,-0.748024523258209,-0.308611661195755,0.522006750106812,-0.753924423002452,-0.324392617007921,0.466715132239272,0
3.55999755859375,-2.8322639465332,1.887690782547,2.68587565422058,-2.56613872308604,1.86167857751006,2.73141920191151,1245.509,1240.13,3007.256,2996.326,-0.01107928,0.05379354,0.01167992,-0.736199498176575,-0.303471922874451,0.515068352222443,-0.741727567798258,-0.319144650954242,0.459164697851087,0
3.58001708984375,-2.84674882888794,1.88172459602356,2.69603395462036,-2.58086439685043,1.85534253147694,2.74053509545279,1238.11,1238.02,3002.737,2998.552,-0.009547433,0.05418377,0.01022292,-0.724241614341736,-0.298295825719833,0.507917046546936,-0.729381927869994,-0.313832666990361,0.451522158631107,0
3.60000610351563,-2.86099195480347,1.87586307525635,2.70604562759399,-2.59531978247425,1.84912278287974,2.74948366775945,1247.255,1235.761,2995.985,2987.238,-0.007999071,0.0545774,0.00873438,-0.712162673473358,-0.2930848300457,0.500588178634644,-0.716930938559024,-0.308475354130224,0.443814403124743,0
3.6199951171875,-2.87499141693115,1.87010598182678,2.71591186523438,-2.60952509409627,1.84301063413925,2.75827743234631,1242.219,1235.427,2994.342,2983.618,-0.006506635,0.05495204,0.007286544,-0.699961841106415,-0.287841409444809,0.493315815925598,-0.704361775018033,-0.303067194200314,0.436033492140578,0
3.6400146484375,-2.88874435424805,1.86445474624634,2.72562909126282,-2.62349913748426,1.83699799365897,2.76692803087948,1234.062,1233.337,2990.621,2986.04,-0.005034972,0.05531199,0.005873897,-0.687650740146637,-0.282572090625763,0.485859960317612,-0.691660998977508,-0.297602405088683,0.428171106749629,0
3.66000366210938,-2.90224885940552,1.85890889167786,2.73519349098206,-2.63719712493647,1.83110413233575,2.77540773763803,1242.164,1231.169,2984.06,2975.669,-0.003540939,0.05567556,0.004430452,-0.675240099430084,-0.277278274297714,0.478223413228989,-0.678873453515702,-0.29210028151913,0.420255006953505,0
3.68002319335938,-2.91550374031067,1.85346972942352,2.74460649490356,-2.65065881779682,1.8253119419741,2.78374116678794,1238.852,1231.01,2982.302,2970.575,-0.002090581,0.05602321,0.003021647,-0.662727355957031,-0.271960407495499,0.470645815134048,-0.665966334939126,-0.286546708978778,0.41226488570328,0
3.70001220703125,-2.92850637435913,1.84813737869263,2.75386357307434,-2.66384123964357,1.81963991412768,2.79190171387692,1234.756,1229.141,2976.38,2971.472,-0.0006753777,0.05635793,0.001642474,-0.650122940540314,-0.266623675823212,0.462848424911499,-0.65298533214413,-0.280961346123326,0.404229026602262,0
3.72000122070313,-2.94125461578369,1.84291195869446,2.76296496391296,-2.6767633032417,1.81407991116207,2.79990108680742,1235.266,1227.544,2975.111,2963.41,0.0007417746,0.0566857,0.0002692712,-0.63743782043457,-0.261272430419922,0.455068171024323,-0.639917282339434,-0.275338529371411,0.396139281255611,0
3.74002075195313,-2.95374846458435,1.83779406547546,2.77190756797791,-2.68944246101018,1.80862442378895,2.80775008945815,1230.48,1226.452,2970.234,2963.468,0.00214173,0.0570014,-0.001071123,-0.624674797058105,-0.255906671285629,0.447132229804993,-0.626748599474004,-0.269672413024826,0.387987239250554,0
3.760009765625,-2.96598529815674,1.8327831029892,2.78068876266479,-2.70183851231475,1.80329074921818,2.81542383572149,1237.529,1224.523,2964.019,2954.44,0.003542559,0.05731617,-0.002424009,-0.61184298992157,-0.250527620315552,0.439057976007462,-0.613526094901139,-0.263983138701136,0.379801879044709,0
3.77999877929688,-2.97796416282654,1.82788062095642,2.78930997848511,-2.7139695770734,1.79807109095524,2.82293354268985,1233.808,1224.297,2962.42,2950.384,0.0048874,0.0576135,-0.003733219,-0.598941922187805,-0.24513640999794,0.431056320667267,-0.60023651686137,-0.258265004538452,0.371574997167698,0
3.80001831054688,-2.98968362808228,1.8230859041214,2.79776811599731,-2.72585229309426,1.79295829021612,2.83028950995902,1226.299,1222.557,2958.664,2953.044,0.006198514,0.05789569,-0.004999819,-0.585985660552979,-0.239739716053009,0.422907024621964,-0.586866312357872,-0.25251217906087,0.363298203668867,0
3.82000732421875,-3.00114345550537,1.81839895248413,2.8060610294342,-2.73744929742843,1.78796842323393,2.8374686080838,1233.283,1220.54,2953.615,2943.321,0.007521747,0.05817842,-0.006282397,-0.572985410690308,-0.234340324997902,0.414643704891205,-0.573463232144022,-0.246745208083563,0.355001058539243,0
3.83999633789063,-3.01234221458435,1.81382024288177,2.81418967247009,-2.74877791451009,1.78309403578861,2.84448156171422,1229.684,1220.529,2951.609,2939.681,0.008797154,0.05844529,-0.007520767,-0.559938073158264,-0.228937312960625,0.406432896852493,-0.560014026276881,-0.240958390526246,0.346675359432959,0
3.86001586914063,-3.02327919006348,1.80934953689575,2.82215142250061,-2.7598539723994,1.77832831750807,2.85133816917351,1224.338,1218.833,2947.741,2940.815,0.01004512,0.05869906,-0.008719189,-0.546857595443726,-0.223535984754562,0.398087710142136,-0.546505271550556,-0.235145950758426,0.338312796746137,0
3.8800048828125,-3.03395438194275,1.80498659610748,2.82994437217712,-2.77064299647982,1.77368610185671,2.85801708903178,1230.985,1216.985,2942.734,2931.841,0.01129408,0.0589511,-0.009924004,-0.533753275871277,-0.218138262629509,0.389650285243988,-0.532985466132484,-0.229328756186666,0.329943393154704,0
3.9000244140625,-3.04436683654785,1.80073189735413,2.83756995201111,-2.78117737042527,1.76915345504432,2.86453836832583,1227.371,1216.917,2940.777,2928.79,0.01248703,0.05918648,-0.01108035,-0.520623445510864,-0.212743744254112,0.381276726722717,-0.51942076458699,-0.223492244065531,0.321546196721701,0
3.92001342773438,-3.05451655387878,1.79658472537994,2.84502530097961,-2.79142456801014,1.76474437219711,2.87088187177258,1224.217,1215.203,2936.213,2929.096,0.01364055,0.05940961,-0.01220047,-0.507483720779419,-0.207358777523041,0.372767329216003,-0.505860052376089,-0.217657448443621,0.313151469876846,0
