t,x_s1,x_s2,x_s3,x_s_d1,x_s_d2,x_s_d3,propellers_rpms1,propellers_rpms2,propellers_rpms3,propellers_rpms4,rollRad,pitchRad,yawRad,v_s1,v_s2,v_s3,v_s_d1,v_s_d2,v_s_d3,insideCount
0,-0.0599999986588955,2.94000005722046,1.17999994754791,-0.0599999986588955,2.94000005722046,1.17999994754791,0,0,0,0,0,45.0048027038574,0,0,0,0,-1.06581410364015E-15,4.44089209850063E-16,-7.105427357601E-16,0
0.019989013671875,-0.0599999986588955,2.94000005722046,1.17705690860748,-0.0600018659130177,2.93999925379318,1.18000108822432,0,0,0,0,0.937003672122955,44.8630027770996,-0.00115976633969694,3.71994488546079E-08,3.50004931704007E-08,-0.147149950265884,-0.000279680311988734,-0.000120338624884473,0.000170852338267345,5
0.03997802734375,-0.0599999986588955,2.94000005722046,1.17018985748291,-0.060014847005691,2.93999366839165,1.18000901817127,0,0,0,0,1.87400352954865,44.7211418151855,-0.00311126722954214,3.70364325874561E-08,3.5142885934647E-08,-0.343349903821945,-0.00110975851463131,-0.000477498085781228,0.000677934159146771,6
0.05999755859375,-0.0599062256515026,2.94009447097778,1.16346502304077,-0.0600498857373401,2.93997859220429,1.18003042278566,3197.325,2848.704,1517.249,2782.322,1.40365922451019,44.7413520812988,0.0288782697170973,0.00468863174319267,0.00471880286931992,-0.336240500211716,-0.00247936261166862,-0.00106680046642749,0.00151460392977639,6
0.079986572265625,-0.0597377754747868,2.94026732444763,1.15723752975464,-0.0601174907153006,2.93994950367094,1.18007172161174,2866.013,2651.907,2344.175,2562.079,0.339566051959991,44.8157997131348,0.0999031513929367,0.00842245481908321,0.00864478945732117,-0.311372131109238,-0.00437104534358026,-0.00188073869847162,0.0026702033915743,6
0.0999755859375,-0.0595562905073166,2.94046425819397,1.15151929855347,-0.0602280337026576,2.93990194011169,1.18013925059773,2239.444,2527.902,3138.338,2508.833,359.321472167969,44.919116973877,0.178560763597488,0.00907422322779894,0.00984908081591129,-0.285909205675125,-0.00677334142420609,-0.00291437958958193,0.00413772858013753,5
0.1199951171875,-0.0594243928790092,2.94063210487366,1.14656853675842,-0.0603918861403606,2.93983143898525,1.18023934549506,2123.677,2454.725,3352.065,2464.421,358.75,44.9999008178711,0.253260344266891,0.00659493310377002,0.00839813239872456,-0.247537881135941,-0.00967801353495435,-0.00416417885169243,0.00591214744607921,5
0.139984130859375,-0.0593829825520515,2.94074010848999,1.14257037639618,-0.0606183773949454,2.93973398612584,1.18037770546816,2312.854,2456.903,3068.582,2463.071,358.636199951172,45.0326309204102,0.326482504606247,0.00207058852538466,0.00539825670421124,-0.19990673661232,-0.0130632593357409,-0.00562075554695178,0.00798014128006072,5
0.160003662109375,-0.0594433359801769,2.9407856464386,1.13952398300171,-0.0609177895434042,2.93960515744296,1.18056061167741,2536.092,2486.498,2635.79,2492.247,358.757019042969,45.0249977111816,0.398212611675262,-0.00301766907796264,0.00227969721890986,-0.152322188019753,-0.0169265510445065,-0.00728302204135792,0.0103401658994673,5
0.17999267578125,-0.0596000477671623,2.94078159332275,1.13730907440186,-0.0612985250199726,2.93944133760391,1.18079319703879,2667.135,2506.32,2301.989,2512.944,358.864166259766,44.9985198974609,0.467501312494278,-0.00783565267920494,-0.000197443645447493,-0.110745467245579,-0.0212433804254414,-0.00914043312572283,0.0129772496054864,5
0.199981689453125,-0.0598476082086563,2.94073987007141,1.13576066493988,-0.0617700327574899,2.93923846099686,1.18108123375791,2652.885,2499.865,2183.836,2508.893,358.816864013672,44.9744071960449,0.532906055450439,-0.0123779531568289,-0.00209087203256786,-0.0774214267730713,-0.0260066742439309,-0.011189945384795,0.0158870714694674,5
0.220001220703125,-0.0601895526051521,2.94066214561462,1.13474488258362,-0.0623420644491781,2.93899233174064,1.18143067899198,2540.211,2470.424,2246.009,2478.894,358.612579345703,44.9637107849121,0.594432055950165,-0.0170971434563398,-0.00388124375604093,-0.0507900081574917,-0.03121219533433,-0.0134297356845702,0.0190670430730375,5
0.239990234375,-0.0606388226151466,2.9405415058136,1.13419330120087,-0.0630214373585105,2.93870001655724,1.18184569730089,2412.67,2430.171,2373.253,2436.93,358.334777832031,44.9658660888672,0.652752995491028,-0.0224635545164347,-0.00603219959884882,-0.0275781471282244,-0.0368316683029241,-0.015847637913056,0.0224998914194052,5
0.259979248046875,-0.0612131841480732,2.94036602973938,1.13409018516541,-0.0638172488896441,2.93835760108779,1.18233184614686,2328.988,2391.645,2463,2399.004,358.076385498047,44.9738883972168,0.707754135131836,-0.0287181213498116,-0.00876813195645809,-0.00515452586114407,-0.0428604193878216,-0.0184416410810803,0.0261827613803636,4
0.279998779296875,-0.0619297176599503,2.94012498855591,1.13444006443024,-0.0647390625194898,2.93796097043536,1.18289496770872,2305.549,2364.994,2470.409,2370.657,357.887329101563,44.9803428649902,0.760392367839813,-0.0358267799019814,-0.012056116014719,0.0174961537122726,-0.0492963837173861,-0.0212108567320638,0.0301143915580518,4
0.29998779296875,-0.0628012642264366,2.93981075286865,1.13523626327515,-0.0657918945890516,2.93750796620855,1.18353812639089,2318.506,2348.759,2414.676,2353.019,357.765228271484,44.9817352294922,0.811404585838318,-0.0435774587094784,-0.0157065093517303,0.0398077741265297,-0.0561078595514081,-0.0241416444928383,0.0342754158540715,4
0.319976806640625,-0.0638360604643822,2.93942022323608,1.13644886016846,-0.0669846297797139,2.93699476557717,1.1842667497066,2333.929,2336.064,2343.35,2342.159,357.6787109375,44.9788475036621,0.859986007213593,-0.0517397783696651,-0.0195226296782494,0.060628816485405,-0.0632924014512957,-0.0272329521594955,0.0386643403881474,4
0.339996337890625,-0.065039686858654,2.93895220756531,1.13803553581238,-0.068326768706371,2.93641728069206,1.18508664143323,2337.644,2324.631,2287.169,2329.987,357.5947265625,44.974178314209,0.90635621547699,-0.0601812526583672,-0.0234028473496437,0.0793343707919121,-0.0708499516420146,-0.0304847548730522,0.0432811298664125,4
0.3599853515625,-0.0664171949028969,2.93840527534485,1.1399507522583,-0.0698213312158394,2.93577421219747,1.18599964634808,2323.453,2311.209,2260.467,2315.404,357.494781494141,44.9702339172363,0.950907051563263,-0.0688754841685295,-0.0273415353149176,0.0957597941160202,-0.0787457139191101,-0.0338820807988248,0.0481045278305496,4
0.379974365234375,-0.0679744333028793,2.93777751922607,1.14215338230133,-0.0714771179380247,2.93506177342824,1.18701114061862,2294.433,2293.831,2261.749,2300.142,357.379821777344,44.9685707092285,0.992665112018585,-0.0778617933392525,-0.0313870906829834,0.110132835805416,-0.0869793044824472,-0.0374247647983375,0.0531342998230452,4
0.399993896484375,-0.0697183385491371,2.93706560134888,1.14461624622345,-0.0733036822025899,2.9342758538535,1.18812696022487,2268.36,2277.676,2269.012,2282.785,357.261932373047,44.9687995910645,1.03215682506561,-0.0871952325105667,-0.0355961993336678,0.12314260751009,-0.0955525119207663,-0.0411135764513579,0.0583715384648505,4
0.41998291015625,-0.0716561675071716,2.93626594543457,1.14732027053833,-0.075301871434707,2.93341608884986,1.18934762284564,2250.392,2263.647,2269.55,2267.08,357.152221679688,44.9698371887207,1.07014417648315,-0.0968916639685631,-0.039988037198782,0.13519911468029,-0.104427768518458,-0.0449323514193797,0.0637932942247324,4
0.44000244140625,-0.0737946704030037,2.93537497520447,1.15024733543396,-0.077483988232608,2.93247718495301,1.19068064394622,2236.699,2249.875,2264.406,2255.786,357.056976318359,44.9710502624512,1.10560095310211,-0.106925129890442,-0.0445447601377964,0.146354243159294,-0.113620829717891,-0.048887868829098,0.0694091918565748,4
0.459991455078125,-0.0761398673057556,2.93439030647278,1.15338385105133,-0.0798493430620752,2.93145943885026,1.1921256023009,2233.442,2241.075,2247.623,2244.173,356.975341796875,44.9716377258301,1.13976836204529,-0.117259934544563,-0.0492391437292099,0.15682652592659,-0.123092454730403,-0.0529632444654124,0.0751952597749251,4
0.47998046875,-0.0786966979503632,2.93330955505371,1.15671062469482,-0.082406855753501,2.93035901258777,1.1936879468949,2226.529,2231.153,2233.76,2236.838,356.903045654297,44.9719429016113,1.17152345180511,-0.127841621637344,-0.054032351821661,0.166338935494423,-0.132845337826091,-0.057159637597476,0.0811531438673414,4
0.5,-0.0814696177840233,2.93213129043579,1.16021156311035,-0.085166398670376,2.92917165836334,1.195373708601,2222.08,2224.016,2220.19,2228.12,356.835876464844,44.9720726013184,1.20153725147247,-0.138646051287651,-0.0589097999036312,0.175049260258675,-0.142884000065179,-0.0614789935111996,0.0872856059789651,5
0.519989013671875,-0.0844627246260643,2.93085408210754,1.16387128829956,-0.0881248588203387,2.92789871561062,1.19718098574075,2216.91,2217.75,2209.538,2220.076,356.770141601563,44.9722442626953,1.23055589199066,-0.149655237793922,-0.0638626292347908,0.182983934879303,-0.153166947611899,-0.0659034585682559,0.0935672981730243,5
0.53997802734375,-0.0876798778772354,2.92947626113892,1.16767287254333,-0.0912913676125048,2.92653625533937,1.19911535654949,2205.722,2209.13,2208.251,2214.681,356.7060546875,44.9729919433594,1.25717175006866,-0.160857692360878,-0.0688873901963234,0.19007870554924,-0.16369851368286,-0.0704348972306956,0.100000867543927,5
0.55999755859375,-0.091125100851059,2.92799639701843,1.17160654067993,-0.094676112580471,2.92507989413848,1.20118304443252,2199.413,2203.505,2205.378,2207.302,356.645904541016,44.9740028381348,1.28215134143829,-0.172261029481888,-0.0739939957857132,0.196684747934341,-0.17448465888317,-0.0750758741803766,0.106589955332319,5
0.579986572265625,-0.0948022156953812,2.92641282081604,1.17566430568695,-0.0982734311149,2.92353206847056,1.20338059019015,2195.888,2199.271,2200.07,2201.035,356.589904785156,44.9750213623047,1.30637788772583,-0.183855324983597,-0.0791784226894379,0.202887877821922,-0.185481935470438,-0.0798076950675377,0.113308019990364,5
0.5999755859375,-0.0987146124243736,2.92472434043884,1.17983567714691,-0.102092760004862,2.92188871794891,1.20571375860958,2188.282,2192.875,2199.93,2198.173,356.5390625,44.9763145446777,1.3283257484436,-0.195620387792587,-0.0844286531209946,0.208567515015602,-0.196696165293826,-0.0846328648712294,0.120158617994867,5
0.6199951171875,-0.102865695953369,2.92292952537537,1.18411600589752,-0.106144683970236,2.92014528826426,1.208189015731,2186.745,2189.921,2195.41,2193.365,356.494079589844,44.9775009155273,1.34880888462067,-0.207553997635841,-0.0897447243332863,0.214017614722252,-0.208134604141382,-0.0895545055543457,0.127146181793521,5
0.639984130859375,-0.107258439064026,2.92102718353271,1.18850064277649,-0.110420882305709,2.91830535958365,1.21080127856538,2187.073,2188.335,2188.665,2189.505,356.452728271484,44.9784507751465,1.36880731582642,-0.219637408852577,-0.0951155871152878,0.219234779477119,-0.219752140575416,-0.0945532069255159,0.134243153512991,5
0.660003662109375,-0.111895404756069,2.91901659965515,1.19298136234283,-0.114938248900541,2.91636166293851,1.21356086732604,2181.282,2183.84,2189.45,2188.939,356.414642333984,44.9796409606934,1.38661289215088,-0.231848791241646,-0.100528284907341,0.224036753177643,-0.231574097577923,-0.0996398647564507,0.141465002567821,5
0.67999267578125,-0.116779342293739,2.91689682006836,1.19755733013153,-0.119686638739014,2.91431856344567,1.2164615845812,2183.164,2183.838,2184.508,2185,356.379333496094,44.980640411377,1.40393400192261,-0.244197115302086,-0.105990119278431,0.228799596428871,-0.243554411173546,-0.104794659005432,0.14878358919428,5
0.699981689453125,-0.121912471950054,2.9146671295166,1.20222210884094,-0.124676182095571,2.91217170233105,1.21950961875744,2177.666,2180.297,2187.262,2185.266,356.347015380859,44.9819297790527,1.41911494731903,-0.256656527519226,-0.11148763448,0.233237892389297,-0.25570106256044,-0.110021023759057,0.156203788981777,5
0.720001220703125,-0.127297163009644,2.91232657432556,1.20697581768036,-0.129918284978346,2.90991617190799,1.22271193760712,2178.274,2180.085,2185.829,2182.883,356.318664550781,44.9831466674805,1.43310582637787,-0.269234716892242,-0.117027677595615,0.237685307860374,-0.268023157655716,-0.11532287703907,0.163731164592979,5
0.739990234375,-0.132935523986816,2.9098744392395,1.21181845664978,-0.135400001298574,2.90755754251682,1.22606063256665,2180.664,2180.982,2181.877,2181.247,356.292602539063,44.9841232299805,1.4469987154007,-0.281918197870255,-0.122603051364422,0.242130115628242,-0.280473432677602,-0.12067988256057,0.171336843321139,5
0.759979248046875,-0.138829261064529,2.90731048583984,1.2167454957962,-0.141131974150567,2.90509123473139,1.22956220533626,2176.078,2178.202,2185.953,2183.125,356.269073486328,44.9853897094727,1.4587709903717,-0.29468697309494,-0.128202214837074,0.246350824832916,-0.293060978423328,-0.126095951839638,0.179026378592425,5
0.779998779296875,-0.144980281591415,2.90463376045227,1.22175931930542,-0.147126184485884,2.90251209348295,1.2332239748923,2177.898,2179.11,2185.335,2181.775,356.249084472656,44.9865341186523,1.46941161155701,-0.307551205158234,-0.133833602070808,0.250690579414368,-0.305795832832518,-0.131575403921268,0.186805902427515,5
0.79998779296875,-0.151390224695206,2.9018440246582,1.22686171531677,-0.153366821193532,2.89982692185086,1.23703628247379,2181.365,2181.145,2182.006,2180.989,356.230865478516,44.9874153137207,1.48013663291931,-0.320497423410416,-0.1394904255867,0.255118936300278,-0.318629798715703,-0.137097500901303,0.194645971915464,5
0.819976806640625,-0.158060327172279,2.89894080162048,1.23204946517944,-0.159865102720482,2.89703089285078,1.24100598125492,2177.217,2178.983,2187.221,2183.904,356.214752197266,44.9886054992676,1.48873960971832,-0.333505392074585,-0.145161107182503,0.259387612342834,-0.331572942526109,-0.142666574093344,0.202552736495465,5
0.839996337890625,-0.164992079138756,2.89592361450195,1.23732650279999,-0.166633637018892,2.89411858163313,1.24514077323692,2179.796,2180.764,2187.288,2183.133,356.201904296875,44.9896621704102,1.49633920192719,-0.346587806940079,-0.150855794548988,0.263854146003723,-0.344636106234817,-0.148287288494656,0.210532819358465,5
0.8599853515625,-0.172186702489853,2.89279222488403,1.24269604682922,-0.173653699721778,2.89109804476993,1.2494292199962,2184.095,2183.511,2184.265,2182.972,356.190460205078,44.9904251098633,1.50418782234192,-0.359731435775757,-0.156567692756653,0.268476754426956,-0.357770416714212,-0.153938615363784,0.218556364673454,5
0.879974365234375,-0.179645001888275,2.88954663276672,1.24815559387207,-0.180937139259224,2.88796418421271,1.25387855955379,2180.113,2181.71,2190.303,2186.599,356.180847167969,44.9915008544922,1.50992727279663,-0.372915118932724,-0.162284925580025,0.272976994514465,-0.370986786595025,-0.159625250100867,0.226630038796258,5
0.899993896484375,-0.187368094921112,2.88618636131287,1.25371015071869,-0.18849723509595,2.8847112861788,1.25849690412748,2183.295,2184.005,2190.645,2186.234,356.17431640625,44.9924278259277,1.51472496986389,-0.386153876781464,-0.168018758296967,0.277730703353882,-0.384296738353309,-0.165352150505452,0.234760880627692,5
0.91998291015625,-0.195356756448746,2.88271117210388,1.25936377048492,-0.196312316554895,2.88134867495511,1.2632710154388,2188.146,2187.263,2187.672,2186.393,356.168914794922,44.993049621582,1.51991522312164,-0.399433851242065,-0.173762276768684,0.28268027305603,-0.397650971463704,-0.171098103938772,0.242918773246135,5
0.94000244140625,-0.203611433506012,2.87912106513977,1.26511418819427,-0.204407453948074,2.87786556348678,1.26821620855017,2184.086,2185.609,2194.306,2190.463,356.165069580078,44.9939956665039,1.52300941944122,-0.412733227014542,-0.179503113031387,0.287521988153458,-0.411081631631503,-0.176876941799768,0.251123353961324,5
0.959991455078125,-0.212132900953293,2.87541604042053,1.27096891403198,-0.212759000778906,2.87427212620069,1.27331803818581,2190.69,2189.843,2191.294,2189.192,356.162811279297,44.9945907592773,1.52640676498413,-0.42607456445694,-0.185256227850914,0.292734861373901,-0.424539267042903,-0.182667386354485,0.259344413431889,5
0.97998046875,-0.220921367406845,2.87159585952759,1.27692580223083,-0.221379956358585,2.87056276985637,1.27858444542207,2186.65,2188.448,2197.958,2193.25,356.16259765625,44.9954833984375,1.52773213386536,-0.43942329287529,-0.191003426909447,0.297846049070358,-0.438035925118965,-0.188474621271639,0.267589311239359,5
1,-0.229977279901505,2.86766076087952,1.28299105167389,-0.230284798736574,2.86673126495361,1.28402427467346,2190.602,2191.257,2197.938,2193.037,356.165618896484,44.9961738586426,1.52831029891968,-0.452796071767807,-0.196756273508072,0.303260654211044,-0.451584000205995,-0.194303979492187,0.275865618896484,5
1.01998901367188,-0.239300847053528,2.86361074447632,1.28916895389557,-0.239446912293295,2.86278906344998,1.2896212668733,2196.228,2194.859,2194.188,2193.455,356.16943359375,44.996509552002,1.52951204776764,-0.466177493333817,-0.202506273984909,0.308897107839584,-0.46513400752272,-0.200134169097193,0.284143106922576,5
1.03997802734375,-0.248891711235046,2.85944604873657,1.29545700550079,-0.248880035413094,2.85873025410248,1.2953838145862,2191.709,2192.986,2201.241,2197.977,356.17431640625,44.9972114562988,1.52855789661407,-0.479543924331665,-0.208240047097206,0.314405173063278,-0.478698517198992,-0.205970598662363,0.292429454213812,5
1.05999755859375,-0.258750021457672,2.85516667366028,1.30186128616333,-0.258599401509697,2.85454828239877,1.3013212236669,2195.31,2195.742,2201.673,2197.583,356.181793212891,44.9977531433105,1.52682793140411,-0.492915689945221,-0.213972389698029,0.320213675498962,-0.492290296490434,-0.211818761581115,0.30073246008742,5
1.07998657226563,-0.268875628709793,2.85077285766602,1.3083860874176,-0.268575430648764,2.85025587575821,1.30741542419509,2200.62,2199.363,2198.257,2197.691,356.189788818359,44.9979667663574,1.525834441185,-0.506278872489929,-0.219696432352066,0.326241821050644,-0.50586005237609,-0.217657448443621,0.309022012206103,5
1.0999755859375,-0.279267817735672,2.84626483917236,1.31502866744995,-0.278822628233634,2.845846792911,1.31367527729532,2195.53,2197.142,2205.805,2202.205,356.198944091797,44.9985809326172,1.52265095710754,-0.519610345363617,-0.225398942828178,0.332129031419754,-0.519420764586993,-0.223492244065532,0.317306039685002,5
1.1199951171875,-0.289926409721375,2.8416428565979,1.32179510593414,-0.289357002179081,2.84131414609862,1.32011056195293,2199.176,2199.822,2205.982,2201.555,356.211029052734,44.9990310668945,1.51873755455017,-0.5329310297966,-0.231095045804977,0.338322699069977,-0.532985466132485,-0.229328756186667,0.32559250418615,5
1.13998413085938,-0.30085089802742,2.83690738677979,1.3286896944046,-0.300146026259498,2.83667193044725,1.32670140840426,2204.69,2203.391,2201.879,2201.471,356.223663330078,44.9991111755371,1.51566934585571,-0.546225666999817,-0.236776635050774,0.344730496406555,-0.546505271550557,-0.235145950758426,0.333851542343647,5
1.16000366210938,-0.312040328979492,2.83205890655518,1.33570897579193,-0.311222084148811,2.83190621216671,1.33346759933036,2199.228,2200.816,2209.247,2206.007,356.237487792969,44.9996032714844,1.51035702228546,-0.55946958065033,-0.242429330945015,0.350966721773148,-0.560014026276883,-0.240958390526247,0.342103829805999,6
1.17999267578125,-0.323494166135788,2.82709741592407,1.34286093711853,-0.322550701230474,2.8270318247214,1.34038807472597,2206.553,2205.302,2204.797,2203.831,356.252502441406,44.9996795654297,1.50570023059845,-0.572691202163696,-0.248071581125259,0.357597380876541,-0.573463232144024,-0.246745208083563,0.350319739799517,6
1.19998168945313,-0.335211187601089,2.82202386856079,1.35014164447784,-0.334147705564643,2.8220419577392,1.34747250370603,2200.765,2202.922,2212.052,2207.9,356.269287109375,45.0001487731934,1.49889075756073,-0.585850834846497,-0.253682404756546,0.364035487174988,-0.586866312357874,-0.25251217906087,0.358507472351216,6
1.22000122070313,-0.34719055891037,2.81683826446533,1.35755693912506,-0.346030421585499,2.81692915700008,1.35473146949704,2204.693,2205.322,2210.994,2206.871,356.289306640625,45.0003967285156,1.49143481254578,-0.598970174789429,-0.259276270866394,0.370766669511795,-0.600236516861372,-0.258265004538453,0.366675121644476,6
1.239990234375,-0.359431207180023,2.81154131889343,1.36511039733887,-0.358161486344149,2.81170949873715,1.36214214765657,2210.267,2208.721,2205.664,2206.322,356.309661865234,45.0002365112305,1.48502933979034,-0.612031579017639,-0.264843374490738,0.377672493457794,-0.613526094901141,-0.263983138701136,0.374793517489195,6
1.25997924804688,-0.371931403875351,2.80613398551941,1.37279713153839,-0.370557537648727,2.80637582416637,1.36971470196197,2203.806,2205.422,2212.989,2210.727,356.330841064453,45.0005302429199,1.47632837295532,-0.625010192394257,-0.270368844270706,0.384337961673737,-0.626748599474006,-0.269672413024826,0.382870939199643,6
1.27999877929688,-0.38468998670578,2.80061650276184,1.38062238693237,-0.383236695417198,2.80092033679326,1.37746020158837,2207.01,2207.547,2212.322,2209.212,356.354644775391,45.0006866455078,1.46692609786987,-0.637930274009705,-0.275870084762573,0.391265094280243,-0.639917282339435,-0.275338529371412,0.39091548206889,6
1.29998779296875,-0.397705554962158,2.79498982429504,1.38858938217163,-0.396158759015336,2.79536033382764,1.38535408859565,2212.067,2210.685,2207.193,2208.167,356.378540039063,45.0004653930664,1.45862305164337,-0.650776565074921,-0.281339228153229,0.398347437381744,-0.652985332144132,-0.280961346123326,0.398898549771684,6
1.31997680664063,-0.410976052284241,2.78925466537476,1.39669263362885,-0.409341180862083,2.78968830598122,1.39340702439419,2204.883,2206.88,2214.83,2212.366,356.403472900391,45.0007514953613,1.44794476032257,-0.663524806499481,-0.286762118339539,0.405162006616592,-0.665966334939128,-0.286546708978778,0.406828441814593,6
1.33999633789063,-0.424499988555908,2.78341150283813,1.40493714809418,-0.422802873722428,2.78389611561957,1.401630562497,2207.96,2208.831,2213.814,2210.378,356.431427001953,45.000862121582,1.43661642074585,-0.67619913816452,-0.292155802249908,0.412228494882584,-0.678873453515705,-0.29210028151913,0.41471319914141,6
1.3599853515625,-0.438275694847107,2.7774612903595,1.41332578659058,-0.436500861174643,2.77800225429635,1.40999844927868,2213.117,2211.755,2207.899,2209.036,356.459716796875,45.0005683898926,1.42647445201874,-0.688783049583435,-0.2975113093853,0.419433802366257,-0.69166099897751,-0.297602405088682,0.422524911118315,6
1.37997436523438,-0.452300697565079,2.77140498161316,1.42185246944427,-0.45045340944128,2.77199886256629,1.41852184328955,2205.478,2207.559,2215.245,2213.122,356.489044189453,45.0007858276367,1.41392469406128,-0.701251208782196,-0.302813321352005,0.426332145929337,-0.704342498157629,-0.303058899905815,0.430271841076558,6
1.39999389648438,-0.466573238372803,2.76524329185486,1.43052172660828,-0.464680216184654,2.76587746507559,1.42721277752413,2208.457,2209.283,2213.72,2210.784,356.521362304688,45.0008277893066,1.40074515342712,-0.713628053665161,-0.308079034090042,0.43346118927002,-0.716930938559026,-0.308475354130225,0.437961922879032,6
1.41998291015625,-0.481091171503067,2.75897741317749,1.43933582305908,-0.479135601808478,2.75965771647838,1.43604334702988,2213.461,2211.977,2207.323,2209.122,356.553802490234,45.0004615783691,1.38881075382233,-0.725896954536438,-0.313299506902695,0.440702170133591,-0.729381927869995,-0.313832666990362,0.445568037955247,6
1.44000244140625,-0.495851874351501,2.75260829925537,1.44828772544861,-0.493861275572861,2.75332167044526,1.44503903134294,2205.194,2207.362,2214.703,2213.045,356.587158203125,45.0006332397461,1.37441658973694,-0.738033294677734,-0.318459689617157,0.447598040103912,-0.741727567798258,-0.319144650954242,0.453109796737511,6
1.45999145507813,-0.510853230953217,2.74613666534424,1.45738422870636,-0.508809800712713,2.74688973769103,1.45417085208374,2212.385,2211.127,2208.021,2208.794,356.621551513672,45.0003318786621,1.36104643344879,-0.750069081783295,-0.323580533266068,0.45482611656189,-0.753924423002454,-0.324392617007921,0.460560665253582,6
1.47998046875,-0.52609246969223,2.73956394195557,1.46661806106567,-0.524000783579472,2.74035348215039,1.46345078646643,2203.867,2206.776,2215.144,2212.2,356.657775878906,45.000545501709,1.34532976150513,-0.761963129043579,-0.328639537096024,0.461691290140152,-0.76598572865452,-0.329582259876133,0.467928728663466,6
1.5,-0.541567325592041,2.73289084434509,1.47599339485168,-0.539455198877605,2.73370387899399,1.47289164761066,2207.078,2208.122,2212.4,2209.401,356.697540283203,45.0005264282227,1.32908058166504,-0.773738861083984,-0.333652287721634,0.468769520521164,-0.777924000354858,-0.334718964672088,0.475221632552146,6
1.51998901367188,-0.557274758815765,2.72611880302429,1.48551177978516,-0.555123050061237,2.72696244033876,1.48246289340675,2212.222,2210.542,2204.68,2207.302,356.737426757813,45.0000305175781,1.31424236297607,-0.785377621650696,-0.338607639074326,0.475919902324677,-0.789697369743256,-0.339784716610053,0.482413800191712,6
1.53997802734375,-0.573211967945099,2.71924901008606,1.49516499042511,-0.571024729446907,2.7201203919406,1.49217698120264,2203.175,2205.329,2211.721,2211.075,356.777923583984,45.0001182556152,1.29691708087921,-0.796855330467224,-0.343490302562714,0.482660859823227,-0.801318788528229,-0.344785088448372,0.489513143578788,6
1.55999755859375,-0.589375913143158,2.71228265762329,1.50495648384094,-0.587181951496087,2.71316839067337,1.50204717602401,2205.498,2206.391,2209.634,2207.837,356.821197509766,45.000057220459,1.27898287773132,-0.808197438716888,-0.348318934440613,0.489576727151871,-0.812800388649436,-0.349725300221754,0.496527073925997,6
1.57998657226563,-0.605763673782349,2.70522093772888,1.51488745212555,-0.603542258451077,2.7061290076447,1.51204143224525,2210.097,2208.588,2202.359,2205.23,356.8642578125,44.9995765686035,1.26250636577606,-0.819388806819916,-0.353085398674011,0.49655094742775,-0.82410201904291,-0.354588076049064,0.503431063574906,6
1.5999755859375,-0.622371733188629,2.69806551933289,1.52494931221008,-0.620126809287134,2.69899313873865,1.52217267555419,2200.273,2202.979,2209.933,2208.807,356.908203125,44.9997215270996,1.24350666999817,-0.830406904220581,-0.357775241136551,0.503094851970673,-0.835236272052476,-0.359378834064062,0.510232804991858,5
1.6199951171875,-0.639197289943695,2.69081735610962,1.53514564037323,-0.636958033083316,2.69175113334911,1.53245460752521,2202.686,2203.861,2207.469,2205.239,356.955383300781,44.9996757507324,1.22392904758453,-0.841276407241821,-0.362406522035599,0.509816646575928,-0.846214826007804,-0.364102599125749,0.516939432286212,5
1.63998413085938,-0.656236827373505,2.68347787857056,1.54547727108002,-0.653981118189727,2.68442657539777,1.54285374457671,2207.394,2205.925,2199.561,2202.417,357.002563476563,44.9991912841797,1.20587348937988,-0.85198050737381,-0.366969585418701,0.51658296585083,-0.856999388527105,-0.368742895092007,0.523527553239473,5
1.66000366210938,-0.673486769199371,2.67604899406433,1.55593514442444,-0.671244443874359,2.67699864863716,1.55339964084857,2197.352,2200.076,2206.763,2205.953,357.050750732422,44.9993171691895,1.18527615070343,-0.862496912479401,-0.371449530124664,0.522893309593201,-0.867618167158098,-0.373311858882592,0.530014399402375,5
1.67999267578125,-0.690943956375122,2.66853165626526,1.56652510166168,-0.688691692550512,2.66949158495151,1.56405789280588,2204.719,2203.267,2198.467,2200.44,357.099822998047,44.9989242553711,1.16591274738312,-0.872855842113495,-0.375866889953613,0.52949583530426,-0.878034183119987,-0.377793579561193,0.536377381014768,5
1.69998168945313,-0.708604335784912,2.66092777252197,1.57723760604858,-0.706345246291743,2.66189575395985,1.57484217330813,2194.432,2197.798,2205.466,2203.502,357.150665283203,44.9991111755371,1.14408421516418,-0.883019208908081,-0.380199670791626,0.535625755786896,-0.88825927318574,-0.382193150160541,0.542623728976553,5
1.72000122070313,-0.726464509963989,2.65323853492737,1.58807599544525,-0.724228658537036,2.6542010212754,1.58576687078363,2197.325,2198.534,2201.711,2199.594,357.205078125,44.9990348815918,1.12181651592255,-0.893008768558502,-0.384463340044022,0.541920781135559,-0.898304216251578,-0.386515208538549,0.548760027947228,5
1.739990234375,-0.744520604610443,2.6454656124115,1.59904050827026,-0.74228345468553,2.64643254688532,1.59679626401121,2202.285,2200.42,2192.663,2196.522,357.25927734375,44.9984664916992,1.10123693943024,-0.902806639671326,-0.38864678144455,0.548227310180664,-0.908134108040217,-0.390744736359816,0.554764955448471,5
1.75997924804688,-0.762768447399139,2.637610912323,1.61012101173401,-0.760532711099173,2.63858040167573,1.60794444998027,2191.511,2194.119,2199.785,2200.081,357.31396484375,44.9985427856445,1.07808077335358,-0.912392973899841,-0.392735928297043,0.554025232791901,-0.917760245372929,-0.394886594330938,0.560645412532115,4
1.77999877929688,-0.781204342842102,2.62967586517334,1.62132024765015,-0.779000609654483,2.63063418086074,1.61922620102184,2193.572,2194.615,2196.871,2195.842,357.371368408203,44.9984664916992,1.05440807342529,-0.921791076660156,-0.396749079227448,0.559959173202515,-0.927192788821983,-0.398945154262308,0.566407606133204,4
1.79998779296875,-0.799824059009552,2.62166237831116,1.63263821601868,-0.797626646773287,2.62261991743975,1.63060455644414,2197.979,2196.32,2188.503,2192.38,357.428314208984,44.9979476928711,1.03243947029114,-0.93098658323288,-0.400678008794785,0.565897881984711,-0.936399026186941,-0.402906341007953,0.572031552878955,4
1.81997680664063,-0.818623304367065,2.6135721206665,1.6440646648407,-0.816434558901977,2.61452739828301,1.64209401647187,2186.705,2189.772,2196.043,2195.823,357.486022949219,44.9981079101563,1.00785529613495,-0.939961850643158,-0.404510021209717,0.571323692798615,-0.945389654806995,-0.406774757334075,0.577523787606953,3
1.83999633789063,-0.837598025798798,2.60540699958801,1.65560245513916,-0.835449117627072,2.60634596486888,1.6537097136807,2188.845,2190.212,2192.918,2191.321,357.546936035156,44.9980773925781,0.982806921005249,-0.948737978935242,-0.408262014389038,0.576889336109161,-0.954174163352093,-0.410554485950274,0.582890106797601,3
1.8599853515625,-0.856743991374969,2.59716844558716,1.66725158691406,-0.854607925216182,2.59810246519841,1.66541353026959,2193.581,2191.827,2183.905,2187.769,357.607543945313,44.9975547790527,0.959512650966644,-0.957299768924713,-0.411924660205841,0.582458257675171,-0.962722140342816,-0.41423244164655,0.588111932552683,0
1.87997436523438,-0.876056611537933,2.58885884284973,1.67900145053864,-0.873935340558452,2.5897864183221,1.67722034670381,2182.092,2185.203,2191.201,2191.223,357.668914794922,44.9977149963379,0.933619618415833,-0.965630054473877,-0.415484935045242,0.587492763996124,-0.971043628570469,-0.417812945555442,0.593195399856694,0
1.89999389648438,-0.895531535148621,2.58047962188721,1.69085466861725,-0.893456683142228,2.58138692997148,1.6891456302637,2184.348,2185.505,2187.734,2186.642,357.733337402344,44.9976692199707,0.907249987125397,-0.973748445510864,-0.418959200382233,0.592659115791321,-0.979147395688901,-0.421299770153459,0.598145864732551,0
1.91998291015625,-0.915164411067963,2.5720329284668,1.70281088352203,-0.91310780215452,2.5729316024492,1.70115019221864,2188.989,2187.146,2178.61,2182.843,357.797210693359,44.9971351623535,0.882737994194031,-0.981640338897705,-0.422338604927063,0.597813308238983,-0.98700543065471,-0.424680863071164,0.602946215670947,0
1.94000244140625,-0.934950232505798,2.56352066993713,1.71485924720764,-0.932943991899774,2.5643966441608,1.71326781099638,2177.163,2180.271,2186.018,2186.402,357.861694335938,44.9973106384277,0.855580270290375,-0.989291250705719,-0.425611317157745,0.602418959140778,-0.994638524886308,-0.427965170275055,0.607609153824943,0
1.95999145507813,-0.954884648323059,2.55494475364685,1.72700500488281,-0.952900013794853,2.55581012544606,1.7254586333645,2184.809,2183.192,2176.779,2179.564,357.9267578125,44.9969215393066,0.829993426799774,-0.996724486351013,-0.428795546293259,0.607290983200073,-1.00202031904361,-0.431141350077486,0.612118576685011,0
1.97998046875,-0.974962890148163,2.54630732536316,1.7392373085022,-0.973001172086935,2.54716115859433,1.73773811729275,2173.011,2176.869,2183.811,2182.68,357.993438720703,44.9971771240234,0.801901817321777,-1.00391280651093,-0.431873381137848,0.611614525318146,-1.0091596546337,-0.434213206731958,0.616479885389866,0
2,-0.995180428028107,2.53761029243469,1.75155878067017,-0.993273599084619,2.53843849960327,1.75012222660065,2175.839,2177.159,2179.386,2177.92,358.063629150391,44.9971466064453,0.773496389389038,-1.01087081432343,-0.434857606887817,0.616071879863739,-1.01606400046349,-0.437183953857422,0.620697642517089,0
2.01998901367188,-1.01553201675415,2.52885556221008,1.76396882534027,-1.01365055070775,2.52967086658596,1.76257018837116,2180.934,2178.667,2169.315,2174.13,358.133148193359,44.9965629577637,0.747046530246735,-1.01758348941803,-0.437737882137299,0.620501935482025,-1.02270954399163,-0.440043345582587,0.624757301356767,0
2.03997802734375,-1.03601288795471,2.52004551887512,1.77645587921143,-1.03415783849082,2.52084715356021,1.77509777046792,2168.795,2171.766,2176.46,2177.716,358.202911376953,44.9967155456543,0.71803218126297,-1.02403950691223,-0.440503507852554,0.624353647232056,-1.02910434715509,-0.442794850733705,0.628663786820389,0
2.05999755859375,-1.05661797523499,2.51118206977844,1.78902208805084,-1.05482201812353,2.5119559343546,1.78772119534738,2170.817,2171.851,2173.037,2172.771,358.275146484375,44.9966735839844,0.688630700111389,-1.03025472164154,-0.443169951438904,0.628313601016998,-1.03525504859546,-0.445441325732794,0.632421154350513,0
2.07998657226563,-1.07734227180481,2.50226736068726,1.80166697502136,-1.07557499515204,2.50302650811029,1.80039886517028,2175.329,2173.286,2163.902,2168.627,358.346374511719,44.9961624145508,0.661234140396118,-1.03621780872345,-0.445730149745941,0.632245242595673,-1.04114045847258,-0.4479736531836,0.636016459404434,0
2.0999755859375,-1.09818053245544,2.49330377578735,1.81437909603119,-1.09644304044274,2.49404757120739,1.81314682839894,2162.752,2166.205,2171.592,2172.219,358.418090820313,44.996410369873,0.631247878074646,-1.04192066192627,-0.448175042867661,0.635604977607727,-1.04676782045836,-0.450394949835787,0.639454127028294,0
2.1199951171875,-1.1191281080246,2.48429346084595,1.82716083526611,-1.11745308225396,2.48500753716864,1.82598153508617,2164.99,2166.299,2168.007,2167.102,358.492736816406,44.9964256286621,0.60092556476593,-1.04737615585327,-0.450518488883972,0.63908588886261,-1.0521429102862,-0.45270770082608,0.642737685527497,0
2.13998413085938,-1.14017939567566,2.47523832321167,1.84001159667969,-1.13853583516761,2.47593621757383,1.83886065985125,2169.781,2167.641,2158.456,2163.011,358.566589355469,44.9959259033203,0.572594165802002,-1.05257201194763,-0.452752351760864,0.642539381980896,-1.05724722779031,-0.454903946049977,0.645855833439456,0
2.15997314453125,-1.16132950782776,2.46614074707031,1.85291993618011,-1.15971797923886,2.46682213274057,1.85180050112354,2157.282,2160.696,2165.757,2166.586,358.640960693359,44.9961585998535,0.541729688644409,-1.05750155448914,-0.454867839813232,0.645415067672729,-1.06208716414724,-0.456986435452193,0.648812475034184,0
2.17999267578125,-1.18257284164429,2.45700335502625,1.86588799953461,-1.18102676265167,2.45765355853653,1.86481770439342,2159.567,2160.723,2162.017,2161.478,358.718078613281,44.9961624145508,0.51054835319519,-1.0621749162674,-0.456877499818802,0.648401856422424,-1.06666760390386,-0.458957270716794,0.65161059420515,0
2.19998168945313,-1.20390462875366,2.44782781600952,1.87891519069672,-1.20239187218348,2.44846074877705,1.87786931641044,2164.482,2162.083,2152.313,2157.271,358.794097900391,44.9956512451172,0.481434375047684,-1.06658136844635,-0.458773910999298,0.651357293128967,-1.07097279461286,-0.460809674005774,0.654240568028104,0
2.22000122070313,-1.22531890869141,2.43861675262451,1.89198958873749,-1.22387315175433,2.43921795429519,1.89099189489151,2151.591,2155.021,2159.867,2160.994,358.870422363281,44.9959030151367,0.449754238128662,-1.07071685791016,-0.460549801588058,0.653721928596497,-1.07501419914593,-0.462548577472581,0.656709398992482,0
2.239990234375,-1.24681067466736,2.42937231063843,1.90511643886566,-1.24539969505118,2.42995568409656,1.90414212427648,2159.755,2157.695,2150.238,2153.503,358.946807861328,44.995548248291,0.419875472784042,-1.07459259033203,-0.462218344211578,0.656343996524811,-1.07877792518082,-0.464168003639063,0.659008600495412,0
2.25997924804688,-1.26837468147278,2.42009687423706,1.91828417778015,-1.26699874763832,2.42066221517598,1.91733664845539,2147.111,2151.23,2157.265,2156.857,359.024597167969,44.9958839416504,0.387580513954163,-1.0781968832016,-0.46376821398735,0.658387124538422,-1.08226887897249,-0.465670063529659,0.661141169691481,0
2.27999877929688,-1.29000520706177,2.4107928276062,1.93149518966675,-1.28869796983554,2.41132564607061,1.93059236468599,2150.11,2151.324,2152.633,2151.699,359.105499267578,44.9959030151367,0.35513111948967,-1.08153390884399,-0.465207636356354,0.660550057888031,-1.08549040888332,-0.467056197851165,0.663109152043028,0
2.29998779296875,-1.31169700622559,2.40146231651306,1.94474852085114,-1.31042570636616,2.40197680804417,1.9438654998779,2155.426,2152.67,2142.267,2147.553,359.185180664063,44.9953384399414,0.324875563383102,-1.08459258079529,-0.466528028249741,0.662669539451599,-1.08843144721369,-0.468321644481621,0.664905786465049,0
2.31997680664063,-1.33344459533691,2.39210748672485,1.95803225040436,-1.33220946960077,2.39260386329221,1.957172860909,2142.549,2145.657,2149.429,2151.451,359.264739990234,44.9955596923828,0.292134463787079,-1.08737361431122,-0.467723816633224,0.664186596870422,-1.09109597826566,-0.469468117754907,0.666533506905514,0
2.33999633789063,-1.35524213314056,2.38273191452026,1.97134828567505,-1.35407709248145,2.38319483607731,1.97053145048929,2144.689,2145.671,2145.956,2146.095,359.346405029297,44.9955749511719,0.259214460849762,-1.08988177776337,-0.468805849552155,0.665799140930176,-1.09348640563071,-0.470496651869278,0.667993781680938,0
2.3599853515625,-1.37708449363708,2.37333631515503,1.98469579219818,-1.37595634130987,2.37378080654189,1.98389714217962,2149.511,2146.767,2136.575,2141.853,359.426483154297,44.9950866699219,0.228398934006691,-1.09210979938507,-0.469768673181534,0.66737425327301,-1.09559452046326,-0.471403714787811,0.669281596135657,0
2.37997436523438,-1.39896559715271,2.36392402648926,1.99806296825409,-1.39787493938994,2.36434984612278,1.99728687171376,2136.17,2139.942,2144.376,2145.52,359.506744384766,44.9954032897949,0.195193126797676,-1.09406125545502,-0.470608681440353,0.668356478214264,-1.09742336725307,-0.472190616469403,0.670398810100962,0
2.39999389648438,-1.42088043689728,2.35449743270874,2.01145195960999,-1.41986083522252,2.35488992936084,2.01071771239474,2138.722,2139.845,2140.663,2140.192,359.589508056641,44.995475769043,0.161841079592705,-1.09573757648468,-0.471334636211395,0.669455289840698,-1.09897439291323,-0.472857979480329,0.671346307473475,0
2.41998291015625,-1.44282293319702,2.34505867958069,2.02486228942871,-1.4418413890156,2.34543231112926,2.02414528970716,2143.617,2140.999,2131.137,2135.955,359.670959472656,44.9950141906738,0.130648031830788,-1.09713089466095,-0.471940070390701,0.670512855052948,-1.10024227275454,-0.473403512755585,0.67212083548366,0
2.44000244140625,-1.46478796005249,2.33560991287231,2.0382821559906,-1.46387808506052,2.33595053645515,2.03760716344514,2130.767,2134.215,2138.27,2139.774,359.752563476563,44.9953079223633,0.0970767438411713,-1.09824669361115,-0.472421765327454,0.67098867893219,-1.10123038958312,-0.473828671822132,0.672724460634977,0
2.45999145507813,-1.48676979541779,2.32615447044373,2.05171608924866,-1.48589810917879,2.32647593524532,2.05105885256329,2139.033,2136.643,2128.819,2132.188,359.833862304688,44.9949836730957,0.0654100179672241,-1.09908390045166,-0.472787290811539,0.671702086925507,-1.10193535162022,-0.474131997292339,0.673155110942729,0
2.47998046875,-1.50876259803772,2.3166937828064,2.06515312194824,-1.50792940965705,2.3169964821328,2.06451743023379,2126.426,2130.332,2135.478,2135.795,359.916198730469,44.9953384399414,0.0314075760543346,-1.09964501857758,-0.473031491041183,0.671846091747284,-1.10235860927677,-0.474314113237503,0.673413672440311,0
2.5,-1.53076100349426,2.30723071098328,2.07859492301941,-1.52999999932945,2.30750012397766,2.0780000090599,2129.495,2130.564,2130.938,2130.38,0.00115932931657881,44.9953804016113,-0.00251601240597665,-1.09992432594299,-0.473158627748489,0.672095596790314,-1.10250000050292,-0.474374949932098,0.673500046133994,0
2.51998901367188,-1.55275940895081,2.29776740074158,2.09204077720642,-1.5520369476803,2.29801824074336,2.09146203692764,2134.761,2131.645,2120.937,2126.303,0.0844473540782928,44.9948539733887,359.965850830078,-1.09991538524628,-0.473161965608597,0.67229300737381,-1.10235904000526,-0.474314298567936,0.67341393556562,0
2.53997802734375,-1.57475185394287,2.28830671310425,2.10547876358032,-1.57406826106879,2.28853878207593,2.1049206224848,2121.806,2124.929,2127.958,2130.328,0.167354509234428,44.9951210021973,359.931884765625,-1.0996288061142,-0.4730404317379,0.671899199485779,-1.10193621258339,-0.474132367740737,0.673155636891692,0
2.55999755859375,-1.5967333316803,2.27885055541992,2.11891078948975,-1.59612191359838,2.27904971150017,2.11839285467467,2124.233,2124.838,2124.458,2124.988,0.251902431249619,44.995174407959,359.897888183594,-1.09905958175659,-0.472800493240356,0.671597242355347,-1.10123038958312,-0.473828671822132,0.672724460634977,0
2.57998657226563,-1.61869716644287,2.26940202713013,2.1323356628418,-1.61812503288753,2.26958238396605,2.1318342168965,2128.723,2125.933,2115.703,2120.655,0.334573090076447,44.9947395324707,359.866119384766,-1.0982038974762,-0.472438395023346,0.671242237091064,-1.1002439936861,-0.473404253224357,0.672121886773894,0
2.5999755859375,-1.64063882827759,2.2599630355835,2.14574217796326,-1.64010562536668,2.26012474908893,2.14526181784164,2115.935,2119.334,2122.828,2124.551,0.417145639657974,44.9950790405273,359.832122802734,-1.09707486629486,-0.471954643726349,0.670326888561249,-1.09897654259203,-0.472858904427064,0.671347620678712,0
2.6199951171875,-1.66255211830139,2.25053596496582,2.15913224220276,-1.66209156852628,2.2506648119635,2.15869268743396,2118.3,2119.203,2119.449,2119.315,0.501712381839752,44.9951858520508,359.798095703125,-1.09566426277161,-0.471353501081467,0.669504404067993,-1.09742594550583,-0.472191725819537,0.67040038511534,0
2.63998413085938,-1.68443143367767,2.24112343788147,2.17250514030457,-1.6840102224118,2.24123382753286,2.17208245105877,2123.245,2120.37,2110.323,2114.95,0.584607124328613,44.994758605957,359.766357421875,-1.09396803379059,-0.470630645751953,0.668641686439514,-1.09559752564474,-0.471405007833448,0.669283431954129,0
2.65997314453125,-1.70627129077911,2.23172760009766,2.18584942817688,-1.70588953556828,2.23181977031887,2.18544818204612,2110.589,2113.885,2117.127,2118.999,0.667388796806335,44.9950790405273,359.732452392578,-1.092001080513,-0.46978685259819,0.667217910289764,-1.09348983658457,-0.470498128112872,0.66799587759711,0
2.67999267578125,-1.72806644439697,2.22235107421875,2.19916701316833,-1.72775723139253,2.2224107117184,2.19880681618649,2113.193,2113.851,2113.544,2113.728,0.751902043819427,44.9951629638672,359.698608398438,-1.08975267410278,-0.468825042247772,0.665885031223297,-1.09109983431736,-0.469469776906228,0.666535862507326,0
2.69998168945313,-1.74981081485748,2.21299624443054,2.21245694160461,-1.74954107593572,2.21303773198162,2.21211422688774,2117.967,2114.822,2104.676,2109.585,0.834466934204102,44.9947242736816,359.6669921875,-1.08722019195557,-0.467741668224335,0.664502382278442,-1.08843572622736,-0.468323485621663,0.66490840044773,0
2.72000122070313,-1.7714991569519,2.20366549491882,2.22570824623108,-1.77130202882336,2.20367460188472,2.22540765343382,2105.37,2108.598,2111.476,2113.502,0.916732311248779,44.9950523376465,359.633270263672,-1.08442103862762,-0.466539204120636,0.662567615509033,-1.08549040888332,-0.467056197851165,0.663109152043028,0
2.739990234375,-1.79312610626221,2.19436120986938,2.23892521858215,-1.79296822271738,2.1943522439355,2.23864319318939,2113.571,2110.683,2102.745,2106.067,0.998072803020477,44.9947814941406,359.601501464844,-1.08134031295776,-0.465218842029572,0.660850167274475,-1.08227399942825,-0.465672266718727,0.661144297698006,0
2.75997924804688,-1.81468605995178,2.18508529663086,2.25209712982178,-1.81456738183361,2.18505872917844,2.25183778244526,2101.21,2105.064,2109.099,2109.691,1.08009445667267,44.9951782226563,359.567810058594,-1.07799732685089,-0.463783323764801,0.658595502376556,-1.07878346314437,-0.464170386470068,0.659011983550929,0
2.77999877929688,-1.83617353439331,2.17584085464478,2.26522588729858,-1.83612684690458,2.17578229366013,2.2650081232283,2104.433,2105.133,2104.865,2104.543,1.16417014598846,44.9952507019043,359.534332275391,-1.07437539100647,-0.462231367826462,0.656438589096069,-1.07501419914593,-0.462548577472581,0.656709398992482,0
2.79998779296875,-1.85758304595947,2.16662979125977,2.27831053733826,-1.85757544288233,2.1665535620153,2.27811073581237,2109.624,2106.027,2095.561,2100.667,1.24614822864532,44.9947738647461,359.503143310547,-1.07047283649445,-0.460558652877808,0.654228627681732,-1.07097916161324,-0.460812413548163,0.654244457529281,0
2.81997680664063,-1.87890887260437,2.15745449066162,2.29133987426758,-1.87894068379188,2.15736069572766,2.291162428086,2097.297,2100.085,2101.951,2104.668,1.32737004756927,44.9950523376465,359.470001220703,-1.06631112098694,-0.458769381046295,0.651468932628632,-1.0666743814704,-0.458960186914335,0.65161473451479,0
2.83999633789063,-1.90014660358429,2.14831686019897,2.3043155670166,-1.90024960698239,2.14819206138118,2.30417971674389,2099.779,2100.004,2098.783,2099.552,1.40954685211182,44.9951286315918,359.437042236328,-1.06187450885773,-0.456864506006241,0.648786783218384,-1.06209435025759,-0.456989527434725,0.648816864916866,0
2.8599853515625,-1.92128992080688,2.13922023773193,2.31723642349243,-1.92143189875059,2.13907791299805,2.31711964824194,2103.994,2100.841,2090.959,2095.557,1.48942875862122,44.9947509765625,359.406341552734,-1.05716407299042,-0.454842627048492,0.646048247814178,-1.05725481901126,-0.454907212340279,0.645860470797877,0
2.87997436523438,-1.94233381748199,2.13016605377197,2.33009243011475,-1.94251480742951,2.13000652638179,2.32999886816159,2092,2094.968,2097.425,2099.468,1.5688613653183,44.9951057434082,359.373718261719,-1.05220258235931,-0.452708870172501,0.642800211906433,-1.05215090364426,-0.452711140144745,0.642742568545203,0
2.89999389648438,-1.96327340602875,2.12115669250488,2.34288501739502,-1.96352501326936,2.1209664217661,2.34283367505136,2094.498,2094.962,2094.312,2094.418,1.6495817899704,44.995231628418,359.341339111328,-1.04697179794312,-0.450462579727173,0.639633893966675,-1.04677621342161,-0.450398561093403,0.639459254158576,0
2.91998291015625,-1.98410296440125,2.11219453811646,2.35561347007751,-1.98439323028747,2.1119874109737,2.35558174318562,2099.07,2095.808,2086.234,2090.517,1.72820615768433,44.9948539733887,359.311218261719,-1.04147267341614,-0.448101669549942,0.636421918869019,-1.0411492471255,-0.447977434695422,0.636021828255355,0
2.94000244140625,-2.00481724739075,2.10328221321106,2.36826753616333,-2.00517798053537,2.10304431360073,2.36827882277243,2087.364,2090.236,2092.32,2094.402,1.80634260177612,44.9951858520508,359.279296875,-1.03572916984558,-0.445631623268127,0.632706522941589,-1.03525504859546,-0.445441325732794,0.632421154350513,0
2.95999145507813,-2.02541160583496,2.09442114830017,2.38085126876831,-2.02581075424974,2.0941666074844,2.38088306226645,2095.377,2092.035,2084.211,2087.423,1.8831273317337,44.9949417114258,359.249359130859,-1.02971792221069,-0.443049073219299,0.629187047481537,-1.02911391720548,-0.442798968459032,0.628669633014836,0
2.97998046875,-2.0458812713623,2.08561396598816,2.39335465431213,-2.04631823718085,2.08534281049189,2.39341076357611,2083.727,2087.171,2090.037,2090.937,1.96013641357422,44.9953308105469,359.217834472656,-1.02346861362457,-0.440361946821213,0.625171899795532,-1.0227194988233,-0.440047628868552,0.624763382608097,0
3,-2.0662202835083,2.07686233520508,2.40577960014343,-2.06672639957428,2.07656174835205,2.40587779151916,2086.913,2087.029,2086.234,2086.315,2.03851914405823,44.995418548584,359.186584472656,-1.0169585943222,-0.437565624713898,0.621244490146637,-1.01606400046349,-0.437183953857422,0.620697642517089,0
3.01998901367188,-2.08642435073853,2.06816911697388,2.41812491416931,-2.0869680292999,2.06785234056679,2.41824308725414,2091.671,2088.067,2078.004,2082.47,2.11450147628784,44.9950065612793,359.15771484375,-1.01018989086151,-0.434658139944077,0.617263793945313,-1.00917036754089,-0.434217816196637,0.616486429737696,0
3.03997802734375,-2.10648798942566,2.05953645706177,2.43038082122803,-2.10706940546153,2.05920327997188,2.43052270427549,2080.376,2082.613,2083.738,2086.558,2.18945121765137,44.9952735900879,359.127166748047,-1.00319015979767,-0.43164649605751,0.612791478633881,-1.00203140433628,-0.431146119769234,0.612125348517319,0
3.05999755859375,-2.1264066696167,2.05096578598022,2.44254851341248,-2.12705600675913,2.05060360379452,2.44273220712343,2082.868,2082.562,2080.887,2081.841,2.26478242874146,44.9953727722168,359.096923828125,-0.995937764644623,-0.42852857708931,0.608387768268585,-0.994638524886308,-0.427965170275055,0.607609153824944,0
3.07998657226563,-2.14617538452148,2.04245972633362,2.45462703704834,-2.14686207530873,2.04208160581513,2.45483142533277,2086.798,2083.419,2073.952,2078.088,2.33750629425049,44.9950523376465,359.068969726563,-0.988437056541443,-0.425304740667343,0.603930950164795,-0.987017247723776,-0.424685947625853,0.602953434534038,0
3.0999755859375,-2.16579008102417,2.034019947052,2.46660733222961,-2.16651343412374,2.03362617511243,2.46683613377946,2075.759,2078.302,2079.836,2081.86,2.40944600105286,44.9954032897949,359.039489746094,-0.980716049671173,-0.421982765197754,0.599018096923828,-0.979159571260203,-0.421305008961644,0.598153302599065,0
3.1199951171875,-2.1852445602417,2.02564907073975,2.47849082946777,-2.18603502400946,2.02522658035469,2.47876156841225,2078.176,2078.156,2077.173,2077.415,2.48211526870728,44.995548248291,359.010314941406,-0.972752094268799,-0.418559163808823,0.594179093837738,-0.971056158224178,-0.417818336715394,0.593203054026623,0
3.13998413085938,-2.20453548431396,2.01734828948975,2.49027705192566,-2.20536269329809,2.01691042421237,2.49056853997833,2082.663,2079.053,2069.857,2073.73,2.55236053466797,44.995231628418,358.983428955078,-0.964548587799072,-0.415033340454102,0.589305877685547,-0.962735018414262,-0.414237982720922,0.588119799565572,0
3.15997314453125,-2.22365808486938,2.00911998748779,2.50195670127869,-2.22452176174551,2.00866681230185,2.5022725159215,2071.864,2074.239,2075.415,2077.518,2.6217348575592,44.995548248291,358.955139160156,-0.956135153770447,-0.411413550376892,0.583980202674866,-0.954187384555097,-0.410560174664568,0.582898183424203,0
3.17999267578125,-2.24260783195496,2.00096607208252,2.51353120803833,-2.24353658854737,2.00048526354177,2.51388837689424,2074.489,2074.101,2072.641,2073.212,2.69151425361633,44.9956665039063,358.927215576172,-0.947487711906433,-0.407695382833481,0.578728437423706,-0.945403214201559,-0.406780591562751,0.577532070829503,0
3.19998168945313,-2.26138019561768,1.99288845062256,2.52499985694885,-2.26234477504321,1.99239262633251,2.52537800452858,2078.509,2074.872,2065.917,2069.802,2.7587034702301,44.995361328125,358.901458740234,-0.938611507415771,-0.403879404067993,0.573432147502899,-0.936412917636688,-0.402912318110697,0.572040038948834,0
3.22000122070313,-2.27997088432312,1.98488879203796,2.53635406494141,-2.28099938900442,1.98436606709459,2.53677381709797,2068.304,2070.37,2071.183,2073.349,2.82485723495483,44.9956817626953,358.874420166016,-0.929535925388336,-0.399974346160889,0.567712068557739,-0.927192788821982,-0.398945154262308,0.566407606133204,0
3.239990234375,-2.29837560653687,1.97696948051453,2.5475971698761,-2.2994392795179,1.97643189735754,2.54803845846384,2075.216,2071.829,2064.723,2067.287,2.88922548294067,44.9955139160156,358.849334716797,-0.920232832431793,-0.395973801612854,0.5621537566185,-0.917774783907129,-0.394892849856044,0.560654293895788,0
3.25997924804688,-2.31659007072449,1.96913170814514,2.55872106552124,-2.31768882969315,1.96857962575054,2.55918682388728,2065.526,2067.866,2069.429,2070.563,2.95325255393982,44.9958801269531,358.823089599609,-0.910738587379456,-0.391889274120331,0.556195735931396,-0.908148960779607,-0.390751127078637,0.554774028755191,0
3.27999877929688,-2.3346107006073,1.96137738227844,2.56972718238831,-2.33577134012187,1.96079922667992,2.57023314733618,2068.401,2067.956,2066.324,2066.509,3.01772832870483,44.9959716796875,358.797485351563,-0.901028096675873,-0.387714415788651,0.550308287143707,-0.898304216251578,-0.386515208538549,0.548760027947228,0
3.29998779296875,-2.35243320465088,1.95370852947235,2.58061456680298,-2.35362764460945,1.95311615770631,2.58114128510551,2072.385,2068.557,2059.776,2063.585,3.07952833175659,44.995662689209,358.773956298828,-0.891107738018036,-0.383449167013168,0.544374704360962,-0.888274735793772,-0.382199803288803,0.542633174842512,0
3.31997680664063,-2.37005305290222,1.94612646102905,2.59137558937073,-2.37128151039117,1.94552019245235,2.59192575622841,2063.041,2064.433,2064.457,2067.029,3.13990616798401,44.9959297180176,358.749328613281,-0.881007313728333,-0.379102885723114,0.538047313690186,-0.878049940595779,-0.377800359562814,0.53638700701084,0
3.33999633789063,-2.38746738433838,1.93863272666931,2.60201120376587,-2.38875555478454,1.93800159931817,2.60260037727124,2065.324,2064.516,2062.212,2063.051,3.19990086555481,44.9960289001465,358.725341796875,-0.870703876018524,-0.374671280384064,0.531777858734131,-0.867618167158097,-0.373311858882592,0.530014399402376,0
3.3599853515625,-2.40467143058777,1.93122982978821,2.61252045631409,-2.40599272667425,1.93058492580486,2.6131302965979,2068.608,2065.032,2056.792,2060.223,3.25707530975342,44.9957962036133,358.703399658203,-0.860205233097076,-0.370156168937683,0.525466442108154,-0.857015715678588,-0.368749920209162,0.523537527241535,0
3.37997436523438,-2.42166233062744,1.92391848564148,2.62289643287659,-2.42301614089521,1.92326022624472,2.62352963470034,2059.789,2061.169,2061.402,2063.431,3.31294441223145,44.9961166381836,358.680511474609,-0.849540412425995,-0.365566849708557,0.51880007982254,-0.846231427202182,-0.364109742155906,0.516949573696802,0
3.39999389648438,-2.43843603134155,1.91670036315918,2.63314032554626,-2.43984769972619,1.91601807669906,2.63381177133889,2061.886,2061.173,2059.401,2059.813,3.36859798431396,44.9962501525879,358.658172607422,-0.838687241077423,-0.360898941755295,0.512192606925964,-0.835253140422974,-0.35938609205264,0.510243109616171,0
3.41998291015625,-2.45498895645142,1.90957725048065,2.64325141906738,-2.45643259034873,1.90888206159239,2.64394322221809,2065.413,2061.857,2053.95,2056.973,3.42159819602966,44.9960403442383,358.637908935547,-0.827652454376221,-0.356153517961502,0.505558133125305,-0.824119146742881,-0.354595445619869,0.503441526619546,0
3.44000244140625,-2.47131824493408,1.90255045890808,2.65322303771973,-2.47281804716281,1.90183185728196,2.6539528420958,2057.091,2058.256,2058.181,2060.153,3.47322988510132,44.9963150024414,358.616882324219,-0.816465556621552,-0.351339936256409,0.498585313558578,-0.812800388649434,-0.349725300221754,0.496527073925997,0
3.45999145507813,-2.48742032051086,1.89562153816223,2.66305804252625,-2.48895081463434,1.8948903781363,2.66380809799729,2062.97,2059.407,2052.995,2055.242,3.52274703979492,44.9962120056152,358.597595214844,-0.805100202560425,-0.346451342105865,0.491746544837952,-0.80133641229185,-0.344792671461508,0.489523909660973,0
3.47998046875,-2.50329208374023,1.88879132270813,2.67274975776672,-2.50485284867397,1.88804817714046,2.67352240244575,2055.056,2056.448,2056.856,2058.005,3.57136869430542,44.9965209960938,358.577667236328,-0.793592631816864,-0.341500222682953,0.48459056019783,-0.789715229532172,-0.33979240117828,0.482424710458066,0
3.5,-2.51893043518066,1.88206171989441,2.68229961395264,-2.5205447997813,1.88129636896134,2.68310837050915,2057.565,2056.578,2054.462,2054.752,3.61967539787292,44.9966239929199,358.558502197266,-0.781920492649078,-0.336480379104614,0.477497637271881,-0.777924000354857,-0.334718964672089,0.475221632552147,0
3.51998901367188,-2.53433227539063,1.87543404102325,2.69170713424683,-2.53597583877076,1.87465682397749,2.69253495143119,2061.001,2057.086,2049.265,2052.477,3.66509652137756,44.9963836669922,358.541290283203,-0.770091950893402,-0.331393122673035,0.470376431941986,-0.766004036374581,-0.329590137176618,0.467939912563966,0
3.53997802734375,-2.54949498176575,1.86890912055969,2.70096611976624,-2.55116718971613,1.86812041006291,2.70181511066737,2053.49,2053.989,2053.093,2055.402,3.7086706161499,44.9966316223145,358.523498535156,-0.758135974407196,-0.326248198747635,0.462948173284531,-0.753942941956194,-0.324400585196356,0.460571978193441,0
3.55999755859375,-2.5644154548645,1.86248826980591,2.71007752418518,-2.56613872308604,1.86167857751006,2.71096098677687,2055.384,2054.058,2051.546,2052.37,3.75123596191406,44.9967498779297,358.506439208984,-0.746032953262329,-0.32104167342186,0.455572605133057,-0.741727567798258,-0.319144650954242,0.45310979673751,0
3.57998657226563,-2.57909154891968,1.85617280006409,2.71904110908508,-2.58084213759183,1.85535210901407,2.7199430732562,2058.261,2054.658,2047.334,2050.072,3.79083871841431,44.9965896606445,358.491302490234,-0.733791470527649,-0.315776169300079,0.448177993297577,-0.72940084364523,-0.31384080592,0.445579593307163,0
3.5999755859375,-2.59352040290833,1.84996330738068,2.72785139083862,-2.59529790318687,1.84913219692586,2.72877387488043,2051.165,2051.727,2051.193,2052.906,3.82876896858215,44.9968795776367,358.475677490234,-0.721439599990845,-0.310461133718491,0.44051131606102,-0.716950039288888,-0.308483572640672,0.437973591216846,0
3.6199951171875,-2.60769963264465,1.84386169910431,2.7365095615387,-2.60952509409627,1.84301063413925,2.73746504379605,2053.171,2051.916,2049.664,2050.03,3.86582231521606,44.9970169067383,358.460876464844,-0.708958327770233,-0.305092304944992,0.432907998561859,-0.704361775018033,-0.303067194200314,0.43028361700977,0
3.63998413085938,-2.62162661552429,1.83786821365356,2.74501538276672,-2.623478029369,1.83700707589127,2.7459886742229,2056.125,2052.379,2045.522,2048.121,3.90002608299255,44.9968719482422,358.447845458984,-0.696356356143951,-0.29967188835144,0.425294727087021,-0.691680442442073,-0.297610771068296,0.422536788827407,0
3.65997314453125,-2.63529992103577,1.83198404312134,2.75336408615112,-2.63717640706374,1.8311130466576,2.75435679939765,2049.726,2050.01,2048.92,2050.58,3.93239188194275,44.997127532959,358.434600830078,-0.683660626411438,-0.294209182262421,0.417432457208633,-0.678893054168409,-0.29210871513241,0.414725172874286,0
3.67999267578125,-2.64871692657471,1.82620990276337,2.76155662536621,-2.65063849381582,1.82532068681534,2.76258057812278,2051.604,2049.995,2047.559,2048.233,3.96357250213623,44.997241973877,358.422119140625,-0.670854330062866,-0.288700222969055,0.409628689289093,-0.665986083416798,-0.286555206197011,0.406840505851433,0
3.69998168945313,-2.66187620162964,1.82054698467255,2.76959300041199,-2.66382131180924,1.81964848851807,2.77063375592113,2054.253,2050.68,2043.946,2046.319,3.99180197715759,44.9971313476563,358.411468505859,-0.657946407794952,-0.28314796090126,0.401818126440048,-0.653005218467595,-0.280969902652754,0.398910698016369,0
