t,x_s1,x_s2,x_s3,x_s_d1,x_s_d2,x_s_d3,propellers_rpms1,propellers_rpms2,propellers_rpms3,propellers_rpms4,rollRad,pitchRad,yawRad,v_s1,v_s2,v_s3,v_s_d1,v_s_d2,v_s_d3,insideCount
0,-0.0599999986588955,2.94000005722046,1.17999994754791,-0.0599999986588955,2.94000005722046,1.17999994754791,0,0,0,0,0,0,0,0,0,0,-1.06581410364015E-15,4.44089209850063E-16,4.44089209850063E-16,0
0.0200042724609375,-0.0599999986588955,2.94000005722046,1.17811644077301,-0.0600018701838461,2.93999925195556,1.18000110611101,0,0,0,0,-0.01635288,0.0001297794,-0.01587137,-1.10653664009419E-09,-7.76775763711157E-08,-0.0941759571433067,-0.000280105751305916,-0.000120521679537258,0.00017339880334547,9
0.040008544921875,-0.0599999986588955,2.94000005722046,1.17242503166199,-0.060014880898484,2.93999365380853,1.18000916036316,0,0,0,0,-0.03270202,0.0005238493,-0.03175127,-1.08383135799528E-09,-7.60859677484405E-08,-0.284568399190903,-0.00111143977225461,-0.000478221483967637,0.00068803416424398,9
0.05999755859375,-0.0599058866500854,2.93990302085876,1.16596508026123,-0.0600498857373401,2.93997859220429,1.18003083002592,1868.186,3252.807,3183.866,1722.401,-0.04942188,0.0003295492,-0.01369504,0.00470568425953388,-0.00484921643510461,-0.322996616363525,-0.00247936261166862,-0.00106680046642749,0.00153484356504269,9
0.0800018310546875,-0.0598203726112843,2.93960738182068,1.16000318527222,-0.0601175574246769,2.93994947496775,1.18007272202403,1925.25,2314.279,3252.324,2829.559,-0.07543138,-0.00213692,0.0209488,0.00427576061338186,-0.0147787351161242,-0.298094898462296,-0.00437268608126799,-0.00188144466206175,0.00270690098422899,9
0.100006103515625,-0.0599374435842037,2.93904495239258,1.15498661994934,-0.0602282404704493,2.93990185114529,1.18014124010193,980.3768,1498.938,3914.7,3896.563,-0.1031938,-0.008062987,0.06330799,-0.00585346762090921,-0.0281162895262241,-0.250830471515656,-0.00677739276378709,-0.00291612276782231,0.00419552897277328,8
0.1199951171875,-0.0604638420045376,2.93818354606628,1.15081322193146,-0.0603918861403606,2.93983143898525,1.18024254456713,346.5406,980.3863,4172.788,4613.338,-0.1214316,-0.01542023,0.1040008,-0.0263198912143707,-0.0430676564574242,-0.208671167492867,-0.00967801353495435,-0.00416417885169243,0.00599115140585487,8
0.139999389648438,-0.0615636222064495,2.93704128265381,1.1472829580307,-0.0606185767455666,2.93973390035084,1.18038287685052,352.6731,746.9327,3975.771,4854.947,-0.1253992,-0.0211668,0.1351053,-0.0549889951944351,-0.0571137256920338,-0.176512211561203,-0.0130660253322238,-0.00562194567796536,0.00808849210174802,7
0.160003662109375,-0.0633408427238464,2.93568110466003,1.14427495002747,-0.0609177895434042,2.93960515744296,1.18056810382587,821.0701,815.1026,3462.45,4692.374,-0.1184569,-0.0235237,0.152269,-0.0888611674308777,-0.0680140852928162,-0.150397732853889,-0.0169265510445065,-0.00728302204135792,0.0104783414199936,7
0.180007934570313,-0.0658468529582024,2.93417263031006,1.14182531833649,-0.0612988491946875,2.93944119812059,1.1808039979024,1348.893,1083.49,3006.453,4255.226,-0.1079811,-0.02277908,0.1557763,-0.125300616025925,-0.0754291787743568,-0.122482635080814,-0.0212468478482708,-0.00914192506089775,0.0131528109458008,7
0.199996948242188,-0.0690849050879478,2.93255424499512,1.14006161689758,-0.0617704296168641,2.93923829023936,1.18109592864822,1636.463,1381.188,2918.502,3666.293,-0.09983125,-0.02030074,0.1501538,-0.161902695894241,-0.0809140056371689,-0.0881868153810501,-0.0260104776919234,-0.0111915819022102,0.0161017247421801,7
0.220001220703125,-0.0730102509260178,2.93082642555237,1.13903594017029,-0.0623420644491781,2.93899233174064,1.18144979784016,1640.943,1580.388,3149,3113.071,-0.09584131,-0.01735582,0.1421886,-0.19626721739769,-0.0863871350884438,-0.051282599568367,-0.03121219533433,-0.0134297356845702,0.019321835755004,7
0.240005493164063,-0.0775499418377876,2.92897391319275,1.13863337039948,-0.0630219993990999,2.93869977472688,1.18187070996396,1524.222,1624.364,3417.428,2777.479,-0.09475527,-0.01467775,0.1377348,-0.226984664797783,-0.0926260203123093,-0.0201263148337603,-0.0368361158647881,-0.0158495515746756,0.0228033104678445,7
0.259994506835938,-0.0826387852430344,2.92699265480042,1.13863551616669,-0.0638179029240226,2.93835731967507,1.18236341216003,1439.408,1500.994,3532.741,2744.163,-0.09439041,-0.01258823,0.1393028,-0.254442453384399,-0.0990579649806023,0.000109424814581871,-0.0428651747123285,-0.0184436871643672,0.0265355850983733,7
0.279998779296875,-0.0882446616888046,2.92490100860596,1.13885223865509,-0.0647390625194898,2.93796097043536,1.18293365383054,1400.127,1275.623,3477.262,2977.827,-0.09321064,-0.01110645,0.1456861,-0.280294090509415,-0.104584835469723,0.0108379991725087,-0.0492963837173861,-0.0212108567320638,0.030516809833474,7
0.300003051757813,-0.0943704098463058,2.92273283004761,1.13920700550079,-0.0657927507678135,2.93750759781875,1.18358593705038,1350.594,1061.657,3344.879,3324.965,-0.09053096,-0.009935722,0.1533116,-0.306287467479706,-0.108406901359558,0.0177392847836018,-0.0561132031658829,-0.0241439437008635,0.0347367458022363,7
0.32000732421875,-0.101035699248314,2.92052602767944,1.13972496986389,-0.0669865614821475,2.93699393441958,1.18432496275165,1281.311,941.4032,3237.064,3590.363,-0.08597856,-0.008523181,0.1583578,-0.33326444029808,-0.110341466963291,0.0258997790515423,-0.0633036493784043,-0.0272377918282996,0.0391879745362408,7
0.339996337890625,-0.108251288533211,2.91831254959106,1.14046168327332,-0.068326768706371,2.93641728069206,1.18515461486636,1253.176,944.2374,3171.116,3649.68,-0.07945115,-0.006291984,0.1584736,-0.360779196023941,-0.110679179430008,0.0368338376283646,-0.0708499516420146,-0.0304847548730522,0.0438594951176439,7
0.360000610351563,-0.116002857685089,2.91611528396606,1.14145302772522,-0.0698225328270578,2.93577369517774,1.1860805641102,1318.929,1046.771,3121.8,3498.195,-0.07155009,-0.002964098,0.153474,-0.387579381465912,-0.109860189259052,0.0495699681341648,-0.0787518717320621,-0.0338847303337087,0.0487511600740379,8
0.3800048828125,-0.124251201748848,2.91395020484924,1.14270782470703,-0.0714797725314022,2.93506063123087,1.18710647443246,1455.539,1181.808,3090.283,3231.392,-0.0636112,0.001258687,0.1450402,-0.412416517734528,-0.108259238302708,0.062740296125412,-0.0869921272359981,-0.0374302820709642,0.0538522707687797,8
0.399993896484375,-0.132942944765091,2.91182684898376,1.14421713352203,-0.0733036822025899,2.9342758538535,1.18823556140379,1580.432,1273.964,3103.945,2981.451,-0.05701775,0.005827197,0.1357471,-0.434587478637695,-0.106165908277035,0.075465701520443,-0.0955525119207663,-0.0411135764513579,0.0591515566763244,8
0.419998168945313,-0.142023339867592,2.90975069999695,1.14595794677734,-0.0753034649285836,2.93341540321397,1.18947352217404,1630.572,1288.172,3159.937,2845.028,-0.05244084,0.01017461,0.1278592,-0.454019665718079,-0.103802472352982,0.0870397835969925,-0.104434660908044,-0.0449353170220673,0.0646500300148815,8
0.44000244140625,-0.151445746421814,2.90772485733032,1.14789569377899,-0.077483988232608,2.93247718495301,1.19082336997196,1606.619,1238.088,3219.196,2843.372,-0.04965623,0.01397406,0.1224641,-0.471120536327362,-0.101291261613369,0.0968890786170959,-0.113620829717891,-0.048887868829098,0.0703367061060819,8
0.460006713867188,-0.161176443099976,2.90575218200684,1.14999687671661,-0.0798512213598696,2.93145863067119,1.19228880004469,1542.24,1158.538,3252.175,2937.802,-0.04788524,0.01718663,0.1193384,-0.486534774303436,-0.0986389443278313,0.105060145258904,-0.123099793815011,-0.0529664022684887,0.0762046364278779,8
0.479995727539063,-0.171193286776543,2.90383672714233,1.15223908424377,-0.0824088828700873,2.93035814037613,1.19387211435783,1474.524,1086.268,3248.245,3066.773,-0.04629373,0.01998758,0.1173742,-0.500841617584229,-0.0957775190472603,0.112107567489147,-0.132852887402757,-0.0571628859694044,0.0822422659629699,8
0.5,-0.181480765342712,2.90198397636414,1.15461623668671,-0.085166398670376,2.92917165836334,1.1955791479969,1430.488,1045.898,3217.73,3169.961,-0.04433843,0.02264201,0.1152253,-0.514374196529388,-0.0926409363746643,0.118856094777584,-0.142884000065179,-0.0614789935111996,0.0884520025491718,8
0.520004272460938,-0.192023932933807,2.90019941329956,1.15713500976563,-0.088127196023106,2.92789770997757,1.19741202260058,1423.66,1045.109,3176.893,3210.661,-0.04191656,0.02537834,0.1118886,-0.527159094810486,-0.0892303586006165,0.125938832759857,-0.153174893518032,-0.065906877469682,0.0948225558197254,9
0.540008544921875,-0.202804192900658,2.89848661422729,1.15980982780457,-0.0912963635428427,2.92653410573011,1.19937388826368,1447.183,1073.771,3147.823,3183.691,-0.03929068,0.02829084,0.1070467,-0.539012610912323,-0.0856401398777962,0.133743360638618,-0.163714777034477,-0.0704418948965508,0.101347245800684,9
0.55999755859375,-0.213797450065613,2.8968460559845,1.16265285015106,-0.094676112580471,2.92507989413848,1.20146611391775,1484.247,1113.887,3138.724,3114.176,-0.03689544,0.03132785,0.1010573,-0.549663960933685,-0.0820318758487701,0.142152354121208,-0.17448465888317,-0.0750758741803766,0.108014315705644,9
0.580001831054688,-0.224975794553757,2.89527440071106,1.16566848754883,-0.0982762614093182,2.92353085067394,1.20369477754168,1519.057,1148.296,3147.438,3035.771,-0.03513775,0.03434206,0.09466202,-0.558917045593262,-0.0785789042711258,0.150783494114876,-0.185490414529404,-0.0798113433697334,0.11482740272751,9
0.600006103515625,-0.236310482025146,2.89376592636108,1.1688517332077,-0.102098762959148,2.92188613504538,1.20606108809202,1540.502,1167.04,3162.775,2979.594,-0.0342898,0.03715925,0.08862245,-0.566734850406647,-0.075423426926136,0.159164786338806,-0.196713446836865,-0.0846403006364086,0.121774994352997,9
0.6199951171875,-0.247775822877884,2.89231252670288,1.172194480896,-0.106144683970236,2.92014528826426,1.20856570593183,1536.941,1167.685,3181.055,2962.718,-0.03441443,0.03963387,0.08345487,-0.573267221450806,-0.0726680904626846,0.167134910821915,-0.208134604141382,-0.0895545055543457,0.128845234789665,9
0.639999389648438,-0.259351134300232,2.89090490341187,1.17568731307983,-0.110424235525481,2.91830391678686,1.21121495220784,1505.58,1156.12,3195.903,2987.376,-0.03534494,0.0416974,0.07929888,-0.578765630722046,-0.0703821033239365,0.17464180290699,-0.219761081350814,-0.0945570538913933,0.136042578028218,9
0.660003662109375,-0.271020919084549,2.88953304290771,1.17932057380676,-0.114938248900541,2.91636166293851,1.21400934151928,1466.363,1144.276,3197.19,3032.107,-0.03677879,0.04338432,0.07590791,-0.583490312099457,-0.0685977265238762,0.181664660573006,-0.231574097577923,-0.0996398647564507,0.143355397804799,9
0.680007934570313,-0.282773971557617,2.88818645477295,1.18308961391449,-0.119690355154666,2.91431696437584,1.21695112166479,1430.891,1139.969,3189.936,3073.958,-0.03844326,0.04477827,0.07287783,-0.587650775909424,-0.0673257037997246,0.188451215624809,-0.243563621239988,-0.104798621839723,0.150777484091833,9
0.699996948242188,-0.294600993394852,2.88685488700867,1.18699252605438,-0.124680083855354,2.91217002351282,1.22004000142426,1404.22,1146.331,3177.533,3102.005,-0.04017751,0.04596741,0.06985383,-0.591351628303528,-0.0665754154324532,0.195142865180969,-0.255710395848158,-0.11002503961202,0.158296916205407,9
0.720001220703125,-0.30649334192276,2.88552761077881,1.19102942943573,-0.129918284978346,2.90991617190799,1.22328269744952,1391.413,1162.552,3165.027,3107.667,-0.04194106,0.04701789,0.06663495,-0.594617784023285,-0.0663636922836304,0.201847642660141,-0.268023157655716,-0.11532287703907,0.16591910230247,9
0.740005493164063,-0.318441778421402,2.88419342041016,1.19519984722137,-0.13540428105644,2.90755570105657,1.22667879035609,1392.612,1185.043,3152.791,3094.36,-0.04382764,0.04795167,0.06322251,-0.597423195838928,-0.0667141005396843,0.20851968228817,-0.280482990349159,-0.120683994959631,0.173632332283853,9
0.759994506835938,-0.330436944961548,2.88284015655518,1.19950461387634,-0.14113644597991,2.90508931062815,1.2302272735046,1395.126,1207.89,3148.638,3072.78,-0.04599386,0.04873689,0.05980592,-0.59975802898407,-0.0676641911268234,0.215238153934479,-0.293070637251543,-0.126100107763583,0.181424685349205,9
0.779998779296875,-0.342469871044159,2.8814549446106,1.20394277572632,-0.147126184485884,2.90251209348295,1.23393520697061,1385.607,1226.347,3152.063,3060.01,-0.04854304,0.04931684,0.05665477,-0.601644694805145,-0.0692576691508293,0.221909955143929,-0.305795832832518,-0.131575403921268,0.189302187598958,9
0.800003051757813,-0.354532897472382,2.88002443313599,1.20850896835327,-0.153371683173492,2.89982482987671,1.2378014681726,1373.247,1240.463,3153.655,3055.663,-0.05147358,0.04965921,0.05393971,-0.603151559829712,-0.0715215057134628,0.228309914469719,-0.318639638509124,-0.13710173468952,0.197253115148089,9
0.82000732421875,-0.366620779037476,2.87853503227234,1.21319878101349,-0.159875221826383,2.89702653888221,1.24182746840525,1354.779,1251.097,3155.741,3060.312,-0.05474234,0.04974134,0.05175308,-0.604394257068634,-0.0744689777493477,0.234491005539894,-0.331592781842754,-0.14267511039705,0.205271727915392,9
0.839996337890625,-0.378730595111847,2.87697315216064,1.21800708770752,-0.166633637018892,2.89411858163313,1.24601124935738,1326.75,1259.744,3155.707,3078.079,-0.05826091,0.04956065,0.05009808,-0.605491876602173,-0.078098326921463,0.240417078137398,-0.344636106234817,-0.148287288494656,0.213346167053785,8
0.860000610351563,-0.390861749649048,2.87532520294189,1.22292947769165,-0.173659158941841,2.89109569582005,1.2503603820997,1297.782,1268.856,3153.4,3098.36,-0.06188441,0.0491486,0.0488691,-0.606558680534363,-0.0823955908417702,0.246121987700462,-0.357780475378537,-0.153942943326036,0.221483157706883,8
0.8800048828125,-0.403015166521072,2.8735785484314,1.22796058654785,-0.180948461186242,2.88795931270381,1.25487280742661,1277.579,1280.816,3144.782,3113.851,-0.0655095,0.04855367,0.04792258,-0.607671439647675,-0.0873287618160248,0.251558125019073,-0.371007022483504,-0.159633957038354,0.229671020432672,8
0.899993896484375,-0.415192902088165,2.87172102928162,1.23309874534607,-0.18849723509595,2.8847112861788,1.25954585807468,1262.513,1295.44,3137.527,3121.612,-0.06910637,0.04780933,0.04717302,-0.608886539936066,-0.0928710699081421,0.256909012794495,-0.384296738353309,-0.165352150505452,0.237897987633041,8
0.919998168945313,-0.427397489547729,2.86974096298218,1.2383428812027,-0.196318384305134,2.8813460641717,1.26438752200817,1244.315,1310.814,3133.694,3129.115,-0.07266808,0.04693204,0.04661584,-0.610230207443237,-0.0989979356527328,0.26220828294754,-0.397661187980262,-0.171102499820431,0.246171218589148,8
0.94000244140625,-0.439631879329681,2.86762738227844,1.24368941783905,-0.204407453948074,2.87786556348678,1.26939504145298,1235.864,1326.407,3127.659,3129.672,-0.07617706,0.04594746,0.04623763,-0.611717581748962,-0.105674996972084,0.267329454421997,-0.411081631631503,-0.176876941799768,0.254479112513653,8
0.960006713867188,-0.451899379491806,2.86536979675293,1.24913740158081,-0.212765478812529,2.87426933888379,1.27456905699201,1229.67,1341.22,3125.248,3126.576,-0.07966633,0.0448556,0.04609393,-0.613377451896667,-0.112875804305077,0.272402197122574,-0.424549556012544,-0.182671813410681,0.262816399271726,8
0.979995727539063,-0.464204132556915,2.8629584312439,1.25468516349792,-0.22138664033507,2.87055989392801,1.27990596665734,1216.722,1353.609,3125.089,3130.925,-0.08315986,0.04364546,0.04626812,-0.615238308906555,-0.12056989967823,0.277387112379074,-0.438046240701377,-0.188479059778567,0.271171490030365,8
1,-0.476551115512848,2.86038398742676,1.26033067703247,-0.230284798736574,2.86673126495361,1.28541435058594,1201.747,1363.349,3126.766,3138.354,-0.08660547,0.04232245,0.04678299,-0.617347478866577,-0.128724724054337,0.282277584075928,-0.451584000205995,-0.194303979492187,0.279552008056641,8
1.02000427246094,-0.488946050405502,2.85763812065125,1.26607000827789,-0.239454009753966,2.86278600961093,1.2910905289958,1192.503,1372.152,3123.7,3146.272,-0.08995786,0.0409068,0.04760788,-0.619746446609497,-0.137288942933083,0.286964446306229,-0.465144357597929,-0.200138622445408,0.287946515251652,8
1.04000854492188,-0.501395761966705,2.85471367835999,1.27190232276917,-0.248894644448595,2.85872396824263,1.29693473159157,1183.539,1380.381,3122.312,3154.015,-0.09320159,0.03941125,0.04871555,-0.622487008571625,-0.146222278475761,0.291615962982178,-0.47871923339115,-0.205979512261105,0.296350010028666,8
1.05999755859375,-0.513907790184021,2.85160398483276,1.27782702445984,-0.258599401509697,2.85454828239877,1.30294243851408,1169.655,1387.776,3121.865,3167.055,-0.09631375,0.03785023,0.05008099,-0.625600278377533,-0.15548013150692,0.296234518289566,-0.492290296490434,-0.211818761581115,0.30475114456651,8
1.08000183105469,-0.526490092277527,2.84830355644226,1.28384387493134,-0.268583149539609,2.85025255453512,1.30912285413647,1157.902,1394.409,3122.942,3177.676,-0.09922246,0.03625264,0.05164291,-0.629112541675568,-0.165018349885941,0.300844311714172,-0.50587040849135,-0.217661904390701,0.313157880805523,8
1.10000610351563,-0.539150536060333,2.84480810165405,1.28995072841644,-0.278838480013141,2.84583997233313,1.31547139222872,1156.639,1401.608,3119.219,3183.001,-0.1018989,0.03465186,0.05333572,-0.63302618265152,-0.17477448284626,0.305341631174088,-0.519441457145546,-0.223501147495394,0.321559006401169,7
1.1199951171875,-0.551897585391998,2.84111404418945,1.29614889621735,-0.289357002179081,2.84131414609862,1.32198285851614,1158.038,1408.584,3118.3,3184.733,-0.1043794,0.03305873,0.05514973,-0.637353241443634,-0.184705644845963,0.309907853603363,-0.532985466132485,-0.229328756186667,0.329943393154705,7
1.13999938964844,-0.564739465713501,2.83721852302551,1.30244052410126,-0.300154365346813,2.83666834237095,1.3286669406667,1151.129,1413.714,3121.818,3192.703,-0.1066846,0.03147082,0.05711746,-0.642092406749725,-0.194772660732269,0.314580172300339,-0.546515580872639,-0.235150386571708,0.338319178707607,7
1.16000366210938,-0.577684223651886,2.83312010765076,1.30882465839386,-0.311222084148811,2.83190621216671,1.33551838583369,1152.372,1417.748,3121.991,3197.298,-0.1087843,0.02991191,0.05919921,-0.647236943244934,-0.204921007156372,0.319207489490509,-0.560014026276883,-0.240958390526247,0.34667535943296,7
1.18000793457031,-0.590740144252777,2.82881784439087,1.31530332565308,-0.322559451663168,2.82702805965467,1.34253675639879,1155.904,1421.082,3124.344,3199.286,-0.1106959,0.02838771,0.06139069,-0.652798295021057,-0.215113312005997,0.323935031890869,-0.573473482003304,-0.246749618311663,0.355007403690405,7
1.19999694824219,-0.603915631771088,2.82431173324585,1.32187843322754,-0.334156660511822,2.8220381046756,1.34971598112778,1154.002,1422.917,3128.158,3207.094,-0.112436,0.02689756,0.06370804,-0.658772766590118,-0.225308686494827,0.328753560781479,-0.58687652428584,-0.252516572968185,0.36330452533874,7
1.22000122070313,-0.617218911647797,2.81960225105286,1.32855188846588,-0.346030421585499,2.81692915700008,1.35706640485806,1151.744,1423.075,3133.667,3215.335,-0.1139631,0.02545412,0.06612293,-0.665163278579712,-0.235469281673431,0.333670943975449,-0.600236516861372,-0.258265004538453,0.371574997167698,7
1.24000549316406,-0.630658030509949,2.8146915435791,1.33532333374023,-0.358170848086624,2.8117054706409,1.36458190719098,1158.257,1423.625,3133.734,3220.328,-0.1152648,0.02408127,0.0685765,-0.671956181526184,-0.245539426803589,0.338573396205902,-0.613536214864368,-0.263987493038594,0.379808143784027,7
1.25999450683594,-0.644241154193878,2.8095817565918,1.34219622612,-0.3705671011502,2.80637170925886,1.37225577835275,1165.364,1423.969,3136.318,3223.526,-0.1163791,0.02278305,0.07104884,-0.679154992103577,-0.255488306283951,0.343643128871918,-0.626758665639206,-0.269676744214496,0.387993470686331,7
1.27999877929688,-0.657975971698761,2.80427598953247,1.34917461872101,-0.383236695417198,2.80092033679326,1.3800988607405,1163.642,1422.783,3143.436,3232.493,-0.117316,0.0215554,0.07355059,-0.686744749546051,-0.265291035175323,0.348920375108719,-0.639917282339435,-0.275338529371412,0.396139281255613,8
1.30000305175781,-0.671869874000549,2.79877805709839,1.35625910758972,-0.396168722856641,2.79535604666509,1.38810440176341,1170.985,1421.692,3145.81,3236.905,-0.1180451,0.02042378,0.07602166,-0.694694519042969,-0.274902641773224,0.354227155447006,-0.652995275331231,-0.280965624398954,0.404235181908735,8
1.32000732421875,-0.685929834842682,2.7930920124054,1.36345326900482,-0.409361504843077,2.78967956113998,1.39627136227237,1181.62,1420.633,3149.916,3237.117,-0.1185948,0.01939126,0.07844811,-0.702995896339417,-0.284299314022064,0.35971000790596,-0.6659860834168,-0.286555206197011,0.41227711095171,8
1.33999633789063,-0.70016223192215,2.78722286224365,1.37076056003571,-0.422802873722428,2.78389611561957,1.40459220990988,1186.644,1418.528,3155.917,3242.104,-0.1190023,0.01844868,0.08085351,-0.71162223815918,-0.293457478284836,0.365367650985718,-0.678873453515705,-0.29210028151913,0.420255006953505,8
1.36000061035156,-0.714573323726654,2.78117561340332,1.37818443775177,-0.436511415158101,2.77799771321212,1.41307845008695,1190.196,1414.94,3163.985,3247.581,-0.1192436,0.0175992,0.08322762,-0.720553934574127,-0.302358001470566,0.371193259954453,-0.691670720740693,-0.297606588091785,0.42817712498415,8
1.3800048828125,-0.729168474674225,2.77495646476746,1.38572537899017,-0.450474904562636,2.77198961381608,1.4217225152016,1202.09,1412.22,3165.969,3249.886,-0.1193208,0.01685731,0.08552775,-0.729756236076355,-0.310962796211243,0.37704536318779,-0.704361775018035,-0.303067194200314,0.436033492140578,8
1.39999389648438,-0.743952870368958,2.76857113838196,1.39338731765747,-0.464680216184654,2.76587746507559,1.43051627978847,1213.596,1409.286,3170.537,3250.808,-0.1192835,0.01621678,0.08775014,-0.739222884178162,-0.319261163473129,0.383099496364594,-0.716930938559026,-0.308475354130225,0.443814403124744,8
1.41999816894531,-0.758931457996368,2.76202607154846,1.40117514133453,-0.47914673136562,2.75965292774086,1.43947174182117,1214.92,1404.691,3180.082,3257.953,-0.1191424,0.0156633,0.08991979,-0.748930037021637,-0.327250272035599,0.389389753341675,-0.729391385793766,-0.313836736470737,0.451528013536465,8
1.44000244140625,-0.774108171463013,2.75532793998718,1.40908920764923,-0.493861275572861,2.75332167044526,1.4485807456364,1224.431,1400.862,3183.689,3261.347,-0.1188686,0.01521583,0.09198417,-0.75883412361145,-0.334904044866562,0.395705729722977,-0.741727567798258,-0.319144650954242,0.459164697851088,8
1.46000671386719,-0.789486646652222,2.74848365783691,1.41713297367096,-0.508821304757097,2.74688478782212,1.45784171634646,1237.118,1397.388,3188.496,3260.395,-0.1184888,0.01487318,0.09392927,-0.768923342227936,-0.342216938734055,0.402187645435333,-0.753933682518823,-0.324396601119133,0.466720864320996,8
1.47999572753906,-0.805069983005524,2.74149990081787,1.42530965805054,-0.524012471663969,2.74034845309416,1.46724577231745,1243.563,1393.22,3195.11,3264.148,-0.1180404,0.01462066,0.09578098,-0.779165863990784,-0.349185556173325,0.408834874629974,-0.765994882555672,-0.329586198544069,0.474187321698441,8
1.5,-0.820860624313354,2.73438358306885,1.43362236022949,-0.539455198877605,2.73370387899399,1.4768055561018,1247.802,1387.942,3203.899,3268.181,-0.1174971,0.01445622,0.09753425,-0.78953605890274,-0.355811297893524,0.415635943412781,-0.777924000354858,-0.334718964672088,0.481572013878822,8
1.52000427246094,-0.836860477924347,2.7271420955658,1.44207084178925,-0.555135099954955,2.72695725560613,1.48651216180595,1260.419,1384.279,3205.579,3268.867,-0.1168611,0.01439196,0.0991511,-0.799989461898804,-0.36207377910614,0.42242231965065,-0.789706299681991,-0.339788558913217,0.48886581843107,8
1.54000854492188,-0.853070795536041,2.71978259086609,1.45065832138062,-0.571049184024557,2.72010986981902,1.49636373793799,1272.691,1380.621,3209.847,3267.603,-0.1161847,0.01441587,0.100635,-0.810518562793732,-0.367979377508163,0.429372221231461,-0.801336412291853,-0.344792671461508,0.496065412155667,8
1.55999755859375,-0.869492709636688,2.71231174468994,1.45938789844513,-0.587181951496087,2.71316839067337,1.50635068951315,1276.737,1376,3217.213,3271.594,-0.1154954,0.01451051,0.1020158,-0.821093738079071,-0.373540371656418,0.436481803655624,-0.812800388649436,-0.349725300221754,0.503162159625937,8
1.58000183105469,-0.886126458644867,2.70473647117615,1.46826195716858,-0.60355483331529,2.70612359703193,1.51648628330776,1278.964,1370.435,3226.52,3275.154,-0.1147439,0.01467653,0.1032872,-0.831688046455383,-0.37876883149147,0.443704903125763,-0.824110582941666,-0.354591760855452,0.510163708672098,8
1.60000610351563,-0.902971565723419,2.69706344604492,1.47727882862091,-0.620152298932711,2.69898217125626,1.52676090517188,1291.292,1367.024,3227.136,3274.575,-0.1139247,0.01492719,0.10441,-0.842254400253296,-0.383649110794067,0.450842469930649,-0.835253140422976,-0.35938609205264,0.51706148254665,8
1.6199951171875,-0.920027315616608,2.68929958343506,1.48644065856934,-0.636958033083316,2.69175113334911,1.53716445517924,1303.884,1363.807,3229.955,3271.716,-0.1130975,0.0152488,0.1053911,-0.852789759635925,-0.388191968202591,0.458090990781784,-0.846214826007804,-0.364102599125749,0.523847288101157,8
1.63999938964844,-0.937292814254761,2.68145108222961,1.49575066566467,-0.653994195024907,2.68442094880091,1.54771065096602,1303.852,1358.804,3238.697,3276.31,-0.1122831,0.01561614,0.1062779,-0.863272845745087,-0.392421633005142,0.465499371290207,-0.857007552155828,-0.368746407673381,0.530528499715628,8
1.66000366210938,-0.954765975475311,2.67352437973022,1.50520730018616,-0.671244443874359,2.67699864863716,1.55838937674714,1310.686,1355.174,3241.043,3277.803,-0.111448,0.01604375,0.1070308,-0.873658657073975,-0.396339029073715,0.472833782434464,-0.867618167158098,-0.373311858882592,0.53709697585572,8
1.68000793457031,-0.972444832324982,2.66552519798279,1.51481175422668,-0.688705090349012,2.66948582025311,1.56919834868089,1320.545,1352.078,3244.465,3274.624,-0.1106091,0.01652727,0.1076436,-0.88394170999527,-0.399959594011307,0.480221271514893,-0.878042061913515,-0.377796969585941,0.543549863268291,8
1.69999694824219,-0.990326821804047,2.6574592590332,1.52456474304199,-0.706358800111611,2.66188992212981,1.58012683598675,1324.049,1348.493,3249.454,3275.978,-0.1097931,0.01704833,0.108152,-0.89409613609314,-0.403300255537033,0.487650811672211,-0.888267004546665,-0.382196476749158,0.549879589839776,8
1.72000122070313,-1.00840878486633,2.64933156967163,1.53446674346924,-0.724228658537036,2.6542010212754,1.5911891296115,1324.954,1344.075,3256.127,3277.961,-0.108967,0.01760331,0.108561,-0.904103636741638,-0.406379699707031,0.495101094245911,-0.898304216251578,-0.386515208538549,0.556093102023817,8
1.74000549316406,-1.02668726444244,2.64114761352539,1.54451465606689,-0.742297311768984,2.64642658456943,1.60237448669139,1334.27,1341.849,3254.708,3276.814,-0.1081323,0.01820151,0.1088374,-0.913926959037781,-0.409193724393845,0.502394795417786,-0.908141534469281,-0.390747931744771,0.562182870617028,8
1.75999450683594,-1.04515874385834,2.63291239738464,1.5547091960907,-0.760546715064628,2.63857437616062,1.61367173667103,1342.662,1339.727,3256.323,3273.649,-0.1073387,0.01882949,0.1089905,-0.923572301864624,-0.411762654781342,0.509729862213135,-0.917767514700581,-0.394889722119545,0.568141810929231,8
1.77999877929688,-1.06381940841675,2.62462997436523,1.56505191326141,-0.779000609654483,2.63063418086074,1.62509557650306,1338.75,1335.913,3263.832,3277.395,-0.1065877,0.01946519,0.1090678,-0.933024823665619,-0.414117872714996,0.517135918140411,-0.927192788821983,-0.398945154262308,0.57397650459845,8
1.80000305175781,-1.08266425132751,2.61630463600159,1.57553911209106,-0.797640935141499,2.62261376955408,1.63663482594136,1343.069,1333.862,3263.79,3277.467,-0.1058393,0.02012549,0.1090299,-0.942244410514832,-0.416263699531555,0.524357497692108,-0.936405971974637,-0.402909329586356,0.579679903854719,7
1.82000732421875,-1.10168886184692,2.60794019699097,1.58616995811462,-0.816463410111527,2.61451498441355,1.64828683458664,1350.96,1332.442,3264.671,3272.564,-0.1051134,0.02080657,0.1088751,-0.951235294342041,-0.418216586112976,0.531540036201477,-0.94540321420156,-0.406780591562751,0.585249625391268,7
1.83999633789063,-1.12088847160339,2.59954023361206,1.59694361686707,-0.835449117627072,2.60634596486888,1.66003989195343,1351.305,1330.444,3267.486,3273.197,-0.1044423,0.02148717,0.1086475,-0.959981620311737,-0.419996559619904,0.538685262203217,-0.954174163352093,-0.410554485950274,0.590679260733698,7
1.86000061035156,-1.14025795459747,2.59110760688782,1.60785913467407,-0.854622615239374,2.59809614449182,1.6719092003358,1348.312,1327.514,3272.462,3274.81,-0.1037866,0.02216434,0.1083548,-0.968475520610809,-0.421625852584839,0.545776546001434,-0.962728579444532,-0.414235212212131,0.595974851798267,7
1.8800048828125,-1.15979194641113,2.58264565467834,1.61891162395477,-0.873964974649439,2.58977366760063,1.68388304221498,1354.047,1326.822,3269.063,3273.216,-0.1031378,0.02285119,0.1079623,-0.976687729358673,-0.423101812601089,0.552622437477112,-0.971056158224177,-0.417818336715394,0.601130019760457,7
1.89999389648438,-1.17948436737061,2.57415676116943,1.63010013103485,-0.893456683142228,2.58138692997148,1.69594933829086,1359.6,1326.33,3268.565,3269.03,-0.1025392,0.02353656,0.1074782,-0.984633505344391,-0.424442946910858,0.559426307678223,-0.979147395688901,-0.421299770153459,0.606138881190213,7
1.91999816894531,-1.1993305683136,2.5656430721283,1.64142465591431,-0.913122862707269,2.57292512231409,1.70812364027167,1352.734,1324.215,3273.956,3271.947,-0.1019916,0.02419919,0.1069538,-0.992306888103485,-0.425678759813309,0.566223919391632,-0.987011339258123,-0.424683405378145,0.611007036871143,7
1.94000244140625,-1.21932411193848,2.55710649490356,1.65287983417511,-0.932943991899774,2.5643966441608,1.72039386345315,1354.022,1323.776,3271.642,3271.636,-0.1014537,0.02485776,0.1063509,-0.999676585197449,-0.426811546087265,0.57275652885437,-0.994638524886308,-0.427965170275055,0.615728628108227,7
1.96000671386719,-1.23945927619934,2.54854965209961,1.66446352005005,-0.952915303453826,2.55580354673295,1.73275705667061,1359.103,1323.909,3270.628,3265.964,-0.1009407,0.02550994,0.1056672,-1.00675690174103,-0.427855163812637,0.579185664653778,-1.00202586176059,-0.431143734953757,0.620301741541062,7
1.97999572753906,-1.25973010063171,2.53997302055359,1.6761736869812,-0.973016570682103,2.54715453300902,1.74520069864106,1356.163,1323.464,3271.42,3266.536,-0.1004848,0.02613645,0.1049486,-1.01353895664215,-0.428825974464417,0.585506975650787,-1.00916501115878,-0.434215511495054,0.624721215103391,7
2,-1.28013062477112,2.53137826919556,1.68800795078278,-0.993273599084619,2.53843849960327,1.7577407641983,1350.404,1322.046,3274.705,3267.417,-0.1000379,0.02673752,0.1042004,-1.02002441883087,-0.429742783308029,0.591716051101685,-1.01606400046349,-0.437183953857422,0.628992018127441,6
2.02000427246094,-1.30065441131592,2.52276635169983,1.69996011257172,-1.01366615605493,2.52966415204104,1.77036472839513,1353.492,1322.754,3269.305,3265.53,-0.0995905,0.02732829,0.1033892,-1.02619016170502,-0.430597364902496,0.597608745098114,-1.02271452148052,-0.440045487257004,0.633109007445237,6
2.04000854492188,-1.32129549980164,2.51413822174072,1.71202826499939,-1.03418924440916,2.52083364047092,1.78306949773667,1357.136,1323.646,3266.987,3260.357,-0.09918198,0.02789972,0.1025214,-1.03205943107605,-0.431402713060379,0.603405594825745,-1.02911391720548,-0.442798968459032,0.637070538244476,6
2.05999755859375,-1.34204816818237,2.50549459457397,1.72421038150787,-1.05482201812353,2.5119559343546,1.79584216754118,1350.622,1323.65,3268.087,3262.083,-0.09883417,0.02843427,0.1016426,-1.03762817382813,-0.432178169488907,0.609104216098785,-1.03525504859546,-0.445441325732794,0.640872191117535,6
2.08000183105469,-1.36290609836578,2.49683570861816,1.73650348186493,-1.07559088172821,2.50301967256038,1.80869908347065,1342.316,1322.748,3271.135,3263.414,-0.09847677,0.02893866,0.1007499,-1.0428968667984,-0.432939738035202,0.614654779434204,-1.04114485287423,-0.447975543971863,0.644518260536375,6
2.10000610351563,-1.38386297225952,2.48816227912903,1.74890029430389,-1.09647498538954,2.49403382618922,1.82162733848484,1345.71,1324.133,3264.583,3260.053,-0.09809061,0.02943265,0.09980294,-1.04784369468689,-0.433672368526459,0.619843721389771,-1.04677621342161,-0.450398561093403,0.648004340974112,5
2.1199951171875,-1.40491282939911,2.47947454452515,1.76139843463898,-1.11745308225396,2.48500753716864,1.83461377976925,1349.873,1325.745,3260.736,3253.825,-0.09773055,0.02990602,0.0988148,-1.05249297618866,-0.434381872415543,0.624906659126282,-1.0521429102862,-0.45270770082608,0.651326581984514,5
2.13999938964844,-1.42604970932007,2.4707727432251,1.7739964723587,-1.138551967509,2.47592927627801,1.8476749948214,1339.476,1325.532,3263.37,3256.752,-0.09741151,0.03033545,0.09784607,-1.056849360466,-0.435087651014328,0.629904508590698,-1.05725102347782,-0.454905579228273,0.654488747383304,4
2.16000366210938,-1.44726753234863,2.46205711364746,1.78668808937073,-1.15975039167652,2.46680818657414,1.86079782920208,1337.002,1326.419,3258.998,3256.661,-0.09708394,0.03074323,0.09685301,-1.06089425086975,-0.435784578323364,0.634579002857208,-1.0620943502576,-0.456989527434725,0.657486997379635,4
2.18000793457031,-1.4685605764389,2.45332765579224,1.79947006702423,-1.18104303873349,2.45764655539322,1.87397899203979,1338.841,1327.794,3256.26,3250.594,-0.09675211,0.03113252,0.09582758,-1.06464958190918,-0.436477988958359,0.639097392559052,-1.06667099276523,-0.458958728849171,0.660320157107579,3
2.19999694824219,-1.48992276191711,2.44458413124084,1.81233906745911,-1.20240821395574,2.44845371736898,1.88720505326679,1333.169,1328.636,3255.094,3250.646,-0.09643999,0.0314883,0.09481343,-1.06811213493347,-0.437172740697861,0.643449008464813,-1.07097597819164,-0.460811043810786,0.662985148161421,1
2.22000122070313,-1.51134848594666,2.43582630157471,1.82529151439667,-1.22387315175433,2.43921795429519,1.90049287228091,1325.54,1328.444,3255.854,3251.044,-0.0960991,0.03181434,0.09381167,-1.07128870487213,-0.437874227762222,0.647624969482422,-1.07501419914593,-0.462548577472581,0.665484999299265,0
2.24000549316406,-1.53283190727234,2.42705535888672,1.83832037448883,-1.24541615591711,2.42994860144581,1.91382901809327,1327.535,1330,3248.359,3248.163,-0.095722,0.03212808,0.09278479,-1.07416558265686,-0.438563257455826,0.651443243026733,-1.07878069424208,-0.464169195088763,0.667816639186824,0
2.25999450683594,-1.55436706542969,2.41827058792114,1.85142302513123,-1.26701526177039,2.4206551096063,1.92719989352455,1329.364,1331.633,3244.185,3242.809,-0.09535342,0.03242196,0.09174021,-1.07676875591278,-0.439242869615555,0.655134618282318,-1.08227143928024,-0.465671165158559,0.669977576652695,0
2.27999877929688,-1.57594919204712,2.40947198867798,1.86459791660309,-1.28869796983554,2.41132564607061,1.9406225227075,1317.692,1331.644,3246.264,3245.581,-0.09499656,0.03267858,0.09072944,-1.07910335063934,-0.43992680311203,0.658746957778931,-1.08549040888332,-0.467056197851165,0.67197027217779,0
2.30000305175781,-1.59757208824158,2.40066003799438,1.87783813476563,-1.31044231452835,2.40196966201596,1.95408330789913,1315.25,1332.577,3241.004,3244.687,-0.09459601,0.03292309,0.08970515,-1.08115112781525,-0.440601795911789,0.662011384963989,-1.08843358680109,-0.468322565086307,0.673792239511894,0
2.32000732421875,-1.6192307472229,2.39183473587036,1.89114022254944,-1.33224276726637,2.39258953623693,1.96757882664355,1318.014,1334.019,3237.032,3237.482,-0.09416299,0.03315863,0.08865909,-1.08293306827545,-0.441265344619751,0.665103793144226,-1.09109983431736,-0.469469776906228,0.675442773735451,0
2.33999633789063,-1.64091992378235,2.38299632072449,1.90450084209442,-1.35407709248145,2.38319483607731,1.98109531406483,1312.535,1334.848,3234.9,3237.115,-0.09373368,0.03336875,0.08763829,-1.08444738388062,-0.441916555166245,0.66803115606308,-1.09348640563071,-0.470496651869278,0.67692017506657,0
2.36000061035156,-1.66263401508331,2.37414526939392,1.91791665554047,-1.37597305876702,2.37377361348711,1.99464996024512,1304.27,1334.402,3235.199,3237.692,-0.09326177,0.03355747,0.08664334,-1.0857025384903,-0.442557275295258,0.670790314674377,-1.09559602313537,-0.471404361345641,0.678226128796969,0
2.3800048828125,-1.68436765670776,2.36528205871582,1.9313805103302,-1.39790843013262,2.36433543599182,2.00822900004707,1305.928,1335.422,3227.525,3234.681,-0.09273233,0.03374395,0.08563171,-1.08668601512909,-0.443165183067322,0.6731938123703,-1.09742594550583,-0.472191725819537,0.679358937915576,0
2.39999389648438,-1.70611608028412,2.35640716552734,1.94489002227783,-1.41986083522252,2.35488992936084,2.02181858453579,1308.177,1336.584,3223.195,3228.419,-0.09218692,0.0339225,0.08460852,-1.08742189407349,-0.44373944401741,0.675474286079407,-1.09897439291323,-0.472857979480329,0.680317500623536,0
2.41999816894531,-1.72787427902222,2.34752130508423,1.95844340324402,-1.44185817738692,2.34542508756209,2.03543598721428,1296.781,1336.235,3224.438,3231.075,-0.09163245,0.03407602,0.0836258,-1.08791244029999,-0.444287478923798,0.67766660451889,-1.10024313330221,-0.473403883025206,0.681102911362803,0
2.44000244140625,-1.74963712692261,2.33862543106079,1.97203373908997,-1.46387808506052,2.33595053645515,2.04906735901791,1295.387,1336.517,3218.548,3229.501,-0.0910162,0.03423031,0.08263072,-1.08814251422882,-0.444792062044144,0.679514825344086,-1.10123038958312,-0.473828671822132,0.681714070030222,0
2.46000671386719,-1.77139973640442,2.32972049713135,1.98565793037415,-1.48591492338117,2.32646870056377,2.06270921169857,1298.588,1337.29,3214.34,3221.923,-0.09035413,0.03438704,0.08161578,-1.08813142776489,-0.445249021053314,0.681208670139313,-1.10193578218388,-0.474132182551855,0.682150741652607,0
2.47999572753906,-1.79315721988678,2.32080745697021,1.99931287765503,-1.50794623031618,2.31698924467309,2.07634764018804,1293.197,1337.455,3212.005,3221.479,-0.08968301,0.03453103,0.08062648,-1.08787572383881,-0.44565537571907,0.682748734951019,-1.10235882472314,-0.474314205938057,0.682412625136718,0
2.5,-1.8149049282074,2.31188726425171,2.01299548149109,-1.52999999932945,2.30750012397766,2.08999997377396,1285.594,1336.326,3212.032,3221.519,-0.0889549,0.03466744,0.07965916,-1.08738219738007,-0.446010768413544,0.684128522872925,-1.10250000050292,-0.474374949932098,0.682500019669533,0
2.52000427246094,-1.83663761615753,2.3029613494873,2.02669882774353,-1.55205376834272,2.29801100328223,2.10365230735988,1288.129,1336.467,3204.355,3217.733,-0.08815382,0.0348146,0.07867121,-1.08663821220398,-0.446291923522949,0.685164988040924,-1.10235882472314,-0.474314205938057,0.682412625136718,0
2.53999328613281,-1.85835075378418,2.29403114318848,2.04042053222656,-1.57408507527774,2.28853154739156,2.11729073584934,1291.354,1336.792,3199.801,3210.807,-0.08732505,0.03496654,0.07766837,-1.0856636762619,-0.446496158838272,0.686086237430573,-1.10193578218388,-0.474132182551855,0.682150741652607,0
2.55999755859375,-1.88003993034363,2.28509879112244,2.05415916442871,-1.59612191359838,2.27904971150017,2.13093258853001,1280.961,1335.731,3200.563,3212.959,-0.08648083,0.03510633,0.07670171,-1.08445930480957,-0.446628838777542,0.686928868293762,-1.10123038958312,-0.473828671822132,0.681714070030222,0
2.58000183105469,-1.901700258255,2.2761652469635,2.06790804862976,-1.61814182127198,2.26957516039323,2.14456396033363,1280.233,1335.014,3194.593,3211.121,-0.08557056,0.035258,0.07571716,-1.08301115036011,-0.446673542261124,0.687443614006042,-1.10024313330221,-0.473403883025206,0.681102911362804,0
2.60000610351563,-1.92332684993744,2.2672324180603,2.08166456222534,-1.64013916343638,2.26011031859448,2.15818136301212,1284.129,1334.823,3190.625,3202.88,-0.08460863,0.03542363,0.07470577,-1.08133614063263,-0.4466273188591,0.687825918197632,-1.09897439291323,-0.472857979480329,0.680317500623536,0
2.6199951171875,-1.9449155330658,2.25830268859863,2.0954258441925,-1.66209156852628,2.2506648119635,2.17177094750084,1279.326,1334.127,3188.234,3202.034,-0.08363178,0.03558781,0.07371353,-1.07942759990692,-0.44648677110672,0.688063085079193,-1.09742594550583,-0.472191725819537,0.679358937915576,0
2.63999938964844,-1.9664614200592,2.24937772750854,2.10918879508972,-1.68402693989188,2.24122663446822,2.18534998730279,1272.903,1332.16,3187.814,3201.49,-0.08259421,0.03575568,0.07273342,-1.07729065418243,-0.4462511241436,0.688143670558929,-1.09559602313537,-0.471404361345641,0.67822612879697,0
2.66000366210938,-1.98795962333679,2.24045968055725,2.12294673919678,-1.70592290617745,2.23180541187802,2.19890463348308,1276.638,1331.325,3180.139,3196.841,-0.08148314,0.03594448,0.07172266,-1.07491362094879,-0.445899486541748,0.687900841236115,-1.09348640563071,-0.470496651869278,0.67692017506657,0
2.68000793457031,-2.00940585136414,2.2315514087677,2.13669800758362,-1.72777388024004,2.22240354818443,2.21243142733407,1280.476,1330.744,3175.682,3189.447,-0.0803465,0.03614656,0.07068967,-1.0723123550415,-0.445430755615234,0.687560379505157,-1.09109790637238,-0.469468947365361,0.675441580245664,0
2.69999694824219,-2.03079581260681,2.22265434265137,2.15044021606445,-1.74955768413056,2.21303058593937,2.22591663964878,1273.967,1329.386,3173.959,3189.952,-0.07921306,0.03634797,0.06967418,-1.06948256492615,-0.444847881793976,0.687108814716339,-1.08843358680109,-0.468322565086308,0.673792239511893,0
2.72000122070313,-2.05212426185608,2.2137713432312,2.16417050361633,-1.77130202882336,2.20367460188472,2.23937742484041,1266.722,1326.868,3174.54,3189.228,-0.07801624,0.03655763,0.06866132,-1.06642830371857,-0.444154411554337,0.686517596244812,-1.08549040888332,-0.467056197851165,0.671970272177789,0
2.74000549316406,-2.07338666915894,2.20490479469299,2.17788219451904,-1.79298473688851,2.19434513834902,2.25280005402337,1271.175,1325.594,3166.839,3183.745,-0.07673366,0.03679452,0.06760736,-1.06313383579254,-0.443329155445099,0.685583651065826,-1.08227143928024,-0.465671165158559,0.669977576652695,0
2.75999450683594,-2.09457921981812,2.19605731964111,2.19157290458679,-1.81458384274179,2.18505164650952,2.26617092945464,1277.25,1324.714,3161.657,3174.744,-0.07542072,0.03705032,0.06652161,-1.05961227416992,-0.442368686199188,0.684541046619415,-1.07878069424208,-0.464169195088763,0.667816639186824,0
2.77999877929688,-2.1156964302063,2.18723177909851,2.20524168014526,-1.83612684690458,2.17578229366013,2.27950707526701,1268.533,1322.644,3161.662,3176.032,-0.07411045,0.0373041,0.06546173,-1.05586278438568,-0.441279798746109,0.683440268039703,-1.07501419914593,-0.462548577472581,0.665484999299265,0
2.80000305175781,-2.13673400878906,2.17843055725098,2.21888256072998,-1.85759178470316,2.16654653058634,2.29279489428112,1268.245,1320.425,3156.211,3173.708,-0.07275224,0.03757643,0.06437591,-1.05187571048737,-0.440054178237915,0.682049810886383,-1.07097597819164,-0.460811043810786,0.662985148161422,0
2.82000732421875,-2.15768694877625,2.16965699195862,2.23249340057373,-1.87897323600723,2.1573466894188,2.30603103117811,1272.198,1318.846,3152.615,3165.23,-0.07135301,0.03786946,0.06325388,-1.04766309261322,-0.438692808151245,0.680543422698975,-1.06666760390385,-0.458957270716794,0.660318059240952,0
2.83999633789063,-2.178551197052,2.16091299057007,2.24607133865356,-1.90024960698239,2.14819206138118,2.31920211834584,1268.466,1317.035,3149.841,3163.584,-0.06994526,0.03816942,0.06213541,-1.04321718215942,-0.437195301055908,0.678893506526947,-1.06209435025759,-0.456989527434725,0.657486997379635,0
2.86000061035156,-2.19932222366333,2.15220165252686,2.25961351394653,-1.9214480311499,2.13907097167731,2.33232495272651,1263.807,1314.143,3149.069,3161.428,-0.06848798,0.03848029,0.0610131,-1.03854286670685,-0.435564368963242,0.677103877067566,-1.05725102347782,-0.454905579228273,0.654488747383304,0
2.8800048828125,-2.21999454498291,2.14352583885193,2.27311372756958,-1.94254691640495,2.12999271078668,2.34538616777867,1268.004,1312.131,3141.525,3156.227,-0.06697264,0.03881526,0.0598514,-1.03362882137299,-0.433785647153854,0.675009191036224,-1.0521429102862,-0.45270770082608,0.651326581984514,0
2.89999389648438,-2.24056458473206,2.13488864898682,2.28657031059265,-1.96352501326936,2.1209664217661,2.35837260906308,1272.793,1310.514,3136.925,3147.873,-0.06544505,0.0391669,0.05865665,-1.02848672866821,-0.431860953569412,0.672825932502747,-1.04677621342161,-0.450398561093403,0.648004340974112,0
2.91999816894531,-2.26102685928345,2.12629270553589,2.29998183250427,-1.98440911693069,2.11198057539494,2.37130086407726,1263.946,1308.024,3136.837,3148.913,-0.06392652,0.03951769,0.05747847,-1.0231146812439,-0.429799199104309,0.670580327510834,-1.04114485287423,-0.447975543971863,0.644518260536375,0
2.94000244140625,-2.2813766002655,2.11774086952209,2.31334280967712,-2.00517798053537,2.10304431360073,2.38415778000673,1264.546,1305.361,3131.299,3145.42,-0.06236218,0.03988862,0.0562642,-1.01750493049622,-0.427595645189285,0.668046116828918,-1.03525504859546,-0.445441325732794,0.640872191117535,0
2.96000671386719,-2.30160999298096,2.1092357635498,2.32665061950684,-2.02582645724542,2.09415985092405,2.3969401707136,1269.481,1303.491,3127.202,3136.012,-0.06076694,0.04027898,0.05500822,-1.01166617870331,-0.425251990556717,0.665393352508545,-1.02910913225408,-0.442796909628122,0.637067576131623,0
2.97999572753906,-2.32172179222107,2.10078024864197,2.33990287780762,-2.04633384260397,2.08533609591429,2.40963521915279,1266.195,1301.427,3124.213,3133.712,-0.05917917,0.04067368,0.05375452,-1.00559222698212,-0.422770529985428,0.662609100341797,-1.02271452148052,-0.440045487257004,0.633109007445237,0
3,-2.34170746803284,2.09237718582153,2.35309672355652,-2.06672639957428,2.07656174835205,2.42225918334961,1261.454,1298.287,3123.054,3131.571,-0.05756157,0.04107565,0.05249704,-0.999288320541382,-0.420156568288803,0.659686625003815,-1.01606400046349,-0.437183953857422,0.628992018127441,0
3.02000427246094,-2.36156249046326,2.08402943611145,2.36622619628906,-2.0869834279768,2.06784571494631,2.43479924890685,1265.498,1295.865,3115.778,3125.946,-0.05590082,0.04149746,0.05119941,-0.99274754524231,-0.417401671409607,0.656474411487579,-1.00916501115878,-0.434215511495054,0.624721215103391,0
3.03999328613281,-2.38128232955933,2.07573890686035,2.3792896270752,-2.10708469520508,2.05919670122237,2.4472428908773,1269.801,1293.987,3111.232,3117.512,-0.054239,0.04193113,0.04986971,-0.985978841781616,-0.414509236812592,0.653175234794617,-1.00202586176059,-0.431143734953757,0.620301741541063,0
3.05999755859375,-2.40086221694946,2.06750917434692,2.39228582382202,-2.12705600675913,2.05060360379452,2.45960608409476,1261.494,1291.47,3110.74,3117.71,-0.05259477,0.04236108,0.04855534,-0.97898143529892,-0.4114890396595,0.649810075759888,-0.994638524886308,-0.427965170275055,0.615728628108227,0
3.08000183105469,-2.42029666900635,2.05934238433838,2.40520882606506,-2.14687713595163,2.04207512564123,2.47187630727625,1262.023,1288.605,3104.886,3114.137,-0.05091858,0.04280564,0.0472072,-0.971750974655151,-0.408339262008667,0.646156251430511,-0.987011339258122,-0.424683405378145,0.611007036871143,0
3.10000610351563,-2.43958258628845,2.05124092102051,2.41805672645569,-2.16654331551667,2.03361331798384,2.48405060925705,1267.25,1286.623,3100.568,3104.139,-0.04922267,0.04326469,0.04581811,-0.964295983314514,-0.4050632417202,0.642391264438629,-0.979147395688901,-0.421299770153459,0.606138881190213,0
3.1199951171875,-2.45871496200562,2.04320788383484,2.43082666397095,-2.18603502400946,2.02522658035469,2.49611690533293,1263.47,1284.602,3097.349,3101.895,-0.04755021,0.04372214,0.04443508,-0.956611633300781,-0.401665210723877,0.638501644134521,-0.971056158224178,-0.417818336715394,0.601130019760458,0
3.13999938964844,-2.47768902778625,2.03524494171143,2.44351601600647,-2.20537738341953,2.01690410346351,2.50809074721212,1258.575,1281.52,3095.748,3099.682,-0.04586177,0.04418152,0.04304927,-0.948704659938812,-0.398152440786362,0.634472489356995,-0.962728579444533,-0.414235212212131,0.595974851798267,0
3.16000366210938,-2.49650049209595,2.02735471725464,2.45611953735352,-2.22455088103183,2.00865428308644,2.51996005559448,1262.434,1279.048,3088.778,3093.422,-0.04413977,0.04465474,0.041626,-0.940571963787079,-0.394520401954651,0.630171358585358,-0.954174163352092,-0.410554485950274,0.590679260733698,0
3.18000793457031,-2.51514458656311,2.01953935623169,2.46863508224487,-2.24355101420387,2.00047905658478,2.53172204312984,1266.237,1277.229,3084.101,3084.963,-0.04242576,0.04513367,0.04017713,-0.932219862937927,-0.390772581100464,0.625779271125793,-0.945396434568188,-0.406777674475913,0.585245428475253,0
3.19999694824219,-2.53361773490906,2.01180076599121,2.48106074333191,-2.2623590635174,1.99238647840124,2.54336512160655,1261.287,1275.127,3081.142,3083.46,-0.04074956,0.04560606,0.03873868,-0.923647940158844,-0.386916875839233,0.621278285980225,-0.936405971974636,-0.402909329586355,0.579679903854719,0
3.22000122070313,-2.55191493034363,2.00414133071899,2.49339365959167,-2.28099938900442,1.98436606709459,2.55490437104486,1255.45,1272.177,3079.971,3081.314,-0.03906005,0.04607722,0.03729895,-0.914864480495453,-0.3829625248909,0.616649448871613,-0.927192788821982,-0.398945154262308,0.573976504598449,0
3.24000549316406,-2.57003259658813,1.99656331539154,2.50562834739685,-2.29945328359428,1.9764258717947,2.56632821087688,1258.989,1269.781,3072.953,3075.023,-0.03733379,0.0465597,0.03582269,-0.905866503715515,-0.378905534744263,0.611737430095673,-0.91776751470058,-0.394889722119544,0.568141810929231,0
3.25999450683594,-2.58796548843384,1.98906850814819,2.5177628993988,-2.31770268688992,1.96857366338589,2.57762546085652,1263.813,1268.124,3067.813,3065.656,-0.03561339,0.04704696,0.03432011,-0.896659135818481,-0.374747633934021,0.606727838516235,-0.90814153446928,-0.390747931744771,0.562182870617026,0
3.27999877929688,-2.60571002960205,1.98165857791901,2.52979588508606,-2.33577134012187,1.96079922667992,2.58881081793642,1256.748,1266.145,3065.866,3064.967,-0.03392974,0.04752234,0.03283978,-0.887243509292603,-0.370496928691864,0.601646602153778,-0.898304216251578,-0.386515208538549,0.556093102023818,0
3.30000305175781,-2.62326264381409,1.97433531284332,2.54172229766846,-2.35364119854729,1.95311032582551,2.59987311156116,1256.464,1263.436,3060.393,3061.231,-0.03224129,0.04799998,0.03134197,-0.877624094486237,-0.366157412528992,0.596321761608124,-0.888267004546666,-0.382196476749158,0.549879589839776,0
3.32000732421875,-2.64061880111694,1.96710062026978,2.55354022979736,-2.37130830610839,1.94550866300381,2.61080989274252,1259.253,1261.571,3056.411,3052.61,-0.03055232,0.04847946,0.02982247,-0.86780846118927,-0.361733824014664,0.590897023677826,-0.878034183119985,-0.377793579561194,0.543544985919778,0
3.33999633789063,-2.65777468681335,1.95995616912842,2.56524705886841,-2.38875555478454,1.93800159931817,2.62161057080077,1255.417,1259.818,3052.673,3050.09,-0.02889104,0.04895014,0.02831553,-0.8577960729599,-0.357230514287949,0.585339844226837,-0.867618167158097,-0.373311858882592,0.53709697585572,0
3.36000061035156,-2.67472648620605,1.95290315151215,2.57684016227722,-2.406005803634,1.93057929915441,2.6322892965819,1251.472,1257.304,3050.222,3046.875,-0.02722337,0.04941575,0.02681229,-0.847595751285553,-0.352653831243515,0.579651713371277,-0.857007552155826,-0.36874640767338,0.530528499715627,0
3.3800048828125,-2.69147062301636,1.94594311714172,2.58831453323364,-2.42304196557559,1.92324911460621,2.64283549236868,1254.391,1255.144,3043.418,3040.846,-0.02554025,0.04988432,0.02528777,-0.837208867073059,-0.348002284765244,0.573723614215851,-0.846214826007803,-0.364102599125748,0.523847288101157,0
3.39999389648438,-2.70800352096558,1.93907737731934,2.59966897964478,-2.43984769972619,1.91601807669906,2.65323904237604,1257.223,1253.637,3038.758,3032.762,-0.02387577,0.05034932,0.02375309,-0.826640725135803,-0.343278735876083,0.567717015743256,-0.835253140422974,-0.35938609205264,0.51706148254665,0
3.41999816894531,-2.72432136535645,1.93230760097504,2.61090183258057,-2.45644516534361,1.90887665092339,2.66351366424015,1249.633,1251.926,3036.641,3032.401,-0.02225018,0.05079897,0.02224706,-0.815895020961761,-0.338490784168243,0.561637043952942,-0.824110582941664,-0.354591760855451,0.510163708672097,0
3.44000244140625,-2.74042081832886,1.92563498020172,2.62200832366943,-2.47281804716281,1.90183185728196,2.67364925803476,1249.574,1249.453,3031.067,3028.342,-0.02061713,0.05124726,0.02072803,-0.80497944355011,-0.333642512559891,0.555324494838715,-0.812800388649434,-0.349725300221754,0.503162159625937,0
3.46000671386719,-2.75629901885986,1.91905999183655,2.63298678398132,-2.4889630419904,1.89488511704659,2.68364377892579,1252.678,1247.957,3026.763,3019.503,-0.01898727,0.051694,0.01919411,-0.793899655342102,-0.32873672246933,0.548923134803772,-0.801327600455845,-0.344788879974649,0.496059957209413,0
3.47999572753906,-2.7719521522522,1.91258454322815,2.64383506774902,-2.50486489870395,1.88804299234919,2.69348778574196,1248.716,1246.605,3022.984,3016.98,-0.0173931,0.05212791,0.01768265,-0.782656729221344,-0.323777318000793,0.542411863803864,-0.789706299681989,-0.339788558913217,0.488865818431069,0
3.5,-2.78737735748291,1.90620899200439,2.65455055236816,-2.5205447997813,1.88129636896134,2.70319439144611,1244.562,1244.419,3020.264,3014.169,-0.01580213,0.05255253,0.01618488,-0.771260797977448,-0.318770200014114,0.535779654979706,-0.777924000354857,-0.334718964672089,0.481572013878822,0
3.52000427246094,-2.80257177352905,1.89993464946747,2.66512942314148,-2.53598752699493,1.87465179486116,2.71275417523047,1247.057,1242.445,3013.982,3008.173,-0.01420104,0.05297557,0.01467637,-0.759716808795929,-0.313715368509293,0.528939664363861,-0.765994882555673,-0.32958619854407,0.474187321698442,0
3.53999328613281,-2.81753206253052,1.8937623500824,2.67557001113892,-2.55117869390181,1.86811546013321,2.72215823120146,1249.121,1241.181,3009.416,3000.799,-0.01262285,0.05339138,0.01316939,-0.748028755187988,-0.308614462614059,0.522030770778656,-0.753933682518821,-0.324396601119134,0.466720864320997,0
3.55999755859375,-2.83225631713867,1.88769292831421,2.68587112426758,-2.56613872308604,1.86167857751006,2.73141920191151,1242.383,1239.791,3006.855,3000.099,-0.01108408,0.05379062,0.01169644,-0.7362020611763,-0.303473293781281,0.515055000782013,-0.741727567798258,-0.319144650954242,0.459164697851087,0
3.58000183105469,-2.84674119949341,1.88172721862793,2.69602870941162,-2.58085326729328,1.85534732021446,2.74052820572674,1242.021,1237.592,3001.65,2996.219,-0.009545835,0.05418486,0.01022183,-0.72424703836441,-0.298296332359314,0.507883965969086,-0.729391385793765,-0.313836736470737,0.451528013536464,0
3.60000610351563,-2.86098432540894,1.87586522102356,2.70604157447815,-2.59531978247425,1.84912278287974,2.74948366775945,1244.375,1236.303,2997.511,2988.228,-0.00801505,0.0545739,0.008744038,-0.712168633937836,-0.293085515499115,0.500639796257019,-0.716930938559024,-0.308475354130224,0.443814403124743,0
3.6199951171875,-2.87498378753662,1.87010848522186,2.71590757369995,-2.60952509409627,1.84301063413925,2.75827743234631,1240.794,1235.192,2993.693,2985.657,-0.006519951,0.05494905,0.007294864,-0.69996976852417,-0.2878437936306,0.493302434682846,-0.704361775018033,-0.303067194200314,0.436033492140578,0
3.63999938964844,-2.88873720169067,1.86445677280426,2.72562479972839,-2.6234885835008,1.83700253474321,2.76692149746096,1237.037,1233.344,2990.79,2982.948,-0.00503444,0.05531338,0.005866567,-0.687661111354828,-0.282575964927673,0.485864996910095,-0.691670720740692,-0.297606588091786,0.428177124984152,0
3.66000366210938,-2.9022421836853,1.85891127586365,2.73518991470337,-2.63719712493647,1.83110413233575,2.77540773763803,1238.999,1231.588,2985.099,2977.373,-0.003546265,0.05567326,0.004438197,-0.675249218940735,-0.277282774448395,0.478259295225143,-0.678873453515702,-0.29210028151913,0.420255006953505,0
3.68000793457031,-2.91549682617188,1.85347199440002,2.74460196495056,-2.65064865588166,1.82531631436231,2.78373487607838,1240.617,1230.505,2980.729,2970.722,-0.002083125,0.05602412,0.003020774,-0.662737607955933,-0.271964937448502,0.470599412918091,-0.665976209205203,-0.286550957599616,0.412270998344358,0
3.69999694824219,-2.92849922180176,1.84813964366913,2.75385928153992,-2.66383127580226,1.81964420129024,2.79189554578451,1236.495,1229.357,2977.22,2968.936,-0.0006652576,0.05635967,0.001637471,-0.650132536888123,-0.266626954078674,0.46287128329277,-0.65299527533123,-0.280965624398954,0.404235181908735,0
3.72000122070313,-2.94124865531921,1.8429137468338,2.76296067237854,-2.6767633032417,1.81407991116207,2.79990108680742,1232.302,1227.669,2974.767,2966.531,0.0007386822,0.05668384,0.0002778916,-0.637445628643036,-0.261274397373199,0.455067187547684,-0.639917282339434,-0.275338529371411,0.396139281255611,0
3.74000549316406,-2.95374178886414,1.83779573440552,2.77190279960632,-2.6894328975087,1.80862853869646,2.80774416919516,1233.553,1226.047,2969.624,2961.438,0.002147116,0.05700342,-0.001077515,-0.62468409538269,-0.25590854883194,0.447111576795578,-0.626758665639204,-0.269676744214497,0.387993470686332,0
3.75999450683594,-2.9659788608551,1.83278512954712,2.78068470954895,-2.70182915057228,1.80329477731443,2.81541804035694,1235.949,1225.02,2965.165,2954.529,0.003536392,0.05731523,-0.002421346,-0.611850559711456,-0.250528991222382,0.439099669456482,-0.613536214864365,-0.263987493038594,0.379808143784027,0
3.77999877929688,-2.97795796394348,1.82788252830505,2.78930568695068,-2.7139695770734,1.79807109095524,2.82293354268985,1231.321,1224.077,2962.298,2952.993,0.004882322,0.05761145,-0.003724697,-0.598950326442719,-0.245138570666313,0.431054949760437,-0.60023651686137,-0.258265004538452,0.371574997167698,0
3.80000305175781,-2.98967790603638,1.82308769226074,2.79776334762573,-2.72584333814708,1.79296214327972,2.83028396642013,1230.626,1222.249,2957.784,2949.931,0.006210536,0.05789914,-0.005010471,-0.58599579334259,-0.2397421002388,0.422881126403809,-0.586876524285838,-0.252516572968186,0.363304525338741,0
3.82000732421875,-3.00113773345947,1.81840085983276,2.80605697631836,-2.73744929742843,1.78796842323393,2.8374686080838,1231.91,1221.136,2954.435,2943.493,0.007518827,0.0581785,-0.006281864,-0.572992324829102,-0.234341368079185,0.414678901433945,-0.573463232144022,-0.246745208083563,0.355001058539243,0
3.83999633789063,-3.01233696937561,1.81382203102112,2.81418538093567,-2.74877791451009,1.78309403578861,2.84448156171422,1228.562,1220.218,2950.921,2941.678,0.008787805,0.05844421,-0.007515441,-0.559945642948151,-0.228938937187195,0.406416684389114,-0.560014026276881,-0.240958390526246,0.346675359432959,0
3.86000061035156,-3.02327418327332,1.80935096740723,2.82214736938477,-2.75984563331209,1.77833190558438,2.85133300688122,1226.196,1218.73,2948.255,2938.641,0.01004134,0.05869947,-0.008721853,-0.546866238117218,-0.223538592457771,0.398101449012756,-0.546515580872635,-0.235150386571708,0.338319178707605,0
3.8800048828125,-3.03394937515259,1.80498838424683,2.82994103431702,-2.77064299647982,1.77368610185671,2.85801708903178,1227.663,1217.326,2943.494,2934.008,0.01128379,0.05894805,-0.009912286,-0.533761501312256,-0.218141451478004,0.389681875705719,-0.532985466132484,-0.229328756186666,0.329943393154704,0
3.89999389648438,-3.04436206817627,1.8007333278656,2.83756589889526,-2.78116151864576,1.76916027562219,2.86452855531919,1228.916,1216.395,2939.721,2928.653,0.01249287,0.05918675,-0.01107928,-0.520634889602661,-0.212747976183891,0.381244719028473,-0.519441457145543,-0.223501147495394,0.321559006401168,0
3.91999816894531,-3.0545117855072,1.79658627510071,2.84502196311951,-2.79141684911929,1.7647476934202,2.87087709341145,1224.645,1215.529,2937.256,2927.454,0.01365459,0.05941035,-0.01220207,-0.507493674755096,-0.207361593842506,0.372799932956696,-0.505870408491346,-0.2176619043907,0.313157880805522,0
