t,x_s1,x_s2,x_s3,x_s_d1,x_s_d2,x_s_d3,propellers_rpms1,propellers_rpms2,propellers_rpms3,propellers_rpms4,rollRad,pitchRad,yawRad,v_s1,v_s2,v_s3,v_s_d1,v_s_d2,v_s_d3,insideCount
0,-0.0599999986588955,2.94000005722046,1.17999994754791,-0.0599999986588955,2.94000005722046,1.17999994754791,0,0,0,0,0,0,0,0,0,0,-1.06581410364015E-15,4.44089209850063E-16,4.44089209850063E-16,0
0.0200042724609375,-0.0599999986588955,2.94000005722046,1.17615437507629,-0.0600018701838461,2.93999925195556,1.18000110611101,0,0,0,0,0,0,0,0,0,-0.192275941371918,-0.000280105751305916,-0.000120521679537258,0.00017339880334547,9
0.0399932861328125,-0.0599999986588955,2.94000005722046,1.16854023933411,-0.060014863945674,2.93999366110285,1.18000914986856,0,0,0,0,0,0,0,-2.58693946061287E-22,-3.88396258331244E-24,-0.380706369876862,-0.00111059898697896,-0.000477859717552347,0.000687513678106196,9
0.05999755859375,-0.0599999986588955,2.94000005722046,1.16209828853607,-0.0600498857373401,2.93997859220429,1.18003083002592,2729.158,2675.419,2549.058,2604.208,-0.001365136,2.001198E-06,-0.0005741775,-1.7994876699845E-09,-4.41060610256727E-09,-0.322100013494492,-0.00247936261166862,-0.00106680046642749,0.00153484356504269,9
0.0800018310546875,-0.0599972531199455,2.93999361991882,1.15672361850739,-0.0601175574246769,2.93994947496775,1.18007272202403,2722.475,2694.417,2468.437,2495.88,-0.005188903,8.089709E-06,-0.00144077,0.000137341252411716,-0.00032654611277394,-0.268735945224762,-0.00437268608126799,-0.00188144466206175,0.00270690098422899,9
0.0999908447265625,-0.0599877759814262,2.93996286392212,1.15231907367706,-0.0602281370710988,2.93990189563514,1.18014117609281,2568.693,2685.833,2542.108,2420.32,-0.01059938,1.300776E-05,-0.001048753,0.000473833410069346,-0.0015415494563058,-0.220226958394051,-0.00677536694902951,-0.00291525111632684,0.0041942748969354,9
0.1199951171875,-0.0599736273288727,2.93988347053528,1.14879488945007,-0.0603918861403606,2.93983143898525,1.18024254456713,2452.363,2640.588,2581.054,2390.608,-0.01666873,5.520664E-06,0.001340122,0.000707475002855062,-0.00396862253546715,-0.176208093762398,-0.00967801353495435,-0.00416417885169243,0.00599115140585487,9
0.139999389648438,-0.0599658899009228,2.93972945213318,1.14606821537018,-0.0606185767455666,2.93973390035084,1.18038287685052,2360.215,2554.26,2600.634,2408.619,-0.02222301,-2.727603E-05,0.005764429,0.000386852771043777,-0.00770053546875715,-0.136334538459778,-0.0130660253322238,-0.00562194567796536,0.00808849210174802,9
0.160003662109375,-0.0599843189120293,2.93947815895081,1.14406263828278,-0.0609177895434042,2.93960515744296,1.18056810382587,2308.361,2451.68,2584.847,2448.852,-0.02629073,-8.54109E-05,0.0116617,-0.000921521685086191,-0.0125609617680311,-0.100281104445457,-0.0169265510445065,-0.00728302204135792,0.0104783414199936,9
0.17999267578125,-0.0600543580949306,2.93911480903625,1.14270782470703,-0.0612985250199726,2.93944133760391,1.18080379722281,2300.576,2355.825,2530.07,2487.614,-0.02839516,-0.0001502023,0.01807394,-0.00350197730585933,-0.0181692205369473,-0.0677384883165359,-0.0212433804254414,-0.00914043312572283,0.0131506644458931,8
0.199996948242188,-0.06020263209939,2.93863368034363,1.14193964004517,-0.0617704296168641,2.93923829023936,1.18109592864822,2325.083,2286.571,2447.965,2504.557,-0.02864816,-0.0001981392,0.02398374,-0.00741379288956523,-0.024062093347311,-0.0384118854999542,-0.0260104776919234,-0.0111915819022102,0.0161017247421801,8
0.220001220703125,-0.0604525022208691,2.93803715705872,1.14169931411743,-0.0623420644491781,2.93899233174064,1.18144979784016,2364.165,2255.263,2355.871,2488.203,-0.02768036,-0.0002141181,0.02862029,-0.0124934706836939,-0.0298260375857353,-0.0120187774300575,-0.03121219533433,-0.0134297356845702,0.019321835755004,8
0.239990234375,-0.0608209334313869,2.93733310699463,1.14193344116211,-0.0630214373585105,2.93870001655724,1.18187036203406,2394.756,2259.787,2277.431,2439.541,-0.02637435,-0.0002018676,0.03168943,-0.01842150837183,-0.0352048799395561,0.0117080099880695,-0.0368316683029241,-0.015847637913056,0.022800557215184,8
0.259994506835938,-0.0613175816833973,2.93653035163879,1.14259386062622,-0.0638179029240226,2.93835731967507,1.18236341216003,2402.593,2287.821,2227.48,2369.806,-0.02557434,-0.0001747034,0.03340246,-0.0248323753476143,-0.0401428751647472,0.0330182686448097,-0.0428651747123285,-0.0184436871643672,0.0265355850983733,8
0.279998779296875,-0.0619460456073284,2.93563508987427,1.14363670349121,-0.0647390625194898,2.93796097043536,1.18293365383054,2383.247,2322.005,2210.794,2295.621,-0.02585397,-0.0001454086,0.03434515,-0.0314231179654598,-0.0447658225893974,0.052144568413496,-0.0492963837173861,-0.0212108567320638,0.030516809833474,8
0.300003051757813,-0.0627066045999527,2.93464875221252,1.14502263069153,-0.0657927507678135,2.93750759781875,1.18358593705038,2338.091,2344.203,2226.452,2234.225,-0.02733628,-0.0001219728,0.03527917,-0.038027860224247,-0.0493142902851105,0.0692986026406288,-0.0561132031658829,-0.0241439437008635,0.0347367458022363,8
0.319992065429688,-0.0635995492339134,2.93356776237488,1.14671611785889,-0.0669855955880233,2.93699435001684,1.18432436481717,2280.72,2343.423,2259.207,2197.863,-0.0297262,-0.000108657,0.0368676,-0.0446470864117146,-0.0540447421371937,0.0846728608012199,-0.0632980253096114,-0.0272353719486164,0.0391844929697465,8
0.339996337890625,-0.064627930521965,2.93238496780396,1.14868497848511,-0.068326768706371,2.93641728069206,1.18515461486636,2225.045,2316.855,2293.462,2190.594,-0.03242878,-0.0001081243,0.03948311,-0.051419124007225,-0.0591417364776134,0.0984416007995605,-0.0708499516420146,-0.0304847548730522,0.0438594951176439,8
0.360000610351563,-0.0657990202307701,2.93109178543091,1.15090036392212,-0.0698225328270578,2.93577369517774,1.1860805641102,2186.538,2272.08,2311.242,2207.017,-0.03480751,-0.0001203749,0.04309993,-0.0585545971989632,-0.0646609961986542,0.110767364501953,-0.0787518717320621,-0.0338847303337087,0.0487511600740379,8
0.379989624023438,-0.0671240538358688,2.92968130111694,1.15333640575409,-0.0714784451857985,2.93506120235061,1.1871056527423,2168.931,2220.532,2308.314,2235.749,-0.03634682,-0.0001384844,0.04737182,-0.0662516802549362,-0.0705256462097168,0.121801845729351,-0.0869857157641562,-0.0374275233937465,0.0538483017622888,8
0.399993896484375,-0.0686166808009148,2.92815017700195,1.15597021579742,-0.0733036822025899,2.9342758538535,1.18823556140379,2173.61,2175.991,2282.32,2263.521,-0.03682087,-0.0001533981,0.05175523,-0.0746314749121666,-0.0765563324093819,0.13168877363205,-0.0955525119207663,-0.0411135764513579,0.0591515566763244,8
0.419998168945313,-0.070290707051754,2.92649960517883,1.1587815284729,-0.0753034649285836,2.93341540321397,1.18947352217404,2195.734,2149.987,2237.921,2278.649,-0.03636813,-0.0001565939,0.05568201,-0.0837014019489288,-0.0825339555740356,0.140567690134048,-0.104434660908044,-0.0449353170220673,0.0646500300148815,8
0.44000244140625,-0.0721577852964401,2.92473411560059,1.16175293922424,-0.077483988232608,2.93247718495301,1.19082336997196,2220.698,2145.59,2192.32,2275.018,-0.03536784,-0.0001459412,0.0587759,-0.0933538600802422,-0.0882742777466774,0.148570239543915,-0.113620829717891,-0.048887868829098,0.0703367061060819,8
0.459991455078125,-0.0742259621620178,2.92286062240601,1.16486930847168,-0.0798493430620752,2.93145943885026,1.19228763728888,2240.289,2160.672,2154.656,2253.454,-0.03432975,-0.0001272991,0.06092835,-0.103408858180046,-0.0936753824353218,0.155819654464722,-0.123092454730403,-0.0529632444654124,0.0762000931848968,8
0.479995727539063,-0.0764993578195572,2.92088580131531,1.16811788082123,-0.0824088828700873,2.93035814037613,1.19387211435783,2245.876,2185.898,2135.754,2220.713,-0.0337007,-0.0001081243,0.06231599,-0.113669753074646,-0.09874077886343,0.162426471710205,-0.132852887402757,-0.0571628859694044,0.0822422659629699,8
0.5,-0.0789789855480194,2.91881442070007,1.17148768901825,-0.085166398670376,2.92917165836334,1.1955791479969,2238.439,2212.22,2134.323,2185.961,-0.03378007,-9.400516E-05,0.06329267,-0.12398124486208,-0.103563651442528,0.168490618467331,-0.142884000065179,-0.0614789935111996,0.0884520025491718,8
0.520004272460938,-0.0816642493009567,2.91664862632751,1.17496967315674,-0.088127196023106,2.92789770997757,1.19741202260058,2216.704,2228.459,2153.251,2158.458,-0.03458275,-8.727845E-05,0.06430368,-0.134263083338737,-0.108294405043125,0.174097135663033,-0.153174893518032,-0.065906877469682,0.0948225558197254,9
0.539993286132813,-0.0845547765493393,2.91438698768616,1.17855608463287,-0.091293865515634,2.92653518056143,1.19937234186584,2190.462,2230.204,2179.963,2145.164,-0.03590314,-8.761975E-05,0.06570785,-0.144526481628418,-0.113082826137543,0.179318487644196,-0.163706645289342,-0.0704383960337938,0.101342211863077,9
0.55999755859375,-0.087651863694191,2.91202640533447,1.18224036693573,-0.094676112580471,2.92507989413848,1.20146611391775,2166.073,2216.75,2206.726,2147.886,-0.03737587,-9.30233E-05,0.06768995,-0.154854342341423,-0.118033319711685,0.184215605258942,-0.17448465888317,-0.0750758741803766,0.108014315705644,9
0.580001831054688,-0.0909591615200043,2.90956282615662,1.18601727485657,-0.0982762614093182,2.92353085067394,1.20369477754168,2153.59,2194.907,2219.88,2163.319,-0.03865951,-9.991674E-05,0.07018866,-0.165364772081375,-0.123174622654915,0.18884551525116,-0.185490414529404,-0.0798113433697334,0.11482740272751,9
0.599990844726563,-0.0944823771715164,2.90699338912964,1.18988251686096,-0.102095761416081,2.92188742652551,1.20605922999388,2150.853,2170.506,2222.615,2184.311,-0.0394787,-0.0001049285,0.07299348,-0.176160931587219,-0.128466308116913,0.193260028958321,-0.19670480600515,-0.0846365827279185,0.121769645266545,9
0.6199951171875,-0.0982284098863602,2.90431714057922,1.19383263587952,-0.106144683970236,2.92014528826426,1.20856570593183,2159.297,2151.571,2211.91,2204.13,-0.03972744,-0.0001043959,0.0757988,-0.187301427125931,-0.133813768625259,0.197507992386818,-0.208134604141382,-0.0895545055543457,0.128845234789665,9
0.639999389648438,-0.10220405459404,2.90153503417969,1.19786548614502,-0.110424235525481,2.91830391678686,1.21121495220784,2177.475,2145.034,2188.479,2216.477,-0.03953037,-9.726939E-05,0.07828525,-0.198782652616501,-0.139103069901466,0.201639875769615,-0.219761081350814,-0.0945570538913933,0.136042578028218,9
0.660003662109375,-0.106414794921875,2.89865016937256,1.20197951793671,-0.114938248900541,2.91636166293851,1.21400934151928,2193.978,2150.101,2168.075,2217.504,-0.03910852,-8.533435E-05,0.08027934,-0.210536792874336,-0.144247457385063,0.205702587962151,-0.231574097577923,-0.0996398647564507,0.143355397804799,9
0.67999267578125,-0.110864035785198,2.89566612243652,1.20617425441742,-0.119686638739014,2.91431856344567,1.21694882102647,2206.906,2165.264,2152.272,2208.853,-0.03874793,-7.27653E-05,0.08175493,-0.222462490200996,-0.149206280708313,0.209739029407501,-0.243554411173546,-0.104794659005432,0.150771782621969,9
0.699996948242188,-0.115553133189678,2.89258623123169,1.21044993400574,-0.124680083855354,2.91217002351282,1.22004000142426,2211.02,2183.877,2148.777,2194.459,-0.0386675,-6.349742E-05,0.08284608,-0.234454840421677,-0.153996899724007,0.213784664869308,-0.255710395848158,-0.11002503961202,0.158296916205407,9
0.720001220703125,-0.120481893420219,2.88941264152527,1.21480739116669,-0.129918284978346,2.90991617190799,1.22328269744952,2210.01,2202.35,2152.126,2179.692,-0.03902436,-5.941822E-05,0.08375081,-0.246437877416611,-0.15868017077446,0.21787066757679,-0.268023157655716,-0.11532287703907,0.16591910230247,9
0.739990234375,-0.12564942240715,2.88614559173584,1.21924781799316,-0.135400001298574,2.90755754251682,1.2266761409821,2200.116,2213.021,2169.296,2168.811,-0.0397871,-6.073025E-05,0.08472581,-0.258376568555832,-0.163346916437149,0.222019046545029,-0.280473432677602,-0.12067988256057,0.173626415629864,9
0.759994506835938,-0.131055176258087,2.88278388977051,1.22377264499664,-0.14113644597991,2.90508931062815,1.2302272735046,2188.104,2214.365,2190.475,2166.211,-0.04079803,-6.588781E-05,0.08596729,-0.270287781953812,-0.168080180883408,0.226243421435356,-0.293070637251543,-0.126100107763583,0.181424685349205,9
0.779998779296875,-0.136699736118317,2.87932538986206,1.22838377952576,-0.147126184485884,2.90251209348295,1.23393520697061,2181.606,2209.288,2204.49,2172.602,-0.04188247,-7.238871E-05,0.08752299,-0.282227843999863,-0.172929286956787,0.230556294322014,-0.305795832832518,-0.131575403921268,0.189302187598958,9
0.800003051757813,-0.142584964632988,2.87576723098755,1.23308312892914,-0.153371683173492,2.89982482987671,1.2378014681726,2177.355,2198.402,2217.201,2184.594,-0.04282576,-7.752417E-05,0.08936206,-0.294261395931244,-0.177907764911652,0.234966069459915,-0.318639638509124,-0.13710173468952,0.197253115148089,9
0.819992065429688,-0.148713871836662,2.87210750579834,1.23787271976471,-0.159870162197751,2.89702871589906,1.2418243362541,2180.598,2187.979,2219.769,2199.41,-0.04349421,-7.94725E-05,0.0913478,-0.306445747613907,-0.182985305786133,0.239480793476105,-0.33158286215529,-0.142670842232658,0.205265587156312,9
0.839996337890625,-0.155090048909187,2.8683454990387,1.24275481700897,-0.166633637018892,2.89411858163313,1.24601124935738,2188.244,2180.446,2216.589,2213.125,-0.04383244,-7.726083E-05,0.09331104,-0.318809151649475,-0.18810510635376,0.244107186794281,-0.344636106234817,-0.148287288494656,0.213346167053785,9
0.860000610351563,-0.16171695291996,2.8644814491272,1.24773192405701,-0.173659158941841,2.89109569582005,1.2503603820997,2202.441,2181.608,2203.058,2222.454,-0.04394589,-7.116214E-05,0.095062,-0.331345587968826,-0.193200260400772,0.24885718524456,-0.357780475378537,-0.153942943326036,0.221483157706883,9
0.879989624023438,-0.168597161769867,2.8605170249939,1.25280678272247,-0.18094280014554,2.88796174849148,1.25486930297274,2212.986,2188.241,2195.321,2224.481,-0.04395973,-6.335622E-05,0.09652852,-0.344010233879089,-0.198226526379585,0.253740549087524,-0.370996904517929,-0.159629603560431,0.229664756929996,9
0.899993896484375,-0.175732046365738,2.85645365715027,1.25798201560974,-0.18849723509595,2.8847112861788,1.25954585807468,2220.4,2199.15,2191.55,2221.529,-0.04400927,-5.685665E-05,0.09772457,-0.356744140386581,-0.203165322542191,0.258763402700424,-0.384296738353309,-0.165352150505452,0.237897987633041,9
0.919998168945313,-0.183121889829636,2.85229325294495,1.26326072216034,-0.196318384305134,2.8813460641717,1.26438752200817,2226.848,2213.632,2187.927,2216.076,-0.04425694,-5.299059E-05,0.09870194,-0.36949235200882,-0.208026215434074,0.263933330774307,-0.397661187980262,-0.171102499820431,0.246171218589148,9
0.94000244140625,-0.190766111016273,2.84803628921509,1.26864576339722,-0.204407453948074,2.87786556348678,1.26939504145298,2225.365,2224.593,2196.981,2209.496,-0.04474004,-5.285142E-05,0.09960877,-0.382210999727249,-0.212851166725159,0.26925191283226,-0.411081631631503,-0.176876941799768,0.254479112513653,9
0.959991455078125,-0.198663860559464,2.84368252754211,1.27414011955261,-0.212759000778906,2.87427212620069,1.27456504678061,2221.995,2231.719,2208.719,2206.022,-0.04543406,-5.634496E-05,0.1005809,-0.394886910915375,-0.217689171433449,0.274716794490814,-0.424539267042903,-0.182667386354485,0.262810029909387,9
0.979995727539063,-0.206814527511597,2.83923077583313,1.27974653244019,-0.22138664033507,2.87055989392801,1.27990596665734,2216.669,2232.167,2224.142,2207.438,-0.04622129,-6.193949E-05,0.1017229,-0.407534599304199,-0.222583100199699,0.280320137739182,-0.438046240701377,-0.188479059778567,0.271171490030365,9
1,-0.215218335390091,2.83467984199524,1.28546762466431,-0.230284798736574,2.86673126495361,1.28541435058594,2216.877,2230.777,2230.82,2214.027,-0.0470229,-6.70877E-05,0.1030269,-0.420190036296844,-0.227550908923149,0.28605717420578,-0.451584000205995,-0.194303979492187,0.279552008056641,9
1.02000427246094,-0.223876059055328,2.83002805709839,1.29130601882935,-0.239454009753966,2.86278600961093,1.2910905289958,2216.471,2225.547,2240.003,2222.543,-0.04771266,-7.056444E-05,0.1044712,-0.432886719703674,-0.232594475150108,0.291920781135559,-0.465144357597929,-0.200138622445408,0.287946515251652,9
1.03999328613281,-0.232789129018784,2.82527422904968,1.29726409912109,-0.248887339851819,2.85872711120656,1.2969302096982,2220.643,2221.566,2242.006,2232.353,-0.04822878,-7.169229E-05,0.1059715,-0.445652931928635,-0.237689629197121,0.297904521226883,-0.478708875293167,-0.205975055460915,0.29634359787259,9
1.05999755859375,-0.241959095001221,2.82041811943054,1.30334413051605,-0.258599401509697,2.85454828239877,1.30294243851408,2226.106,2218.796,2242.24,2241.217,-0.04853558,-7.029215E-05,0.107439,-0.458499103784561,-0.242799639701843,0.304001063108444,-0.492290296490434,-0.211818761581115,0.30475114456651,9
1.08000183105469,-0.251387476921082,2.8154604434967,1.30954837799072,-0.268583149539609,2.85025255453512,1.30912285413647,2236.855,2222.57,2232.816,2247.876,-0.04872839,-6.630389E-05,0.1087517,-0.471417605876923,-0.247881755232811,0.310209542512894,-0.50587040849135,-0.217661904390701,0.313157880805523,10
1.09999084472656,-0.261074960231781,2.81040215492249,1.31587886810303,-0.278830554044452,2.84584338265603,1.31546648567654,2243.084,2228.095,2231.115,2249.384,-0.04887114,-6.191304E-05,0.1098888,-0.484375506639481,-0.252912998199463,0.316527307033539,-0.519431110871131,-0.223496695782555,0.321552601564445,10
1.1199951171875,-0.271021693944931,2.80524444580078,1.32233786582947,-0.289357002179081,2.84131414609862,1.32198285851614,2247.168,2235.344,2232.03,2248.355,-0.0490256,-5.936397E-05,0.1108774,-0.49733579158783,-0.257884055376053,0.322948336601257,-0.532985466132485,-0.229328756186667,0.329943393154705,10
1.13999938964844,-0.281227052211761,2.79998850822449,1.32892727851868,-0.300154365346813,2.83666834237095,1.3286669406667,2252.724,2245.431,2228.936,2246.898,-0.0493015,-5.806563E-05,0.1117323,-0.510268092155457,-0.262798637151718,0.329470664262772,-0.546515580872639,-0.235150386571708,0.338319178707607,10
1.16000366210938,-0.291689962148666,2.79463481903076,1.33564901351929,-0.311222084148811,2.83190621216671,1.33551838583369,2251.868,2251.91,2237.132,2243.906,-0.04970044,-5.952821E-05,0.1125514,-0.523145198822021,-0.267682820558548,0.336087763309479,-0.560014026276883,-0.240958390526247,0.34667535943296,10
1.17999267578125,-0.302409142255783,2.78918361663818,1.34250485897064,-0.322550701230474,2.8270318247214,1.34253133946411,2250.781,2256.292,2245.152,2243.151,-0.05020059,-6.310512E-05,0.11341,-0.535960674285889,-0.27256241440773,0.342790991067886,-0.573463232144024,-0.246745208083563,0.355001058539242,10
1.19999694824219,-0.313383638858795,2.78363442420959,1.34949624538422,-0.334156660511822,2.8220381046756,1.34971598112778,2248.1,2255.867,2256.243,2245.338,-0.05071351,-6.764859E-05,0.1143674,-0.548723101615906,-0.277458041906357,0.349567502737045,-0.58687652428584,-0.252516572968185,0.36330452533874,10
1.22000122070313,-0.324612677097321,2.77798700332642,1.35662448406219,-0.346030421585499,2.81692915700008,1.35706640485806,2250.895,2256.277,2257.498,2250.915,-0.05121898,-7.108515E-05,0.1153878,-0.561453938484192,-0.282371997833252,0.356410145759583,-0.600236516861372,-0.258265004538453,0.371574997167698,10
1.239990234375,-0.336096048355103,2.77224087715149,1.36389064788818,-0.358161486344149,2.81170949873715,1.36457611182642,2251.281,2253.655,2264.245,2256.16,-0.05164082,-7.307607E-05,0.1164636,-0.574166595935822,-0.287302255630493,0.363309323787689,-0.613526094901141,-0.263983138701136,0.379801879044709,10
1.25999450683594,-0.347833454608917,2.76639628410339,1.3712956905365,-0.3705671011502,2.80637170925886,1.37225577835275,2253.254,2251.013,2268.214,2262.202,-0.05192152,-7.375397E-05,0.1175598,-0.586872220039368,-0.292230725288391,0.370253771543503,-0.626758665639206,-0.269676744214496,0.387993470686331,10
1.27999877929688,-0.359824955463409,2.76045370101929,1.37884044647217,-0.383236695417198,2.80092033679326,1.3800988607405,2260.928,2253.052,2261.218,2268.661,-0.05211646,-7.219519E-05,0.118575,-0.599575161933899,-0.297128051519394,0.377239376306534,-0.639917282339435,-0.275338529371412,0.396139281255613,10
1.30000305175781,-0.372070133686066,2.75441408157349,1.38652563095093,-0.396168722856641,2.79535604666509,1.38810440176341,2264.567,2254.984,2262.018,2271.137,-0.05223791,-6.984855E-05,0.1194917,-0.61225825548172,-0.301976829767227,0.384260356426239,-0.652995275331231,-0.280965624398954,0.404235181908735,10
1.31999206542969,-0.384568154811859,2.74827885627747,1.39435184001923,-0.409351342777246,2.78968393359302,1.39626507146953,2268.921,2259.574,2260.476,2272.241,-0.05233697,-6.788136E-05,0.120297,-0.624900937080383,-0.306762754917145,0.391311347484589,-0.665976209205206,-0.286550957599616,0.412270998344359,10
1.33999633789063,-0.397317707538605,2.74204921722412,1.40231955051422,-0.422802873722428,2.78389611561957,1.40459220990988,2270.444,2263.176,2263.518,2272.099,-0.05242539,-6.711064E-05,0.1210188,-0.637479901313782,-0.311482042074203,0.398383498191833,-0.678873453515705,-0.29210028151913,0.420255006953505,11
1.36000061035156,-0.410317301750183,2.73572659492493,1.41042900085449,-0.436511415158101,2.77799771321212,1.41307845008695,2275.172,2270.095,2259.38,2272.407,-0.05258678,-6.714594E-05,0.1216447,-0.649978756904602,-0.316133618354797,0.405473649501801,-0.691670720740693,-0.297606588091785,0.42817712498415,11
1.37998962402344,-0.423564851284027,2.7293119430542,1.41868054866791,-0.450464156928423,2.77199423822282,1.42171586190405,2274.232,2273.385,2266.139,2270.763,-0.05280676,-6.851698E-05,0.1222416,-0.662378430366516,-0.320733815431595,0.412574857473373,-0.704352136620515,-0.303063047067127,0.436027525513373,11
1.39999389648438,-0.437058329582214,2.72280597686768,1.42707407474518,-0.464680216184654,2.76587746507559,1.43051627978847,2272.458,2274.394,2273.955,2270.694,-0.05303845,-7.141459E-05,0.122866,-0.674673736095428,-0.325295269489288,0.419675916433334,-0.716930938559026,-0.308475354130225,0.443814403124744,11
1.41999816894531,-0.450795769691467,2.71620965003967,1.43560945987701,-0.47914673136562,2.75965292774086,1.43947174182117,2275.324,2276.925,2272.419,2273.629,-0.05330317,-7.370874E-05,0.1234923,-0.686872124671936,-0.329821079969406,0.426771640777588,-0.729391385793766,-0.313836736470737,0.451528013536465,11
1.44000244140625,-0.464775264263153,2.70952320098877,1.44428658485413,-0.493861275572861,2.75332167044526,1.4485807456364,2274.273,2275.725,2279.306,2275.453,-0.05354232,-7.573354E-05,0.1241467,-0.698975086212158,-0.334318548440933,0.433853894472122,-0.741727567798258,-0.319144650954242,0.459164697851088,11
1.45999145507813,-0.478995084762573,2.70274758338928,1.45310485363007,-0.508809800712713,2.74688973769103,1.45783459479497,2275.474,2275.097,2281.659,2278.653,-0.05372874,-7.690737E-05,0.1248151,-0.710989773273468,-0.338782429695129,0.440914809703827,-0.753924423002454,-0.324392617007921,0.466715132239272,11
1.47999572753906,-0.493453472852707,2.69588351249695,1.46206367015839,-0.524012471663969,2.74034845309416,1.46724577231745,2275.932,2272.719,2285.572,2282.307,-0.0538113,-7.743094E-05,0.1254842,-0.722919523715973,-0.343201816082001,0.447943896055222,-0.765994882555672,-0.329586198544069,0.474187321698441,11
1.5,-0.508148729801178,2.68893241882324,1.47116243839264,-0.539455198877605,2.73370387899399,1.4768055561018,2281.904,2275.196,2278.254,2286.646,-0.05385231,-7.620184E-05,0.1260735,-0.734765887260437,-0.347555816173553,0.454938858747482,-0.777924000354858,-0.334718964672088,0.481572013878822,11
1.51998901367188,-0.523079037666321,2.68189573287964,1.4804003238678,-0.555123050061237,2.72696244033876,1.48650470234772,2283.297,2276.164,2280.244,2287.413,-0.05384858,-7.465593E-05,0.1265874,-0.746513068675995,-0.351836681365967,0.461894810199738,-0.789697369743256,-0.339784716610053,0.488860290373601,11
1.53999328613281,-0.538241863250732,2.67477512359619,1.48977637290955,-0.571036956668503,2.72011513090874,1.49635616862212,2284.046,2277.381,2282.644,2287.668,-0.05379745,-7.409356E-05,0.1270399,-0.758146047592163,-0.356036067008972,0.468803495168686,-0.801327600455846,-0.344788879974649,0.496059957209413,11
1.55999755859375,-0.553634941577911,2.66757225990295,1.49928963184357,-0.587181951496087,2.71316839067337,1.50635068951315,2288.903,2282.553,2275.846,2288.87,-0.0537836,-7.315826E-05,0.1273899,-0.769653737545013,-0.360145658254623,0.475663781166077,-0.812800388649436,-0.349725300221754,0.503162159625937,11
1.58000183105469,-0.569255292415619,2.66028881072998,1.50893902778625,-0.60355483331529,2.70612359703193,1.51648628330776,2288.073,2284.666,2280.514,2287.003,-0.05379745,-7.364168E-05,0.1276875,-0.781016290187836,-0.364174604415894,0.482470870018005,-0.824110582941666,-0.354591760855452,0.510163708672098,11
1.59999084472656,-0.585099697113037,2.65292620658875,1.51872336864471,-0.620139554045575,2.69898765502515,1.52675301547962,2288,2286.967,2282.835,2286.192,-0.05384379,-7.50875E-05,0.1279618,-0.792224705219269,-0.368130058050156,0.489219009876251,-0.835244706287931,-0.359382463079953,0.517056261415284,11
1.6199951171875,-0.601165294647217,2.64548587799072,1.52864134311676,-0.636958033083316,2.69175113334911,1.53716445517924,2285.866,2286.008,2289.094,2286.28,-0.05387095,-7.731089E-05,0.1282521,-0.80327582359314,-0.37201976776123,0.495898544788361,-0.846214826007804,-0.364102599125749,0.523847288101157,11
1.63999938964844,-0.617448747158051,2.63796901702881,1.53869152069092,-0.653994195024907,2.68442094880091,1.54771065096602,2288.93,2288.041,2284.592,2288.778,-0.05391783,-7.851562E-05,0.1285152,-0.814175665378571,-0.375840812921524,0.502506971359253,-0.857007552155828,-0.368746407673381,0.530528499715628,11
1.66000366210938,-0.633947193622589,2.63037705421448,1.54887223243713,-0.671244443874359,2.67699864863716,1.55838937674714,2287.571,2286.71,2289.72,2289.108,-0.0539402,-7.949014E-05,0.1287772,-0.82492071390152,-0.379598349332809,0.509038746356964,-0.867618167158098,-0.373311858882592,0.53709697585572,11
1.67999267578125,-0.650657474994659,2.62271118164063,1.55918204784393,-0.688691692550512,2.66949158495151,1.56919005480539,2288.138,2286.2,2290.568,2290.65,-0.05392528,-8.005714E-05,0.1290286,-0.835512936115265,-0.383287936449051,0.51548844575882,-0.878034183119987,-0.377793579561193,0.543544985919778,11
1.69999694824219,-0.667576491832733,2.6149730682373,1.56961894035339,-0.706358800111611,2.66188992212981,1.58012683598675,2287.4,2283.834,2294.009,2292.287,-0.05382941,-8.030061E-05,0.1292707,-0.845951735973358,-0.386902779340744,0.521847546100616,-0.888267004546665,-0.382196476749158,0.549879589839776,11
1.72000122070313,-0.684701204299927,2.60716462135315,1.58018124103546,-0.724228658537036,2.6542010212754,1.5911891296115,2292.146,2286.207,2285.872,2295.133,-0.05371916,-7.930336E-05,0.1294324,-0.856237828731537,-0.390427142381668,0.528115630149841,-0.898304216251578,-0.386515208538549,0.556093102023817,11
1.739990234375,-0.702028334140778,2.59928750991821,1.5908670425415,-0.74228345468553,2.64643254688532,1.60236590849663,2291.846,2286.288,2288.3,2294.427,-0.0535844,-7.839063E-05,0.1295325,-0.866356551647186,-0.393859535455704,0.534289479255676,-0.908134108040217,-0.390744736359816,0.562178273303667,12
1.75999450683594,-0.719554245471954,2.59134364128113,1.6016743183136,-0.760546715064628,2.63857437616062,1.61367173667103,2290.976,2286.108,2291.066,2293.736,-0.0534081,-7.837312E-05,0.1295931,-0.876296877861023,-0.397196173667908,0.540362000465393,-0.917767514700581,-0.394889722119545,0.568141810929231,12
1.77999877929688,-0.737275302410126,2.58333492279053,1.61260104179382,-0.779000609654483,2.63063418086074,1.62509557650306,2294.752,2289.822,2283.54,2294.653,-0.05326642,-7.804073E-05,0.1295686,-0.886053740978241,-0.400430202484131,0.546333491802216,-0.927192788821983,-0.398945154262308,0.57397650459845,12
1.80000305175781,-0.755187511444092,2.57526350021362,1.62364506721497,-0.797640935141499,2.62261376955408,1.63663482594136,2292.913,2290.2,2287.745,2292.474,-0.05314071,-7.846666E-05,0.1295048,-0.895612001419067,-0.403570771217346,0.552200794219971,-0.936405971974637,-0.402909329586356,0.579679903854719,12
1.81999206542969,-0.773286879062653,2.56713104248047,1.63480424880981,-0.816448984455027,2.61452119137054,1.64827790441807,2292.241,2291.028,2288.844,2291.477,-0.05303099,-7.970008E-05,0.1294208,-0.904966533184052,-0.406622588634491,0.557959675788879,-0.945396434568188,-0.406777674475912,0.585245428475252,12
1.83999633789063,-0.791569173336029,2.55893921852112,1.64607632160187,-0.835449117627072,2.60634596486888,1.66003989195343,2289.582,2288.812,2293.831,2291.156,-0.05288558,-8.147215E-05,0.129347,-0.914115726947784,-0.409590393304825,0.563602209091187,-0.954174163352093,-0.410554485950274,0.590679260733698,12
1.86000061035156,-0.810030400753021,2.5506899356842,1.65745890140533,-0.854622615239374,2.59809614449182,1.6719092003358,2292.51,2290.392,2287.159,2292.997,-0.05275562,-8.209644E-05,0.129231,-0.923065543174744,-0.412468135356903,0.569128096103668,-0.962728579444532,-0.414235212212131,0.595974851798267,12
1.87998962402344,-0.828666627407074,2.5423846244812,1.66894960403442,-0.873950157556149,2.58978004298193,1.6838738697284,2290.546,2288.589,2291.076,2292.231,-0.05260276,-8.240378E-05,0.1290986,-0.931810200214386,-0.415260523557663,0.574533939361572,-0.971049893464309,-0.417815641164241,0.601126141575667,12
1.89999389648438,-0.847473561763763,2.53402543067932,1.68054580688477,-0.893456683142228,2.58138692997148,1.69594933829086,2288.643,2286.096,2294.406,2292.225,-0.05238544,-8.314263E-05,0.1289647,-0.940349042415619,-0.417963951826096,0.579812467098236,-0.979147395688901,-0.421299770153459,0.606138881190213,12
1.91999816894531,-0.866447329521179,2.52561402320862,1.69224512577057,-0.913122862707269,2.57292512231409,1.70812364027167,2292.33,2287.735,2285.875,2294.256,-0.05216813,-8.252943E-05,0.1287621,-0.948685586452484,-0.42056679725647,0.584964752197266,-0.987011339258123,-0.424683405378145,0.611007036871143,12
1.94000244140625,-0.885583579540253,2.5171525478363,1.70404493808746,-0.932943991899774,2.5643966441608,1.72039386345315,2290.73,2286.655,2288.571,2292.775,-0.05192951,-8.208591E-05,0.1285158,-0.956808745861053,-0.423070728778839,0.58998841047287,-0.994638524886308,-0.427965170275055,0.615728628108227,12
1.95999145507813,-0.904877781867981,2.50864315032959,1.71594250202179,-0.952900013794853,2.55581012544606,1.73274759164336,2290.606,2286.922,2287.519,2291.933,-0.05168077,-8.203122E-05,0.1282268,-0.964712679386139,-0.425472944974899,0.594880878925323,-1.00202031904361,-0.431141350077486,0.620298310335216,12
1.97999572753906,-0.924325525760651,2.50008773803711,1.72793519496918,-0.973016570682103,2.54715453300902,1.74520069864106,2288.354,2284.927,2290.443,2291.057,-0.05138782,-8.267157E-05,0.1279169,-0.972391605377197,-0.427773028612137,0.59963583946228,-1.00916501115878,-0.434215511495054,0.624721215103391,12
2,-0.943922340869904,2.49148845672607,1.74002027511597,-0.993273599084619,2.53843849960327,1.7577407641983,2291.4,2287.271,2282.156,2291.662,-0.05112097,-8.252776E-05,0.1275346,-0.979845345020294,-0.429963618516922,0.604254841804504,-1.01606400046349,-0.437183953857422,0.628992018127441,12
2.01998901367188,-0.963663637638092,2.4828474521637,1.7521950006485,-1.01365055070775,2.52967086658596,1.77035506794184,2288.869,2286.268,2285.51,2289.271,-0.05085679,-8.289546E-05,0.1271188,-0.987062513828278,-0.432052075862885,0.608735859394073,-1.02270954399163,-0.440043345582587,0.633105926142498,12
2.03999328613281,-0.9835444688797,2.47416639328003,1.76445639133453,-1.03417354141348,2.52084039703127,1.78305977683431,2285.975,2284.158,2288.959,2287.815,-0.05055585,-8.406101E-05,0.1266997,-0.994039595127106,-0.434040665626526,0.613072514533997,-1.02910913225408,-0.442796909628122,0.637067576131623,12
2.05999755859375,-1.00356006622314,2.46544814109802,1.77680170536041,-1.05482201812353,2.5119559343546,1.79584216754118,2288.496,2285.734,2281.069,2288.518,-0.05028101,-8.433212E-05,0.1262264,-1.00078046321869,-0.435923725366592,0.617266237735748,-1.03525504859546,-0.445441325732794,0.640872191117535,12
2.08000183105469,-1.02370572090149,2.45669364929199,1.7892279624939,-1.07559088172821,2.50301967256038,1.80869908347065,2285.683,2283.78,2284.403,2286.595,-0.04999712,-8.486897E-05,0.1257315,-1.00727796554565,-0.437708467245102,0.621314942836761,-1.04114485287423,-0.447975543971863,0.644518260536375,12
2.09999084472656,-1.04397630691528,2.44790601730347,1.80173230171204,-1.09645901288412,2.49404069871208,1.82161745074311,2284.469,2282.883,2284.057,2285.44,-0.04970257,-8.550834E-05,0.125221,-1.01353168487549,-0.439394861459732,0.62521630525589,-1.04677201701582,-0.450396755497224,0.648001743199023,12
2.1199951171875,-1.06436717510223,2.43908643722534,1.8143116235733,-1.11745308225396,2.48500753716864,1.83461377976925,2281.599,2279.356,2286.809,2285.049,-0.04934837,-8.632438E-05,0.1247083,-1.01954209804535,-0.440982043743134,0.628963947296143,-1.0521429102862,-0.45270770082608,0.651326581984514,12
2.13999938964844,-1.08487343788147,2.43023729324341,1.82696282863617,-1.138551967509,2.47592927627801,1.8476749948214,2284.487,2280.446,2277.884,2285.896,-0.04900056,-8.579933E-05,0.1241316,-1.02531349658966,-0.442459732294083,0.632560074329376,-1.05725102347782,-0.454905579228273,0.654488747383304,12
2.16000366210938,-1.10549020767212,2.42136073112488,1.8396829366684,-1.15975039167652,2.46680818657414,1.86079782920208,2281.973,2278.565,2280.061,2283.76,-0.04863571,-8.567892E-05,0.1235174,-1.03083670139313,-0.443831354379654,0.636003494262695,-1.0620943502576,-0.456989527434725,0.657486997379635,12
2.17999267578125,-1.12621235847473,2.41245889663696,1.85246872901917,-1.18102676265167,2.45765355853653,1.8739689163698,2281.003,2277.968,2278.556,2282.231,-0.04826074,-8.582305E-05,0.1228678,-1.03610813617706,-0.445095032453537,0.639292538166046,-1.06666760390386,-0.458957270716794,0.660318059240953,12
2.19999694824219,-1.14703488349915,2.40353393554688,1.86531710624695,-1.20240821395574,2.44845371736898,1.88720505326679,2277.921,2275.063,2280.918,2280.848,-0.04783836,-8.648562E-05,0.1222039,-1.04112458229065,-0.44625061750412,0.642421960830688,-1.07097597819164,-0.460811043810786,0.662985148161421,12
2.22000122070313,-1.16795253753662,2.39458823204041,1.87822496891022,-1.22387315175433,2.43921795429519,1.90049287228091,2280.488,2276.479,2271.83,2280.887,-0.04743889,-8.635649E-05,0.1214707,-1.04588806629181,-0.447290390729904,0.645394325256348,-1.07501419914593,-0.462548577472581,0.665484999299265,12
2.239990234375,-1.188960313797,2.38562369346619,1.89118909835815,-1.24539969505118,2.42995568409656,1.91381882803312,2277.318,2274.751,2274.319,2277.993,-0.04703835,-8.668559E-05,0.1207045,-1.05038869380951,-0.448221415281296,0.648208737373352,-1.07877792518082,-0.464168003639063,0.667814925005999,12
2.25999450683594,-1.21005272865295,2.37664270401001,1.90420627593994,-1.26701526177039,2.4206551096063,1.92719989352455,2273.764,2272.041,2276.965,2275.907,-0.04659999,-8.763572E-05,0.1199351,-1.05462396144867,-0.449045300483704,0.650859892368317,-1.08227143928024,-0.465671165158559,0.669977576652695,12
2.27999877929688,-1.23122477531433,2.36764764785767,1.91727328300476,-1.28869796983554,2.41132564607061,1.9406225227075,2275.908,2272.942,2268.166,2275.915,-0.0461872,-8.796199E-05,0.1191087,-1.05859851837158,-0.449756354093552,0.653350353240967,-1.08549040888332,-0.467056197851165,0.67197027217779,12
2.30000305175781,-1.25247073173523,2.35864043235779,1.93038690090179,-1.31044231452835,2.40196966201596,1.95408330789913,2272.338,2270.546,2270.873,2273.199,-0.04576802,-8.846958E-05,0.1182606,-1.06230533123016,-0.450362026691437,0.655679047107697,-1.08843358680109,-0.468322565086307,0.673792239511894,12
2.31999206542969,-1.27378559112549,2.34962320327759,1.94354379177094,-1.33222611841886,2.3925966997709,1.96756852021384,2270.563,2269.158,2269.648,2271.391,-0.04534192,-8.895753E-05,0.117396,-1.06574487686157,-0.450863003730774,0.657844603061676,-1.09109790637238,-0.469468947365361,0.675441580245663,11
2.33999633789063,-1.29516410827637,2.34059810638428,1.95674061775208,-1.35407709248145,2.38319483607731,1.98109531406483,2266.808,2265.165,2272.051,2270.162,-0.04485988,-8.954081E-05,0.1165329,-1.06891822814941,-0.451259642839432,0.659841895103455,-1.09348640563071,-0.470496651869278,0.67692017506657,11
2.36000061035156,-1.31660068035126,2.33156728744507,1.96997404098511,-1.37597305876702,2.37377361348711,1.99464996024512,2269.183,2265.479,2262.617,2270.306,-0.04438797,-8.939256E-05,0.1156094,-1.07183122634888,-0.451542615890503,0.661673784255981,-1.09559602313537,-0.471404361345641,0.678226128796969,11
2.37998962402344,-1.33809018135071,2.32253289222717,1.98324084281921,-1.39789168475144,2.36434264106153,2.00821863385843,2265.909,2263.05,2264.246,2267.567,-0.04390008,-8.939111E-05,0.1146533,-1.07447624206543,-0.451716065406799,0.663339972496033,-1.09742465646102,-0.47219117117957,0.679358139935436,11
2.39999389648438,-1.35962724685669,2.31349730491638,1.996537566185,-1.41986083522252,2.35488992936084,2.02181858453579,2262.39,2259.939,2265.778,2265.483,-0.04336425,-8.955122E-05,0.113686,-1.07685112953186,-0.451778739690781,0.664835929870605,-1.09897439291323,-0.472857979480329,0.680317500623536,11
2.41999816894531,-1.38120639324188,2.30446290969849,2.00986075401306,-1.44185817738692,2.34542508756209,2.03543598721428,2264.62,2260.622,2256.183,2264.962,-0.04285079,-8.932132E-05,0.1126511,-1.07895922660828,-0.45172306895256,0.666165053844452,-1.10024313330221,-0.473403883025206,0.681102911362803,11
2.44000244140625,-1.40282225608826,2.2954318523407,2.02320718765259,-1.46387808506052,2.33595053645515,2.04906735901791,2260.894,2258.445,2258,2261.643,-0.04233574,-8.980408E-05,0.111584,-1.08079171180725,-0.4515560567379,0.667327165603638,-1.10123038958312,-0.473828671822132,0.681714070030222,11
2.45999145507813,-1.4244692325592,2.28640627861023,2.03657364845276,-1.48589810917879,2.32647593524532,2.06269880290633,2258.731,2257.136,2256.411,2259.103,-0.04182228,-9.01123E-05,0.1104942,-1.08234715461731,-0.45127946138382,0.668321490287781,-1.10193535162022,-0.474131997292339,0.68215047511319,10
2.47999572753906,-1.44614171981812,2.27738833427429,2.04995656013489,-1.50794623031618,2.31698924467309,2.07634764018804,2254.467,2253.323,2258.491,2257.15,-0.04126621,-9.106287E-05,0.1094057,-1.08362591266632,-0.450895816087723,0.669143676757813,-1.10235882472314,-0.474314205938057,0.682412625136718,10
2.5,-1.46783423423767,2.26838040351868,2.06335258483887,-1.52999999932945,2.30750012397766,2.08999997377396,2256.264,2253.375,2249.351,2256.486,-0.04073145,-9.104384E-05,0.1082639,-1.08463406562805,-0.450398594141006,0.669796884059906,-1.10250000050292,-0.474374949932098,0.682500019669533,10
2.51998901367188,-1.48954153060913,2.2593846321106,2.07675814628601,-1.5520369476803,2.29801824074336,2.10364189456856,2252.278,2250.514,2251.069,2253.476,-0.04018657,-9.139881E-05,0.1071002,-1.08536612987518,-0.449794381856918,0.670280992984772,-1.10235904000526,-0.474314298567936,0.682412758406603,10
2.53999328613281,-1.51125812530518,2.25040292739868,2.09016990661621,-1.57408507527774,2.28853154739156,2.11729073584934,2248.185,2246.832,2252.548,2251.303,-0.03959428,-9.187153E-05,0.1059361,-1.08582258224487,-0.449083149433136,0.670592069625854,-1.10193578218388,-0.474132182551855,0.682150741652607,9
2.55999755859375,-1.53297829627991,2.24143767356873,2.10358452796936,-1.59612191359838,2.27904971150017,2.13093258853001,2250.066,2246.724,2243.093,2250.52,-0.03901904,-9.163062E-05,0.1047149,-1.08600926399231,-0.448257476091385,0.670733630657196,-1.10123038958312,-0.473828671822132,0.681714070030222,9
2.58000183105469,-1.55469679832458,2.23249125480652,2.11699867248535,-1.61814182127198,2.26957516039323,2.14456396033363,2246.096,2243.973,2244.366,2247.329,-0.03843474,-9.183487E-05,0.1034668,-1.08591985702515,-0.447323203086853,0.670705854892731,-1.10024313330221,-0.473403883025206,0.681102911362804,9
2.59999084472656,-1.57640767097473,2.22356557846069,2.1304087638855,-1.64012239440973,2.26011753383818,2.15817098218581,2243.845,2242.117,2242.186,2244.813,-0.03784512,-9.21025E-05,0.1021957,-1.08555436134338,-0.446280717849731,0.670508444309235,-1.09897546783438,-0.47285844198887,0.680318166050934,8
2.6199951171875,-1.59810602664948,2.21466302871704,2.14381146430969,-1.66209156852628,2.2506648119635,2.17177094750084,2239.548,2238.197,2243.418,2242.688,-0.03721022,-9.244386E-05,0.1009216,-1.08491337299347,-0.445131063461304,0.670137941837311,-1.09742594550583,-0.472191725819537,0.679358937915576,6
2.63999938964844,-1.61978602409363,2.20578575134277,2.15720343589783,-1.68402693989188,2.24122663446822,2.18534998730279,2241.257,2237.88,2234.06,2241.559,-0.0365945,-9.241647E-05,0.0995898,-1.08400225639343,-0.443867146968842,0.669597983360291,-1.09559602313537,-0.471404361345641,0.67822612879697,5
2.66000366210938,-1.64144217967987,2.1969358921051,2.17058110237122,-1.70592290617745,2.23180541187802,2.19890463348308,2237.103,2235.154,2235.108,2238.143,-0.03597292,-9.252855E-05,0.09823161,-1.08281481266022,-0.442495405673981,0.668889105319977,-1.09348640563071,-0.470496651869278,0.67692017506657,0
2.67999267578125,-1.66306936740875,2.18811559677124,2.18394136428833,-1.72775723139253,2.2224107117184,2.21242112090437,2234.635,2233.253,2232.877,2235.349,-0.03534973,-9.285254E-05,0.09685309,-1.0813512802124,-0.441016882658005,0.668011367321014,-1.09109983431736,-0.469469776906228,0.675442773735451,0
2.69999694824219,-1.6846616268158,2.1793270111084,2.19728064537048,-1.74955768413056,2.21303058593937,2.22591663964878,2230.055,2229.105,2234.071,2233.203,-0.03468288,-9.341928E-05,0.09547426,-1.07961297035217,-0.439433574676514,0.666961550712585,-1.08843358680109,-0.468322565086308,0.673792239511893,0
2.72000122070313,-1.70621359348297,2.17057228088379,2.21059560775757,-1.77130202882336,2.20367460188472,2.23937742484041,2231.67,2228.646,2224.727,2231.742,-0.03403626,-9.343048E-05,0.0940422,-1.0776059627533,-0.437738627195358,0.665743470191956,-1.08549040888332,-0.467056197851165,0.671970272177789,0
2.739990234375,-1.72772026062012,2.16185355186462,2.2238826751709,-1.79296822271738,2.1943522439355,2.25278983096475,2227.29,2225.683,2225.671,2228.355,-0.03338432,-9.36621E-05,0.09258747,-1.07532513141632,-0.435938715934753,0.664357781410217,-1.08227399942825,-0.465672266718727,0.669979161506271,0
2.75999450683594,-1.74917554855347,2.15317296981812,2.23713874816895,-1.81458384274179,2.18505164650952,2.26617092945464,2222.772,2221.938,2226.474,2225.764,-0.03269137,-9.398446E-05,0.09113224,-1.07277119159698,-0.434034943580627,0.662801623344421,-1.07878069424208,-0.464169195088763,0.667816639186824,0
2.77999877929688,-1.77057468891144,2.1445324420929,2.25036025047302,-1.83612684690458,2.17578229366013,2.27950707526701,2224.295,2221.385,2217.181,2224.077,-0.03202238,-9.400654E-05,0.089625,-1.06995034217834,-0.432021170854568,0.661079049110413,-1.07501419914593,-0.462548577472581,0.665484999299265,0
2.80000305175781,-1.79191172122955,2.13593435287476,2.2635440826416,-1.85759178470316,2.16654653058634,2.29279489428112,2219.671,2218.349,2218.178,2220.613,-0.03134967,-9.418085E-05,0.08809791,-1.06685757637024,-0.429904788732529,0.659190893173218,-1.07097597819164,-0.460811043810786,0.662985148161422,0
2.81999206542969,-1.81318187713623,2.12738060951233,2.27668690681458,-1.87895695992541,2.1573536925621,2.30602095550813,2217.03,2216.173,2215.67,2217.698,-0.03067536,-9.445342E-05,0.08655557,-1.06349492073059,-0.42768719792366,0.657137632369995,-1.06667099276523,-0.458958728849171,0.660320157107579,0
2.83999633789063,-1.83437919616699,2.11887311935425,2.28978514671326,-1.90024960698239,2.14819206138118,2.31920211834584,2212.213,2211.822,2216.529,2215.524,-0.0299579,-9.473822E-05,0.08501653,-1.0598646402359,-0.425370275974274,0.654916644096375,-1.06209435025759,-0.456989527434725,0.657486997379635,0
2.86000061035156,-1.85549855232239,2.11041450500488,2.30283570289612,-1.9214480311499,2.13907097167731,2.33232495272651,2213.684,2210.92,2207.356,2213.701,-0.02925962,-9.473103E-05,0.0834292,-1.05597376823425,-0.422947466373444,0.65253210067749,-1.05725102347782,-0.454905579228273,0.654488747383304,0
2.87998962402344,-1.87653493881226,2.10200548171997,2.31583547592163,-1.94253086194772,2.12999961857111,2.34537622930486,2209.216,2207.76,2207.756,2210.407,-0.02855495,-9.460169E-05,0.08182017,-1.05181813240051,-0.420425117015839,0.649985194206238,-1.05214690704168,-0.452709420518306,0.651329056166547,0
2.89999389648438,-1.8974826335907,2.0936496257782,2.32878088951111,-1.96352501326936,2.1209664217661,2.35837260906308,2204.546,2204.185,2208.182,2207.48,-0.02781246,-9.477625E-05,0.080213,-1.04739892482758,-0.417803943157196,0.647273600101471,-1.04677621342161,-0.450398561093403,0.648004340974112,0
2.91999816894531,-1.91833746433258,2.08534789085388,2.34166884422302,-1.98440911693069,2.11198057539494,2.37130086407726,2205.981,2203.085,2199.004,2205.641,-0.02709394,-9.473071E-05,0.07855536,-1.04272270202637,-0.415078788995743,0.644401848316193,-1.04114485287423,-0.447975543971863,0.644518260536375,0
2.94000244140625,-1.93909299373627,2.07710289955139,2.35449624061584,-2.00517798053537,2.10304431360073,2.38415778000673,2201.137,2200.124,2199.723,2201.964,-0.02637328,-9.478055E-05,0.07688047,-1.03778505325317,-0.412256628274918,0.641370952129364,-1.03525504859546,-0.445441325732794,0.640872191117535,0
2.95999145507813,-1.95974481105804,2.06891584396362,2.36725997924805,-2.02581075424974,2.0941666074844,2.39693044981124,2198.452,2197.877,2196.894,2198.889,-0.0256553,-9.501749E-05,0.07519192,-1.0325882434845,-0.409339338541031,0.638182103633881,-1.02911391720548,-0.442798968459032,0.637070538244476,0
2.97999572753906,-1.98028743267059,2.06078958511353,2.37995672225952,-2.04633384260397,2.08533609591429,2.40963521915279,2193.435,2193.689,2197.486,2196.468,-0.02490002,-9.530336E-05,0.07351013,-1.02713513374329,-0.406329542398453,0.634833335876465,-1.02271452148052,-0.440045487257004,0.633109007445237,0
3,-2.00071620941162,2.05272483825684,2.39258337020874,-2.06672639957428,2.07656174835205,2.42225918334961,2194.685,2192.297,2188.716,2194.426,-0.02416606,-9.511953E-05,0.07178545,-1.02143335342407,-0.403222024440765,0.63132905960083,-1.01606400046349,-0.437183953857422,0.628992018127441,0
3.01998901367188,-2.02102589607239,2.0447244644165,2.40513682365417,-2.0869680292999,2.06785234056679,2.43478971639231,2189.901,2189.238,2189.077,2190.895,-0.02342676,-9.517025E-05,0.07004759,-1.01547968387604,-0.40002316236496,0.627670764923096,-1.00917036754089,-0.434217816196637,0.624724530959079,0
3.03999328613281,-2.04121112823486,2.03679013252258,2.4176139831543,-2.10708469520508,2.05919670122237,2.4472428908773,2185.378,2185.404,2188.788,2188.355,-0.02265338,-9.52889E-05,0.06831215,-1.00927722454071,-0.396734148263931,0.623856961727142,-1.00202586176059,-0.431143734953757,0.620301741541063,0
3.05999755859375,-2.06126809120178,2.02892303466797,2.43001174926758,-2.12705600675913,2.05060360379452,2.45960608409476,2186.509,2184.138,2180.284,2185.899,-0.02190397,-9.512313E-05,0.0665344,-1.00283241271973,-0.393350154161453,0.619892239570618,-0.994638524886308,-0.427965170275055,0.615728628108227,0
3.08000183105469,-2.08119058609009,2.02112531661987,2.44232726097107,-2.14687713595163,2.04207512564123,2.47187630727625,2181.631,2181.089,2180.569,2182.403,-0.02115349,-9.503503E-05,0.06474404,-0.996142387390137,-0.389878273010254,0.615778207778931,-0.987011339258122,-0.424683405378145,0.611007036871143,0
3.09999084472656,-2.10097503662109,2.01339912414551,2.45455765724182,-2.16652837486666,2.03361974652815,2.48404136028297,2178.868,2178.763,2177.677,2179.21,-0.02040674,-9.519358E-05,0.06294497,-0.989210367202759,-0.386320233345032,0.611516416072845,-0.979153483542501,-0.421302389586788,0.606142649861596,0
3.1199951171875,-2.12061548233032,2.00574541091919,2.46669983863831,-2.18603502400946,2.02522658035469,2.49611690533293,2173.922,2174.463,2177.78,2177.033,-0.01962483,-9.515502E-05,0.06115267,-0.982040107250214,-0.382678955793381,0.607105791568756,-0.971056158224178,-0.417818336715394,0.601130019760458,0
3.13999938964844,-2.14010858535767,1.998166680336,2.47875094413757,-2.20537738341953,2.01690410346351,2.50809074721212,2174.986,2173.124,2169.559,2174.314,-0.01886637,-9.501878E-05,0.05932531,-0.974638640880585,-0.378949373960495,0.602550864219666,-0.962728579444533,-0.414235212212131,0.595974851798267,0
3.15998840332031,-2.15944838523865,1.99066400527954,2.49070811271667,-2.22453632143911,2.00866054767245,2.51995104251302,2170.258,2169.797,2169.454,2171.237,-0.01810364,-9.48672E-05,0.05748608,-0.967004656791687,-0.375138252973557,0.597853660583496,-0.954180774018563,-0.410557330335374,0.590683353051152,0
3.17999267578125,-2.17863130569458,1.98323893547058,2.50256848335266,-2.24353658854737,2.00048526354177,2.53171311296128,2165.774,2166.433,2168.863,2168.318,-0.01731428,-9.494198E-05,0.05565318,-0.959141075611115,-0.371246725320816,0.593013346195221,-0.945403214201559,-0.406780591562751,0.585249625391267,0
3.19999694824219,-2.19765281677246,1.97589349746704,2.51432919502258,-2.2623590635174,1.99238647840124,2.54336512160655,2166.512,2164.737,2161.186,2165.709,-0.01654888,-9.461673E-05,0.05378694,-0.951054811477661,-0.367271572351456,0.588034749031067,-0.936405971974636,-0.402909329586355,0.579679903854719,0
3.22000122070313,-2.21650743484497,1.96862888336182,2.52598762512207,-2.28099938900442,1.98436606709459,2.55490437104486,2161.854,2161.745,2160.885,2162.412,-0.01578456,-9.44993E-05,0.05191197,-0.942744612693787,-0.363219380378723,0.582919895648956,-0.927192788821982,-0.398945154262308,0.573976504598449,0
3.239990234375,-2.235191822052,1.96144711971283,2.53754115104675,-2.2994392795179,1.97643189735754,2.5663195416865,2158.996,2159.43,2158.108,2159.118,-0.01502662,-9.452107E-05,0.05003389,-0.934214115142822,-0.35909241437912,0.577670872211456,-0.917774783907129,-0.394892849856044,0.568146310914365,0
3.25999450683594,-2.25370121002197,1.95434939861298,2.54898691177368,-2.31770268688992,1.96857366338589,2.57762546085652,2154.165,2155.334,2157.854,2156.962,-0.01423992,-9.427287E-05,0.04816664,-0.925467967987061,-0.354893803596497,0.572287321090698,-0.90814153446928,-0.390747931744771,0.562182870617026,0
3.27999877929688,-2.27203154563904,1.94733691215515,2.56032228469849,-2.33577134012187,1.96079922667992,2.58881081793642,2154.982,2153.603,2150.344,2154.177,-0.0134756,-9.408742E-05,0.04627182,-0.916513741016388,-0.350619524717331,0.566773951053619,-0.898304216251578,-0.386515208538549,0.556093102023818,0
3.30000305175781,-2.2901782989502,1.9404114484787,2.57154488563538,-2.35364119854729,1.95311032582551,2.59987311156116,2150.4,2150.636,2149.887,2150.995,-0.01271127,-9.378837E-05,0.04437236,-0.907351016998291,-0.346275895833969,0.561133205890656,-0.888267004546666,-0.382196476749158,0.549879589839776,0
3.31999206542969,-2.30813813209534,1.93357419967651,2.58265233039856,-2.37129490830989,1.94551442770222,2.61080159886703,2147.637,2148.14,2147.045,2147.933,-0.01195173,-9.370632E-05,0.04247075,-0.897984087467194,-0.341864854097366,0.555367410182953,-0.878042061913513,-0.37779696958594,0.54354986326829,0
3.33999633789063,-2.32590627670288,1.92682647705078,2.59364175796509,-2.38875555478454,1.93800159931817,2.62161057080077,2142.997,2144.316,2146.53,2145.687,-0.01116557,-9.333862E-05,0.04058053,-0.888417541980743,-0.337388873100281,0.549476683139801,-0.867618167158097,-0.373311858882592,0.53709697585572,0
3.36000061035156,-2.3434796333313,1.9201694726944,2.60451102256775,-2.406005803634,1.93057929915441,2.6322892965819,2143.825,2142.565,2139.27,2142.787,-0.01040284,-9.305101E-05,0.03866503,-0.878658592700958,-0.332844406366348,0.543465912342072,-0.857007552155826,-0.36874640767338,0.530528499715627,0
3.37998962402344,-2.36085367202759,1.9136049747467,2.61525774002075,-2.42302905329872,1.92325467039821,2.6428274990542,2139.289,2139.707,2138.731,2139.679,-0.009642773,-9.283712E-05,0.03674667,-0.868707120418549,-0.328237801790237,0.537337779998779,-0.846223126656603,-0.364106170663035,0.523852426598178,0
3.39999389648438,-2.37802505493164,1.90713334083557,2.62587952613831,-2.43984769972619,1.91601807669906,2.65323904237604,2135.072,2136.487,2137.717,2137.048,-0.008865663,-9.251341E-05,0.03483928,-0.858567297458649,-0.32357132434845,0.531092822551727,-0.835253140422974,-0.35938609205264,0.51706148254665,0
3.41999816894531,-2.39498996734619,1.90075671672821,2.6363742351532,-2.45644516534361,1.90887665092339,2.66351366424015,2135.455,2134.758,2131.2,2133.98,-0.008115717,-9.243708E-05,0.03291348,-0.848246157169342,-0.318843066692352,0.524735927581787,-0.824110582941664,-0.354591760855451,0.510163708672097,0
3.44000244140625,-2.41174483299255,1.89447546005249,2.64673972129822,-2.47281804716281,1.90183185728196,2.67364925803476,2131.065,2131.94,2130.489,2131.026,-0.00737376,-9.208843E-05,0.03098942,-0.83774471282959,-0.314060002565384,0.518269896507263,-0.812800388649434,-0.349725300221754,0.503162159625937,0
3.45999145507813,-2.42828607559204,1.8882908821106,2.65697360038757,-2.48895081463434,1.8948903781363,2.68363620960993,2128.099,2129.614,2128.094,2127.904,-0.006641391,-9.184099E-05,0.02907428,-0.827067911624908,-0.30922520160675,0.511697471141815,-0.80133641229185,-0.344792671461508,0.496065412155666,0
3.47999572753906,-2.44461059570313,1.88220405578613,2.66707396507263,-2.50486489870395,1.88804299234919,2.69348778574196,2123.724,2126.022,2127.332,2125.816,-0.005889847,-9.143275E-05,0.02717922,-0.816221833229065,-0.304341793060303,0.50501960515976,-0.789706299681989,-0.339788558913217,0.488865818431069,0
3.5,-2.46071481704712,1.87621593475342,2.67703866958618,-2.5205447997813,1.88129636896134,2.70319439144611,2124.155,2123.909,2121.094,2123.084,-0.005159608,-9.095525E-05,0.02527229,-0.805214881896973,-0.299407511949539,0.498241305351257,-0.777924000354857,-0.334718964672089,0.481572013878822,0
3.51998901367188,-2.47659587860107,1.87032723426819,2.68686604499817,-2.53597583877076,1.87465682397749,2.71274693966292,2120.051,2121.203,2120.159,2120.257,-0.004434163,-9.050443E-05,0.02337084,-0.794048964977264,-0.294427931308746,0.491365700960159,-0.766004036374581,-0.329590137176618,0.474192988348404,0
3.53999328613281,-2.4922502040863,1.86453938484192,2.69655394554138,-2.55117869390181,1.86811546013321,2.72215823120146,2115.996,2118.13,2119.131,2117.854,-0.003693272,-8.986878E-05,0.02148734,-0.782729148864746,-0.289405107498169,0.484394043684006,-0.753933682518821,-0.324396601119134,0.466720864320997,0
3.55999755859375,-2.5076756477356,1.85885262489319,2.70610046386719,-2.56613872308604,1.86167857751006,2.73141920191151,2116.563,2116.202,2112.984,2114.976,-0.002977947,-8.949525E-05,0.0195914,-0.771263122558594,-0.284337222576141,0.477331429719925,-0.741727567798258,-0.319144650954242,0.459164697851087,0
3.58000183105469,-2.52286863327026,1.85326778888702,2.71550416946411,-2.58085326729328,1.85534732021446,2.74052820572674,2112.326,2113.744,2112.281,2112.085,-0.002272209,-8.925748E-05,0.01770396,-0.759652256965637,-0.279230564832687,0.470181077718735,-0.729391385793765,-0.313836736470737,0.451528013536464,0
3.59999084472656,-2.53782653808594,1.84778642654419,2.72476315498352,-2.59530884290342,1.84912748987145,2.74947689564398,2109.766,2111.595,2109.747,2109.141,-0.001579787,-8.87394E-05,0.01582931,-0.747901976108551,-0.274088114500046,0.462946265935898,-0.716940488958392,-0.308479463400265,0.4438203152769,0
3.6199951171875,-2.55254697799683,1.84240794181824,2.73387575149536,-2.60952509409627,1.84301063413925,2.75827743234631,2105.809,2108.374,2108.756,2107.166,-0.0008777779,-8.821124E-05,0.01397659,-0.736018478870392,-0.268913477659225,0.455628782510757,-0.704361775018033,-0.303067194200314,0.436033492140578,0
3.63999938964844,-2.56702733039856,1.83713388442993,2.74284052848816,-2.6234885835008,1.83700253474321,2.76692149746096,2105.864,2106.57,2103.539,2104.174,-0.000201335,-8.77679E-05,0.0121242,-0.72400963306427,-0.263705730438232,0.448233783245087,-0.691670720740692,-0.297606588091786,0.428177124984152,0
3.65998840332031,-2.58126497268677,1.83196449279785,2.75165581703186,-2.63718676607487,1.8311085894645,2.77540132500924,2102.077,2103.99,2102.512,2101.728,0.0004651933,-8.725405E-05,0.01028603,-0.711878895759583,-0.258470833301544,0.44076469540596,-0.678883253871145,-0.292104498338286,0.420261073840379,0
3.67999267578125,-2.59525752067566,1.82690048217773,2.76032018661499,-2.65063849381582,1.82532068681534,2.78372858527554,2098.384,2101.303,2101.402,2099.444,0.001138039,-8.667232E-05,0.008473539,-0.699632287025452,-0.253211617469788,0.433223813772202,-0.665986083416798,-0.286555206197011,0.41227711095171,0
3.69999694824219,-2.6090030670166,1.82194185256958,2.76883244514465,-2.66383127580226,1.81964420129024,2.79189554578451,2098.583,2099.369,2096.306,2096.697,0.001784011,-8.632498E-05,0.006663109,-0.687277913093567,-0.247927591204643,0.425616323947906,-0.65299527533123,-0.280965624398954,0.404235181908735,0
3.72000122070313,-2.62249946594238,1.81708943843842,2.77719140052795,-2.6767633032417,1.81407991116207,2.79990108680742,2094.795,2097.136,2095.441,2094.139,0.002417209,-8.56649E-05,0.004871859,-0.67481917142868,-0.24262461066246,0.417945772409439,-0.639917282339434,-0.275338529371411,0.396139281255611,0
3.739990234375,-2.63574457168579,1.81234323978424,2.78539562225342,-2.68942333385363,1.80863265367006,2.80773824883709,2092.43,2094.965,2093.17,2091.641,0.003036364,-8.523418E-05,0.003102017,-0.662262678146362,-0.237305983901024,0.410216003656387,-0.62676873176137,-0.26968107538565,0.387999702095468,0
3.75999450683594,-2.64873719215393,1.8077038526535,2.79344415664673,-2.70182915057228,1.80329477731443,2.81541804035694,2088.912,2092.278,2092.114,2089.691,0.00365887,-8.464923E-05,0.001362672,-0.649615228176117,-0.231974855065346,0.402429610490799,-0.613536214864365,-0.263987493038594,0.379808143784027,0
3.77999877929688,-2.66147470474243,1.80317103862762,2.80133605003357,-2.7139695770734,1.79807109095524,2.82293354268985,2088.951,2090.265,2087.578,2087.199,0.004257295,-8.399105E-05,-0.0003675162,-0.636885285377502,-0.22663114964962,0.394591897726059,-0.60023651686137,-0.258265004538452,0.371574997167698,0
3.80000305175781,-2.67395639419556,1.79874551296234,2.80907011032104,-2.72584333814708,1.79296214327972,2.83028396642013,2085.689,2088.308,2086.434,2084.713,0.004840273,-8.340284E-05,-0.002075135,-0.624076962471008,-0.221279919147491,0.386706709861755,-0.586876524285838,-0.252516572968186,0.363304525338741,0
3.81999206542969,-2.68618011474609,1.79442715644836,2.81664562225342,-2.73744054699573,1.78797218830065,2.83746319114912,2083.418,2086.204,2084.378,2082.457,0.005408124,-8.293949E-05,-0.00375772,-0.611196875572205,-0.215924575924873,0.3787781894207,-0.573473482003301,-0.246749618311662,0.355007403690404,0
3.83999633789063,-2.69814515113831,1.79021573066711,2.82406187057495,-2.74877791451009,1.78309403578861,2.84448156171422,2080.34,2083.863,2083.17,2080.518,0.005973182,-8.231369E-05,-0.005408348,-0.598251938819885,-0.210568338632584,0.370809406042099,-0.560014026276881,-0.240958390526246,0.346675359432959,0
3.86000061035156,-2.7098503112793,1.78611135482788,2.83131790161133,-2.75984563331209,1.77833190558438,2.85133300688122,2080.186,2082.124,2079.229,2078.006,0.006510685,-8.181317E-05,-0.007041398,-0.585250318050385,-0.205211937427521,0.36280557513237,-0.546515580872635,-0.235150386571708,0.338319178707605,0
3.87998962402344,-2.72129392623901,1.78211426734924,2.83841323852539,-2.7706348636882,1.77368960116974,2.85801205444635,2077.097,2080.2,2078.213,2075.867,0.007030764,-8.123931E-05,-0.008646219,-0.572196900844574,-0.199860826134682,0.354771047830582,-0.532995796775444,-0.22933320117373,0.329949788314816,0
