t,x_s1,x_s2,x_s3,x_s_d1,x_s_d2,x_s_d3,propellers_rpms1,propellers_rpms2,propellers_rpms3,propellers_rpms4,rollRad,pitchRad,yawRad,v_s1,v_s2,v_s3,v_s_d1,v_s_d2,v_s_d3,insideCount
0,-0.0599999986588955,2.94000005722046,1.17999994754791,-0.0599999986588955,2.94000005722046,1.17999994754791,0,0,0,0,0,45.0048027038574,0,0,0,0,-1.06581410364015E-15,4.44089209850063E-16,-7.105427357601E-16,0
0.019989013671875,-0.0599999986588955,2.94000005722046,1.17705690860748,-0.0600018659130177,2.93999925379318,1.18000108822432,0,0,0,0,0.937003672122955,44.8630027770996,-0.00115976633969694,3.71994488546079E-08,3.50004931704007E-08,-0.147149950265884,-0.000279680311988734,-0.000120338624884473,0.000170852338267345,5
0.03997802734375,-0.0599999986588955,2.94000005722046,1.17018985748291,-0.060014847005691,2.93999366839165,1.18000901817127,0,0,0,0,1.87400352954865,44.7211418151855,-0.00311126722954214,3.70364325874561E-08,3.5142885934647E-08,-0.343349903821945,-0.00110975851463131,-0.000477498085781228,0.000677934159146771,6
0.05999755859375,-0.0599062256515026,2.94009447097778,1.16346502304077,-0.0600498857373401,2.93997859220429,1.18003042278566,3197.325,2848.704,1517.249,2782.322,1.40365922451019,44.7413520812988,0.0288782697170973,0.00468863174319267,0.00471880286931992,-0.336240500211716,-0.00247936261166862,-0.00106680046642749,0.00151460392977639,6
0.079986572265625,-0.0597377754747868,2.94026732444763,1.15723752975464,-0.0601174907153006,2.93994950367094,1.18007172161174,2866.013,2651.907,2344.175,2562.079,0.339566051959991,44.8157997131348,0.0999031513929367,0.00842245481908321,0.00864478945732117,-0.311372131109238,-0.00437104534358026,-0.00188073869847162,0.0026702033915743,6
0.0999755859375,-0.0595562905073166,2.94046425819397,1.15151929855347,-0.0602280337026576,2.93990194011169,1.18013925059773,2239.444,2527.902,3138.338,2508.833,359.321472167969,44.919116973877,0.178560763597488,0.00907422322779894,0.00984908081591129,-0.285909205675125,-0.00677334142420609,-0.00291437958958193,0.00413772858013753,5
0.1199951171875,-0.0594243928790092,2.94063210487366,1.14656853675842,-0.0603918861403606,2.93983143898525,1.18023934549506,2123.677,2454.725,3352.065,2464.421,358.75,44.9999008178711,0.253260344266891,0.00659493310377002,0.00839813239872456,-0.247537881135941,-0.00967801353495435,-0.00416417885169243,0.00591214744607921,5
0.139984130859375,-0.0593829825520515,2.94074010848999,1.14257037639618,-0.0606183773949454,2.93973398612584,1.18037770546816,2312.854,2456.903,3068.582,2463.071,358.636199951172,45.0326309204102,0.326482504606247,0.00207058852538466,0.00539825670421124,-0.19990673661232,-0.0130632593357409,-0.00562075554695178,0.00798014128006072,5
0.160003662109375,-0.0594433359801769,2.9407856464386,1.13952398300171,-0.0609177895434042,2.93960515744296,1.18056061167741,2536.092,2486.498,2635.79,2492.247,358.757019042969,45.0249977111816,0.398212611675262,-0.00301766907796264,0.00227969721890986,-0.152322188019753,-0.0169265510445065,-0.00728302204135792,0.0103401658994673,5
0.17999267578125,-0.0596000477671623,2.94078159332275,1.13730907440186,-0.0612985250199726,2.93944133760391,1.18079319703879,2667.135,2506.32,2301.989,2512.944,358.864166259766,44.9985198974609,0.467501312494278,-0.00783565267920494,-0.000197443645447493,-0.110745467245579,-0.0212433804254414,-0.00914043312572283,0.0129772496054864,5
0.199981689453125,-0.0598476082086563,2.94073987007141,1.13576066493988,-0.0617700327574899,2.93923846099686,1.18108123375791,2652.885,2499.865,2183.836,2508.893,358.816864013672,44.9744071960449,0.532906055450439,-0.0123779531568289,-0.00209087203256786,-0.0774214267730713,-0.0260066742439309,-0.011189945384795,0.0158870714694674,5
0.220001220703125,-0.0601895526051521,2.94066214561462,1.13474488258362,-0.0623420644491781,2.93899233174064,1.18143067899198,2540.211,2470.424,2246.009,2478.894,358.612579345703,44.9637107849121,0.594432055950165,-0.0170971434563398,-0.00388124375604093,-0.0507900081574917,-0.03121219533433,-0.0134297356845702,0.0190670430730375,5
0.239990234375,-0.0606388226151466,2.9405415058136,1.13419330120087,-0.0630214373585105,2.93870001655724,1.18184569730089,2412.67,2430.171,2373.253,2436.93,358.334777832031,44.9658660888672,0.652752995491028,-0.0224635545164347,-0.00603219959884882,-0.0275781471282244,-0.0368316683029241,-0.015847637913056,0.0224998914194052,5
0.259979248046875,-0.0612131841480732,2.94036602973938,1.13409018516541,-0.0638172488896441,2.93835760108779,1.18233184614686,2328.988,2391.645,2463,2399.004,358.076385498047,44.9738883972168,0.707754135131836,-0.0287181213498116,-0.00876813195645809,-0.00515452586114407,-0.0428604193878216,-0.0184416410810803,0.0261827613803636,4
0.279998779296875,-0.0619297176599503,2.94012498855591,1.13444006443024,-0.0647390625194898,2.93796097043536,1.18289496770872,2305.549,2364.994,2470.409,2370.657,357.887329101563,44.9803428649902,0.760392367839813,-0.0358267799019814,-0.012056116014719,0.0174961537122726,-0.0492963837173861,-0.0212108567320638,0.0301143915580518,4
0.29998779296875,-0.0628012642264366,2.93981075286865,1.13523626327515,-0.0657918945890516,2.93750796620855,1.18353812639089,2318.506,2348.759,2414.676,2353.019,357.765228271484,44.9817352294922,0.811404585838318,-0.0435774587094784,-0.0157065093517303,0.0398077741265297,-0.0561078595514081,-0.0241416444928383,0.0342754158540715,4
0.319976806640625,-0.0638360604643822,2.93942022323608,1.13644886016846,-0.0669846297797139,2.93699476557717,1.1842667497066,2333.929,2336.064,2343.35,2342.159,357.6787109375,44.9788475036621,0.859986007213593,-0.0517397783696651,-0.0195226296782494,0.060628816485405,-0.0632924014512957,-0.0272329521594955,0.0386643403881474,4
0.339996337890625,-0.065039686858654,2.93895220756531,1.13803553581238,-0.068326768706371,2.93641728069206,1.18508664143323,2337.644,2324.631,2287.169,2329.987,357.5947265625,44.974178314209,0.90635621547699,-0.0601812526583672,-0.0234028473496437,0.0793343707919121,-0.0708499516420146,-0.0304847548730522,0.0432811298664125,4
0.3599853515625,-0.0664171949028969,2.93840527534485,1.1399507522583,-0.0698213312158394,2.93577421219747,1.18599964634808,2323.453,2311.209,2260.467,2315.404,357.494781494141,44.9702339172363,0.950907051563263,-0.0688754841685295,-0.0273415353149176,0.0957597941160202,-0.0787457139191101,-0.0338820807988248,0.0481045278305496,4
0.3800048828125,-0.0679744333028793,2.93777751922607,1.14215338230133,-0.0714797725314022,2.93506063123087,1.18701276226829,2294.433,2293.831,2261.749,2300.142,357.379821777344,44.9685707092285,0.992665112018585,-0.0778617933392525,-0.0313870906829834,0.110132835805416,-0.0869921272359981,-0.0374302820709642,0.0531421330430943,4
0.399993896484375,-0.0697183683514595,2.93706560134888,1.14461696147919,-0.0733036822025899,2.9342758538535,1.18812696022487,2269.706,2278.346,2267.55,2282.311,357.261322021484,44.9687004089355,1.03264987468719,-0.0871968194842339,-0.0355969145894051,0.123178102076054,-0.0955525119207663,-0.0411135764513579,0.0583715384648505,4
0.41998291015625,-0.071656197309494,2.93626594543457,1.14731967449188,-0.075301871434707,2.93341608884986,1.18934762284564,2247.723,2262.315,2272.156,2268.292,357.151550292969,44.9699363708496,1.07003009319305,-0.0968914702534676,-0.0399869531393051,0.135136634111404,-0.104427768518458,-0.0449323514193797,0.0637932942247324,4
0.44000244140625,-0.0737947970628738,2.93537497520447,1.15024697780609,-0.077483988232608,2.93247718495301,1.19068064394622,2237.588,2250.375,2264.142,2254.973,357.057006835938,44.9710960388184,1.10545182228088,-0.10692984610796,-0.0445471294224262,0.146364793181419,-0.113620829717891,-0.048887868829098,0.0694091918565748,4
0.459991455078125,-0.0761400833725929,2.9343900680542,1.15338385105133,-0.0798493430620752,2.93145943885026,1.1921256023009,2233.823,2241.262,2247.046,2244.132,356.975799560547,44.971622467041,1.13968205451965,-0.117264494299889,-0.0492419600486755,0.156843185424805,-0.123092454730403,-0.0529632444654124,0.0751952597749251,4
0.47998046875,-0.0786969736218452,2.93330931663513,1.1567108631134,-0.082406855753501,2.93035901258777,1.1936879468949,2226.764,2231.228,2233.302,2236.903,356.903533935547,44.9719047546387,1.17150259017944,-0.127844542264938,-0.0540342554450035,0.166351094841957,-0.132845337826091,-0.057159637597476,0.0811531438673414,4
0.5,-0.0814699158072472,2.93213105201721,1.16021192073822,-0.085166398670376,2.92917165836334,1.195373708601,2222.17,2223.994,2219.967,2228.211,356.836181640625,44.9720306396484,1.20153045654297,-0.138647273182869,-0.0589103028178215,0.175054609775543,-0.142884000065179,-0.0614789935111996,0.0872856059789651,5
0.519989013671875,-0.0844630300998688,2.93085384368896,1.16387152671814,-0.0881248588203387,2.92789871561062,1.19718098574075,2216.827,2217.726,2209.595,2220.093,356.770202636719,44.9722175598145,1.23054552078247,-0.149655252695084,-0.0638622418045998,0.182982251048088,-0.153166947611899,-0.0659034585682559,0.0935672981730243,5
0.53997802734375,-0.0876801684498787,2.92947602272034,1.16767299175262,-0.0912913676125048,2.92653625533937,1.19911535654949,2205.573,2209.108,2208.456,2214.652,356.705963134766,44.9729881286621,1.25716018676758,-0.160857334733009,-0.0688868165016174,0.190073773264885,-0.16369851368286,-0.0704348972306956,0.100000867543927,5
0.55999755859375,-0.0911253839731216,2.92799615859985,1.17160665988922,-0.094676112580471,2.92507989413848,1.20118304443252,2199.31,2203.479,2205.559,2207.271,356.645782470703,44.9740180969238,1.28214120864868,-0.172260969877243,-0.0739936530590057,0.196680814027786,-0.17448465888317,-0.0750758741803766,0.106589955332319,5
0.579986572265625,-0.0948024988174438,2.92641258239746,1.17566442489624,-0.0982734311149,2.92353206847056,1.20338059019015,2195.864,2199.251,2200.142,2201.025,356.58984375,44.9750328063965,1.3063657283783,-0.183855667710304,-0.0791784822940826,0.202886790037155,-0.185481935470438,-0.0798076950675377,0.113308019990364,5
0.5999755859375,-0.0987149178981781,2.92472410202026,1.1798357963562,-0.102092760004862,2.92188871794891,1.20571375860958,2188.316,2192.88,2199.902,2198.166,356.539123535156,44.9763259887695,1.3283166885376,-0.195620954036713,-0.0844289734959602,0.208568811416626,-0.196696165293826,-0.0846328648712294,0.120158617994867,5
0.6199951171875,-0.102866008877754,2.92292928695679,1.1841162443161,-0.106144683970236,2.92014528826426,1.208189015731,2186.792,2189.927,2195.339,2193.375,356.494140625,44.9775047302246,1.34880101680756,-0.207554504275322,-0.089745007455349,0.214019656181335,-0.208134604141382,-0.0895545055543457,0.127146181793521,5
0.639984130859375,-0.107258766889572,2.92102694511414,1.18850100040436,-0.110420882305709,2.91830535958365,1.21080127856538,2187.112,2188.342,2188.596,2189.514,356.452819824219,44.9784507751465,1.36880040168762,-0.219637617468834,-0.0951156690716743,0.219236478209496,-0.219752140575416,-0.0945532069255159,0.134243153512991,5
0.660003662109375,-0.111895740032196,2.91901636123657,1.1929817199707,-0.114938248900541,2.91636166293851,1.21356086732604,2181.291,2183.844,2189.42,2188.941,356.414703369141,44.9796409606934,1.38660764694214,-0.231848686933517,-0.100528083741665,0.224037244915962,-0.231574097577923,-0.0996398647564507,0.141465002567821,5
0.67999267578125,-0.116779670119286,2.91689658164978,1.1975576877594,-0.119686638739014,2.91431856344567,1.2164615845812,2183.15,2183.832,2184.519,2185.001,356.379333496094,44.980640411377,1.40392673015594,-0.244196802377701,-0.10598985850811,0.228799059987068,-0.243554411173546,-0.104794659005432,0.14878358919428,5
0.699981689453125,-0.12191279232502,2.91466689109802,1.20222246646881,-0.124676182095571,2.91217170233105,1.21950961875744,2177.639,2180.301,2187.296,2185.253,356.347015380859,44.9819374084473,1.41911232471466,-0.25665608048439,-0.111487306654453,0.233236774802208,-0.25570106256044,-0.110021023759057,0.156203788981777,5
0.720001220703125,-0.12729749083519,2.91232633590698,1.20697617530823,-0.129918284978346,2.90991617190799,1.22271193760712,2178.266,2180.074,2185.849,2182.881,356.318664550781,44.9831504821777,1.43310487270355,-0.269234329462051,-0.117027372121811,0.237684562802315,-0.268023157655716,-0.11532287703907,0.163731164592979,5
0.739990234375,-0.132935836911201,2.90987420082092,1.21181881427765,-0.135400001298574,2.90755754251682,1.22606063256665,2180.655,2180.974,2181.889,2181.249,356.292602539063,44.9841270446777,1.44699442386627,-0.281917870044708,-0.122602753341198,0.242129534482956,-0.280473432677602,-0.12067988256057,0.171336843321139,5
0.759979248046875,-0.138829573988914,2.90731024742126,1.21674585342407,-0.141131974150567,2.90509123473139,1.22956220533626,2176.085,2178.205,2185.944,2183.121,356.269073486328,44.9853897094727,1.45876681804657,-0.294686645269394,-0.128201857209206,0.246350646018982,-0.293060978423328,-0.126095951839638,0.179026378592425,5
0.779998779296875,-0.144980609416962,2.90463352203369,1.22175967693329,-0.147126184485884,2.90251209348295,1.2332239748923,2177.907,2179.111,2185.318,2181.778,356.249114990234,44.9865341186523,1.46940612792969,-0.307550817728043,-0.133833199739456,0.250690460205078,-0.305795832832518,-0.131575403921268,0.186805902427515,5
0.79998779296875,-0.15139052271843,2.90184378623962,1.22686207294464,-0.153366821193532,2.89982692185086,1.23703628247379,2181.365,2181.147,2181.999,2180.989,356.230895996094,44.9874153137207,1.48013055324554,-0.320496916770935,-0.139489978551865,0.255118489265442,-0.318629798715703,-0.137097500901303,0.194645971915464,5
0.819976806640625,-0.158060610294342,2.8989405632019,1.23204982280731,-0.159865102720482,2.89703089285078,1.24100598125492,2177.22,2178.99,2187.214,2183.897,356.214752197266,44.9886054992676,1.48873925209045,-0.333504796028137,-0.145160615444183,0.259387046098709,-0.331572942526109,-0.142666574093344,0.202552736495465,5
0.839996337890625,-0.164992347359657,2.89592337608337,1.23732686042786,-0.166633637018892,2.89411858163313,1.24514077323692,2179.791,2180.759,2187.292,2183.137,356.201904296875,44.9896621704102,1.49634087085724,-0.346587181091309,-0.150855273008347,0.263853251934052,-0.344636106234817,-0.148287288494656,0.210532819358465,5
0.8599853515625,-0.172186955809593,2.89279198646545,1.24269640445709,-0.173653699721778,2.89109804476993,1.2494292199962,2184.088,2183.507,2184.274,2182.973,356.190460205078,44.9904251098633,1.50418949127197,-0.359730809926987,-0.15656715631485,0.268475711345673,-0.357770416714212,-0.153938615363784,0.218556364673454,5
0.8800048828125,-0.179645255208015,2.88954639434814,1.24815595149994,-0.180948461186242,2.88795931270381,1.25388547594233,2180.111,2181.709,2190.308,2186.598,356.180847167969,44.9915008544922,1.50992977619171,-0.372914522886276,-0.162284344434738,0.272976040840149,-0.371007022483504,-0.159633957038354,0.226642400584755,5
0.899993896484375,-0.187368407845497,2.88618588447571,1.25371217727661,-0.18849723509595,2.8847112861788,1.25849690412748,2186.225,2185.542,2187.339,2185.252,356.173034667969,44.9922409057617,1.51581656932831,-0.386158555746078,-0.168020457029343,0.277809947729111,-0.384296738353309,-0.165352150505452,0.234760880627692,5
0.91998291015625,-0.195356994867325,2.88271069526672,1.2593629360199,-0.196312316554895,2.88134867495511,1.2632710154388,2182.314,2184.221,2193.62,2188.905,356.167419433594,44.9932594299316,1.51968276500702,-0.399429708719254,-0.17375810444355,0.28253698348999,-0.397650971463704,-0.171098103938772,0.242918773246135,5
0.94000244140625,-0.203611880540848,2.87912058830261,1.2651139497757,-0.204407453948074,2.87786556348678,1.26821620855017,2186.094,2186.765,2193.564,2188.75,356.165161132813,44.9940986633301,1.52271401882172,-0.412743389606476,-0.179507955908775,0.287548422813416,-0.411081631631503,-0.176876941799768,0.251123353961324,5
0.959991455078125,-0.212133556604385,2.87541532516479,1.27096927165985,-0.212759000778906,2.87427212620069,1.27331803818581,2191.43,2190.236,2190.098,2189.124,356.163818359375,44.9945831298828,1.5262439250946,-0.426084220409393,-0.185261741280556,0.292768746614456,-0.424539267042903,-0.182667386354485,0.259344413431889,5
0.97998046875,-0.220922142267227,2.87159514427185,1.27692675590515,-0.221379956358585,2.87056276985637,1.27858444542207,2187.245,2188.569,2196.883,2193.435,356.163726806641,44.995418548584,1.52767241001129,-0.439429610967636,-0.191006600856781,0.297873377799988,-0.438035925118965,-0.188474621271639,0.267589311239359,5
1,-0.22997809946537,2.86766004562378,1.28299224376678,-0.230284798736574,2.86673126495361,1.28402427467346,2190.785,2191.25,2197.438,2193.212,356.166320800781,44.9961013793945,1.52827215194702,-0.452798336744308,-0.196756318211555,0.303271591663361,-0.451584000205995,-0.194303979492187,0.275865618896484,5
1.01998901367188,-0.23930162191391,2.86361002922058,1.28917002677917,-0.239446912293295,2.86278906344998,1.2896212668733,2196.022,2194.835,2194.33,2193.469,356.169555664063,44.9964637756348,1.52947700023651,-0.466176837682724,-0.202504202723503,0.308891832828522,-0.46513400752272,-0.200134169097193,0.284143106922576,5
1.03997802734375,-0.248892486095428,2.85944533348083,1.29545783996582,-0.248880035413094,2.85873025410248,1.2953838145862,2191.387,2192.931,2201.693,2197.913,356.174072265625,44.997200012207,1.52852892875671,-0.479542374610901,-0.208237558603287,0.314393103122711,-0.478698517198992,-0.205970598662363,0.292429454213812,5
1.05999755859375,-0.258750766515732,2.85516595840454,1.30186188220978,-0.258599401509697,2.85454828239877,1.3013212236669,2195.066,2195.671,2202.094,2197.523,356.181518554688,44.9977760314941,1.52679991722107,-0.492914795875549,-0.213970616459846,0.320203244686127,-0.492290296490434,-0.211818761581115,0.30073246008742,5
1.07998657226563,-0.26887634396553,2.85077214241028,1.30838668346405,-0.268575430648764,2.85025587575821,1.30741542419509,2200.559,2199.327,2198.435,2197.654,356.189636230469,44.9979934692383,1.52581012248993,-0.506279051303864,-0.219695597887039,0.326237857341766,-0.50586005237609,-0.217657448443621,0.309022012206103,5
1.0999755859375,-0.279268562793732,2.84626412391663,1.3150292634964,-0.278822628233634,2.845846792911,1.31367527729532,2195.615,2197.14,2205.735,2202.202,356.199005126953,44.9986000061035,1.52263224124908,-0.519611120223999,-0.225398734211922,0.332130998373032,-0.519420764586993,-0.223492244065532,0.317306039685002,5
1.1199951171875,-0.289927184581757,2.84164214134216,1.32179582118988,-0.289357002179081,2.84131414609862,1.32011056195293,2199.288,2199.839,2205.812,2201.576,356.211212158203,44.9990272521973,1.51872313022614,-0.532931745052338,-0.231094732880592,0.33832648396492,-0.532985466132485,-0.229328756186667,0.32559250418615,5
1.13998413085938,-0.300851702690125,2.83690667152405,1.32869052886963,-0.300146026259498,2.83667193044725,1.32670140840426,2204.773,2203.403,2201.725,2201.501,356.223876953125,44.9990997314453,1.51565062999725,-0.546225845813751,-0.236775785684586,0.344733238220215,-0.546505271550557,-0.235145950758426,0.333851542343647,5
1.16000366210938,-0.312041074037552,2.83205819129944,1.33570981025696,-0.311222084148811,2.83190621216671,1.33346759933036,2199.246,2200.825,2209.183,2206.017,356.237609863281,44.9995880126953,1.51033270359039,-0.559469044208527,-0.242427930235863,0.350966840982437,-0.560014026276883,-0.240958390526247,0.342103829805999,6
1.17999267578125,-0.323494911193848,2.82709670066833,1.34286177158356,-0.322550701230474,2.8270318247214,1.34038807472597,2206.529,2205.318,2204.811,2203.813,356.252532958984,44.9996643066406,1.50568473339081,-0.57269012928009,-0.248069867491722,0.357595473527908,-0.573463232144024,-0.246745208083563,0.350319739799517,6
1.19998168945313,-0.335211873054504,2.82202315330505,1.35014235973358,-0.334147705564643,2.8220419577392,1.34747250370603,2200.709,2202.907,2212.123,2207.898,356.269256591797,45.0001411437988,1.49887907505035,-0.585849523544312,-0.253680676221848,0.364032238721848,-0.586866312357874,-0.25251217906087,0.358507472351216,6
1.22000122070313,-0.347191274166107,2.81683754920959,1.3575576543808,-0.346030421585499,2.81692915700008,1.35473146949704,2204.658,2205.321,2211.053,2206.854,356.289276123047,45.0003929138184,1.49143326282501,-0.598968923091888,-0.259274572134018,0.370763808488846,-0.600236516861372,-0.258265004538453,0.366675121644476,6
1.239990234375,-0.359431862831116,2.8115406036377,1.3651111125946,-0.358161486344149,2.81170949873715,1.36214214765657,2210.252,2208.695,2205.693,2206.337,356.309661865234,45.0002288818359,1.48502063751221,-0.612030446529388,-0.264841735363007,0.377670377492905,-0.613526094901141,-0.263983138701136,0.374793517489195,6
1.25997924804688,-0.371932029724121,2.80613327026367,1.37279784679413,-0.370557537648727,2.80637582416637,1.36971470196197,2203.827,2205.436,2212.969,2210.714,356.330841064453,45.0005264282227,1.47632396221161,-0.625009059906006,-0.27036726474762,0.384336948394775,-0.626748599474006,-0.269672413024826,0.382870939199643,6
1.27999877929688,-0.384690642356873,2.8006157875061,1.38062310218811,-0.383236695417198,2.80092033679326,1.37746020158837,2207.027,2207.551,2212.295,2209.213,356.354675292969,45.0006828308105,1.46692764759064,-0.637929141521454,-0.275868445634842,0.391264081001282,-0.639917282339435,-0.275338529371412,0.39091548206889,6
1.29998779296875,-0.397706151008606,2.79498910903931,1.38858997821808,-0.396158759015336,2.79536033382764,1.38535408859565,2212.066,2210.67,2207.186,2208.184,356.378570556641,45.0004615783691,1.4586169719696,-0.65077531337738,-0.28133761882782,0.39834588766098,-0.652985332144132,-0.280961346123326,0.398898549771684,6
1.31997680664063,-0.410976618528366,2.78925395011902,1.39669322967529,-0.409341180862083,2.78968830598122,1.39340702439419,2204.888,2206.903,2214.821,2212.346,356.403503417969,45.0007476806641,1.44794940948486,-0.663523435592651,-0.286760360002518,0.405160456895828,-0.665966334939128,-0.286546708978778,0.406828441814593,6
1.33999633789063,-0.424500524997711,2.7834107875824,1.40493774414063,-0.422802873722428,2.78389611561957,1.401630562497,2207.964,2208.819,2213.807,2210.392,356.431427001953,45.0008544921875,1.43662059307098,-0.676197707653046,-0.29215395450592,0.412226885557175,-0.678873453515705,-0.29210028151913,0.41471319914141,6
1.3599853515625,-0.438276201486588,2.77746057510376,1.41332638263702,-0.436500861174643,2.77800225429635,1.40999844927868,2213.108,2211.756,2207.908,2209.035,356.459686279297,45.0005683898926,1.42647981643677,-0.68878161907196,-0.297509372234344,0.419431835412979,-0.69166099897751,-0.297602405088682,0.422524911118315,6
1.3800048828125,-0.452301144599915,2.77140426635742,1.42185294628143,-0.450474904562636,2.77198961381608,1.41853497432376,2205.471,2207.554,2215.256,2213.123,356.489013671875,45.0007820129395,1.41392838954926,-0.701249778270721,-0.30281138420105,0.426330178976059,-0.704361775018035,-0.303067194200314,0.43028361700977,6
1.39999389648438,-0.466573804616928,2.76524257659912,1.43052446842194,-0.464680216184654,2.76587746507559,1.42721277752413,2212.785,2211.522,2208.9,2209.303,356.519439697266,45.000545501709,1.40235269069672,-0.71363377571106,-0.308080226182938,0.433576464653015,-0.716930938559026,-0.308475354130225,0.437961922879032,6
1.41998291015625,-0.481091678142548,2.75897669792175,1.43933427333832,-0.479135601808478,2.75965771647838,1.43604334702988,2204.848,2207.51,2216.004,2212.921,356.551635742188,45.0007705688477,1.3884379863739,-0.725891888141632,-0.313293159008026,0.440492689609528,-0.729381927869995,-0.313832666990362,0.445568037955247,6
1.44000244140625,-0.495852619409561,2.75260734558105,1.44828701019287,-0.493861275572861,2.75332167044526,1.44503903134294,2208.182,2209.104,2213.599,2210.457,356.587280273438,45.0007820129395,1.37395787239075,-0.73804759979248,-0.318465948104858,0.447636991739273,-0.741727567798258,-0.319144650954242,0.453109796737511,6
1.45999145507813,-0.510854244232178,2.74613547325134,1.45738446712494,-0.508809800712713,2.74688973769103,1.45417085208374,2213.411,2211.732,2206.346,2208.653,356.623016357422,45.0003356933594,1.36082017421722,-0.750082433223724,-0.323587894439697,0.454873979091644,-0.753924423002454,-0.324392617007921,0.460560665253582,6
1.47998046875,-0.526093661785126,2.73956251144409,1.46661913394928,-0.524000783579472,2.74035348215039,1.46345078646643,2204.788,2206.892,2213.547,2212.519,356.659423828125,45.0004463195801,1.34524595737457,-0.761971831321716,-0.328643649816513,0.461732149124146,-0.76598572865452,-0.329582259876133,0.467928728663466,6
1.5,-0.541568517684937,2.73288941383362,1.47599482536316,-0.539455198877605,2.73370387899399,1.47289164761066,2207.316,2208.145,2211.701,2209.621,356.698577880859,45.0004043579102,1.32905113697052,-0.773741722106934,-0.33365187048912,0.468785107135773,-0.777924000354858,-0.334718964672088,0.475221632552146,6
1.51998901367188,-0.557276129722595,2.72611737251282,1.48551309108734,-0.555123050061237,2.72696244033876,1.48246289340675,2211.966,2210.484,2204.846,2207.352,356.737609863281,44.9999656677246,1.31421792507172,-0.78537654876709,-0.338604241609573,0.47591358423233,-0.789697369743256,-0.339784716610053,0.482413800191712,6
1.53997802734375,-0.573213160037994,2.71924757957458,1.49516594409943,-0.571024729446907,2.7201203919406,1.49217698120264,2202.675,2205.214,2212.4,2211.023,356.777618408203,45.0001220703125,1.29687023162842,-0.796853005886078,-0.343486249446869,0.482643097639084,-0.801318788528229,-0.344785088448372,0.489513143578788,6
1.55999755859375,-0.589377045631409,2.71228122711182,1.50495719909668,-0.587181951496087,2.71316839067337,1.50204717602401,2205.184,2206.351,2210.204,2207.694,356.82080078125,45.0000991821289,1.27895855903625,-0.808196008205414,-0.348315924406052,0.489563077688217,-0.812800388649436,-0.349725300221754,0.496527073925997,6
1.57998657226563,-0.605764746665955,2.70521950721741,1.514888048172,-0.603542258451077,2.7061290076447,1.51204143224525,2209.996,2208.52,2202.616,2205.197,356.864074707031,44.9996337890625,1.26249051094055,-0.819388806819916,-0.353083610534668,0.496545642614365,-0.82410201904291,-0.354588076049064,0.503431063574906,6
1.5999755859375,-0.622372925281525,2.69806408882141,1.52495002746582,-0.620126809287134,2.69899313873865,1.52217267555419,2200.382,2202.965,2209.852,2208.811,356.908294677734,44.999755859375,1.24349331855774,-0.830407738685608,-0.357774138450623,0.503097712993622,-0.835236272052476,-0.359378834064062,0.510232804991858,5
1.6199951171875,-0.639198482036591,2.69081592559814,1.53514647483826,-0.636958033083316,2.69175113334911,1.53245460752521,2202.839,2203.868,2207.243,2205.279,356.955627441406,44.9996948242188,1.22390425205231,-0.841277182102203,-0.362405300140381,0.509822249412537,-0.846214826007804,-0.364102599125749,0.516939432286212,5
1.63998413085938,-0.656238079071045,2.68347668647766,1.54547822475433,-0.653981118189727,2.68442657539777,1.54285374457671,2207.523,2205.967,2199.338,2202.428,357.002868652344,44.9991912841797,1.20585107803345,-0.851980566978455,-0.366967707872391,0.516587615013123,-0.856999388527105,-0.368742895092007,0.523527553239473,5
1.66000366210938,-0.673488020896912,2.67604780197144,1.55593609809875,-0.671244443874359,2.67699864863716,1.55339964084857,2197.403,2200.055,2206.643,2206.006,357.050933837891,44.9993133544922,1.18522381782532,-0.862496078014374,-0.371446907520294,0.522894859313965,-0.867618167158098,-0.373311858882592,0.530014399402375,5
1.67999267578125,-0.690945088863373,2.66853046417236,1.56652593612671,-0.688691692550512,2.66949158495151,1.56405789280588,2204.654,2203.311,2198.513,2200.393,357.099884033203,44.9989242553711,1.16586923599243,-0.872854232788086,-0.375863760709763,0.529493033885956,-0.878034183119987,-0.377793579561193,0.536377381014768,5
1.69998168945313,-0.708605349063873,2.66092658042908,1.57723832130432,-0.706345246291743,2.66189575395985,1.57484217330813,2194.373,2197.798,2205.552,2203.476,357.150634765625,44.9991188049316,1.14406001567841,-0.883017301559448,-0.38019648194313,0.53562206029892,-0.88825927318574,-0.382193150160541,0.542623728976553,5
1.72000122070313,-0.72646552324295,2.65323734283447,1.58807671070099,-0.724228658537036,2.6542010212754,1.58576687078363,2197.274,2198.518,2201.794,2199.584,357.205047607422,44.9990501403809,1.1218079328537,-0.893006861209869,-0.38446033000946,0.541917383670807,-0.898304216251578,-0.386515208538549,0.548760027947228,5
1.739990234375,-0.744521617889404,2.6454644203186,1.599041223526,-0.74228345468553,2.64643254688532,1.59679626401121,2202.257,2200.392,2192.716,2196.531,357.259246826172,44.998477935791,1.10122978687286,-0.902804851531982,-0.388643950223923,0.548224747180939,-0.908134108040217,-0.390744736359816,0.554764955448471,5
1.75997924804688,-0.762769460678101,2.6376097202301,1.61012172698975,-0.760532711099173,2.63858040167573,1.60794444998027,2191.525,2194.115,2199.777,2200.081,357.31396484375,44.9985618591309,1.07807290554047,-0.912391304969788,-0.392733216285706,0.554024159908295,-0.917760245372929,-0.394886594330938,0.560645412532115,4
1.77999877929688,-0.781205236911774,2.62967491149902,1.62132084369659,-0.779000609654483,2.63063418086074,1.61922620102184,2193.597,2194.619,2196.833,2195.846,357.371429443359,44.9984741210938,1.05439901351929,-0.921789348125458,-0.396746337413788,0.559958636760712,-0.927192788821983,-0.398945154262308,0.566407606133204,4
1.79998779296875,-0.799824833869934,2.62166142463684,1.63263881206512,-0.797626646773287,2.62261991743975,1.63060455644414,2198.042,2196.314,2188.419,2192.401,357.428344726563,44.9979515075684,1.03241741657257,-0.930984675884247,-0.40067520737648,0.565898299217224,-0.936399026186941,-0.402906341007953,0.572031552878955,4
1.81997680664063,-0.818624079227448,2.61357116699219,1.64406526088715,-0.816434558901977,2.61452739828301,1.64209401647187,2186.686,2189.815,2196.043,2195.79,357.486022949219,44.9981079101563,1.0078536272049,-0.939959704875946,-0.4045070707798,0.571321964263916,-0.945389654806995,-0.406774757334075,0.577523787606953,3
1.83999633789063,-0.837598860263824,2.6054060459137,1.65560293197632,-0.835449117627072,2.60634596486888,1.6537097136807,2188.813,2190.183,2192.957,2191.343,357.546905517578,44.9980888366699,0.982803523540497,-0.94873583316803,-0.408259063959122,0.576886773109436,-0.954174163352093,-0.410554485950274,0.582890106797601,3
1.8599853515625,-0.856744766235352,2.59716773033142,1.66725206375122,-0.854607925216182,2.59810246519841,1.66541353026959,2193.551,2191.813,2183.95,2187.772,357.607513427734,44.9975738525391,0.959501266479492,-0.957297682762146,-0.411921828985214,0.582455694675446,-0.962722140342816,-0.41423244164655,0.588111932552683,0
1.8800048828125,-0.876057326793671,2.58885812759399,1.67900192737579,-0.873964974649439,2.58977366760063,1.67723844970756,2182.131,2185.194,2191.17,2191.231,357.668914794922,44.997730255127,0.933592557907104,-0.965628087520599,-0.415482223033905,0.587492108345032,-0.971056158224177,-0.417818336715394,0.593203054026622,0
1.89999389648438,-0.895532369613647,2.58047890663147,1.69085788726807,-0.893456683142228,2.58138692997148,1.6891456302637,2189.73,2188.127,2181.989,2184.68,357.73095703125,44.9973297119141,0.909179389476776,-0.973752021789551,-0.418958961963654,0.592796742916107,-0.979147395688901,-0.421299770153459,0.598145864732551,0
1.91998291015625,-0.9151651263237,2.57203221321106,1.70280909538269,-0.91310780215452,2.5729316024492,1.70115019221864,2178.201,2181.946,2188.981,2187.745,357.794647216797,44.9975624084473,0.882264852523804,-0.981639444828033,-0.422333061695099,0.597563028335571,-0.98700543065471,-0.424680863071164,0.602946215670947,0
1.94000244140625,-0.93495124578476,2.5635199546814,1.71485841274261,-0.932943991899774,2.5643966441608,1.71326781099638,2181.011,2182.315,2184.654,2183.114,357.861877441406,44.9975090026855,0.855020225048065,-0.989306926727295,-0.425618082284927,0.602467119693756,-0.994638524886308,-0.427965170275055,0.607609153824943,0
1.95999145507813,-0.954886019229889,2.55494379997253,1.72700536251068,-0.952900013794853,2.55581012544606,1.7254586333645,2186.063,2183.863,2174.738,2179.453,357.928466796875,44.9969291687012,0.829679131507874,-0.996738791465759,-0.428803503513336,0.607349634170532,-1.00202031904361,-0.431141350077486,0.612118576685011,0
1.97998046875,-0.974964439868927,2.54630613327026,1.73923861980438,-0.973001172086935,2.54716115859433,1.73773811729275,2174.08,2177.019,2181.961,2183.016,357.995361328125,44.9970626831055,0.801750659942627,-1.00392162799835,-0.431877762079239,0.611662268638611,-1.0091596546337,-0.434213206731958,0.616479885389866,0
2,-0.995181977748871,2.5376091003418,1.75156044960022,-0.993273599084619,2.53843849960327,1.75012222660065,2176.12,2177.194,2178.592,2178.146,358.064788818359,44.9970207214355,0.773422479629517,-1.01087355613708,-0.434857159852982,0.616089761257172,-1.01606400046349,-0.437183953857422,0.620697642517089,0
2.01998901367188,-1.01553344726563,2.52885437011719,1.76397037506104,-1.01365055070775,2.52967086658596,1.76257018837116,2180.612,2178.584,2169.539,2174.198,358.133361816406,44.9965019226074,0.746983647346497,-1.01758229732513,-0.437734365463257,0.62049400806427,-1.02270954399163,-0.440043345582587,0.624757301356767,0
2.03997802734375,-1.0360141992569,2.52004432678223,1.77645707130432,-1.03415783849082,2.52084715356021,1.77509777046792,2168.243,2171.679,2177.21,2177.623,358.202514648438,44.9967155456543,0.717982053756714,-1.02403724193573,-0.440499484539032,0.624334037303925,-1.02910434715509,-0.442794850733705,0.628663786820389,0
2.05999755859375,-1.05661928653717,2.51118087768555,1.78902304172516,-1.05482201812353,2.5119559343546,1.78772119534738,2170.404,2171.752,2173.725,2172.673,358.274658203125,44.9967346191406,0.688594102859497,-1.03025341033936,-0.443167090415955,0.628297209739685,-1.03525504859546,-0.445441325732794,0.632421154350513,0
2.07998657226563,-1.07734370231628,2.50226640701294,1.80166780948639,-1.07557499515204,2.50302650811029,1.80039886517028,2175.205,2173.21,2164.209,2168.587,358.346130371094,44.996223449707,0.661197364330292,-1.03621792793274,-0.445728719234467,0.632239162921906,-1.04114045847258,-0.4479736531836,0.636016459404434,0
2.0999755859375,-1.09818196296692,2.49330282211304,1.81437993049622,-1.09644304044274,2.49404757120739,1.81314682839894,2162.893,2166.155,2171.478,2172.258,358.418182373047,44.9964370727539,0.631174027919769,-1.04192161560059,-0.448174387216568,0.635608911514282,-1.04676782045836,-0.450394949835787,0.639454127028294,0
2.1199951171875,-1.11912965774536,2.48429250717163,1.82716178894043,-1.11745308225396,2.48500753716864,1.82598153508617,2165.177,2166.383,2167.729,2167.078,358.493041992188,44.9964294433594,0.600860357284546,-1.04737663269043,-0.450517803430557,0.639092922210693,-1.0521429102862,-0.45270770082608,0.642737685527497,0
2.13998413085938,-1.14018106460571,2.47523760795593,1.84001266956329,-1.13853583516761,2.47593621757383,1.83886065985125,2169.916,2167.669,2158.213,2163.043,358.566925048828,44.9959106445313,0.572535932064056,-1.05257153511047,-0.452751070261002,0.642544567584991,-1.05724722779031,-0.454903946049977,0.645855833439456,0
2.16000366210938,-1.16133093833923,2.46614027023315,1.85292100906372,-1.15975039167652,2.46680818657414,1.85182030137592,2157.337,2160.672,2165.632,2166.64,358.641174316406,44.9961547851563,0.541644930839539,-1.05750000476837,-0.454865902662277,0.645416617393494,-1.0620943502576,-0.456989527434725,0.648816864916866,0
2.17999267578125,-1.18257451057434,2.45700263977051,1.86589181423187,-1.18102676265167,2.45765355853653,1.86481770439342,2165.31,2163.37,2156.092,2159.289,358.715576171875,44.9957962036133,0.512511491775513,-1.062175989151,-0.456876665353775,0.648543298244476,-1.06666760390386,-0.458957270716794,0.65161059420515,0
2.19998168945313,-1.20390617847443,2.44782733917236,1.87891364097595,-1.20239187218348,2.44846074877705,1.87786931641044,2152.76,2156.863,2163.187,2162.599,358.791442871094,44.9961090087891,0.480912297964096,-1.06658434867859,-0.458770573139191,0.651094436645508,-1.07097279461286,-0.460809674005774,0.654240568028104,0
2.22000122070313,-1.22532081604004,2.43861627578735,1.89198911190033,-1.22387315175433,2.43921795429519,1.89099189489151,2155.798,2157.014,2158.49,2157.47,358.870574951172,44.9961090087891,0.449124753475189,-1.07073163986206,-0.460556954145432,0.653770983219147,-1.07501419914593,-0.462548577472581,0.656709398992482,0
2.239990234375,-1.24681293964386,2.42937183380127,1.9051171541214,-1.24539969505118,2.42995568409656,1.90414212427648,2160.999,2158.4,2148.185,2153.372,358.948608398438,44.9955558776855,0.419495701789856,-1.07460558414459,-0.462226718664169,0.656403183937073,-1.07877792518082,-0.464168003639063,0.659008600495412,0
2.25997924804688,-1.26837706565857,2.4200963973999,1.91828584671021,-1.26699874763832,2.42066221517598,1.91733664845539,2148.28,2151.355,2155.32,2157.207,359.026580810547,44.9957466125488,0.387353867292404,-1.07820439338684,-0.4637730717659,0.658437013626099,-1.08226887897249,-0.465670063529659,0.661141169691481,0
2.27999877929688,-1.29000759124756,2.41079235076904,1.93149721622467,-1.28869796983554,2.41132564607061,1.93059236468599,2150.426,2151.364,2151.779,2151.928,359.106719970703,44.9957618713379,0.354974061250687,-1.08153545856476,-0.4652079641819,0.66056877374649,-1.08549040888332,-0.467056197851165,0.663109152043028,0
2.29998779296875,-1.31169939041138,2.4014618396759,1.94475042819977,-1.31042570636616,2.40197680804417,1.9438654998779,2155.063,2152.623,2142.521,2147.588,359.185394287109,44.9952774047852,0.324752032756805,-1.08459031581879,-0.46652564406395,0.66266006231308,-1.08843144721369,-0.468321644481621,0.664905786465049,0
2.31997680664063,-1.33344686031342,2.39210748672485,1.95803368091583,-1.33220946960077,2.39260386329221,1.957172860909,2141.954,2145.547,2150.228,2151.377,359.264343261719,44.9955749511719,0.292028993368149,-1.0873703956604,-0.46772113442421,0.664165019989014,-1.09109597826566,-0.469468117754907,0.666533506905514,0
2.33999633789063,-1.35524439811707,2.38273143768311,1.97134935855865,-1.35407709248145,2.38319483607731,1.97053145048929,2144.335,2145.514,2146.593,2146.053,359.345886230469,44.9956359863281,0.259078562259674,-1.08987939357758,-0.468804389238358,0.665783226490021,-1.09348640563071,-0.470496651869278,0.667993781680938,0
2.3599853515625,-1.37708640098572,2.37333607673645,1.98469662666321,-1.37595634130987,2.37378080654189,1.98389714217962,2149.274,2146.828,2136.977,2141.689,359.426239013672,44.9951591491699,0.228328615427017,-1.0921083688736,-0.469768851995468,0.667365193367004,-1.09559452046326,-0.471403714787811,0.669281596135657,0
2.3800048828125,-1.39896774291992,2.36392378807068,1.99806380271912,-1.39790843013262,2.36433543599182,1.99730733068585,2136.425,2139.883,2144.175,2145.557,359.5068359375,44.9954376220703,0.195147559046745,-1.09406042098999,-0.470609694719315,0.668362021446228,-1.09742594550583,-0.472191725819537,0.67040038511534,0
2.39999389648438,-1.4208824634552,2.35449695587158,2.01145577430725,-1.41986083522252,2.35488992936084,2.01071771239474,2144.691,2142.314,2134.612,2138.052,359.587219238281,44.9951095581055,0.163791954517365,-1.09573757648468,-0.471336007118225,0.669601261615753,-1.09897439291323,-0.472857979480329,0.671346307473475,0
2.41998291015625,-1.44282519817352,2.34505820274353,2.02486109733582,-1.4418413890156,2.34543231112926,2.02414528970716,2132.007,2136.097,2141.402,2141.439,359.668731689453,44.9954605102539,0.13015054166317,-1.09713840484619,-0.471941113471985,0.670265316963196,-1.10024227275454,-0.473403512755585,0.67212083548366,0
2.44000244140625,-1.46479034423828,2.33560943603516,2.03828191757202,-1.46387808506052,2.33595053645515,2.03760716344514,2135.125,2136.112,2136.764,2136.244,359.753021240234,44.995491027832,0.0964537411928177,-1.09826004505157,-0.472430139780045,0.671040415763855,-1.10123038958312,-0.473828671822132,0.672724460634977,0
2.45999145507813,-1.48677217960358,2.32615375518799,2.05171704292297,-1.48589810917879,2.32647593524532,2.05105885256329,2140.326,2137.395,2126.705,2132.01,359.835754394531,44.9949493408203,0.0650592520833015,-1.09909462928772,-0.472796022891998,0.67176216840744,-1.10193535162022,-0.474131997292339,0.673155110942729,0
2.47998046875,-1.50876522064209,2.31669306755066,2.0651547908783,-1.50792940965705,2.3169964821328,2.06451743023379,2127.476,2130.471,2133.681,2136.096,359.918121337891,44.9952011108398,0.0312596708536148,-1.09965026378632,-0.473036468029022,0.671891808509827,-1.10235860927677,-0.474314113237503,0.673413672440311,0
2.5,-1.53076374530792,2.30722999572754,2.07859706878662,-1.52999999932945,2.30750012397766,2.0780000090599,2129.684,2130.473,2130.289,2130.684,0.00225833966396749,44.9952545166016,-0.00262984097935259,-1.09992456436157,-0.473159223794937,0.672109127044678,-1.10250000050292,-0.474374949932098,0.673500046133994,0
2.51998901367188,-1.55276191234589,2.29776668548584,2.09204268455505,-1.5520369476803,2.29801824074336,2.09146203692764,2134.351,2131.582,2121.295,2126.322,0.0846103504300117,44.9947967529297,359.965728759766,-1.09991276264191,-0.473160177469254,0.6722811460495,-1.10235904000526,-0.474314298567936,0.67341393556562,0
2.53997802734375,-1.57475447654724,2.28830575942993,2.1054801940918,-1.57406826106879,2.28853878207593,2.1049206224848,2121.273,2124.885,2128.701,2130.193,0.166973933577538,44.9951362609863,359.931823730469,-1.09962546825409,-0.473038554191589,0.671879172325134,-1.10193621258339,-0.474132367740737,0.673155636891692,0
2.55999755859375,-1.59673547744751,2.27885007858276,2.11891174316406,-1.59612191359838,2.27904971150017,2.11839285467467,2123.786,2124.74,2125.15,2124.919,0.251501023769379,44.9952392578125,359.897827148438,-1.09905695915222,-0.472799688577652,0.671580195426941,-1.10123038958312,-0.473828671822132,0.672724460634977,0
2.57998657226563,-1.61869966983795,2.26940107345581,2.13233661651611,-1.61812503288753,2.26958238396605,2.1318342168965,2128.814,2125.853,2115.781,2120.635,0.334415793418884,44.9947853088379,359.866058349609,-1.09820210933685,-0.472438722848892,0.671240985393524,-1.1002439936861,-0.473404253224357,0.672121886773894,0
2.5999755859375,-1.6406409740448,2.25996232032776,2.14574313163757,-1.64010562536668,2.26012474908893,2.14526181784164,2115.855,2119.365,2122.87,2124.55,0.417299807071686,44.9951095581055,359.832092285156,-1.0970733165741,-0.471955478191376,0.670326352119446,-1.09897654259203,-0.472858904427064,0.671347620678712,0
2.6199951171875,-1.6625542640686,2.25053524971008,2.15913343429565,-1.66209156852628,2.2506648119635,2.15869268743396,2118.66,2119.212,2119.058,2119.326,0.502036571502686,44.9951782226563,359.798065185547,-1.09566223621368,-0.471354007720947,0.669513583183289,-1.09742594550583,-0.472191725819537,0.67040038511534,0
2.63998413085938,-1.68443369865417,2.24112272262573,2.17250633239746,-1.6840102224118,2.24123382753286,2.17208245105877,2123.311,2120.382,2110.125,2115.011,0.584900617599487,44.9947319030762,359.766326904297,-1.09396517276764,-0.470630437135696,0.668645024299622,-1.09559752564474,-0.471405007833448,0.669283431954129,0
2.66000366210938,-1.7062736749649,2.2317271232605,2.18585062026978,-1.70592290617745,2.23180541187802,2.18546856763052,2110.587,2113.886,2117.079,2119.017,0.667565882205963,44.9950523376465,359.732421875,-1.09199750423431,-0.469786018133163,0.667217016220093,-1.09348640563071,-0.470496651869278,0.667993781680938,0
2.67999267578125,-1.72806859016418,2.22235059738159,2.1991708278656,-1.72775723139253,2.2224107117184,2.19880681618649,2118.871,2116.076,2108.135,2111.479,0.749440729618073,44.9947776794434,359.700469970703,-1.08974707126617,-0.468823224306107,0.666013240814209,-1.09109983431736,-0.469469776906228,0.666535862507326,0
2.69998168945313,-1.74981319904327,2.21299576759338,2.2124559879303,-1.74954107593572,2.21303773198162,2.21211422688774,2106.365,2110.359,2114.604,2115.046,0.832098960876465,44.995174407959,359.66650390625,-1.08722972869873,-0.467743277549744,0.664261758327484,-1.08843572622736,-0.468323485621663,0.66490840044773,0
2.72000122070313,-1.77150177955627,2.20366477966309,2.22570824623108,-1.77130202882336,2.20367460188472,2.22540765343382,2109.622,2110.292,2110.238,2109.979,0.916948735713959,44.9952430725098,359.632690429688,-1.08443105220795,-0.466545820236206,0.662611603736877,-1.08549040888332,-0.467056197851165,0.663109152043028,0
2.739990234375,-1.793128490448,2.19436025619507,2.23892641067505,-1.79296822271738,2.1943522439355,2.23864319318939,2114.769,2111.39,2100.809,2105.885,0.999801695346832,44.9947509765625,359.601196289063,-1.08134818077087,-0.465226262807846,0.660905361175537,-1.08227399942825,-0.465672266718727,0.661144297698006,0
2.75997924804688,-1.81468868255615,2.18508458137512,2.25209927558899,-1.81456738183361,2.18505872917844,2.25183778244526,2102.364,2105.206,2107.264,2109.947,1.08197689056396,44.9950218200684,359.567687988281,-1.07800042629242,-0.463787436485291,0.658641815185547,-1.07878346314437,-0.464170386470068,0.659011983550929,0
2.77999877929688,-1.83617615699768,2.17583990097046,2.26522827148438,-1.83612684690458,2.17578229366013,2.2650081232283,2104.7,2104.98,2104.121,2104.919,1.16528022289276,44.9951019287109,359.534210205078,-1.07437431812286,-0.462231546640396,0.656453847885132,-1.07501419914593,-0.462548577472581,0.656709398992482,0
2.79998779296875,-1.85758566856384,2.16662883758545,2.27831268310547,-1.85757544288233,2.1665535620153,2.27811073581237,2109.215,2106.073,2095.88,2100.603,1.24633872509003,44.9947090148926,359.503082275391,-1.07046949863434,-0.460556626319885,0.654216825962067,-1.07097916161324,-0.460812413548163,0.654244457529281,0
2.81997680664063,-1.87891161441803,2.1574535369873,2.29134154319763,-1.87894068379188,2.15736069572766,2.291162428086,2096.76,2099.955,2102.683,2104.631,1.32701849937439,44.995059967041,359.469940185547,-1.06630742549896,-0.458767145872116,0.651448309421539,-1.0666743814704,-0.458960186914335,0.65161473451479,0
2.83999633789063,-1.90014910697937,2.14831638336182,2.30431699752808,-1.90024960698239,2.14819206138118,2.30417971674389,2099.379,2099.911,2099.421,2099.486,1.40915262699127,44.995174407959,359.436981201172,-1.0618714094162,-0.456863224506378,0.648770093917847,-1.06209435025759,-0.456989527434725,0.648816864916866,0
2.8599853515625,-1.92129230499268,2.1392195224762,2.31723785400391,-1.92143189875059,2.13907791299805,2.31711964824194,2104.019,2100.788,2091.087,2095.519,1.4892590045929,44.9947891235352,359.40625,-1.05716145038605,-0.454842329025269,0.646044790744781,-1.05725481901126,-0.454907212340279,0.645860470797877,0
2.8800048828125,-1.94233632087708,2.13016533851624,2.33009386062622,-1.94254691640495,2.12999271078668,2.33001848303364,2092.022,2095.062,2097.378,2099.396,1.5689640045166,44.9951210021973,359.373687744141,-1.05219995975494,-0.45270910859108,0.642800748348236,-1.0521429102862,-0.45270770082608,0.642737685527497,0
2.89999389648438,-1.96327567100525,2.12115621566772,2.34288907051086,-1.96352501326936,2.1209664217661,2.34283367505136,2100.058,2096.908,2089.123,2092.304,1.64748394489288,44.994873046875,359.343078613281,-1.04696547985077,-0.450461238622665,0.639757513999939,-1.04677621342161,-0.450398561093403,0.639459254158576,0
2.91998291015625,-1.98410534858704,2.1121940612793,2.35561323165894,-1.98439323028747,2.1119874109737,2.35558174318562,2088.355,2091.811,2094.946,2095.861,1.72634959220886,44.995246887207,359.310760498047,-1.04148495197296,-0.448105186223984,0.636210560798645,-1.0411492471255,-0.447977434695422,0.636021828255355,0
2.94000244140625,-2.0048201084137,2.10328125953674,2.36826825141907,-2.00517798053537,2.10304431360073,2.36827882277243,2091.504,2091.808,2091.019,2091.023,1.80672895908356,44.9953384399414,359.278778076172,-1.03573727607727,-0.445637404918671,0.632749736309052,-1.03525504859546,-0.445441325732794,0.632421154350513,0
2.95999145507813,-2.02541422843933,2.09442043304443,2.38085293769836,-2.02581075424974,2.0941666074844,2.38088306226645,2096.332,2092.678,2082.546,2087.272,1.88476514816284,44.9949035644531,359.249053955078,-1.02972364425659,-0.443055212497711,0.629233598709106,-1.02911391720548,-0.442798968459032,0.628669633014836,0
2.97998046875,-2.04588389396667,2.08561301231384,2.3933572769165,-2.04631823718085,2.08534281049189,2.39341076357611,2084.833,2087.212,2088.384,2091.197,1.96180641651154,44.9951934814453,359.217681884766,-1.02347004413605,-0.440365046262741,0.625212371349335,-1.0227194988233,-0.440047628868552,0.624763382608097,0
3,-2.06622266769409,2.07686161994934,2.4057822227478,-2.06672639957428,2.07656174835205,2.40587779151916,2086.998,2087.033,2085.726,2086.503,2.03945684432983,44.9952926635742,359.186492919922,-1.01695680618286,-0.437565624713898,0.621253073215485,-1.01606400046349,-0.437183953857422,0.620697642517089,0
3.01998901367188,-2.08642673492432,2.06816816329956,2.4181272983551,-2.0869680292999,2.06785234056679,2.41824308725414,2091.399,2087.965,2078.251,2082.52,2.11460518836975,44.9949531555176,359.157653808594,-1.01018643379211,-0.434656381607056,0.617253065109253,-1.00917036754089,-0.434217816196637,0.616486429737696,0
3.03997802734375,-2.10649013519287,2.05953550338745,2.43038272857666,-2.10706940546153,2.05920327997188,2.43052270427549,2079.776,2082.568,2084.479,2086.48,2.18909335136414,44.9953079223633,359.127136230469,-1.00318658351898,-0.431644797325134,0.612769782543182,-1.00203140433628,-0.431146119769234,0.612125348517319,0
3.05999755859375,-2.12640905380249,2.05096507072449,2.44255018234253,-2.12705600675913,2.05060360379452,2.44273220712343,2082.6,2082.489,2081.39,2081.758,2.26440715789795,44.9954261779785,359.096923828125,-0.995934665203094,-0.428527653217316,0.608373463153839,-0.994638524886308,-0.427965170275055,0.607609153824944,0
3.07998657226563,-2.14617776870728,2.04245901107788,2.45462870597839,-2.14686207530873,2.04208160581513,2.45483142533277,2086.707,2083.283,2074.147,2078.166,2.33737325668335,44.9951019287109,359.068908691406,-0.988434553146362,-0.425304621458054,0.603924810886383,-0.987017247723776,-0.424685947625853,0.602953434534038,0
3.0999755859375,-2.1657919883728,2.03401947021484,2.46660900115967,-2.16651343412374,2.03362617511243,2.46683613377946,2075.879,2078.384,2079.719,2081.782,2.40958905220032,44.995433807373,359.039428710938,-0.980713367462158,-0.421983033418655,0.599019408226013,-0.979159571260203,-0.421305008961644,0.598153302599065,0
3.1199951171875,-2.18524670600891,2.02564859390259,2.47849273681641,-2.18603502400946,2.02522658035469,2.47876156841225,2078.452,2078.218,2076.835,2077.385,2.48236131668091,44.9955406188965,359.010314941406,-0.972748756408691,-0.418559104204178,0.594184756278992,-0.971056158224178,-0.417818336715394,0.593203054026623,0
3.13998413085938,-2.20453786849976,2.01734781265259,2.49027872085571,-2.20536269329809,2.01691042421237,2.49056853997833,2082.647,2079.002,2069.758,2073.843,2.55256724357605,44.9952201843262,358.983367919922,-0.964544951915741,-0.415032804012299,0.589304745197296,-0.962735018414262,-0.414237982720922,0.588119799565572,0
3.16000366210938,-2.22366046905518,2.00911951065063,2.50195813179016,-2.22455088103183,2.00865428308644,2.50229030443911,2071.858,2074.241,2075.405,2077.514,2.62186288833618,44.9955444335938,358.955047607422,-0.956130981445313,-0.411412745714188,0.583976626396179,-0.954174163352092,-0.410554485950274,0.582890106797601,0
3.17999267578125,-2.24260973930359,2.00096559524536,2.51353454589844,-2.24353658854737,2.00048526354177,2.51388837689424,2079.143,2075.758,2068.532,2071.189,2.6895067691803,44.9953689575195,358.928680419922,-0.947478652000427,-0.407692581415176,0.578823268413544,-0.945403214201559,-0.406780591562751,0.577532070829503,0
3.19998168945313,-2.26138210296631,1.9928879737854,2.52499961853027,-2.26234477504321,1.99239262633251,2.52537800452858,2069.018,2071.673,2073.437,2074.465,2.75695013999939,44.9957427978516,358.901123046875,-0.938623666763306,-0.403883427381516,0.573248088359833,-0.936412917636688,-0.402912318110697,0.572040038948834,0
3.22000122070313,-2.27997303009033,1.98488831520081,2.53635454177856,-2.28099938900442,1.98436606709459,2.53677381709797,2071.927,2071.538,2070.195,2070.446,2.8250527381897,44.9958267211914,358.8740234375,-0.929541170597076,-0.399978876113892,0.567744672298431,-0.927192788821982,-0.398945154262308,0.566407606133204,0
3.239990234375,-2.29837799072266,1.97696876525879,2.54759836196899,-2.2994392795179,1.97643189735754,2.54803845846384,2076.125,2072.318,2063.241,2067.21,2.8905394077301,44.995491027832,358.849090576172,-0.920236229896545,-0.395978718996048,0.562194049358368,-0.917774783907129,-0.394892849856044,0.560654293895788,0
3.25997924804688,-2.31659245491028,1.9691309928894,2.55872297286987,-2.31768882969315,1.96857962575054,2.55918682388728,2066.328,2067.958,2068.136,2070.753,2.95468044281006,44.9957656860352,358.822967529297,-0.91073876619339,-0.391891896724701,0.55622661113739,-0.908148960779607,-0.390751127078637,0.554774028755191,0
3.27999877929688,-2.33461284637451,1.96137666702271,2.56972932815552,-2.33577134012187,1.96079922667992,2.57023314733618,2068.661,2067.929,2065.756,2066.67,3.01858830451965,44.9958724975586,358.797393798828,-0.901025772094727,-0.387714356184006,0.55031830072403,-0.898304216251578,-0.386515208538549,0.548760027947228,0
3.29998779296875,-2.35243511199951,1.95370769500732,2.58061671257019,-2.35362764460945,1.95311615770631,2.58114128510551,2072.144,2068.534,2059.951,2063.596,3.07967638969421,44.9956207275391,358.77392578125,-0.891104221343994,-0.383447647094727,0.544365704059601,-0.888274735793772,-0.382199803288803,0.542633174842512,0
3.31997680664063,-2.37005496025085,1.94612550735474,2.59137725830078,-2.37128151039117,1.94552019245235,2.59192575622841,2062.596,2064.387,2065.017,2066.974,3.13961338996887,44.9959487915039,358.749359130859,-0.881003856658936,-0.37910121679306,0.538029730319977,-0.878049940595779,-0.377800359562814,0.53638700701084,0
3.33999633789063,-2.38746929168701,1.93863213062286,2.60201239585876,-2.38875555478454,1.93800159931817,2.60260037727124,2064.985,2064.417,2062.721,2063.043,3.19956183433533,44.9960861206055,358.725372314453,-0.870701014995575,-0.374670267105103,0.531763017177582,-0.867618167158097,-0.373311858882592,0.530014399402376,0
3.3599853515625,-2.4046733379364,1.93122911453247,2.61252164840698,-2.40599272667425,1.93058492580486,2.6131302965979,2068.59,2064.94,2056.935,2060.247,3.25691914558411,44.9958419799805,358.703338623047,-0.860202670097351,-0.370155721902847,0.525461375713348,-0.857015715678588,-0.368749920209162,0.523537527241535,0
3.37997436523438,-2.42166376113892,1.92391777038574,2.62289762496948,-2.42301614089521,1.92326022624472,2.62352963470034,2059.823,2061.255,2061.36,2063.363,3.31301832199097,44.9961433410645,358.680480957031,-0.84953784942627,-0.365566790103912,0.518799543380737,-0.846231427202182,-0.364109742155906,0.516949573696802,0
3.39999389648438,-2.43843746185303,1.91669964790344,2.63314151763916,-2.43984769972619,1.91601807669906,2.63381177133889,2062.112,2061.236,2059.144,2059.768,3.36878371238708,44.9962501525879,358.658203125,-0.83868420124054,-0.360898643732071,0.512196660041809,-0.835253140422974,-0.35938609205264,0.510243109616171,0
3.41998291015625,-2.45499038696289,1.90957653522491,2.64325261116028,-2.45643259034873,1.90888206159239,2.64394322221809,2065.451,2061.799,2053.824,2057.083,3.42176604270935,44.9960250854492,358.637939453125,-0.827649295330048,-0.356152832508087,0.50555831193924,-0.824119146742881,-0.354595445619869,0.503441526619546,0
3.44000244140625,-2.47131991386414,1.90254974365234,2.65322422981262,-2.47281804716281,1.90183185728196,2.6539528420958,2057.098,2058.259,2058.148,2060.159,3.47332167625427,44.9963073730469,358.616882324219,-0.816462218761444,-0.351338893175125,0.49858295917511,-0.812800388649434,-0.349725300221754,0.496527073925997,0
3.45999145507813,-2.48742151260376,1.89562082290649,2.66305899620056,-2.48895081463434,1.8948903781363,2.66380809799729,2062.896,2059.385,2053.065,2055.263,3.52277994155884,44.9962043762207,358.597564697266,-0.805096805095673,-0.346450120210648,0.491741716861725,-0.80133641229185,-0.344792671461508,0.489523909660973,0
3.47998046875,-2.50329351425171,1.88879072666168,2.67275071144104,-2.50485284867397,1.88804817714046,2.67352240244575,2055.114,2056.543,2056.835,2057.884,3.57134771347046,44.9965171813965,358.577697753906,-0.793588995933533,-0.341498881578445,0.484587997198105,-0.789715229532172,-0.33979240117828,0.482424710458066,0
3.5,-2.51893186569214,1.88206100463867,2.68230056762695,-2.5205447997813,1.88129636896134,2.68310837050915,2057.458,2056.46,2054.553,2054.885,3.61963820457458,44.9966278076172,358.558502197266,-0.781917154788971,-0.336479067802429,0.477492481470108,-0.777924000354857,-0.334718964672089,0.475221632552147,0
3.51998901367188,-2.5343337059021,1.87543344497681,2.69170808792114,-2.53597583877076,1.87465682397749,2.69253495143119,2060.985,2057.149,2049.307,2052.401,3.66508889198303,44.996395111084,358.541290283203,-0.77008855342865,-0.331391870975494,0.470372676849365,-0.766004036374581,-0.329590137176618,0.467939912563966,0
3.53997802734375,-2.54949617385864,1.86890852451324,2.70096707344055,-2.55116718971613,1.86812041006291,2.70181511066737,2053.538,2053.962,2053.058,2055.422,3.70869112014771,44.9966316223145,358.523498535156,-0.758132457733154,-0.326246947050095,0.462946355342865,-0.753942941956194,-0.324400585196356,0.460571978193441,0
3.55999755859375,-2.5644166469574,1.86248779296875,2.7100784778595,-2.56613872308604,1.86167857751006,2.71096098677687,2055.419,2054.112,2051.498,2052.325,3.75125312805176,44.9967422485352,358.506439208984,-0.746029376983643,-0.321040391921997,0.455570966005325,-0.741727567798258,-0.319144650954242,0.45310979673751,0
3.57998657226563,-2.57909250259399,1.85617208480835,2.7190420627594,-2.58084213759183,1.85535210901407,2.7199430732562,2058.253,2054.605,2047.327,2050.135,3.79083395004272,44.9965896606445,358.491302490234,-0.733788013458252,-0.31577479839325,0.44817528128624,-0.72940084364523,-0.31384080592,0.445579593307163,0
3.5999755859375,-2.59352111816406,1.8499630689621,2.72785210609436,-2.59529790318687,1.84913219692586,2.72877387488043,2051.139,2051.804,2051.216,2052.83,3.8287501335144,44.9968757629395,358.475738525391,-0.721436202526093,-0.310459762811661,0.440507829189301,-0.716950039288888,-0.308483572640672,0.437973591216846,0
3.6199951171875,-2.60770034790039,1.84386110305786,2.73651027679443,-2.60952509409627,1.84301063413925,2.73746504379605,2053.267,2051.807,2049.591,2050.122,3.8657603263855,44.9970016479492,358.460876464844,-0.708954930305481,-0.30509078502655,0.432906866073608,-0.704361775018033,-0.303067194200314,0.43028361700977,0
3.63998413085938,-2.62162733078003,1.83786773681641,2.74501609802246,-2.623478029369,1.83700707589127,2.7459886742229,2055.966,2052.479,2045.639,2048.057,3.89995956420898,44.9968719482422,358.447875976563,-0.696353375911713,-0.299670606851578,0.42528909444809,-0.691680442442073,-0.297610771068296,0.422536788827407,0
3.66000366210938,-2.63530015945435,1.83198368549347,2.75336480140686,-2.63719712493647,1.83110413233575,2.75436945562281,2049.778,2049.933,2048.913,2050.628,3.93234872817993,44.9971313476563,358.434631347656,-0.683657705783844,-0.294207870960236,0.417430102825165,-0.678873453515702,-0.29210028151913,0.414713199141411,0
3.67999267578125,-2.64871716499329,1.82621002197266,2.76155853271484,-2.65063849381582,1.82532068681534,2.76258057812278,2054.477,2050.928,2045.128,2046.958,3.96228075027466,44.9970741271973,358.423034667969,-0.670847594738007,-0.288697302341461,0.409684330224991,-0.665986083416798,-0.286555206197011,0.406840505851433,0
3.69998168945313,-2.6618766784668,1.82054662704468,2.76959276199341,-2.66382131180924,1.81964848851807,2.77063375592113,2048.534,2048.814,2048.221,2049.331,3.99072504043579,44.9973449707031,358.411254882813,-0.657955825328827,-0.283150613307953,0.401713222265244,-0.653005218467595,-0.280969902652754,0.398910698016369,0
