t,x_s1,x_s2,x_s3,x_s_d1,x_s_d2,x_s_d3,propellers_rpms1,propellers_rpms2,propellers_rpms3,propellers_rpms4,rollRad,pitchRad,yawRad,v_s1,v_s2,v_s3,v_s_d1,v_s_d2,v_s_d3,insideCount
0,-0.0599999986588955,2.94000005722046,1.17999994754791,-0.0599999986588955,2.94000005722046,1.17999994754791,0,0,0,0,0,45.0048027038574,0,0,0,0,-1.06581410364015E-15,4.44089209850063E-16,-7.105427357601E-16,0
0.019989013671875,-0.0599999986588955,2.94000005722046,1.1790189743042,-0.0600018659130177,2.93999925379318,1.18000108822432,0,0,0,0,0.00112506025470793,44.8630180358887,0.909283995628357,-3.60929135467813E-08,2.95208444356376E-08,-0.0490499772131443,-0.000279680311988734,-0.000120338624884473,0.000170852338267345,5
0.0399932861328125,-0.0599999986588955,2.94000005722046,1.17411398887634,-0.060014863945674,2.93999366110285,1.18000902851964,0,0,0,0,0.00304076820611954,44.7212371826172,1.81856417655945,-3.62307304158094E-08,2.93641413406931E-08,-0.245249927043915,-0.00111059898697896,-0.000477859717552347,0.000678447590588643,6
0.05999755859375,-0.0600350871682167,2.94003486633301,1.16684281826019,-0.0600498857373401,2.93997859220429,1.18003042278566,2307.214,2000.318,2127.489,3382.293,-0.00213747564703226,44.8046226501465,1.28313136100769,-0.00175436097197235,0.00174318393692374,-0.363556146621704,-0.00247936261166862,-0.00106680046642749,0.00151460392977639,6
0.0800018310546875,-0.0601342283189297,2.9401330947876,1.15967166423798,-0.0601175574246769,2.93994947496775,1.18007176236346,2848.286,2759.992,2606.547,2299.076,359.914093017578,44.8777122497559,0.620032489299774,-0.00495709478855133,0.00491350051015615,-0.358560144901276,-0.00437268608126799,-0.00188144466206175,0.00267120569262453,6
0.0999908447265625,-0.0602753050625324,2.94026303291321,1.15338182449341,-0.0602281370710988,2.93990189563514,1.1801393137439,2871.913,2897.476,2628.074,2213.485,359.724304199219,44.9188232421875,0.190366223454475,-0.00705383718013763,0.00649291230365634,-0.314490884542465,-0.00677536694902951,-0.00291525111632684,0.00413896594164447,5
0.1199951171875,-0.0604445151984692,2.94038772583008,1.14806056022644,-0.0603918861403606,2.93983143898525,1.18023934549506,2725.353,2926.393,2635.208,2219.502,359.42724609375,44.9351463317871,0.0503921546041965,-0.00846053659915924,0.00623334292322397,-0.266064524650574,-0.00967801353495435,-0.00416417885169243,0.00591214744607921,5
0.139999389648438,-0.0606514923274517,2.94048070907593,1.1437304019928,-0.0606185767455666,2.93973390035084,1.18037782724834,2551.869,2770.046,2667.498,2379.344,359.090484619141,44.9478874206543,0.144099950790405,-0.0103488294407725,0.00464676925912499,-0.216509684920311,-0.0130660253322238,-0.00562194567796536,0.00798183098414958,5
0.159988403320313,-0.0609214529395103,2.94052791595459,1.14032292366028,-0.0609175312885481,2.93960526856281,1.18056045391355,2443.532,2553.67,2686.977,2529.295,358.804565429688,44.9653053283691,0.340539067983627,-0.0134981106966734,0.00235449778847396,-0.17037445306778,-0.0169234294955564,-0.00728167892605071,0.0103382589939246,5
0.17999267578125,-0.0612811855971813,2.94052505493164,1.13772797584534,-0.0612985250199726,2.93944133760391,1.18079319703879,2417.205,2394.94,2654.834,2596.547,358.625793457031,44.9838943481445,0.518628239631653,-0.0179866254329681,-0.000147125450894237,-0.129747107625008,-0.0212433804254414,-0.00914043312572283,0.0129772496054864,5
0.199996948242188,-0.0617490485310555,2.94047331809998,1.13583743572235,-0.0617704296168641,2.93923829023936,1.1810814761931,2451.084,2338.022,2561.476,2580.069,358.551666259766,44.9966125488281,0.617785394191742,-0.0233932174742222,-0.00259253825061023,-0.0945244133472443,-0.0260104776919234,-0.0111915819022102,0.0158893949364944,5
0.220001220703125,-0.0623328350484371,2.94037485122681,1.13456809520721,-0.0623420644491781,2.93899233174064,1.18143067899198,2497.204,2360.06,2442.579,2516.164,358.526245117188,44.9992370605469,0.641108810901642,-0.0291892848908901,-0.00492256414145231,-0.0634659007191658,-0.03121219533433,-0.0134297356845702,0.0190670430730375,5
0.239990234375,-0.0630338340997696,2.94023036956787,1.133864402771,-0.0630214373585105,2.93870001655724,1.18184569730089,2511.878,2408.227,2348.267,2446.475,358.476867675781,44.9927101135254,0.627759337425232,-0.0350497849285603,-0.00722967740148306,-0.0351847037672997,-0.0368316683029241,-0.015847637913056,0.0224998914194052,5
0.259994506835938,-0.0638530403375626,2.94003653526306,1.13368904590607,-0.0638179029240226,2.93835731967507,1.18233224568626,2474.779,2436.909,2312.325,2397.241,358.355529785156,44.9817771911621,0.619231045246124,-0.0409604758024216,-0.00969066843390465,-0.00876680016517639,-0.0428651747123285,-0.0184436871643672,0.0261856663338995,4
0.279998779296875,-0.0647957623004913,2.93978667259216,1.13400995731354,-0.0647390625194898,2.93796097043536,1.18289496770872,2398.659,2429.116,2331.253,2372.387,358.162689208984,44.971508026123,0.638258397579193,-0.0471359603106976,-0.0124895423650742,0.016044445335865,-0.0492963837173861,-0.0212108567320638,0.0301143915580518,4
0.29998779296875,-0.065872497856617,2.93947196006775,1.13479280471802,-0.0657918945890516,2.93750796620855,1.18353812639089,2313.813,2391.355,2375.418,2363.91,357.940124511719,44.9649963378906,0.685029327869415,-0.053836926817894,-0.0157387927174568,0.0391405783593655,-0.0561078595514081,-0.0241416444928383,0.0342754158540715,4
0.319992065429688,-0.0670965164899826,2.93908333778381,1.13599848747253,-0.0669855955880233,2.93699435001684,1.18426733970383,2254.33,2343.236,2404.85,2358.972,357.74462890625,44.9626884460449,0.745488107204437,-0.0612010732293129,-0.0194322597235441,0.0602858364582062,-0.0632980253096114,-0.0272353719486164,0.0386677759154339,4
0.339996337890625,-0.068480022251606,2.93861436843872,1.13758552074432,-0.068326768706371,2.93641728069206,1.18508664143323,2239.947,2303.582,2392.1,2348.17,357.615356445313,44.9632148742676,0.803731679916382,-0.0691754966974258,-0.0234502032399178,0.0793519765138626,-0.0708499516420146,-0.0304847548730522,0.0432811298664125,4
0.360000610351563,-0.0700314566493034,2.93806195259094,1.13951468467712,-0.0698225328270578,2.93577369517774,1.18600038039362,2262.325,2279.445,2340.489,2330.681,357.553039550781,44.9647369384766,0.850359797477722,-0.0775716751813889,-0.0276189707219601,0.0964555293321609,-0.0787518717320621,-0.0338847303337087,0.0481082895423912,4
0.379989624023438,-0.0717551410198212,2.93742609024048,1.14175093173981,-0.0714784451857985,2.93506120235061,1.18701195141357,2297.398,2269.462,2273.311,2308.706,357.525146484375,44.9657516479492,0.884512007236481,-0.0861841440200806,-0.0317945815622807,0.111812487244606,-0.0869857157641562,-0.0374275233937465,0.0531382163749952,4
0.399993896484375,-0.0736531019210815,2.93670749664307,1.14426493644714,-0.0733036822025899,2.9342758538535,1.18812696022487,2316.131,2265.802,2222.035,2287.118,357.486663818359,44.965648651123,0.911170959472656,-0.0948979705572128,-0.0359248891472816,0.125697538256645,-0.0955525119207663,-0.0411135764513579,0.0583715384648505,4
0.419998168945313,-0.075727641582489,2.93590617179871,1.14703106880188,-0.0753034649285836,2.93341540321397,1.18934859628618,2304.855,2262.224,2203.534,2268.16,357.406768798828,44.9645843505859,0.936865925788879,-0.103726990520954,-0.0400606989860535,0.138305231928825,-0.104434660908044,-0.0449353170220673,0.0637975046779765,4
0.439987182617188,-0.0779832527041435,2.93501996994019,1.15002727508545,-0.0774822545706558,2.93247793089932,1.19067958487918,2264.385,2253.321,2219.317,2254.323,357.282257080078,44.9632682800293,0.965949594974518,-0.11278061568737,-0.0443141311407089,0.149812310934067,-0.113613709720558,-0.0488848052931553,0.0694048423613094,4
0.459991455078125,-0.080426886677742,2.93404412269592,1.15323305130005,-0.0798493430620752,2.93145943885026,1.1921256023009,2213.869,2239.649,2250.457,2244.221,357.137939453125,44.962474822998,0.998899281024933,-0.122181922197342,-0.0487906485795975,0.1602912992239,-0.123092454730403,-0.0529632444654124,0.0751952597749251,4
0.479995727539063,-0.0830666720867157,2.93297362327576,1.15662848949432,-0.0824088828700873,2.93035814037613,1.19368918522879,2178.407,2225.734,2270.076,2235.085,357.009674072266,44.9625778198242,1.03375732898712,-0.131988912820816,-0.0535291768610477,0.16977222263813,-0.132852887402757,-0.0571628859694044,0.0811577557859174,4
0.5,-0.0859100073575974,2.93180394172668,1.16019582748413,-0.085166398670376,2.92917165836334,1.195373708601,2168.472,2213.135,2265.78,2227.337,356.921752929688,44.9636421203613,1.06788349151611,-0.142166927456856,-0.0584839396178722,0.178364545106888,-0.142884000065179,-0.0614789935111996,0.0872856059789651,5
0.519989013671875,-0.0889622494578362,2.93053293228149,1.16391861438751,-0.0881248588203387,2.92789871561062,1.19718098574075,2183.153,2204.432,2237.169,2219.445,356.876678466797,44.9653472900391,1.09928059577942,-0.152612492442131,-0.063554547727108,0.186139196157455,-0.153166947611899,-0.0659034585682559,0.0935672981730243,5
0.539993286132813,-0.092226542532444,2.92916011810303,1.16778290271759,-0.091293865515634,2.92653518056143,1.19911688247953,2206.854,2198.926,2199.771,2212.06,356.855377197266,44.9672584533691,1.12740910053253,-0.163214728236198,-0.0686419308185577,0.193212538957596,-0.163706645289342,-0.0704383960337938,0.100005835015435,5
0.55999755859375,-0.0957047119736671,2.92768621444702,1.17177605628967,-0.094676112580471,2.92507989413848,1.20118304443252,2224.939,2196.758,2168.826,2204.22,356.830932617188,44.9688491821289,1.15329277515411,-0.173908367753029,-0.0736962482333183,0.19965772330761,-0.17448465888317,-0.0750758741803766,0.106589955332319,5
0.580001831054688,-0.0993987545371056,2.92611145973206,1.17588829994202,-0.0982762614093182,2.92353085067394,1.20338231917284,2222.713,2194.017,2160.409,2198.259,356.781829833984,44.9700126647949,1.17855954170227,-0.184702217578888,-0.0787345170974731,0.205613523721695,-0.185490414529404,-0.0798113433697334,0.113313199715174,5
0.599990844726563,-0.10331192612648,2.92443513870239,1.18011105060577,-0.102095761416081,2.92188742652551,1.20571559212485,2202.367,2190.388,2172.993,2193.306,356.705291748047,44.9708633422852,1.20414686203003,-0.195658832788467,-0.0838213264942169,0.211136162281036,-0.19670480600515,-0.0846365827279185,0.120163896470579,5
0.6199951171875,-0.107448935508728,2.92265462875366,1.18443703651428,-0.106144683970236,2.92014528826426,1.208189015731,2173.916,2185.317,2196.424,2189.824,356.615814208984,44.971736907959,1.22997534275055,-0.206850722432137,-0.0890259742736816,0.216299533843994,-0.208134604141382,-0.0895545055543457,0.127146181793521,5
0.639999389648438,-0.11181515455246,2.92076706886292,1.18885946273804,-0.110424235525481,2.91830391678686,1.21080332699501,2155.178,2181.736,2211.598,2185.997,356.536254882813,44.9728393554688,1.25550067424774,-0.21831089258194,-0.0943799912929535,0.22112250328064,-0.219761081350814,-0.0945570538913933,0.134248615293163,5
0.659988403320313,-0.116415537893772,2.91876983642578,1.19337368011475,-0.114934715429503,2.91636318329238,1.21355870878373,2151.052,2178.28,2212.874,2183.856,356.481506347656,44.9743766784668,1.28009498119354,-0.2300194054842,-0.0998619943857193,0.225713416934013,-0.231565018351745,-0.0996359582190702,0.141459456210227,5
0.67999267578125,-0.121253818273544,2.91666150093079,1.19797599315643,-0.119686638739014,2.91431856344567,1.2164615845812,2161.235,2175.93,2200.003,2182.452,356.453979492188,44.9762992858887,1.30288457870483,-0.241914138197899,-0.105413377285004,0.230113431811333,-0.243554411173546,-0.104794659005432,0.14878358919428,5
0.699996948242188,-0.12633228302002,2.91444206237793,1.20266282558441,-0.124680083855354,2.91217002351282,1.2195120022816,2180.917,2176.655,2177.369,2180.251,356.443511962891,44.9782638549805,1.32382571697235,-0.253923684358597,-0.110971339046955,0.234339237213135,-0.255710395848158,-0.11002503961202,0.1562094905416,5
0.720001220703125,-0.131652429699898,2.91211199760437,1.20743262767792,-0.129918284978346,2.90991617190799,1.22271193760712,2194.544,2177.195,2161.451,2179.521,356.431488037109,44.9800491333008,1.34355473518372,-0.266007095575333,-0.116500921547413,0.238493114709854,-0.268023157655716,-0.11532287703907,0.163731164592979,5
0.739990234375,-0.137215748429298,2.90967178344727,1.21228444576263,-0.135400001298574,2.90755754251682,1.22606063256665,2196.432,2177.772,2158.538,2178.979,356.404907226563,44.9814872741699,1.36254167556763,-0.278165996074677,-0.122009538114071,0.242590084671974,-0.280473432677602,-0.12067988256057,0.171336843321139,5
0.759994506835938,-0.143024489283562,2.90712094306946,1.21721792221069,-0.14113644597991,2.90508931062815,1.22956493710703,2185.423,2177.217,2170.224,2179.217,356.361633300781,44.982666015625,1.38092827796936,-0.290437400341034,-0.127536356449127,0.246674790978432,-0.293070637251543,-0.126100107763583,0.179032279019858,5
0.779998779296875,-0.149081692099571,2.90445852279663,1.22223258018494,-0.147126184485884,2.90251209348295,1.2332239748923,2172.83,2177.985,2184.456,2178.443,356.311676025391,44.9836578369141,1.39880311489105,-0.302860349416733,-0.133123844861984,0.250733375549316,-0.305795832832518,-0.131575403921268,0.186805902427515,5
0.79998779296875,-0.155390813946724,2.90168261528015,1.22732961177826,-0.153366821193532,2.89982692185086,1.23703628247379,2162.454,2177.56,2197.361,2179.216,356.266845703125,44.9847602844238,1.41614532470703,-0.315455585718155,-0.138792365789413,0.254852414131165,-0.318629798715703,-0.137097500901303,0.194645971915464,5
0.819992065429688,-0.161954984068871,2.89879202842712,1.23251032829285,-0.159870162197751,2.89702871589906,1.24100907201063,2160.272,2177.021,2202.376,2180.506,356.237365722656,44.9861106872559,1.432213306427,-0.328209638595581,-0.144530728459358,0.25903782248497,-0.33158286215529,-0.142670842232658,0.202558796242139,5
0.839996337890625,-0.168776586651802,2.89578604698181,1.2377758026123,-0.166633637018892,2.89411858163313,1.24514077323692,2170.85,2179.152,2193.914,2180.66,356.226440429688,44.9875907897949,1.44671881198883,-0.341080039739609,-0.150303453207016,0.263271361589432,-0.344636106234817,-0.148287288494656,0.210532819358465,5
0.860000610351563,-0.175857037305832,2.89266467094421,1.24312853813171,-0.173659158941841,2.89109569582005,1.24943255494854,2183.69,2180.831,2183.077,2182.197,356.225646972656,44.9890899658203,1.45992207527161,-0.354022175073624,-0.156070739030838,0.267634063959122,-0.357780475378537,-0.153942943326036,0.218562509354528,5
0.879989624023438,-0.183197155594826,2.88942837715149,1.24857079982758,-0.18094280014554,2.88796174849148,1.2538820177009,2193.821,2182.911,2175.047,2183.635,356.224609375,44.9904479980469,1.47193813323975,-0.367006719112396,-0.161810129880905,0.272113025188446,-0.370996904517929,-0.159629603560431,0.226636219677473,5
0.899993896484375,-0.190797820687294,2.88607788085938,1.25410544872284,-0.18849723509595,2.8847112861788,1.25849690412748,2195.106,2184.102,2176.554,2185.615,356.215301513672,44.9915542602539,1.48281514644623,-0.380032926797867,-0.167526036500931,0.276732295751572,-0.384296738353309,-0.165352150505452,0.234760880627692,5
0.919998168945313,-0.198660120368004,2.88261318206787,1.25973451137543,-0.196318384305134,2.8813460641717,1.26327472213274,2193.004,2186.929,2181.628,2186.129,356.197845458984,44.9923477172852,1.49284744262695,-0.393116056919098,-0.173240572214127,0.281451731920242,-0.397661187980262,-0.171102499820431,0.242925014356675,5
0.939987182617188,-0.206785708665848,2.87903356552124,1.26546132564545,-0.204401181418416,2.87786826238106,1.26821237675968,2185.678,2187.994,2192.728,2188.014,356.175354003906,44.9930381774902,1.50242352485657,-0.406278997659683,-0.178978323936462,0.286342859268188,-0.411071375662203,-0.176872528942697,0.25111708874972,5
0.959991455078125,-0.215176343917847,2.87533855438232,1.27128911018372,-0.212759000778906,2.87427212620069,1.27331803818581,2178.791,2188.131,2203.857,2190.252,356.155975341797,44.9937973022461,1.51103079319,-0.419532299041748,-0.184752494096756,0.29139044880867,-0.424539267042903,-0.182667386354485,0.259344413431889,5
0.979995727539063,-0.223833590745926,2.87152743339539,1.27722012996674,-0.22138664033507,2.87055989392801,1.27858852855901,2181.3,2190.569,2204.904,2190.965,356.147644042969,44.9946022033691,1.51842439174652,-0.432862877845764,-0.190556555986404,0.296549707651138,-0.438046240701377,-0.188479059778567,0.267595612867683,5
1,-0.232758492231369,2.86759996414185,1.28325796127319,-0.230284798736574,2.86673126495361,1.28402427467346,2187.166,2191.998,2202.403,2193.044,356.149688720703,44.9955139160156,1.52475321292877,-0.446244955062866,-0.196368053555489,0.301891833543777,-0.451584000205995,-0.194303979492187,0.275865618896484,5
1.01998901367188,-0.241951465606689,2.86355662345886,1.28940570354462,-0.239446912293295,2.86278906344998,1.2896212668733,2195.542,2193.83,2197.001,2194.875,356.158447265625,44.9964294433594,1.52985370159149,-0.45964789390564,-0.202162832021713,0.307386130094528,-0.46513400752272,-0.200134169097193,0.284143106922576,5
1.03999328613281,-0.25141254067421,2.85939812660217,1.29566657543182,-0.248887339851819,2.85872711120656,1.29538827675384,2200.528,2194.9,2195.014,2197.208,356.167877197266,44.9972610473633,1.53351616859436,-0.473052710294724,-0.207927450537682,0.313046038150787,-0.478708875293167,-0.205975055460915,0.292435781811908,5
1.05999755859375,-0.261141508817673,2.85512495040894,1.30204284191132,-0.258599401509697,2.85454828239877,1.3013212236669,2205.538,2198.213,2192.458,2197.686,356.174865722656,44.9978256225586,1.5360062122345,-0.486450254917145,-0.213662296533585,0.318812340497971,-0.492290296490434,-0.211818761581115,0.30073246008742,5
1.08000183105469,-0.271138459444046,2.85073733329773,1.30853796005249,-0.268583149539609,2.85025255453512,1.30742013954506,2203.79,2199.66,2197.125,2199.545,356.176086425781,44.9982147216797,1.53793835639954,-0.499848276376724,-0.219378337264061,0.324755370616913,-0.50587040849135,-0.217661904390701,0.309028338595312,5
1.09999084472656,-0.281403601169586,2.84623551368713,1.31515467166901,-0.278830554044452,2.84584338265603,1.31368011904947,2199.775,2200.732,2204.271,2201.133,356.174377441406,44.9985237121582,1.53924655914307,-0.513257205486298,-0.225090190768242,0.330835312604904,-0.519431110871131,-0.223496695782555,0.317312360068532,5
1.1199951171875,-0.291937261819839,2.84161949157715,1.32189583778381,-0.289357002179081,2.84131414609862,1.32011056195293,2194.683,2200.587,2212.74,2203.274,356.174652099609,44.9988822937012,1.53946626186371,-0.526683270931244,-0.230807095766068,0.337060511112213,-0.532985466132485,-0.229328756186667,0.32559250418615,5
1.13999938964844,-0.302739560604095,2.83688902854919,1.32876312732697,-0.300154365346813,2.83666834237095,1.32670650262257,2197.357,2203.031,2212.533,2203.427,356.182891845703,44.9992256164551,1.53847301006317,-0.540114402770996,-0.236524894833565,0.343363583087921,-0.546515580872639,-0.235150386571708,0.333857840147634,5
1.15998840332031,-0.313810229301453,2.83204436302185,1.3357595205307,-0.31121353909136,2.83190988886621,1.33346237928811,2200.906,2204.008,2211.306,2205.057,356.197784423828,44.9996337890625,1.53661131858826,-0.553532481193542,-0.242228731513023,0.349819034337997,-0.560003743914979,-0.240953966313175,0.342097548471566,6
1.17999267578125,-0.325148522853851,2.82708621025085,1.3428875207901,-0.322550701230474,2.8270318247214,1.34038807472597,2204.165,2204.167,2210.214,2206.989,356.21728515625,45.000072479248,1.53347432613373,-0.566916584968567,-0.247903242707253,0.356398373842239,-0.573463232144024,-0.246745208083563,0.350319739799517,6
1.19999694824219,-0.336753487586975,2.82201552391052,1.35014820098877,-0.334156660511822,2.8220381046756,1.34747797414352,2211.052,2206.911,2204.594,2206.879,356.239440917969,45.0003700256348,1.5291873216629,-0.580247461795807,-0.25353816151619,0.363033473491669,-0.58687652428584,-0.252516572968185,0.358513710658656,6
1.22000122070313,-0.348623901605606,2.81683278083801,1.35754418373108,-0.346030421585499,2.81692915700008,1.35473146949704,2212.508,2207.706,2204.618,2208.329,356.258728027344,45.0005531311035,1.52430272102356,-0.593520402908325,-0.259131819009781,0.369799643754959,-0.600236516861372,-0.258265004538453,0.366675121644476,6
1.239990234375,-0.360758662223816,2.81153893470764,1.36507713794708,-0.358161486344149,2.81170949873715,1.36214214765657,2210.958,2208.336,2207.707,2209.281,356.274597167969,45.0006370544434,1.51875185966492,-0.606737554073334,-0.264691352844238,0.376644909381866,-0.613526094901141,-0.263983138701136,0.374793517489195,6
1.25999450683594,-0.373156785964966,2.80613446235657,1.37274873256683,-0.3705671011502,2.80637170925886,1.36972054415578,2205.744,2207.611,2214.709,2210.813,356.289001464844,45.0007171630859,1.51214385032654,-0.619906663894653,-0.270227521657944,0.383579522371292,-0.626758665639206,-0.269676744214496,0.382877088462885,6
1.27999877929688,-0.385817229747772,2.80061960220337,1.38055920600891,-0.383236695417198,2.80092033679326,1.37746020158837,2206.219,2209.589,2215.185,2210.086,356.307342529297,45.0007133483887,1.50448286533356,-0.633023500442505,-0.275744378566742,0.390525788068771,-0.639917282339435,-0.275338529371412,0.39091548206889,6
1.29998779296875,-0.398738861083984,2.79499483108521,1.38851046562195,-0.396158759015336,2.79536033382764,1.38535408859565,2206.012,2209.731,2216.364,2211.004,356.329650878906,45.0007514953613,1.49621534347534,-0.646080791950226,-0.281236857175827,0.397565364837646,-0.652985332144132,-0.280961346123326,0.398898549771684,6
1.31999206542969,-0.411920130252838,2.78926086425781,1.39660382270813,-0.409351342777246,2.78968393359302,1.39341323214959,2205.806,2208.832,2217.483,2212.275,356.356536865234,45.0008811950684,1.48685491085052,-0.659064888954163,-0.286695569753647,0.404665648937225,-0.665976209205206,-0.286550957599616,0.406834473849655,6
1.33999633789063,-0.42535924911499,2.78341865539551,1.4048388004303,-0.422802873722428,2.78389611561957,1.401630562497,2211.497,2210.791,2211.719,2211.29,356.388519287109,45.0009346008301,1.47644972801208,-0.671956717967987,-0.292109876871109,0.41175052523613,-0.678873453515705,-0.29210028151913,0.41471319914141,6
1.36000061035156,-0.439054191112518,2.77746915817261,1.41321682929993,-0.436511415158101,2.77799771321212,1.41000489654248,2213.449,2210.78,2209.785,2212.025,356.420623779297,45.0009498596191,1.4655202627182,-0.684745907783508,-0.297471672296524,0.418903768062592,-0.691670720740693,-0.297606588091785,0.422530849991739,6
1.37998962402344,-0.453002691268921,2.77141356468201,1.42173826694489,-0.450464156928423,2.77199423822282,1.41852840876173,2213.477,2210.692,2209.7,2212.296,356.451141357422,45.0009155273438,1.45394599437714,-0.69742751121521,-0.302780598402023,0.426071643829346,-0.704352136620515,-0.303063047067127,0.430277729063129,6
1.39999389648438,-0.467202812433243,2.76525282859802,1.43040347099304,-0.464680216184654,2.76587746507559,1.42721277752413,2209.286,2209.301,2214.052,2213.133,356.479949951172,45.0008697509766,1.44133079051971,-0.710004508495331,-0.308042585849762,0.433263272047043,-0.716930938559026,-0.308475354130225,0.437961922879032,6
1.41999816894531,-0.481652319431305,2.75898766517639,1.43921136856079,-0.47914673136562,2.75965292774086,1.43605014590267,2209.849,2210.811,2212.828,2211.541,356.510894775391,45.0007057189941,1.42776525020599,-0.722473442554474,-0.313262283802032,0.440397411584854,-0.729391385793766,-0.313836736470737,0.445573815653291,6
1.43998718261719,-0.496348887681961,2.75261878967285,1.44816267490387,-0.49384995777978,2.75332654017544,1.44503211747976,2207.937,2210.26,2214.227,2211.757,356.543151855469,45.0005531311035,1.41379499435425,-0.734832167625427,-0.318439185619354,0.447563946247101,-0.741718206886022,-0.319140623215221,0.4531040783023,6
1.45999145507813,-0.511290371417999,2.7461473941803,1.45725727081299,-0.508809800712713,2.74688973769103,1.45417085208374,2205.018,2208.543,2216.721,2212.331,356.578155517578,45.0004959106445,1.3989349603653,-0.747074246406555,-0.323570042848587,0.454727351665497,-0.753924423002454,-0.324392617007921,0.460560665253582,6
1.47999572753906,-0.526474058628082,2.73957443237305,1.46649348735809,-0.524012471663969,2.74034845309416,1.46345792653486,2208.677,2209.752,2211.738,2210.565,356.618316650391,45.0003852844238,1.38321471214294,-0.759185791015625,-0.328648298978806,0.461809724569321,-0.765994882555672,-0.329586198544069,0.467934320638836,6
1.5,-0.541897177696228,2.73290109634399,1.47587144374847,-0.539455198877605,2.73370387899399,1.47289164761066,2209.433,2208.946,2209.765,2210.627,356.659820556641,45.0002784729004,1.36711990833282,-0.771156966686249,-0.33366534113884,0.468900680541992,-0.777924000354858,-0.334718964672088,0.475221632552146,6
1.51998901367188,-0.557556807994843,2.72612881660461,1.48539042472839,-0.555123050061237,2.72696244033876,1.48246289340675,2209.512,2208.141,2208.356,2210.251,356.701477050781,45.0001678466797,1.35046887397766,-0.782980442047119,-0.338617384433746,0.475946456193924,-0.789697369743256,-0.339784716610053,0.482413800191712,6
1.53999328613281,-0.573449909687042,2.7192587852478,1.49504959583282,-0.571036956668503,2.72011513090874,1.49218445062151,2205.869,2206.052,2210.844,2210.533,356.742645263672,45.0000877380371,1.33279430866241,-0.794655203819275,-0.343505829572678,0.482959687709808,-0.801327600455846,-0.344788879974649,0.489518526647862,6
1.55999755859375,-0.589573383331299,2.71229219436646,1.50484669208527,-0.587181951496087,2.71316839067337,1.50204717602401,2207.317,2207.199,2207.423,2208.128,356.785980224609,44.9998779296875,1.31424045562744,-0.806174993515015,-0.348332434892654,0.489852726459503,-0.812800388649436,-0.349725300221754,0.496527073925997,6
1.57998657226563,-0.605924189090729,2.70523023605347,1.51478123664856,-0.603542258451077,2.7061290076447,1.51204143224525,2205.239,2206.129,2207.7,2207.784,356.829376220703,44.9996719360352,1.29543673992157,-0.81753808259964,-0.353096485137939,0.496729135513306,-0.82410201904291,-0.354588076049064,0.503431063574906,6
1.59999084472656,-0.622499048709869,2.69807434082031,1.52485227584839,-0.620139554045575,2.69898765502515,1.52218046112824,2201.031,2203.747,2210.314,2207.881,356.873840332031,44.9995384216309,1.27588129043579,-0.828741788864136,-0.357797533273697,0.503551781177521,-0.835244706287931,-0.359382463079953,0.510237957334684,5
1.6199951171875,-0.639294564723969,2.69082570075989,1.5350569486618,-0.636958033083316,2.69175113334911,1.53245460752521,2203.294,2204.5,2205.698,2205.375,356.922393798828,44.9993362426758,1.25563383102417,-0.839776873588562,-0.362433016300201,0.510235667228699,-0.846214826007804,-0.364102599125749,0.516939432286212,5
1.63999938964844,-0.656307220458984,2.68348574638367,1.54539465904236,-0.653994195024907,2.68442094880091,1.54286173301126,2202.493,2203.083,2204.294,2204.938,356.972015380859,44.9991683959961,1.23519802093506,-0.850637137889862,-0.366996765136719,0.516883552074432,-0.857007552155828,-0.368746407673381,0.523532540272869,5
1.65998840332031,-0.67353355884552,2.6760561466217,1.55586338043213,-0.67123120513297,2.67700434489773,1.55339155350804,2201.675,2201.688,2202.85,2204.052,357.022430419922,44.9990272521973,1.21434724330902,-0.861316561698914,-0.371485263109207,0.523438632488251,-0.867610144209785,-0.373308406832068,0.530009498308446,5
1.67999267578125,-0.690969884395599,2.66853809356689,1.56646168231964,-0.688691692550512,2.66949158495151,1.56405789280588,2197.738,2198.996,2204.687,2203.934,357.073364257813,44.998950958252,1.19253420829773,-0.871813118457794,-0.375898003578186,0.529917776584625,-0.878034183119987,-0.377793579561193,0.536377381014768,5
1.69999694824219,-0.708612263202667,2.66093349456787,1.57718622684479,-0.706358800111611,2.66188992212981,1.57485045312518,2199.782,2199.817,2199.78,2200.887,357.127349853516,44.9987373352051,1.16991937160492,-0.882118582725525,-0.380234271287918,0.536227583885193,-0.888267004546665,-0.382196476749158,0.542628451944297,5
1.72000122070313,-0.726456820964813,2.65324378013611,1.58803594112396,-0.724228658537036,2.6542010212754,1.58576687078363,2198.1,2198.324,2198.709,2200.178,357.181335449219,44.9985389709473,1.14715039730072,-0.892229378223419,-0.384490936994553,0.542485296726227,-0.898304216251578,-0.386515208538549,0.548760027947228,5
1.739990234375,-0.744499623775482,2.64547038078308,1.59900856018066,-0.74228345468553,2.64643254688532,1.59679626401121,2196.238,2196.79,2197.864,2199.002,357.235595703125,44.998363494873,1.12409162521362,-0.902142226696014,-0.388667196035385,0.548629462718964,-0.908134108040217,-0.390744736359816,0.554764955448471,5
1.75999450683594,-0.762736737728119,2.63761520385742,1.61010217666626,-0.760546715064628,2.63857437616062,1.60795300478424,2191.448,2193.9,2200.153,2198.652,357.290557861328,44.9982643127441,1.10023403167725,-0.911856889724731,-0.392763525247574,0.554678916931152,-0.917767514700581,-0.394889722119545,0.560649853250941,4
1.77999877929688,-0.781164109706879,2.62967967987061,1.62131297588348,-0.779000609654483,2.63063418086074,1.61922620102184,2193.487,2194.413,2194.91,2195.467,357.349365234375,44.9980621337891,1.0757120847702,-0.92136549949646,-0.396778374910355,0.560541927814484,-0.927192788821983,-0.398945154262308,0.566407606133204,4
1.79998779296875,-0.799777328968048,2.62166547775269,1.63263964653015,-0.797626646773287,2.62261991743975,1.63060455644414,2192.069,2192.659,2193.241,2194.602,357.408782958984,44.9978942871094,1.05110919475555,-0.930662512779236,-0.40070629119873,0.56633448600769,-0.936399026186941,-0.402906341007953,0.572031552878955,4
1.81999206542969,-0.818572223186493,2.61357450485229,1.64408004283905,-0.816448984455027,2.61452119137054,1.64210282881713,2188.04,2189.659,2194.42,2194.181,357.46875,44.9978179931641,1.02585244178772,-0.939744591712952,-0.404545247554779,0.572017133235931,-0.945396434568188,-0.406777674475912,0.57752792925727,3
1.83999633789063,-0.837544322013855,2.60540866851807,1.65562999248505,-0.835449117627072,2.60634596486888,1.6537097136807,2190.195,2190.01,2188.847,2190.887,357.531494140625,44.9976196289063,1.00007593631744,-0.948605179786682,-0.40829399228096,0.577500343322754,-0.954174163352093,-0.410554485950274,0.582890106797601,3
1.86000061035156,-0.856689095497131,2.59716963768005,1.66728806495667,-0.854622615239374,2.59809614449182,1.66542250417552,2188.165,2188.022,2187.59,2190.013,357.593658447266,44.9974594116211,0.974298536777496,-0.957241475582123,-0.411949098110199,0.582904100418091,-0.962728579444532,-0.414235212212131,0.588115866099442,0
1.87998962402344,-0.876002192497253,2.58885931968689,1.67905139923096,-0.873950157556149,2.58978004298193,1.67722939817649,2185.784,2186.109,2186.773,2188.575,357.655578613281,44.9973182678223,0.948284149169922,-0.965652465820313,-0.415511131286621,0.588164269924164,-0.971049893464309,-0.417815641164241,0.593199226982579,0
1.89999389648438,-0.895478904247284,2.58047962188721,1.69091749191284,-0.893456683142228,2.58138692997148,1.6891456302637,2180.305,2182.89,2189.224,2188.032,357.717895507813,44.9972610473633,0.921445488929749,-0.973839581012726,-0.418981790542603,0.593304812908173,-0.979147395688901,-0.421299770153459,0.598145864732551,0
1.91999816894531,-0.91511482000351,2.57203245162964,1.7028820514679,-0.913122862707269,2.57292512231409,1.7011593924753,2182.135,2183.323,2183.775,2184.357,357.7841796875,44.9970779418945,0.893985211849213,-0.981795966625214,-0.422360450029373,0.598227322101593,-0.987011339258123,-0.424683405378145,0.60294982514457,0
1.93998718261719,-0.934905171394348,2.56351971626282,1.71494328975677,-0.932928814964021,2.56440317437226,1.71325853964316,2180.537,2181.379,2181.781,2183.305,357.851165771484,44.9969253540039,0.866532146930695,-0.989515960216522,-0.425641298294067,0.603062927722931,-0.994632798067981,-0.427962706185118,0.607605655400993,0
1.95999145507813,-0.954845070838928,2.55494332313538,1.7270987033844,-0.952900013794853,2.55581012544606,1.7254586333645,2176.364,2178.137,2182.633,2182.745,357.918701171875,44.9968795776367,0.838491559028625,-0.996996343135834,-0.428821891546249,0.607768654823303,-1.00202031904361,-0.431141350077486,0.612118576685011,0
1.97999572753906,-0.974929749965668,2.54630541801453,1.73934364318848,-0.973016570682103,2.54715453300902,1.73774752405424,2178.717,2178.385,2176.546,2179.072,357.989013671875,44.9967041015625,0.810056447982788,-1.00423121452332,-0.431901067495346,0.61224889755249,-1.00916501115878,-0.434215511495054,0.616483157607448,0
2,-0.995154082775116,2.5376079082489,1.75167632102966,-0.993273599084619,2.53843849960327,1.75012222660065,2176.565,2176.19,2175.019,2178.083,358.058349609375,44.9965744018555,0.781748712062836,-1.0112179517746,-0.434875041246414,0.616636335849762,-1.01606400046349,-0.437183953857422,0.620697642517089,0
2.01998901367188,-1.01551306247711,2.52885293960571,1.76409351825714,-1.01365055070775,2.52967086658596,1.76257018837116,2173.958,2174.079,2174.101,2176.488,358.127014160156,44.9964599609375,0.753313422203064,-1.01795721054077,-0.437745124101639,0.6208615899086,-1.02270954399163,-0.440043345582587,0.624757301356767,0
2.03999328613281,-1.03600203990936,2.52004265785217,1.77659249305725,-1.03417354141348,2.52084039703127,1.77510736313833,2168.07,2170.691,2176.615,2175.833,358.195770263672,44.9964370727539,0.724126756191254,-1.02445161342621,-0.440513730049133,0.624951303005219,-1.02910913225408,-0.442796909628122,0.628666709962695,0
2.05999755859375,-1.05661594867706,2.51117897033691,1.7891685962677,-1.05482201812353,2.5119559343546,1.78772119534738,2169.721,2170.939,2171.156,2171.951,358.268249511719,44.9962921142578,0.694405913352966,-1.03069627285004,-0.443181335926056,0.628804862499237,-1.03525504859546,-0.445441325732794,0.632421154350513,0
2.07998657226563,-1.07734966278076,2.50226402282715,1.80181980133057,-1.07557499515204,2.50302650811029,1.80039886517028,2167.895,2168.892,2169.118,2170.754,358.341369628906,44.9961738586426,0.664764046669006,-1.03668522834778,-0.445742100477219,0.632558107376099,-1.04114045847258,-0.4479736531836,0.636016459404434,0
2.09999084472656,-1.09819793701172,2.49330019950867,1.81454312801361,-1.09645901288412,2.49404069871208,1.81315658571413,2163.551,2165.542,2169.852,2170.111,358.4150390625,44.996150970459,0.634598612785339,-1.04241621494293,-0.448193699121475,0.636169075965881,-1.04677201701582,-0.450396755497224,0.639456690639761,0
2.1199951171875,-1.11915576457977,2.4842894077301,1.82733392715454,-1.11745308225396,2.48500753716864,1.82598153508617,2166.108,2165.653,2163.438,2166.258,358.491485595703,44.9960174560547,0.604131281375885,-1.04788446426392,-0.450535148382187,0.639539539813995,-1.0521429102862,-0.45270770082608,0.642737685527497,0
2.13999938964844,-1.14021754264832,2.47523427009583,1.84019005298615,-1.138551967509,2.47592927627801,1.83887051484687,2163.93,2163.371,2161.721,2165.184,358.566741943359,44.9959144592285,0.573863744735718,-1.05308640003204,-0.45276215672493,0.642807304859161,-1.05725102347782,-0.454905579228273,0.645858152165725,0
2.15998840332031,-1.16137790679932,2.46613669395447,1.85310804843903,-1.15973418543027,2.46681515966915,1.85181040123298,2161.335,2161.143,2160.607,2163.531,358.641021728516,44.9958457946777,0.543527841567993,-1.05802416801453,-0.454876512289047,0.645902454853058,-1.06209075728,-0.456987981476842,0.64881467002292,0
2.17999267578125,-1.18263208866119,2.45699906349182,1.86608505249023,-1.18102676265167,2.45765355853653,1.86481770439342,2155.218,2157.726,2163.137,2162.796,358.714996337891,44.9958648681641,0.512483835220337,-1.06270098686218,-0.456881195306778,0.648851275444031,-1.06666760390386,-0.458957270716794,0.65161059420515,0
2.19999694824219,-1.20397424697876,2.4478235244751,1.87911605834961,-1.20240821395574,2.44845371736898,1.8778792993441,2156.775,2157.897,2157.727,2158.754,358.792449951172,44.9957466125488,0.481003493070602,-1.06711399555206,-0.458777993917465,0.651552617549896,-1.07097597819164,-0.460811043810786,0.654242512826705,0
2.22000122070313,-1.22539949417114,2.43861198425293,1.89219903945923,-1.22387315175433,2.43921795429519,1.89099189489151,2154.812,2155.837,2155.673,2157.488,358.870330810547,44.9956512451172,0.449697643518448,-1.07125723361969,-0.460560977458954,0.654146790504456,-1.07501419914593,-0.462548577472581,0.656709398992482,0
2.239990234375,-1.24690198898315,2.42936778068542,1.90533041954041,-1.24539969505118,2.42995568409656,1.90414212427648,2153.131,2153.708,2153.536,2155.769,358.948608398438,44.9955902099609,0.418420255184174,-1.0751291513443,-0.462228178977966,0.656567752361298,-1.07877792518082,-0.464168003639063,0.659008600495412,0
2.25999450683594,-1.26847672462463,2.42009210586548,1.91850733757019,-1.26701526177039,2.4206551096063,1.91734673668097,2148.403,2150.186,2154.552,2155.191,359.027038574219,44.9956283569336,0.38650718331337,-1.07872974872589,-0.463779032230377,0.658844292163849,-1.08227143928024,-0.465671165158559,0.661142733743536,0
2.27999877929688,-1.29011785984039,2.41078782081604,1.93172454833984,-1.28869796983554,2.41132564607061,1.93059236468599,2150.718,2150.422,2148.425,2150.958,359.108184814453,44.9955253601074,0.354266881942749,-1.08205568790436,-0.46521407365799,0.660862326622009,-1.08549040888332,-0.467056197851165,0.663109152043028,0
2.29998779296875,-1.3118200302124,2.4014573097229,1.94498014450073,-1.31042570636616,2.40197680804417,1.9438654998779,2148.599,2148.248,2146.478,2149.824,359.188323974609,44.9954376220703,0.322281956672668,-1.08510255813599,-0.466528743505478,0.662777125835419,-1.08843144721369,-0.468321644481621,0.664905786465049,0
2.31999206542969,-1.33357739448547,2.39210271835327,1.95827090740204,-1.33222611841886,2.3925966997709,1.95718303141218,2143.225,2144.765,2148.063,2149.235,359.267517089844,44.9954681396484,0.289873421192169,-1.08787310123444,-0.467724710702896,0.664539396762848,-1.09109790637238,-0.469468947365361,0.666534684755819,0
2.33999633789063,-1.35538458824158,2.38272666931152,1.97159171104431,-1.35407709248145,2.38319483607731,1.97053145048929,2144.851,2144.827,2142.685,2145.108,359.348846435547,44.9953575134277,0.257319957017899,-1.09036767482758,-0.468804955482483,0.666043341159821,-1.09348640563071,-0.470496651869278,0.667993781680938,0
2.36000061035156,-1.37723636627197,2.37333130836487,1.98494052886963,-1.37597305876702,2.37377361348711,1.98390735461333,2142.129,2142.469,2141.393,2144.097,359.429229736328,44.995288848877,0.225077420473099,-1.09258317947388,-0.469765663146973,0.667442917823792,-1.09559602313537,-0.471404361345641,0.669282514094601,0
2.37998962402344,-1.39912676811218,2.36391925811768,1.9983137845993,-1.39789168475144,2.36434264106153,1.9972971011938,2139.546,2140.181,2140.228,2142.419,359.50927734375,44.9952735900879,0.192855581641197,-1.09452223777771,-0.47060814499855,0.668660402297974,-1.09742465646102,-0.47219117117957,0.670399597657984,0
2.39999389648438,-1.42105031013489,2.35449266433716,2.01170825958252,-1.41986083522252,2.35488992936084,2.01071771239474,2134.104,2136.788,2141.942,2141.733,359.589630126953,44.9953575134277,0.159970089793205,-1.09618639945984,-0.471333503723145,0.669725954532623,-1.09897439291323,-0.472857979480329,0.671346307473475,0
2.41999816894531,-1.44300174713135,2.34505367279053,2.02511882781982,-1.44185817738692,2.34542508756209,2.02415554546122,2136.586,2137.024,2135.748,2137.442,359.673431396484,44.9952659606934,0.126805081963539,-1.09757304191589,-0.471942484378815,0.670531094074249,-1.10024313330221,-0.473403883025206,0.672121361178802,0
2.43998718261719,-1.46497511863708,2.33560562133789,2.0385434627533,-1.46386128162322,2.33595776650478,2.03759689848751,2134.936,2134.934,2133.313,2136.306,359.756866455078,44.9952087402344,0.0939471870660782,-1.09867465496063,-0.472428023815155,0.671232163906097,-1.10122974390336,-0.473828394004169,0.672724066199287,0
2.45999145507813,-1.48696506023407,2.32614946365356,2.05197906494141,-1.48589810917879,2.32647593524532,2.05105885256329,2130.435,2131.497,2133.984,2135.796,359.839599609375,44.9952545166016,0.0607194155454636,-1.0994930267334,-0.4727903008461,0.67178076505661,-1.10193535162022,-0.474131997292339,0.673155110942729,0
2.47999572753906,-1.50896573066711,2.31668877601624,2.06542038917542,-1.50794623031618,2.31698924467309,2.06452770571198,2132.44,2131.602,2128.389,2131.552,359.923889160156,44.9951667785645,0.0274678599089384,-1.10002911090851,-0.473032057285309,0.672065317630768,-1.10235882472314,-0.474314205938057,0.673413804053135,0
2.5,-1.53097128868103,2.30722570419312,2.07886528968811,-1.52999999932945,2.30750012397766,2.0780000090599,2129.784,2129.237,2127.046,2130.663,0.00639967294409871,44.9951133728027,-0.00538290943950415,-1.1002801656723,-0.473149925470352,0.672249734401703,-1.10250000050292,-0.474374949932098,0.673500046133994,0
2.51998901367188,-1.5529762506485,2.29776287078857,2.09231019020081,-1.5520369476803,2.29801824074336,2.09146203692764,2126.901,2127.017,2126.254,2128.969,0.0877035558223724,44.9951133728027,359.961883544922,-1.1002516746521,-0.473147541284561,0.672248721122742,-1.10235904000526,-0.474314298567936,0.67341393556562,0
2.53999328613281,-1.57497525215149,2.28830242156982,2.10575222969055,-1.57408507527774,2.28853154739156,2.10493089402267,2120.921,2123.678,2128.516,2128.386,0.168723970651627,44.9952087402344,359.928558349609,-1.09994721412659,-0.473027557134628,0.672098159790039,-1.10193578218388,-0.474132182551855,0.673155373967352,0
2.55999755859375,-1.59696245193481,2.27884650230408,2.11918592453003,-1.59612191359838,2.27904971150017,2.11839285467467,2123.016,2123.837,2122.917,2124.132,0.253087878227234,44.9951591491699,359.895050048828,-1.09936690330505,-0.472792536020279,0.671686291694641,-1.10123038958312,-0.473828671822132,0.672724460634977,0
2.57998657226563,-1.61893260478973,2.2693977355957,2.13260936737061,-1.61812503288753,2.26958238396605,2.1318342168965,2121.423,2121.873,2120.506,2122.979,0.337409615516663,44.9951133728027,359.861877441406,-1.09850227832794,-0.472434729337692,0.671169459819794,-1.1002439936861,-0.473404253224357,0.672121886773894,0
2.59999084472656,-1.64087975025177,2.25995874404907,2.14601945877075,-1.64012239440973,2.26011753383818,2.14527206178836,2117.177,2118.574,2120.966,2122.51,0.421329468488693,44.9951782226563,359.828460693359,-1.09735476970673,-0.471953749656677,0.670502662658691,-1.09897546783438,-0.47285844198887,0.671346964126033,0
2.6199951171875,-1.6627984046936,2.2505316734314,2.15941095352173,-1.66209156852628,2.2506648119635,2.15869268743396,2119.877,2118.533,2114.9,2118.417,0.506916761398315,44.9951019287109,359.795104980469,-1.09592604637146,-0.471351623535156,0.669576108455658,-1.09742594550583,-0.472191725819537,0.67040038511534,0
2.63999938964844,-1.68468236923218,2.24111890792847,2.1727819442749,-1.68402693989188,2.24122663446822,2.17209266350648,2117.524,2116.323,2113.375,2117.489,0.59031480550766,44.9950790405273,359.762176513672,-1.09421157836914,-0.470624059438705,0.668546974658966,-1.09559602313537,-0.471404361345641,0.669282514094601,0
2.65998840332031,-1.70652675628662,2.23172354698181,2.18612861633301,-1.70590622088595,2.23181259109281,2.18545837484632,2114.748,2114.258,2112.593,2115.795,0.671887934207916,44.9950866699219,359.7294921875,-1.09221875667572,-0.469775646924973,0.667335331439972,-1.09348812118877,-0.470497390025984,0.667994829688588,0
2.67999267578125,-1.72832596302032,2.22234725952148,2.19944834709167,-1.72775723139253,2.2224107117184,2.19880681618649,2108.642,2110.947,2115.039,2115.423,0.752513885498047,44.9952087402344,359.696319580078,-1.08995258808136,-0.468810260295868,0.665982007980347,-1.09109983431736,-0.469469776906228,0.666535862507326,0
2.69999694824219,-1.7500741481781,2.21299266815186,2.21273565292358,-1.74955768413056,2.21303058593937,2.21212437257479,2110.357,2111.133,2110.077,2111.163,0.835956335067749,44.9951705932617,359.663024902344,-1.08741617202759,-0.46773225069046,0.664366006851196,-1.08843358680109,-0.468322565086308,0.664907093505606,0
2.72000122070313,-1.77176630496979,2.20366191864014,2.2259886264801,-1.77130202882336,2.20367460188472,2.22540765343382,2108.642,2109.229,2107.92,2110.14,0.919275462627411,44.9951324462891,359.630157470703,-1.08460080623627,-0.466534286737442,0.662651300430298,-1.08549040888332,-0.467056197851165,0.663109152043028,0
2.739990234375,-1.79339647293091,2.1943576335907,2.23920392990112,-1.79296822271738,2.1943522439355,2.23864319318939,2107.333,2107.228,2105.72,2108.557,1.00227797031403,44.9951286315918,359.597595214844,-1.08150923252106,-0.465216368436813,0.660762012004852,-1.08227399942825,-0.465672266718727,0.661144297698006,0
2.75999450683594,-1.81495928764343,2.18508195877075,2.25237846374512,-1.81458384274179,2.18505164650952,2.2518478381572,2102.934,2104.19,2106.555,2108.023,1.08457314968109,44.995231628418,359.564697265625,-1.07814300060272,-0.463778585195541,0.658728063106537,-1.07878069424208,-0.464169195088763,0.659010292071722,0
2.77999877929688,-1.83644938468933,2.17583751678467,2.26550722122192,-1.83612684690458,2.17578229366013,2.2650081232283,2105.423,2104.265,2100.996,2103.944,1.16846406459808,44.995174407959,359.531860351563,-1.07450520992279,-0.462224453687668,0.656442165374756,-1.07501419914593,-0.462548577472581,0.656709398992482,0
2.79998779296875,-1.85786116123199,2.16662645339966,2.27858853340149,-1.85757544288233,2.1665535620153,2.27811073581237,2103.348,2102.259,2099.341,2103.097,1.25040721893311,44.9951705932617,359.499572753906,-1.07059001922607,-0.460548788309097,0.654061317443848,-1.07097916161324,-0.460812413548163,0.654244457529281,0
2.81999206542969,-1.87918901443481,2.15745139122009,2.29161906242371,-1.87895695992541,2.1573536925621,2.29117237092199,2098.202,2099.26,2100.933,2102.655,1.33058857917786,44.9952697753906,359.467071533203,-1.06640458106995,-0.458755701780319,0.651531279087067,-1.06667099276523,-0.458958728849171,0.651612664407684,0
2.83999633789063,-1.9004282951355,2.14831447601318,2.30459403991699,-1.90024960698239,2.14819206138118,2.30417971674389,2099.858,2099.208,2096.342,2098.749,1.41197025775909,44.9952392578125,359.434814453125,-1.06195545196533,-0.456851065158844,0.648753345012665,-1.06209435025759,-0.456989527434725,0.648816864916866,0
2.86000061035156,-1.92157304286957,2.13921761512756,2.31751179695129,-1.9214480311499,2.13907097167731,2.31712950327294,2097.277,2097.144,2095.3,2098.031,1.49180543422699,44.995246887207,359.403045654297,-1.05723714828491,-0.45483011007309,0.645882427692413,-1.05725102347782,-0.454905579228273,0.645858152165725,0
2.87998962402344,-1.94261813163757,2.13016390800476,2.33036851882935,-1.94253086194772,2.12999961857111,2.33000867561624,2095.135,2095.315,2094.198,2096.42,1.5707710981369,44.9952812194824,359.37158203125,-1.05225682258606,-0.452696323394775,0.64283549785614,-1.05214690704168,-0.452709420518306,0.642740127083052,0
2.89999389648438,-1.96355843544006,2.12115478515625,2.34316158294678,-1.96352501326936,2.1209664217661,2.34283367505136,2090.448,2092.418,2095.477,2096.069,1.64932799339294,44.9954147338867,359.339813232422,-1.04701673984528,-0.450450778007507,0.639655411243439,-1.04677621342161,-0.450398561093403,0.639459254158576,0
2.91999816894531,-1.98438882827759,2.11219263076782,2.35588622093201,-1.98440911693069,2.11198057539494,2.35559144808806,2092.985,2092.594,2090.176,2092.048,1.7300968170166,44.9953727722168,359.308197021484,-1.04152059555054,-0.448096722364426,0.636228859424591,-1.04114485287423,-0.447975543971863,0.636019143875825,0
2.93998718261719,-2.00510382652283,2.10328030586243,2.3685405254364,-2.00516218376194,2.10305111051103,2.36826917277004,2091.657,2090.823,2087.988,2091.242,1.8096319437027,44.995361328125,359.277160644531,-1.03575932979584,-0.445626795291901,0.632714867591858,-1.03525963910674,-0.445443300901551,0.632423958622216,0
2.95999145507813,-2.02569890022278,2.09441947937012,2.38112187385559,-2.02581075424974,2.0941666074844,2.38088306226645,2087.698,2088.002,2088.614,2090.922,1.88755440711975,44.9954528808594,359.246063232422,-1.02973926067352,-0.443043351173401,0.629062175750732,-1.02911391720548,-0.442798968459032,0.628669633014836,0
2.97999572753906,-2.04616832733154,2.08561229705811,2.39362525939941,-2.04633384260397,2.08533609591429,2.39342029668558,2089.62,2087.897,2084.097,2087.241,1.96588027477264,44.9954376220703,359.215301513672,-1.02346754074097,-0.440351784229279,0.625173270702362,-1.02271452148052,-0.440045487257004,0.624760342027062,0
3,-2.06650686264038,2.07686161994934,2.4060492515564,-2.06672639957428,2.07656174835205,2.40587779151916,2087.225,2086.122,2083.152,2086.469,2.04177689552307,44.9954566955566,359.185150146484,-1.01693964004517,-0.437548607587814,0.621194243431091,-1.01606400046349,-0.437183953857422,0.620697642517089,0
3.01998901367188,-2.08671021461487,2.06816911697388,2.41839027404785,-2.0869680292999,2.06785234056679,2.41824308725414,2084.864,2084.3,2082.523,2085.162,2.11588048934937,44.9955177307129,359.155395507813,-1.01016533374786,-0.434639245271683,0.617057025432587,-1.00917036754089,-0.434217816196637,0.616486429737696,0
3.03999328613281,-2.10677337646484,2.05953645706177,2.43064618110657,-2.10708469520508,2.05919670122237,2.43053204454123,2079.728,2081.702,2084.48,2084.835,2.18895792961121,44.995677947998,359.125427246094,-1.00314927101135,-0.4316266477108,0.612790942192078,-1.00202586176059,-0.431143734953757,0.612121962644322,0
3.05999755859375,-2.12669134140015,2.05096626281738,2.44281196594238,-2.12705600675913,2.05060360379452,2.44273220712343,2081.767,2081.886,2080.001,2081.065,2.26412439346313,44.995662689209,359.095703125,-0.995897352695465,-0.428515642881393,0.608294427394867,-0.994638524886308,-0.427965170275055,0.607609153824944,0
3.07998657226563,-2.14645934104919,2.04246020317078,2.4548864364624,-2.14686207530873,2.04208160581513,2.45483142533277,2080.698,2080.277,2077.847,2080.378,2.33851647377014,44.9956550598145,359.066650390625,-0.988399982452393,-0.425298243761063,0.603718757629395,-0.987017247723776,-0.424685947625853,0.602953434534038,0
3.09999084472656,-2.16607236862183,2.03402066230774,2.46686673164368,-2.16652837486666,2.03361974652815,2.46684526084616,2077.359,2077.798,2078.126,2080.058,2.41165542602539,44.9957389831543,359.037689208984,-0.980662763118744,-0.421975821256638,0.599012970924377,-0.979153483542501,-0.421302389586788,0.598149583707317,0
3.1199951171875,-2.18552613258362,2.0256495475769,2.47874855995178,-2.18603502400946,2.02522658035469,2.47876156841225,2079.898,2077.715,2073.375,2076.604,2.4851336479187,44.995719909668,359.009216308594,-0.972692906856537,-0.418552845716476,0.594088435173035,-0.971056158224178,-0.417818336715394,0.593203054026623,0
3.13999938964844,-2.20481586456299,2.01734900474548,2.49053025245667,-2.20537738341953,2.01690410346351,2.49057751394429,2077.959,2075.969,2072.295,2076.101,2.55574250221252,44.9957542419434,358.9814453125,-0.964485108852386,-0.415024846792221,0.5890873670578,-0.962728579444533,-0.414235212212131,0.588115866099442,0
3.15998840332031,-2.22393679618835,2.00912094116211,2.50220894813538,-2.22453632143911,2.00866054767245,2.50228141021112,2075.677,2074.322,2071.931,2074.902,2.62386083602905,44.9958343505859,358.954132080078,-0.956051230430603,-0.411398500204086,0.583937048912048,-0.954180774018563,-0.410557330335374,0.582894145150591,0
3.17999267578125,-2.24288463592529,2.00096702575684,2.51378226280212,-2.24353658854737,2.00048526354177,2.51388837689424,2070.735,2072.091,2073.997,2074.576,2.69033408164978,44.9959983825684,358.926696777344,-0.947397172451019,-0.407678157091141,0.578668534755707,-0.945403214201559,-0.406780591562751,0.577532070829503,0
3.19999694824219,-2.26165556907654,1.99288976192474,2.52524614334106,-2.2623590635174,1.99238647840124,2.5253867331345,2072.333,2072.287,2070.298,2071.147,2.75824117660522,44.9959983825684,358.899658203125,-0.938530921936035,-0.403869807720184,0.573191583156586,-0.936405971974636,-0.402909329586355,0.572035795952272,0
3.21998596191406,-2.28024435043335,1.98489046096802,2.53659915924072,-2.280985241111,1.98437215453788,2.53676517437065,2071.118,2070.758,2068.619,2070.712,2.82525420188904,44.9960174560547,358.873321533203,-0.929443776607513,-0.399966537952423,0.567648351192474,-0.927199897745278,-0.398948213033402,0.566411948863512,0
3.239990234375,-2.29864692687988,1.97697103023529,2.54783868789673,-2.2994392795179,1.97643189735754,2.54803845846384,2068.234,2068.697,2068.799,2070.313,2.89116907119751,44.9961051940918,358.847137451172,-0.920142352581024,-0.395970076322556,0.561981618404388,-0.917774783907129,-0.394892849856044,0.560654293895788,0
3.25999450683594,-2.31685972213745,1.96913349628448,2.5589611530304,-2.31770268688992,1.96857366338589,2.55919528903255,2070.819,2068.67,2064.361,2067.184,2.95733237266541,44.9960899353027,358.821624755859,-0.910633504390717,-0.391884118318558,0.55612051486969,-0.90814153446928,-0.390747931744771,0.554769492138098,0
3.27999877929688,-2.33487796783447,1.96137928962708,2.56996512413025,-2.33577134012187,1.96079922667992,2.57023314733618,2069.38,2067.052,2063.162,2066.877,3.02065467834473,44.9961280822754,358.796875,-0.900911808013916,-0.38770392537117,0.55019623041153,-0.898304216251578,-0.386515208538549,0.548760027947228,0
3.29998779296875,-2.35269784927368,1.95371055603027,2.58084774017334,-2.35362764460945,1.95311615770631,2.58114128510551,2067.538,2065.704,2062.748,2065.719,3.08124256134033,44.9962120056152,358.772674560547,-0.890989780426025,-0.383436173200607,0.544134676456451,-0.888274735793772,-0.382199803288803,0.542633174842512,0
3.31999206542969,-2.37031507492065,1.94612908363342,2.59160733222961,-2.37129490830989,1.94551442770222,2.59193394080789,2063.119,2063.697,2064.649,2065.589,3.13972282409668,44.9963836669922,358.74853515625,-0.880873382091522,-0.379085063934326,0.537974774837494,-0.878042061913513,-0.37779696958594,0.536382194046788,0
3.33999633789063,-2.38772678375244,1.93863582611084,2.60223984718323,-2.38875555478454,1.93800159931817,2.60260037727124,2064.586,2063.884,2061.492,2062.517,3.19887709617615,44.9964065551758,358.724914550781,-0.870572686195374,-0.374657601118088,0.531627893447876,-0.867618167158097,-0.373311858882592,0.530014399402376,0
3.36000061035156,-2.40492820739746,1.93123269081116,2.61274433135986,-2.406005803634,1.93057929915441,2.61313828510855,2063.162,2062.704,2060.401,2062.107,3.25667142868042,44.9964370727539,358.702026367188,-0.860080480575562,-0.370148211717606,0.525224506855011,-0.857007552155826,-0.36874640767338,0.523532540272868,0
3.37998962402344,-2.42191648483276,1.92392158508301,2.62311840057373,-2.42302905329872,1.92325467039821,2.62353752268616,2062.541,2061.578,2058.963,2061.019,3.31325340270996,44.9964714050293,358.679870605469,-0.849405407905579,-0.365559905767441,0.518698632717133,-0.846223126656603,-0.364106170663035,0.516944503023036,0
3.39999389648438,-2.43868732452393,1.91670370101929,2.6333601474762,-2.43984769972619,1.91601807669906,2.63381177133889,2059.752,2059.639,2059.509,2061.024,3.36826419830322,44.9965972900391,358.657928466797,-0.838550209999084,-0.360892832279205,0.512087106704712,-0.835253140422974,-0.35938609205264,0.510243109616171,0
3.41999816894531,-2.455237865448,1.90958070755005,2.64346623420715,-2.45644516534361,1.90887665092339,2.64395090408624,2062.028,2059.795,2055.865,2058.132,3.42316746711731,44.9966087341309,358.636657714844,-0.827524423599243,-0.356152653694153,0.505300581455231,-0.824110582941664,-0.354591760855451,0.503436295127018,0
3.43998718261719,-2.47156429290771,1.90255379676819,2.65343570709229,-2.47280564474684,1.90183719369507,2.65394526565342,2060.858,2058.612,2054.843,2057.875,3.4753589630127,44.996639251709,358.616180419922,-0.816322565078735,-0.351334869861603,0.498467922210693,-0.812809078412023,-0.349729039183832,0.496532382366361,0
3.45999145507813,-2.48766374588013,1.89562511444092,2.66326665878296,-2.48895081463434,1.8948903781363,2.66380809799729,2057.626,2056.974,2055.988,2057.741,3.52490448951721,44.996768951416,358.596099853516,-0.804955720901489,-0.346445202827454,0.491542518138885,-0.80133641229185,-0.344792671461508,0.489523909660973,0
3.47999572753906,-2.50353217124939,1.8887951374054,2.67295598983765,-2.50486489870395,1.88804299234919,2.67352976362102,2058.894,2056.92,2053.456,2055.355,3.57372736930847,44.9968147277832,358.576690673828,-0.793434739112854,-0.341490626335144,0.484465062618256,-0.789706299681989,-0.339788558913217,0.482419255351936,0
3.5,-2.51916766166687,1.88206577301025,2.68250274658203,-2.5205447997813,1.88129636896134,2.68310837050915,2057.347,2056.074,2053.018,2054.888,3.62015652656555,44.9968681335449,358.558135986328,-0.781757056713104,-0.336468607187271,0.477334946393967,-0.777924000354857,-0.334718964672089,0.475221632552147,0
3.51998901367188,-2.5345664024353,1.87543797492981,2.69190502166748,-2.53597583877076,1.87465682397749,2.69253495143119,2056.045,2054.92,2052.638,2054.353,3.66468262672424,44.9969367980957,358.540344238281,-0.769932627677917,-0.331383734941483,0.470116257667542,-0.766004036374581,-0.329590137176618,0.467939912563966,0
3.53999328613281,-2.54972553253174,1.86891341209412,2.70116138458252,-2.55117869390181,1.86811546013321,2.70182213839487,2053.346,2053.573,2053.567,2054.162,3.70771241188049,44.9970779418945,358.522857666016,-0.757967174053192,-0.326238602399826,0.462817192077637,-0.753933682518821,-0.324396601119134,0.46056632174764,0
3.55999755859375,-2.56464290618896,1.86249279975891,2.7102689743042,-2.56613872308604,1.86167857751006,2.71096098677687,2055.471,2053.752,2050.436,2051.838,3.75083589553833,44.9971008300781,358.506134033203,-0.745868682861328,-0.321037530899048,0.455382406711578,-0.741727567798258,-0.319144650954242,0.45310979673751,0
3.57998657226563,-2.57931566238403,1.85617733001709,2.71922731399536,-2.58084213759183,1.85535210901407,2.7199430732562,2054.94,2052.89,2049.261,2051.654,3.79174375534058,44.9971313476563,358.490264892578,-0.733632206916809,-0.315775811672211,0.44791367650032,-0.72940084364523,-0.31384080592,0.445579593307163,0
3.59999084472656,-2.59374117851257,1.84996795654297,2.72803473472595,-2.59530884290342,1.84912748987145,2.72878055778257,2052.825,2051.56,2049.8,2051.659,3.83015489578247,44.9972457885742,358.474945068359,-0.721267402172089,-0.310457557439804,0.44037589430809,-0.716940488958392,-0.308479463400265,0.437967757068975,0
3.6199951171875,-2.60791683197021,1.84386610984802,2.73668909072876,-2.60952509409627,1.84301063413925,2.73746504379605,2054.313,2051.718,2047.503,2049.562,3.86723303794861,44.9972839355469,358.460479736328,-0.708785057067871,-0.305088937282562,0.432713329792023,-0.704361775018033,-0.303067194200314,0.43028361700977,0
3.63999938964844,-2.62184047698975,1.83787286281586,2.74518966674805,-2.6234885835008,1.83700253474321,2.74599512157732,2053.153,2050.901,2047.198,2049.494,3.90131711959839,44.9973564147949,358.446960449219,-0.696183919906616,-0.299668341875076,0.425024747848511,-0.691670720740692,-0.297606588091786,0.422530849991739,0
3.65998840332031,-2.63550972938538,1.83198881149292,2.75353503227234,-2.63718676607487,1.8311085894645,2.7543631275559,2051.963,2050.116,2047.231,2049.013,3.93278121948242,44.9974594116211,358.434234619141,-0.683476209640503,-0.294201880693436,0.417263835668564,-0.678883253871145,-0.292104498338286,0.414719186025619,0
3.67999267578125,-2.64892339706421,1.82621502876282,2.76172399520874,-2.65063849381582,1.82532068681534,2.76258057812278,2049.386,2049.129,2048.512,2048.998,3.96216297149658,44.9976081848145,358.421997070313,-0.670668840408325,-0.288693279027939,0.409449756145477,-0.665986083416798,-0.286555206197011,0.406840505851433,0
3.69999694824219,-2.66207885742188,1.82055187225342,2.76975464820862,-2.66383127580226,1.81964420129024,2.77063984276899,2050.812,2049.327,2046.467,2047.274,3.99116015434265,44.9976577758789,358.410552978516,-0.657770931720734,-0.283147633075714,0.40153580904007,-0.65299527533123,-0.280965624398954,0.398904623909523,0
