t,x_s1,x_s2,x_s3,x_s_d1,x_s_d2,x_s_d3,propellers_rpms1,propellers_rpms2,propellers_rpms3,propellers_rpms4,rollRad,pitchRad,yawRad,v_s1,v_s2,v_s3,v_s_d1,v_s_d2,v_s_d3,insideCount
0,-0.0599999986588955,2.94000005722046,1.17999994754791,-0.0599999986588955,2.94000005722046,1.17999994754791,0,0,0,0,0,0,0,0,0,0,-1.06581410364015E-15,4.44089209850063E-16,4.44089209850063E-16,0
0.0200042724609375,-0.0599999986588955,2.94000005722046,1.1771354675293,-0.0600018701838461,2.93999925195556,1.18000110611101,0,0,0,0,0.0163538,-0.002474609,-2.024222E-05,3.71994488546079E-08,3.50004931704007E-08,-0.143225952982903,-0.000280105751305916,-0.000120521679537258,0.00017339880334547,5
0.0400009155273438,-0.0599999986588955,2.94000005722046,1.17048275470734,-0.0600148724204753,2.93999365745638,1.18000915511487,0,0,0,0,0.03270752,-0.004950816,-5.430172E-05,3.62924410524101E-08,3.44428769949445E-08,-0.332637369632721,-0.00111101934050116,-0.00047804058392963,0.00068777389696065,6
0.0600051879882813,-0.0600004345178604,2.94013261795044,1.16416549682617,-0.0600499046557519,2.93997858406422,1.18003084173732,3185.294,2835.729,1501.222,2767.702,0.03128104,-0.00494336,-0.01646952,-2.17781216633739E-05,0.00662215612828732,-0.315863788127899,-0.00247998555168399,-0.00106706850011317,0.00153522919458695,6
0.0800018310546875,-0.0599162168800831,2.94038772583008,1.15857720375061,-0.0601175574246769,2.93994947496775,1.18007272202403,3065.98,3067.305,2154.835,2023.979,0.01897591,-0.004311125,-0.04351499,0.00421084929257631,0.0127502996474504,-0.279415816068649,-0.00437268608126799,-0.00188144466206175,0.00270690098422899,6
0.0999984741210938,-0.0596375539898872,2.94068765640259,1.15374851226807,-0.0602281887669101,2.93990187339187,1.18014120809498,2640.186,3831.781,2620.322,1134.825,-0.005853096,-0.002888465,-0.070145,0.0139331258833408,0.0149981342256069,-0.241434544324875,-0.00677637982016689,-0.00291568692648091,0.00419490191241918,6
0.120002746582031,-0.0590848959982395,2.94089889526367,1.14957022666931,-0.0603919599823235,2.93983140721312,1.18024259027882,2092.098,4101.945,3169.44,755.9966,-0.04011839,-0.0004506069,-0.08993548,0.0276328511536121,0.0105618089437485,-0.208912670612335,-0.00967921398219614,-0.00416469537060396,0.00599189453988277,5
0.139999389648438,-0.0582314655184746,2.94085621833801,1.14596676826477,-0.0606185767455666,2.93973390035084,1.18038287685052,1510.502,4074.808,3735.714,701.8793,-0.07649238,0.002388207,-0.09949836,0.0426714569330215,-0.00213002134114504,-0.180170968174934,-0.0130660253322238,-0.00562194567796536,0.00808849210174802,4
0.160003662109375,-0.057099424302578,2.94039487838745,1.14297807216644,-0.0609177895434042,2.93960515744296,1.18056810382587,1134.974,3847.038,4069.888,880.0316,-0.1062788,0.00433542,-0.09870048,0.0566020086407661,-0.0230677835643291,-0.149434313178062,-0.0169265510445065,-0.00728302204135792,0.0104783414199936,4
0.180000305175781,-0.0557376891374588,2.93938803672791,1.14071130752563,-0.0612986871007165,2.9394412678651,1.18080389755851,1101.135,3565.248,4009.898,1148.89,-0.1236298,0.004492145,-0.09000099,0.0680868253111839,-0.0503399223089218,-0.113340348005295,-0.0212451141043368,-0.00914117907931815,0.0131517376757159,3
0.200004577636719,-0.0541964247822762,2.9377772808075,1.13924860954285,-0.0617706280683152,2.93923820485124,1.18109605149912,1373.079,3339.764,3594.952,1386.325,-0.1278765,0.003023027,-0.07724925,0.0770632401108742,-0.0805353969335556,-0.0731350854039192,-0.026012379510746,-0.0111924002017188,0.0161029020586274,3
0.220001220703125,-0.0525141693651676,2.93557620048523,1.1385840177536,-0.0623420644491781,2.93899233174064,1.18144979784016,1791.032,3212.801,3016.844,1527.093,-0.1229773,0.0008612559,-0.06426101,0.084112823009491,-0.110051482915878,-0.0332283973693848,-0.03121219533433,-0.0134297356845702,0.019321835755004,3
0.239997863769531,-0.0507194995880127,2.93284702301025,1.13860702514648,-0.0630217183703222,2.93869989564571,1.18187053599376,2159.003,3168.633,2517.447,1558.476,-0.1149676,-0.0009875001,-0.05362115,0.0897335857152939,-0.136452972888947,0.00114823505282402,-0.0368338920540454,-0.0158485947310391,0.02280193382306,3
0.260002136230469,-0.0488371774554253,2.92966485023499,1.13913786411285,-0.0638182299684225,2.938357178957,1.18236361461609,2351.844,3158.952,2273.956,1495.979,-0.1090506,-0.00190416,-0.04623567,0.0941160544753075,-0.159107893705368,0.0265392959117889,-0.0428675524613532,-0.0184447102433459,0.0265370570382875,3
0.279998779296875,-0.0468916520476341,2.92608761787415,1.13999629020691,-0.0647390625194898,2.93796097043536,1.18293365383054,2352.97,3152.292,2323.992,1363.51,-0.1078138,-0.001744903,-0.04152188,0.0972763523459435,-0.178862705826759,0.0429192706942558,-0.0492963837173861,-0.0212108567320638,0.030516809833474,3
0.300003051757813,-0.044908631592989,2.92214369773865,1.14106225967407,-0.0657927507678135,2.93750759781875,1.18358593705038,2229.036,3144.135,2572.823,1194.468,-0.1110874,-0.000737163,-0.03798467,0.0991510003805161,-0.197190955281258,0.0532960295677185,-0.0561132031658829,-0.0241439437008635,0.0347367458022363,3
0.319999694824219,-0.0429167971014977,2.91783547401428,1.14229428768158,-0.0669860785243584,2.93699414222283,1.18432466377777,2074.295,3132.448,2873.038,1032.652,-0.1169309,0.0006859151,-0.03398034,0.0995915085077286,-0.21540679037571,0.0616035088896751,-0.0633008373176985,-0.0272365818771378,0.0391862337367069,3
0.340003967285156,-0.0409488007426262,2.91315102577209,1.1437075138092,-0.0683273092598492,2.93641704810699,1.18515494949472,1954.956,3107.531,3109.499,921.4769,-0.1228436,0.002069872,-0.02837385,0.0983999818563461,-0.234223440289497,0.0706632509827614,-0.0708528993697216,-0.0304860231979345,0.0438613199015142,3
0.360000610351563,-0.0390400364995003,2.90807723999023,1.14534366130829,-0.0698225328270578,2.93577369517774,1.1860805641102,1904.921,3065.485,3222.103,880.9526,-0.1267084,0.003092695,-0.02087226,0.09543826431036,-0.253693282604218,0.0818069726228714,-0.0787518717320621,-0.0338847303337087,0.0487511600740379,3
0.3800048828125,-0.0372255519032478,2.90261030197144,1.14724361896515,-0.0714797725314022,2.93506063123087,1.18710647443246,1923.576,3021.5,3207.429,895.7081,-0.1274227,0.00364248,-0.01188356,0.0907242149114609,-0.273341804742813,0.0949978902935982,-0.0869921272359981,-0.0374302820709642,0.0538522707687797,3
0.400001525878906,-0.0355371311306953,2.89676117897034,1.14943182468414,-0.0733044112230977,2.93427554017634,1.18823601270221,1991.47,2988.86,3098.548,939.5724,-0.1250407,0.003790665,-0.002209891,0.0844211280345917,-0.292452335357666,0.109409376978874,-0.0955558400788823,-0.0411150084648172,0.0591536169647403,3
0.419998168945313,-0.0340018346905708,2.89055466651917,1.15190601348877,-0.0753034649285836,2.93341540321397,1.18947352217404,2072.004,2974.835,2953.773,986.2474,-0.120507,0.003707696,0.007340114,0.076764889061451,-0.310324788093567,0.123708285391331,-0.104434660908044,-0.0449353170220673,0.0646500300148815,3
0.44000244140625,-0.0326424278318882,2.88402438163757,1.15464186668396,-0.077483988232608,2.93247718495301,1.19082336997196,2136.362,2972.396,2825.237,1023.695,-0.1150741,0.00356421,0.01615045,0.0679704397916794,-0.326509118080139,0.136794224381447,-0.113620829717891,-0.048887868829098,0.0703367061060819,4
0.459999084472656,-0.0314782932400703,2.87720727920532,1.1576019525528,-0.0798502821969742,2.93145903476675,1.19228821865812,2168.811,2978.052,2748.557,1038.619,-0.109866,0.00347461,0.0239452,0.0582065246999264,-0.340852230787277,0.148002579808235,-0.123096124252221,-0.0529648233581361,0.0762023647937057,4
0.480003356933594,-0.0305266678333282,2.87013816833496,1.16074800491333,-0.0824098964715798,2.93035770425173,1.19387274182544,2167.89,2984.1,2732.812,1032.856,-0.1055411,0.003481858,0.03074981,0.0475815422832966,-0.35345932841301,0.157305598258972,-0.132856662250146,-0.057164510180779,0.0822446027733248,4
0.5,-0.0298035647720098,2.8628466129303,1.16405260562897,-0.085166398670376,2.92917165836334,1.1955791479969,2147.055,2989.269,2762.482,1009.581,-0.1022654,0.003568743,0.03679532,0.0361551828682423,-0.36458358168602,0.165227696299553,-0.142884000065179,-0.0614789935111996,0.0884520025491718,4
0.520004272460938,-0.0293242875486612,2.85535669326782,1.16749942302704,-0.088127196023106,2.92789770997757,1.19741202260058,2116.453,2992.952,2817.5,977.2073,-0.09984138,0.003686311,0.04241329,0.0239637717604637,-0.374494016170502,0.172340750694275,-0.153174893518032,-0.065906877469682,0.0948225558197254,4
0.540000915527344,-0.029104046523571,2.8476881980896,1.17108619213104,-0.0912951145137283,2.92653464315245,1.19937311505516,2089.32,2991.377,2870.44,951.9824,-0.0978243,0.003777169,0.04785604,0.0110120261088014,-0.383425444364548,0.179341107606888,-0.163710711144578,-0.0704401454577151,0.101344728821151,4
0.55999755859375,-0.029157530516386,2.83985805511475,1.17481637001038,-0.094676112580471,2.92507989413848,1.20146611391775,2070.55,2989.708,2909.467,933.1856,-0.0957939,0.003795679,0.05329836,-0.00267397705465555,-0.391503185033798,0.186506122350693,-0.17448465888317,-0.0750758741803766,0.108014315705644,5
0.580001831054688,-0.0294989831745625,2.83188247680664,1.17869877815247,-0.0982762614093182,2.92353085067394,1.20369477754168,2063.536,2984.737,2921.858,932.7709,-0.09338427,0.003717916,0.0587366,-0.0170726627111435,-0.398782640695572,0.194121733307838,-0.185490414529404,-0.0798113433697334,0.11482740272751,5
0.599998474121094,-0.0301412232220173,2.82377791404724,1.18273985385895,-0.102097262171133,2.92188678079254,1.20606015903275,2067.466,2985.374,2912.238,936.8347,-0.0905022,0.003538027,0.06411345,-0.0321127623319626,-0.405233293771744,0.202050924301147,-0.196709126405959,-0.0846384416756885,0.121772319800455,5
0.620002746582031,-0.0310955494642258,2.81556177139282,1.18694233894348,-0.106146271928021,2.92014460501038,1.20856668895334,2073.994,2986.163,2887.298,952.9011,-0.08717591,0.003272471,0.06929231,-0.0477154031395912,-0.41080641746521,0.210123494267464,-0.208139001499973,-0.0895563976148993,0.128847956964108,5
0.639999389648438,-0.0323713049292564,2.80725264549255,1.19130551815033,-0.110424235525481,2.91830391678686,1.21121495220784,2083.273,2991.646,2854.734,968.9614,-0.08359449,0.002940977,0.07414652,-0.0637882500886917,-0.415458559989929,0.21815912425518,-0.219761081350814,-0.0945570538913933,0.136042578028218,5
0.660003662109375,-0.0339758284389973,2.79886937141418,1.19582271575928,-0.114938248900541,2.91636166293851,1.21400934151928,2087.593,2999.546,2827.569,982.1525,-0.08000881,0.002566427,0.07860367,-0.0802259519696236,-0.419168800115585,0.225861623883247,-0.231574097577923,-0.0996398647564507,0.143355397804799,5
0.680000305175781,-0.035914983600378,2.79042983055115,1.20048809051514,-0.119688496929273,2.91431776391831,1.21694997133476,2088.057,3006.588,2805.51,995.9734,-0.07659891,0.002169143,0.08260504,-0.0969579219818115,-0.42197260260582,0.233266815543175,-0.243559016194652,-0.104796640417365,0.150774633349401,6
0.700004577636719,-0.038192767649889,2.78195142745972,1.20529103279114,-0.124682034788652,2.91216918408072,1.22004120914491,2083.143,3016.117,2799.044,997.476,-0.07355704,0.001758527,0.08620118,-0.113889753818512,-0.423919379711151,0.24014750123024,-0.255715062526221,-0.110027047553219,0.158299805101433,6
0.720001220703125,-0.0408127121627331,2.77344918251038,1.21022748947144,-0.129918284978346,2.90991617190799,1.22328269744952,2075.02,3020.17,2795.949,1005.857,-0.07086885,0.001345964,0.08939568,-0.130997151136398,-0.425111800432205,0.246825858950615,-0.268023157655716,-0.11532287703907,0.16591910230247,6
0.739997863769531,-0.0437767170369625,2.76493668556213,1.21528887748718,-0.135402141159277,2.90755662179454,1.22667746565781,2066.244,3028.243,2806.29,997.3463,-0.06860463,0.0009269171,0.09230986,-0.148200243711472,-0.425627708435059,0.253071248531342,-0.280478211503383,-0.120681938755799,0.173629373950669,6
0.760002136230469,-0.047087024897337,2.75642514228821,1.2204761505127,-0.14113868194985,2.90508834855275,1.23022865767651,2056.103,3027.762,2810.604,1006.207,-0.06658009,0.0005101936,0.09493508,-0.16551448404789,-0.425580471754074,0.259366244077682,-0.293075466693575,-0.12610218573757,0.181427675003881,6
0.779998779296875,-0.0507443286478519,2.74792456626892,1.22578465938568,-0.147126184485884,2.90251209348295,1.23393520697061,2052.136,3035.322,2820.411,994.5709,-0.0648469,8.192485E-05,0.09738529,-0.18286594748497,-0.425031423568726,0.265427738428116,-0.305795832832518,-0.131575403921268,0.189302187598958,6
0.800003051757813,-0.0547497309744358,2.73944330215454,1.23121666908264,-0.153371683173492,2.89982482987671,1.2378014681726,2043.964,3033.06,2821.654,1006.358,-0.06321013,-0.000344613,0.09961855,-0.200269758701324,-0.4240642786026,0.271598488092422,-0.318639638509124,-0.13710173468952,0.197253115148089,6
0.819999694824219,-0.0591030307114124,2.7309889793396,1.23676991462708,-0.159872691993147,2.89702762739878,1.24182590231796,2044.365,3039.185,2822.953,1000.383,-0.06173047,-0.0007792409,0.10169,-0.217665240168571,-0.422718405723572,0.277663290500641,-0.331587821991737,-0.142672976311719,0.205268657531342,6
0.840003967285156,-0.0638039261102676,2.72256803512573,1.24244523048401,-0.166636266402775,2.89411745028271,1.24601287707125,2040.542,3039.217,2818.536,1010.767,-0.06032166,-0.001210673,0.1035561,-0.235044330358505,-0.421046704053879,0.283763527870178,-0.344641102544584,-0.148289438267168,0.213349260007538,6
0.860000610351563,-0.0688510835170746,2.71418642997742,1.24824070930481,-0.173659158941841,2.89109569582005,1.2503603820997,2042.232,3044.637,2813.658,1010.348,-0.05906092,-0.00164104,0.1052326,-0.25235852599144,-0.419082373380661,0.289772182703018,-0.357780475378537,-0.153942943326036,0.221483157706883,6
0.8800048828125,-0.0742426663637161,2.70584917068481,1.25415408611298,-0.180948461186242,2.88795931270381,1.25487280742661,2039.803,3046.853,2809.472,1016.69,-0.05795198,-0.002060754,0.1067034,-0.269578814506531,-0.416867434978485,0.295668840408325,-0.371007022483504,-0.159633957038354,0.229671020432672,6
0.900001525878906,-0.0799762904644012,2.69756031036377,1.26018404960632,-0.188500167066783,2.88471002463366,1.2595476731043,2040.161,3050.83,2804.454,1019.591,-0.05703692,-0.002466087,0.1079667,-0.286681026220322,-0.414445489645004,0.301498651504517,-0.384301823631742,-0.165354338558695,0.237901135662636,7
0.919998168945313,-0.0860486626625061,2.68932318687439,1.26632571220398,-0.196318384305134,2.8813460641717,1.26438752200817,2037.857,3054.46,2806.333,1018.507,-0.05636793,-0.002854909,0.1090548,-0.303618907928467,-0.411857634782791,0.307085573673248,-0.397661187980262,-0.171102499820431,0.246171218589148,7
0.94000244140625,-0.0924567431211472,2.68113994598389,1.2725795507431,-0.204407453948074,2.87786556348678,1.26939504145298,2035.534,3055.309,2804.771,1024.57,-0.05589123,-0.003216566,0.1099478,-0.320403963327408,-0.409160733222961,0.312692284584045,-0.411081631631503,-0.176876941799768,0.254479112513653,7
0.959999084472656,-0.0991964042186737,2.67301201820374,1.27894103527069,-0.212762239776093,2.87427073255068,1.27456705187416,2036.231,3060.624,2810.265,1015.746,-0.05569842,-0.003560646,0.110715,-0.336984127759933,-0.406394332647324,0.318072289228439,-0.424544411524882,-0.18266959988136,0.262813214588797,7
0.980003356933594,-0.106263995170593,2.66493964195251,1.28541016578674,-0.221389982382338,2.87055845593844,1.2799080355438,2031.42,3058.967,2813.786,1022.309,-0.05567658,-0.003872769,0.1113349,-0.353379547595978,-0.403615444898605,0.323457300662994,-0.438051398499298,-0.18848127903492,0.271174682952979,7
1,-0.113655254244804,2.65692234039307,1.29198503494263,-0.230284798736574,2.86673126495361,1.28541435058594,2033.383,3062.6,2819.817,1014.256,-0.05587099,-0.004161988,0.1118588,-0.369562566280365,-0.400860518217087,0.328745126724243,-0.451584000205995,-0.194303979492187,0.279552008056641,7
1.02000427246094,-0.121366009116173,2.6489589214325,1.29866528511047,-0.239454009753966,2.86278600961093,1.2910905289958,2030.952,3061.794,2825.552,1015.824,-0.05620814,-0.004420847,0.1122856,-0.385538339614868,-0.398171752691269,0.334012687206268,-0.465144357597929,-0.200138622445408,0.287946515251652,7
1.04000091552734,-0.129392117261887,2.64104723930359,1.30545151233673,-0.24889099213045,2.8587255397331,1.29693247063265,2033.469,3063.57,2828.975,1012.476,-0.05668272,-0.004653607,0.1126297,-0.401305645704269,-0.395581752061844,0.339313983917236,-0.478714054341683,-0.205977283860805,0.296346803950333,7
1.05999755859375,-0.137728974223137,2.63318490982056,1.31234157085419,-0.258599401509697,2.85454828239877,1.30294243851408,2033.622,3064.387,2836.336,1008.484,-0.05729365,-0.004860269,0.1129164,-0.416843086481094,-0.393114179372787,0.34450501203537,-0.492290296490434,-0.211818761581115,0.30475114456651,7
1.08000183105469,-0.146372571587563,2.62536883354187,1.31933844089508,-0.268583149539609,2.85025255453512,1.30912285413647,2035.154,3063.683,2837.354,1011.812,-0.05796849,-0.00503444,0.1131163,-0.432180374860764,-0.390799850225449,0.349841684103012,-0.50587040849135,-0.217661904390701,0.313157880805523,7
1.09999847412109,-0.155318096280098,2.617595911026,1.32643938064575,-0.278834517009062,2.84584167750307,1.31546893894041,2040.126,3067.693,2843.627,1001.309,-0.05880206,-0.005188371,0.113283,-0.447276264429092,-0.388649076223373,0.355047553777695,-0.519436284009554,-0.223498921639497,0.321555803983559,7
1.12000274658203,-0.164561316370964,2.6098620891571,1.33364605903625,-0.289361068555186,2.84131239645058,1.32198537579665,2038.932,3065.283,2846.823,1007.378,-0.05969049,-0.005307147,0.1133776,-0.462161630392075,-0.386689931154251,0.360335230827332,-0.532990631455731,-0.229330978680957,0.329946590735853,8
1.13999938964844,-0.174097612500191,2.60216355323792,1.34095752239227,-0.300154365346813,2.83666834237095,1.3286669406667,2044.754,3068.61,2852.643,998.0153,-0.06070729,-0.005402489,0.11344,-0.476814597845078,-0.384930551052094,0.365572243928909,-0.546515580872639,-0.235150386571708,0.338319178707607,8
1.16000366210938,-0.183922559022903,2.59449577331543,1.3483738899231,-0.311222084148811,2.83190621216671,1.33551838583369,2044.961,3067.509,2858.956,998.723,-0.06179493,-0.005465872,0.1134611,-0.491247266530991,-0.383389472961426,0.370819240808487,-0.560014026276883,-0.240958390526247,0.34667535943296,8
1.18000030517578,-0.19403187930584,2.58685421943665,1.35589647293091,-0.322555076427271,2.82702994219644,1.34253404791935,2049.967,3069.083,2863.668,993.9207,-0.06296352,-0.005502091,0.1134512,-0.505466520786285,-0.382079422473907,0.376131981611252,-0.573468357077025,-0.246747413199059,0.355004231116904,8
1.20000457763672,-0.204420998692513,2.57923412322998,1.36352348327637,-0.334161138043845,2.82203617811866,1.3497187529334,2051.907,3069.584,2873.781,987.8172,-0.06421893,-0.005512211,0.1134383,-0.519456088542938,-0.381005197763443,0.381347715854645,-0.586881630238192,-0.252518769916838,0.363307686166476,8
1.22000122070313,-0.21508626639843,2.57163047790527,1.37125945091248,-0.346030421585499,2.81692915700008,1.35706640485806,2055.73,3068.721,2875.726,990.3359,-0.0654818,-0.005491438,0.1133868,-0.533263623714447,-0.380187064409256,0.386799246072769,-0.600236516861372,-0.258265004538453,0.371574997167698,8
1.23999786376953,-0.226022824645042,2.56403827667236,1.37909924983978,-0.358166167196084,2.81170748469733,1.36457900949675,2060.334,3071.823,2890.265,974.6268,-0.06685972,-0.005453621,0.113377,-0.546827733516693,-0.379608929157257,0.3919877409935,-0.613531154887641,-0.263985315871967,0.379805011417393,8
1.26000213623047,-0.237227812409401,2.55645227432251,1.38705146312714,-0.370571882958536,2.80636965178032,1.3722587385199,2061.301,3067.153,2888.659,988.2769,-0.0681423,-0.005377987,0.1133076,-0.560250043869019,-0.379303008317947,0.397613286972046,-0.626763698705669,-0.269678909802388,0.38799658639423,8
1.27999877929688,-0.248696267604828,2.54886770248413,1.39510881900787,-0.383236695417198,2.80092033679326,1.3800988607405,2071.991,3075.011,2904.095,960.8486,-0.06958786,-0.005298625,0.1133172,-0.573422312736511,-0.37923127412796,0.402870625257492,-0.639917282339435,-0.275338529371412,0.396139281255613,8
1.30000305175781,-0.260425716638565,2.54127907752991,1.40328097343445,-0.396168722856641,2.79535604666509,1.38810440176341,2068.292,3066.893,2901.829,983.7402,-0.07088376,-0.005177185,0.1132594,-0.586474120616913,-0.379434883594513,0.408607572317123,-0.652995275331231,-0.280965624398954,0.404235181908735,8
1.31999969482422,-0.272411346435547,2.53368186950684,1.41155970096588,-0.409356423791328,2.7896817473746,1.39626821685929,2081.384,3076.101,2918.489,951.5494,-0.07233997,-0.005056277,0.1132941,-0.599282145500183,-0.379861801862717,0.413934677839279,-0.665981146317813,-0.286553081901244,0.412274054652251,8
1.34000396728516,-0.284651219844818,2.5260705947876,1.41995584964752,-0.422808053134535,2.78389388706324,1.40459541621271,2077.25,3067.287,2914.683,977.4959,-0.07361137,-0.004894358,0.1132566,-0.611992299556732,-0.380557924509048,0.419810175895691,-0.678878353700697,-0.292102389931837,0.420258040401443,8
1.36000061035156,-0.297140419483185,2.51844143867493,1.42845976352692,-0.436511415158101,2.77799771321212,1.41307845008695,2091.447,3077.685,2933.021,941.3079,-0.07505374,-0.004738829,0.1133293,-0.624459683895111,-0.381458699703217,0.425198256969452,-0.691670720740693,-0.297606588091785,0.42817712498415,9
1.37999725341797,-0.309877514839172,2.51078915596008,1.43708431720734,-0.450469530727146,2.77199192602736,1.42171918854144,2086.139,3067.485,2926.919,972.4246,-0.07626867,-0.004541222,0.1133179,-0.636855840682983,-0.382619321346283,0.431229770183563,-0.704356955827446,-0.303065120637236,0.436030508832034,9
1.40000152587891,-0.322857469320297,2.5031099319458,1.44581663608551,-0.464685685951852,2.76587511158757,1.43051966583492,2100.995,3079.137,2949.356,929.9053,-0.07767269,-0.004356931,0.1134425,-0.648999810218811,-0.383955419063568,0.436617076396942,-0.716935713767318,-0.308477408768949,0.443817359206152,9
1.41999816894531,-0.336080014705658,2.4953989982605,1.45467567443848,-0.47914673136562,2.75965292774086,1.43947174182117,2096.335,3067.626,2934.522,971.0013,-0.07877844,-0.0041279,0.1134443,-0.661125540733337,-0.385548323392868,0.442952394485474,-0.729391385793766,-0.313836736470737,0.451528013536465,9
1.44000244140625,-0.349538922309875,2.4876537322998,1.46363878250122,-0.493861275572861,2.75332167044526,1.4485807456364,2112.156,3083.262,2968.259,911.0424,-0.08019311,-0.003928163,0.1136543,-0.672942519187927,-0.387267857789993,0.448153913021088,-0.741727567798258,-0.319144650954242,0.459164697851088,9
1.45999908447266,-0.363235682249069,2.4798686504364,1.47273671627045,-0.508815552717244,2.74688726276417,1.45783815555978,2101.644,3063.7,2939.958,980.7908,-0.08110923,-0.003663444,0.1136443,-0.684839844703674,-0.389257103204727,0.454898446798325,-0.753929052770513,-0.324394609067776,0.466717998286247,9
1.48000335693359,-0.377162337303162,2.47204256057739,1.4819324016571,-0.524018315758597,2.74034593854351,1.46724939009041,2126.576,3090.119,2989.785,882.9333,-0.0825532,-0.003459979,0.113963,-0.696332514286041,-0.391301035881042,0.459785968065262,-0.765999459475408,-0.329588167864767,0.474190155029787,9
1.5,-0.391323268413544,2.46416974067688,1.49127435684204,-0.539455198877605,2.73370387899399,1.4768055561018,2104.77,3057.659,2940.843,999.2939,-0.08320887,-0.00316064,0.1139165,-0.708045661449432,-0.393645584583282,0.467097252607346,-0.777924000354858,-0.334718964672088,0.481572013878822,9
1.52000427246094,-0.405707240104675,2.4562509059906,1.50070345401764,-0.555135099954955,2.72695725560613,1.48651216180595,2143.129,3099.901,3014.867,845.0648,-0.08472634,-0.002967827,0.1143767,-0.71920108795166,-0.395945399999619,0.471455812454224,-0.789706299681991,-0.339788558913217,0.48886581843107,9
1.54000091552734,-0.420322924852371,2.44827890396118,1.51029479503632,-0.571043070329722,2.72011250037111,1.49635995326965,2104.284,3048.083,2934.799,1031.652,-0.08502568,-0.002629073,0.11425,-0.730783224105835,-0.39860588312149,0.479566335678101,-0.801332006385301,-0.344790775723006,0.496062684689629,9
1.55999755859375,-0.435154259204865,2.44025731086731,1.51995611190796,-0.587181951496087,2.71316839067337,1.50635068951315,2163.136,3114.197,3045.807,791.7224,-0.08670294,-0.002464489,0.1148982,-0.741567373275757,-0.401081144809723,0.483063995838165,-0.812800388649436,-0.349725300221754,0.503162159625937,9
1.58000183105469,-0.45021590590477,2.4321768283844,1.52980196475983,-0.60355483331529,2.70612359703193,1.51648628330776,2097.23,3032.573,2920.478,1084.581,-0.08650586,-0.0020762,0.1146268,-0.753083050251007,-0.404020875692368,0.492292106151581,-0.824110582941666,-0.354591760855452,0.510163708672098,9
1.59999847412109,-0.465484946966171,2.42404508590698,1.5396933555603,-0.620145926473056,2.69898491314762,1.52675696031579,2190.235,3135.672,3082.201,716.6532,-0.08846489,-0.00196275,0.115519,-0.763450145721436,-0.406584531068802,0.494569450616837,-0.835248923368005,-0.359384277571697,0.517058871988737,9
1.62000274658203,-0.480984300374985,2.41584968566895,1.54979968070984,-0.636964489205914,2.69174835545992,1.53716845182668,2083.234,3011.215,2893.788,1162.392,-0.0876473,-0.001512675,0.1150258,-0.774971127510071,-0.409775674343109,0.505317270755768,-0.846218976345106,-0.364104384899943,0.523849857357655,9
1.63999938964844,-0.496680974960327,2.40760326385498,1.55991363525391,-0.653994195024907,2.68442094880091,1.54771065096602,2221.046,3163.815,3133.157,613.9224,-0.09006544,-0.001474326,0.1162524,-0.784830391407013,-0.4123255610466,0.505697548389435,-0.857007552155828,-0.368746407673381,0.530528499715628,9
1.66000366210938,-0.512610673904419,2.39928793907166,1.57028901576996,-0.671244443874359,2.67699864863716,1.55838937674714,2059.37,2979.359,2847.222,1281.052,-0.08836155,-0.0009331717,0.1153981,-0.796488225460052,-0.41576674580574,0.518770217895508,-0.867618167158098,-0.373311858882592,0.53709697585572,9
1.68000030517578,-0.528724431991577,2.39092445373535,1.58061337471008,-0.688698391434734,2.66948870260877,1.56919420173384,2263.822,3206.754,3205.926,458.8004,-0.09155682,-0.001013067,0.1171236,-0.805687069892883,-0.418175429105759,0.516215920448303,-0.878038122530658,-0.377795274579551,0.543547424602645,9
1.70000457763672,-0.545078039169312,2.38248634338379,1.59127068519592,-0.706365577065784,2.66188700619576,1.58013103124422,2017.343,2930.238,2769.289,1467.933,-0.08855277,-0.0003291667,0.1156988,-0.817681670188904,-0.421901345252991,0.532866716384888,-0.888270870184447,-0.382198140025102,0.549881982853708,9
1.72000122070313,-0.561597585678101,2.3740062713623,1.60178589820862,-0.724228658537036,2.6542010212754,1.5911891296115,2325.155,3272.646,3312.96,222.5764,-0.09302102,-0.0005901565,0.1181843,-0.825978398323059,-0.424006670713425,0.525758445262909,-0.898304216251578,-0.386515208538549,0.556093102023817,9
1.73999786376953,-0.578370153903961,2.36544418334961,1.61274528503418,-0.742290383213093,2.64642956573347,1.60237019758524,1946.809,2854.694,2642.075,1762.016,-0.08806754,0.0003249554,0.1158663,-0.838626325130463,-0.428106844425201,0.547971487045288,-0.908137821269591,-0.39074633405868,0.562180571969536,9
1.76000213623047,-0.595288932323456,2.35684585571289,1.62347185611725,-0.76055371708895,2.63857136338517,1.61367607125764,2303.406,3458.313,3364.873,0,-0.09365112,0.0002529871,0.1197354,-0.845942199230194,-0.429918736219406,0.536328136920929,-0.917771149318994,-0.394891285994308,0.568144060931169,9
1.77999877929688,-0.612472593784332,2.34816098213196,1.63473606109619,-0.779000609654483,2.63063418086074,1.62509557650306,1910.431,2720.059,2492.835,2097.842,-0.08666831,0.001715497,0.1164437,-0.859183490276337,-0.434247016906738,0.563211023807526,-0.927192788821983,-0.398945154262308,0.57397650459845,9
1.80000305175781,-0.629791855812073,2.33944225311279,1.64574611186981,-0.797640935141499,2.62261376955408,1.63663482594136,2143.773,3733.427,3245.733,0,-0.0919744,0.002757323,0.1215272,-0.865961253643036,-0.435936003923416,0.550503790378571,-0.936405971974637,-0.402909329586356,0.579679903854719,9
1.81999969482422,-0.647367835044861,2.33064723014832,1.65725004673004,-0.816456197270346,2.61451808789761,1.64828236949435,2016.744,2548.914,2454.662,2198.844,-0.08477002,0.005138339,0.1174886,-0.878803610801697,-0.439753264188766,0.57519942522049,-0.945399824400851,-0.406779133026206,0.585247526943151,9
1.84000396728516,-0.665072560310364,2.32182884216309,1.66848301887512,-0.835456397410825,2.6063428325813,1.66004439848636,2210.393,3678.066,3239.63,0,-0.09022576,0.006911462,0.1212026,-0.885233819484711,-0.440917700529099,0.561646401882172,-0.95417746870157,-0.410555908149813,0.59068130690248,9
1.86000061035156,-0.683019161224365,2.31294870376587,1.68016672134399,-0.854622615239374,2.59809614449182,1.6719092003358,2106.908,2521.806,2537.292,2054.972,-0.08435296,0.009640942,0.1160034,-0.897334516048431,-0.444006323814392,0.58418470621109,-0.962728579444532,-0.414235212212131,0.595974851798267,9
1.87999725341797,-0.701087653636932,2.30405044555664,1.6916127204895,-0.873957566090845,2.58977685529642,1.6838784559643,2201.263,3683.746,3248.803,0,-0.09048356,0.01176311,0.11863,-0.903422355651855,-0.444916933774948,0.5722975730896,-0.971053025860989,-0.417816988947023,0.601128080678429,9
1.90000152587891,-0.719372510910034,2.29509806632996,1.7034295797348,-0.893464153455626,2.58138371570432,1.69595396277071,2155.58,2533.743,2705.408,1816.473,-0.08683769,0.01444168,0.1134832,-0.914247334003448,-0.447613328695297,0.590843260288239,-0.979150439632688,-0.421301079877433,0.606140765536421,9
1.91999816894531,-0.737772583961487,2.28612565994263,1.71503949165344,-0.913122862707269,2.57292512231409,1.70812364027167,2257.269,3532.208,3348.265,0,-0.09338747,0.01626074,0.1151213,-0.920004308223724,-0.448615968227386,0.580493211746216,-0.987011339258123,-0.424683405378145,0.611007036871143,9
1.94000244140625,-0.756370961666107,2.27709531784058,1.72699022293091,-0.932943991899774,2.5643966441608,1.72039386345315,2145.393,2603.932,2858.458,1596.781,-0.09089475,0.01841217,0.1106174,-0.92991691827774,-0.451516479253769,0.597534537315369,-0.994638524886308,-0.427965170275055,0.615728628108227,9
1.95999908447266,-0.775079190731049,2.26803541183472,1.73876988887787,-0.952907658613767,2.55580683609405,1.73275232415044,2264.81,3456.721,3415.259,0,-0.09704453,0.01962279,0.112494,-0.935412108898163,-0.452997207641602,0.588984072208405,-1.00202309041976,-0.431142542523221,0.620300025949072,9
1.98000335693359,-0.793975114822388,2.25890684127808,1.75088727474213,-0.973024270010337,2.54715122020317,1.74520546489201,2117.023,2656.201,2916.221,1506.902,-0.09423435,0.02113827,0.1091428,-0.944802045822144,-0.456430345773697,0.605867862701416,-1.00916768936771,-0.434216663853535,0.624722873042297,9
2,-0.812976002693176,2.24974036216736,1.76284050941467,-0.993273599084619,2.53843849960327,1.7577407641983,2296.47,3390.923,3443.398,0,-0.09943604,0.0216145,0.1116922,-0.950038194656372,-0.458319395780563,0.597660541534424,-1.01606400046349,-0.437183953857422,0.628992018127441,9
2.02000427246094,-0.832163333892822,2.24049615859985,1.77516233921051,-1.01366615605493,2.52966415204104,1.77036472839513,2078.824,2691.243,2863.512,1558.76,-0.09514835,0.02256357,0.1091012,-0.959367871284485,-0.46221062541008,0.616089522838593,-1.02271452148052,-0.440045487257004,0.633109007445237,9
2.04000091552734,-0.851448893547058,2.23121213912964,1.78730654716492,-1.0341813929022,2.52083701875502,1.78306463727984,2295.556,3424.872,3401.245,0,-0.09945308,0.02253746,0.1125913,-0.964277863502502,-0.464198797941208,0.607213139533997,-1.02911152474823,-0.442797939051516,0.637069057199471,9
2.05999755859375,-0.870921969413757,2.22184920310974,1.79984498023987,-1.05482201812353,2.5119559343546,1.79584216754118,2051.571,2685.573,2752.412,1699.484,-0.09365006,0.02322295,0.1102669,-0.973654210567474,-0.468144804239273,0.626923680305481,-1.03525504859546,-0.445441325732794,0.640872191117535,9
2.08000183105469,-0.890485286712646,2.21245312690735,1.81217157840729,-1.07559088172821,2.50301967256038,1.80869908347065,2289.447,3476.172,3347.283,0,-0.097542,0.02301153,0.1143097,-0.978165626525879,-0.46980807185173,0.616330325603485,-1.04114485287423,-0.447975543971863,0.644518260536375,9
2.09999847412109,-0.910237312316895,2.20298528671265,1.82491254806519,-1.09646699912883,2.4940372624541,1.82162239460902,2037.966,2658.876,2645.659,1845.94,-0.09073763,0.02370986,0.1116533,-0.987600743770599,-0.473389029502869,0.637046098709106,-1.04677411523768,-0.450397658303471,0.648003042098304,8
2.12000274658203,-0.930071532726288,2.19349551200867,1.83741009235382,-1.11746110947495,2.48500408327971,1.83461874900143,2255.479,3555.798,3294.897,0,-0.09469881,0.02364285,0.1159296,-0.991709887981415,-0.474494159221649,0.624879479408264,-1.05214490868305,-0.452708560680417,0.651327819087362,8
2.13999938964844,-0.950091421604156,2.18394708633423,1.85031759738922,-1.138551967509,2.47592927627801,1.8476749948214,2041.565,2614.111,2594.156,1936.447,-0.08766913,0.02455535,0.1127545,-1.00099813938141,-0.477417021989822,0.645374417304993,-1.05725102347782,-0.454905579228273,0.654488747383304,8
2.16000366210938,-0.970186829566956,2.17438936233521,1.86296212673187,-1.15975039167652,2.46680818657414,1.86079782920208,2236.813,3588.987,3276.114,0,-0.09188598,0.02474127,0.1167648,-1.00476765632629,-0.477887094020844,0.632226824760437,-1.0620943502576,-0.456989527434725,0.657486997379635,8
2.18000030517578,-0.990461230278015,2.16478776931763,1.87600088119507,-1.18103490068612,2.45765005696766,1.87397395420079,2057.052,2584.846,2600.858,1939.335,-0.08518014,0.0258446,0.1130782,-1.01372063159943,-0.480078756809235,0.651935875415802,-1.06666929835407,-0.458957999791384,0.660319108186354,8
2.19999694824219,-1.0108048915863,2.15518760681152,1.88877403736115,-1.20240821395574,2.44845371736898,1.88720505326679,2224.597,3592.92,3279.925,0,-0.08962975,0.02621157,0.1166515,-1.01718890666962,-0.479998081922531,0.638655364513397,-1.07097597819164,-0.460811043810786,0.662985148161421,7
2.22000122070313,-1.0313173532486,2.14555668830872,1.90191853046417,-1.22387315175433,2.43921795429519,1.90049287228091,2071.081,2575.166,2642.41,1884.738,-0.08345494,0.02737196,0.112709,-1.02563202381134,-0.481555968523026,0.6572265625,-1.07501419914593,-0.462548577472581,0.665484999299265,7
2.23999786376953,-1.05189347267151,2.13593530654907,1.91480386257172,-1.24540792547886,2.42995214277345,1.91382392305993,2230.847,3562.138,3297.335,0,-0.08798924,0.02772247,0.1158353,-1.02879869937897,-0.481059372425079,0.644264578819275,-1.07877930973132,-0.464168599372462,0.667815782108711,5
2.26000213623047,-1.07262694835663,2.12629246711731,1.92804253101349,-1.26702351885107,2.42065155681516,1.92720500505083,2072.968,2587.864,2684.272,1815.832,-0.08222084,0.02876206,0.1118821,-1.03667676448822,-0.482158839702606,0.661936044692993,-1.08227271937422,-0.465671715947234,0.669978369091845,5
2.27999877929688,-1.09341669082642,2.11666512489319,1.94102621078491,-1.28869796983554,2.41132564607061,1.9406225227075,2236.491,3526.402,3316.043,0,-0.08668216,0.0289209,0.1147862,-1.03948497772217,-0.481365382671356,0.649186134338379,-1.08549040888332,-0.467056197851165,0.67197027217779,1
2.30000305175781,-1.11435389518738,2.10702180862427,1.95435798168182,-1.31044231452835,2.40196966201596,1.95408330789913,2059.971,2606.953,2697.907,1781.335,-0.08091802,0.02974018,0.1109648,-1.0468602180481,-0.482163935899734,0.666590631008148,-1.08843358680109,-0.468322565086307,0.673792239511894,0
2.31999969482422,-1.13533890247345,2.09739923477173,1.96743166446686,-1.33223444283894,2.39259311800549,1.96757367342642,2233.895,3510.938,3318.468,0,-0.08518653,0.02964917,0.1139335,-1.04924619197845,-0.481127381324768,0.653686940670013,-1.09109887036509,-0.469469362144493,0.675442177003072,0
2.34000396728516,-1.15646278858185,2.08776569366455,1.98085606098175,-1.35408543512393,2.38319124647132,1.98110047855794,2038.969,2616.499,2676.685,1797.784,-0.07906233,0.03026373,0.1102405,-1.05619633197784,-0.481673210859299,0.671221137046814,-1.09348726343002,-0.470497020956358,0.676920706085208,0
2.36000061035156,-1.17762494087219,2.07815861701965,1.99400985240936,-1.37597305876702,2.37377361348711,1.99464996024512,2226.891,3513.699,3304.309,0,-0.08311779,0.0299678,0.1133833,-1.05810797214508,-0.480354756116867,0.657687664031982,-1.09559602313537,-0.471404361345641,0.678226128796969,0
2.37999725341797,-1.19891858100891,2.06854677200317,2.0075204372406,-1.39790005743958,2.36433903852774,2.00822381695123,2018.169,2613.757,2631.502,1849.923,-0.07648492,0.03045781,0.1096673,-1.06468272209167,-0.480589747428894,0.675524055957794,-1.09742530100382,-0.472191448508328,0.679358538938131,0
2.40000152587891,-1.22024011611938,2.05896854400635,2.02074098587036,-1.4198692197338,2.35488632173988,2.02182377494768,2211.358,3534.019,3279.769,0,-0.08041521,0.03006742,0.1129629,-1.0660787820816,-0.478908538818359,0.661032795906067,-1.09897493039424,-0.472858210743393,0.680317833349887,0
2.41999816894531,-1.24168539047241,2.04939389228821,2.03432369232178,-1.44185817738692,2.34542508756209,2.03543598721428,2004.912,2599.854,2577.932,1913.798,-0.07336263,0.0305345,0.1090432,-1.07227158546448,-0.478736490011215,0.679140329360962,-1.10024313330221,-0.473403883025206,0.681102911362803,0
2.44000244140625,-1.26314783096313,2.03986120223999,2.04759550094604,-1.46387808506052,2.33595053645515,2.04906735901791,2189.438,3563.764,3251.671,0,-0.07733767,0.03016789,0.1123895,-1.07312214374542,-0.47663202881813,0.663589775562286,-1.10123038958312,-0.473828671822132,0.681714070030222,0
2.45999908447266,-1.28472483158112,2.03034162521362,2.06122612953186,-1.48590651627916,2.32647231790489,2.06270400730194,1996.097,2576.788,2539.924,1965.847,-0.07010452,0.03069456,0.1081612,-1.07884585857391,-0.475975126028061,0.681534051895142,-1.10193556692257,-0.474132089930926,0.682150608395601,0
2.48000335693359,-1.30630791187286,2.0208728313446,2.07452917098999,-1.50795464064698,2.31698562594271,2.07635284658344,2172.209,3582.064,3230.82,0,-0.07420845,0.03040929,0.1113716,-1.0791552066803,-0.473434209823608,0.66515439748764,-1.10235893238473,-0.47431425226183,0.68241269178437,0
2.5,-1.32799386978149,2.01142716407776,2.08818101882935,-1.52999999932945,2.30750012397766,2.08999997377396,1993.435,2558.219,2524.44,1983.465,-0.06706585,0.03099711,0.1068311,-1.08430147171021,-0.47227880358696,0.682587385177612,-1.10250000050292,-0.474374949932098,0.682500019669533,0
2.52000427246094,-1.34967529773712,2.00203990936279,2.10149455070496,-1.55205376834272,2.29801100328223,2.10365230735988,2159.881,3584.679,3220.754,0,-0.0713397,0.03076771,0.1097986,-1.08406734466553,-0.46934586763382,0.665677487850189,-1.10235882472314,-0.474314205938057,0.682412625136718,0
2.54000091552734,-1.37144613265991,1.99268484115601,2.11514353752136,-1.57409348237975,2.28852793005043,2.11729594024597,1989.563,2548.831,2525.916,1974.657,-0.06443039,0.03136152,0.1050388,-1.08855044841766,-0.467757225036621,0.682451546192169,-1.10193556692257,-0.474132089930926,0.682150608395601,0
2.55999755859375,-1.39320158958435,1.98339462280273,2.12844800949097,-1.59612191359838,2.27904971150017,2.13093258853001,2151.492,3574.698,3218.637,0,-0.06883792,0.03111506,0.107774,-1.08776462078094,-0.464515060186386,0.665226936340332,-1.10123038958312,-0.473828671822132,0.681714070030222,0
2.58000183105469,-1.41503238677979,1.97414255142212,2.14207577705383,-1.61814182127198,2.26957516039323,2.14456396033363,1979.339,2547.263,2532.9,1957.559,-0.0621145,0.03164636,0.1029238,-1.09154844284058,-0.462595343589783,0.681389689445496,-1.10024313330221,-0.473403883025206,0.681102911362804,0
2.59999847412109,-1.43683660030365,1.9649600982666,2.15535569190979,-1.64013077892511,2.26011392621545,2.15817617260023,2148.756,3559.205,3215.364,0,-0.06656731,0.03130171,0.1055003,-1.09021139144897,-0.4591264128685,0.663998425006866,-1.09897493039424,-0.472858210743393,0.680317833349887,0
2.62000274658203,-1.4587025642395,1.9558207988739,2.16894936561584,-1.66209994121933,2.25066120942759,2.17177613059669,1963.814,2552.065,2532.643,1945.676,-0.05992805,0.0317113,0.1006647,-1.09329903125763,-0.456964671611786,0.67968213558197,-1.09742530100382,-0.472191448508328,0.679358538938131,0
2.63999938964844,-1.48053050041199,1.94675445556641,2.18218779563904,-1.68402693989188,2.24122663446822,2.18534998730279,2145.99,3541.477,3213.104,0,-0.064367,0.03121153,0.1031766,-1.09139239788055,-0.453315883874893,0.661918878555298,-1.09559602313537,-0.471404361345641,0.67822612879697,0
2.66000366210938,-1.50240731239319,1.93773508071899,2.19573879241943,-1.70592290617745,2.23180541187802,2.19890463348308,1942.623,2557.3,2515.577,1956.24,-0.05759459,0.03148038,0.09835791,-1.09384834766388,-0.450969755649567,0.677554965019226,-1.09348640563071,-0.470496651869278,0.67692017506657,0
2.68000030517578,-1.52423465251923,1.92879176139832,2.20892429351807,-1.72776555581996,2.22240712994983,2.2124262741215,2134.527,3542.6,3199.559,0,-0.0619872,0.03084446,0.1009476,-1.09136283397675,-0.447158515453339,0.659276008605957,-1.09109887036509,-0.469469362144494,0.675442177003072,0
2.69999694824219,-1.5460991859436,1.91989922523499,2.22242283821106,-1.74955768413056,2.21303058593937,2.22591663964878,1921.406,2553.572,2484.677,1989.492,-0.05496605,0.03101528,0.09611832,-1.09322142601013,-0.444626808166504,0.674928843975067,-1.08843358680109,-0.468322565086308,0.673792239511893,0
2.72000122070313,-1.56790208816528,1.91108679771423,2.23554062843323,-1.77130202882336,2.20367460188472,2.23937742484041,2123.069,3546.381,3182.954,0,-0.05931925,0.03029102,0.09877107,-1.09015333652496,-0.44062551856041,0.655887722969055,-1.08549040888332,-0.467056197851165,0.671970272177789,0
2.73999786376953,-1.58973073959351,1.90232932567596,2.24897527694702,-1.79297647980783,2.19434869114016,2.25279494249708,1905.085,2545.052,2444.365,2032.82,-0.05202698,0.03041074,0.09381253,-1.09144771099091,-0.437873750925064,0.671735525131226,-1.08227271937422,-0.465671715947234,0.669978369091845,0
2.76000213623047,-1.61148679256439,1.89365601539612,2.26201295852661,-1.81459207318004,2.18504810518187,2.26617602448799,2103.803,3564.995,3159.209,0,-0.05643025,0.02967438,0.09652475,-1.08779335021973,-0.433659344911575,0.651890218257904,-1.07877930973132,-0.464168599372462,0.667815782108711,0
2.77999877929688,-1.63325643539429,1.88504314422607,2.27536487579346,-1.83612684690458,2.17578229366013,2.27950707526701,1891.016,2527.918,2411.667,2074.499,-0.04898725,0.02980547,0.09138764,-1.08848476409912,-0.430650144815445,0.66759979724884,-1.07501419914593,-0.462548577472581,0.665484999299265,0
2.80000305175781,-1.65494155883789,1.87651896476746,2.28830599784851,-1.85759178470316,2.16654653058634,2.29279489428112,2091.819,3572.564,3140.11,0,-0.05348213,0.02909302,0.0940167,-1.08425998687744,-0.426210343837738,0.647057116031647,-1.07097597819164,-0.460811043810786,0.662985148161422,0
2.81999969482422,-1.67662763595581,1.86806011199951,2.30155515670776,-1.87896509797278,2.15735019098767,2.30602599334712,1881.178,2515.203,2392.108,2094.385,-0.0460599,0.02923688,0.08867974,-1.08430230617523,-0.422935158014297,0.662453651428223,-1.06666929835407,-0.458957999791384,0.660319108186353,0
2.84000396728516,-1.69821786880493,1.859694480896,2.3143835067749,-1.90025771011236,2.14818857483073,2.3192071345693,2080.735,3574.017,3126.802,0,-0.05068795,0.02853986,0.09116926,-1.0795134305954,-0.418295115232468,0.641415596008301,-1.06209255378819,-0.456988754464129,0.657485885279497,0
2.86000061035156,-1.71979522705078,1.85139846801758,2.32751107215881,-1.9214480311499,2.13907097167731,2.33232495272651,1870.347,2507.853,2383.7,2098.313,-0.04339248,0.02867046,0.08569679,-1.07886505126953,-0.414794772863388,0.656383872032166,-1.05725102347782,-0.454905579228273,0.654488747383304,0
2.87999725341797,-1.74126553535461,1.84319829940796,2.34021067619324,-1.94253888918396,2.12999616467562,2.34538119854648,2072.823,3566.049,3119.913,0,-0.04813983,0.02794745,0.08804803,-1.0735182762146,-0.410004407167435,0.634980320930481,-1.05214490868305,-0.452708560680416,0.651327819087361,0
2.90000152587891,-1.76270890235901,1.8350715637207,2.3532018661499,-1.96353299953007,2.12096298550123,2.3583775529389,1854.897,2505.763,2380.265,2096.439,-0.04094131,0.02802465,0.08252431,-1.07217180728912,-0.406341791152954,0.649563729763031,-1.04677411523767,-0.450397658303471,0.648003042098304,0
2.91999816894531,-1.78403460979462,1.82704246044159,2.36576080322266,-1.98440911693069,2.11198057539494,2.37130086407726,2069.175,3554.96,3111.855,0,-0.04574565,0.02722644,0.08478471,-1.06628584861755,-0.401451021432877,0.627947926521301,-1.04114485287423,-0.447975543971863,0.644518260536375,0
2.94000244140625,-1.80531978607178,1.81908905506134,2.37860488891602,-2.00517798053537,2.10304431360073,2.38415778000673,1836.66,2508.316,2373.12,2096.157,-0.0385924,0.02721306,0.07928703,-1.06425476074219,-0.397677063941956,0.64220780134201,-1.03525504859546,-0.445441325732794,0.640872191117535,0
2.95999908447266,-1.82647657394409,1.81123495101929,2.39100933074951,-2.02581860575671,2.0941632292003,2.39693531026807,2066.449,3539.673,3106.677,0,-0.04341272,0.02630031,0.08150795,-1.05783700942993,-0.392712652683258,0.620227098464966,-1.02911152474823,-0.442797939051516,0.637069057199471,0
2.98000335693359,-1.84757995605469,1.80345785617828,2.40369963645935,-2.04634164528706,2.08533273863774,2.40964004938531,1815.065,2511.803,2354.696,2110.371,-0.03614921,0.02617951,0.07603147,-1.05517828464508,-0.388856887817383,0.634515881538391,-1.02271203275434,-0.440044416427654,0.633107466805174,0
3,-1.8685450553894,1.79578113555908,2.4159414768219,-2.06672639957428,2.07656174835205,2.42225918334961,2056.442,3539.617,3093.016,0,-0.04096048,0.02516771,0.07832357,-1.04824209213257,-0.383824646472931,0.612098097801208,-1.01606400046349,-0.437183953857422,0.628992018127441,0
3.01999664306641,-1.88944470882416,1.78818345069885,2.42847013473511,-2.08697572864857,2.06784902775215,2.4347944826559,1794.065,2508.225,2327.302,2140.029,-0.03351002,0.02497064,0.07285593,-1.04499125480652,-0.379877209663391,0.626430988311768,-1.00916768936771,-0.434216663853534,0.624722873042298,0
3.04000091552734,-1.91019582748413,1.78068852424622,2.44053792953491,-2.10709234004513,2.05919341186127,2.44724762339747,2047.979,3538.918,3078.382,0,-0.03830904,0.02389124,0.07519524,-1.03755486011505,-0.374752312898636,0.603395283222198,-1.00202309041976,-0.43114254252322,0.620300025949072,0
3.05999755859375,-1.93087077140808,1.77327489852905,2.45289659500122,-2.12705600675913,2.05060360379452,2.45960608409476,1777.522,2501.966,2293.282,2175.336,-0.03065511,0.02364654,0.06964559,-1.03374671936035,-0.370680809020996,0.617929041385651,-0.994638524886308,-0.427965170275055,0.615728628108227,0
3.08000183105469,-1.95138692855835,1.76596629619598,2.46478176116943,-2.14687713595163,2.04207512564123,2.47187630727625,2033.151,3550.129,3058.229,0,-0.03550846,0.02255291,0.07203524,-1.02582168579102,-0.365441918373108,0.594257056713104,-0.987011339258122,-0.424683405378145,0.611007036871143,0
3.09999847412109,-1.97181606292725,1.75874161720276,2.47695636749268,-2.16653584520328,2.033616532251,2.4840459847772,1762.14,2489.612,2265.104,2209.493,-0.02774162,0.02230641,0.06637627,-1.021444439888,-0.36121928691864,0.608731925487518,-0.979150439632689,-0.421301079877433,0.606140765536421,0
3.12000274658203,-1.99207711219788,1.751624584198,2.4886462688446,-2.18604243256806,2.0252233926589,2.49612149158362,2024.196,3552.373,3041.973,0,-0.03267699,0.02122323,0.06871274,-1.01305186748505,-0.355856567621231,0.58449774980545,-0.971053025860989,-0.417816988947023,0.601128080678429,0
3.13999938964844,-2.0122389793396,1.74459493160248,2.50062227249146,-2.20537738341953,2.01690410346351,2.50809074721212,1749.191,2481.087,2246.283,2228.255,-0.02491174,0.02097678,0.06293224,-1.00808787345886,-0.351478099822998,0.598804295063019,-0.962728579444533,-0.414235212212131,0.595974851798267,0
3.16000366210938,-2.03222370147705,1.73767471313477,2.5121054649353,-2.22455088103183,2.00865428308644,2.51996005559448,2015.834,3550.95,3029.392,0,-0.02995524,0.01989832,0.06518211,-0.999239563941956,-0.346008151769638,0.574164688587189,-0.954174163352092,-0.410554485950274,0.590679260733698,0
3.18000030517578,-2.05209708213806,1.73084449768066,2.52386999130249,-2.24354380138856,2.00048216005771,2.53171757805356,1735.284,2476.826,2234.796,2236.223,-0.02226562,0.01963526,0.05933291,-0.993673384189606,-0.341502100229263,0.588224649429321,-0.94539982440085,-0.406779133026206,0.58524752694315,0
3.19999694824219,-2.07178449630737,1.724125623703,2.53513503074646,-2.2623590635174,1.99238647840124,2.54336512160655,2009.863,3542.467,3021.746,0,-0.02740872,0.0185326,0.06150112,-0.984381675720215,-0.335957735776901,0.563250958919525,-0.936405971974636,-0.402909329586355,0.579679903854719,0
3.22000122070313,-2.09134888648987,1.71749830245972,2.5466775894165,-2.28099938900442,1.98436606709459,2.55490437104486,1717.614,2476.27,2225.771,2241.913,-0.01976066,0.01822669,0.05563968,-0.978222489356995,-0.331364899873734,0.577131927013397,-0.927192788821982,-0.398945154262308,0.573976504598449,0
3.23999786376953,-2.1107189655304,1.71098279953003,2.55771613121033,-2.29944628156995,1.97642888457015,2.56632387629027,2006.358,3533.413,3012.301,0,-0.02495915,0.01707027,0.05776772,-0.968509078025818,-0.325775057077408,0.551931083202362,-0.917771149318993,-0.394891285994308,0.568144060931169,0
3.26000213623047,-2.12995481491089,1.70456027984619,2.56902956962585,-2.31770961544581,1.96857068222185,2.57762974996267,1698.48,2478.201,2213.545,2249.703,-0.01731587,0.01670069,0.05194521,-0.961777865886688,-0.321122229099274,0.565667271614075,-0.90813782126959,-0.39074633405868,0.562180571969535,0
3.27999877929688,-2.14898777008057,1.69825029373169,2.57983183860779,-2.33577134012187,1.96079922667992,2.58881081793642,2003.938,3520.674,3005.288,0,-0.02254472,0.01546734,0.0540597,-0.951662480831146,-0.315499663352966,0.54010933637619,-0.898304216251578,-0.386515208538549,0.556093102023818,0
3.30000305175781,-2.16787576675415,1.69203448295593,2.59091091156006,-2.35364119854729,1.95311032582551,2.59987311156116,1677.993,2480.443,2193.608,2266.994,-0.01480451,0.01502382,0.04826056,-0.944402933120728,-0.310796529054642,0.553956210613251,-0.888267004546666,-0.382196476749158,0.549879589839776,0
3.31999969482422,-2.18655395507813,1.68593168258667,2.60147094726563,-2.37130160722417,1.94551154534655,2.61080574581408,1996.169,3519.29,2992.015,0,-0.02005414,0.01372849,0.05043275,-0.933907628059387,-0.305137932300568,0.528003096580505,-0.878038122530657,-0.377795274579551,0.543547424602645,0
3.34000396728516,-2.20507717132568,1.67992424964905,2.61230969429016,-2.38876217417054,1.9379987511813,2.62161466851603,1658.531,2477.402,2168.607,2293.622,-0.01218343,0.01323484,0.04464554,-0.926150679588318,-0.300370872020721,0.541934192180634,-0.867614155697521,-0.373310132863173,0.537094492570531,0
3.36000061035156,-2.22338318824768,1.67403066158295,2.62261939048767,-2.406005803634,1.93057929915441,2.6322892965819,1990.908,3516.192,2978.096,0,-0.01746235,0.01189951,0.04684193,-0.915302455425262,-0.294659316539764,0.515489816665649,-0.857007552155826,-0.36874640767338,0.530528499715627,0
3.37999725341797,-2.2415246963501,1.66823482513428,2.63320994377136,-2.42303550945299,1.9232518924954,2.64283149572124,1641.099,2473.263,2142.924,2320.544,-0.009479255,0.01137358,0.04101569,-0.907070338726044,-0.289806634187698,0.52952253818512,-0.846218976345105,-0.364104384899943,0.523849857357654,0
3.40000152587891,-2.25944232940674,1.6625542640686,2.64326190948486,-2.43985407218584,1.9160153348077,2.65324298723213,1982.711,3516.817,2963.742,0,-0.0148157,0.01002536,0.04322004,-0.895887792110443,-0.284030497074127,0.502593457698822,-0.835248923368004,-0.359384277571698,0.517058871988738,0
3.41999816894531,-2.27718615531921,1.65697276592255,2.65359592437744,-2.45644516534361,1.90887665092339,2.66351366424015,1627.041,2468.1,2118.46,2344.142,-0.006782539,0.00948484,0.03733405,-0.887189328670502,-0.279081761837006,0.516699016094208,-0.824110582941664,-0.354591760855451,0.510163708672097,0
3.44000244140625,-2.29469966888428,1.65150785446167,2.66338181495667,-2.47281804716281,1.90183185728196,2.67364925803476,1973.882,3517.007,2950.814,0,-0.01222338,0.008142167,0.03952717,-0.875687956809998,-0.273243963718414,0.489293426275253,-0.812800388649434,-0.349725300221754,0.503162159625937,0
3.45999908447266,-2.31203031539917,1.64614343643188,2.67344927787781,-2.48895692832918,1.89488774758421,2.68363999427827,1611.604,2462.433,2100.205,2363.631,-0.004188087,0.007599981,0.0335896,-0.866526544094086,-0.268209964036942,0.503370940685272,-0.801332006385299,-0.344790775723006,0.496062684689628,0
3.48000335693359,-2.32912492752075,1.64089727401733,2.68296146392822,-2.50487092366784,1.88804039997555,2.69349151548162,1967.335,3513.427,2940.11,0,-0.009725331,0.006265581,0.03574859,-0.854725658893585,-0.262326329946518,0.475604116916656,-0.78970183472369,-0.339786637766397,0.488863054409187,0
3.5,-2.346027135849,1.63575267791748,2.69275379180908,-2.5205447997813,1.88129636896134,2.70319439144611,1596.924,2459.643,2086.177,2375.486,-0.001723065,0.005715262,0.02978897,-0.845106661319733,-0.257226645946503,0.489616334438324,-0.777924000354857,-0.334718964672089,0.481572013878822,0
3.51999664306641,-2.36268758773804,1.63072609901428,2.70198464393616,-2.53598168290031,1.87465430941181,2.7127505574575,1963.099,3505.642,2931.762,0,-0.007348194,0.004374085,0.03190997,-0.833024203777313,-0.251317739486694,0.461547017097473,-0.765999459475408,-0.329588167864767,0.474190155029786,0
3.54000091552734,-2.37914657592773,1.62580251693726,2.71149492263794,-2.55118444594166,1.86811298519115,2.72216179198813,1580.254,2459.621,2073.884,2385.136,0.0006299168,0.00380162,0.02596147,-0.822961151599884,-0.246176570653915,0.475518375635147,-0.753929052770513,-0.324394609067776,0.466717998286246,0
3.55999755859375,-2.39535927772522,1.62099754810333,2.72043943405151,-2.56613872308604,1.86167857751006,2.73141920191151,1961.28,3496.867,2922.35,0,-0.005067463,0.00243565,0.02806039,-0.81061863899231,-0.240259751677513,0.447222620248795,-0.741727567798258,-0.319144650954242,0.459164697851087,0
3.58000183105469,-2.41136169433594,1.61629557609558,2.72966265678406,-2.58085326729328,1.85534732021446,2.74052820572674,1562.682,2461.716,2060.147,2395.211,0.002891066,0.001828143,0.0221528,-0.80013233423233,-0.235095083713531,0.461167216300964,-0.729391385793765,-0.313836736470737,0.451528013536464,0
3.59999847412109,-2.42711305618286,1.61171174049377,2.73831391334534,-2.59531431270705,1.84912513636775,2.74948028171299,1959.658,3485.74,2915.266,0,-0.002873551,0.0004249276,0.02424631,-0.787553250789642,-0.229183703660965,0.432563543319702,-0.716935713767317,-0.308477408768949,0.443817359206151,0
3.62000274658203,-2.44264650344849,1.60723185539246,2.74724650382996,-2.60953046793176,1.84300832192796,2.75828075900647,1544.444,2464.085,2042.904,2409.96,0.005115211,-0.0002247708,0.01837666,-0.776675283908844,-0.22400763630867,0.446635633707047,-0.704356955827444,-0.303065120637236,0.436030508832034,0
3.63999938964844,-2.45792412757874,1.60286974906921,2.75560164451599,-2.6234885835008,1.83700253474321,2.76692149746096,1953.501,3481.981,2903.633,1.960484,-0.0006977482,-0.001652225,0.020514,-0.763885676860809,-0.218105435371399,0.417753756046295,-0.691670720740692,-0.297606588091786,0.428177124984152,0
3.66000366210938,-2.47297716140747,1.59861135482788,2.76423954963684,-2.63719712493647,1.83110413233575,2.77540773763803,1528.25,2463.312,2023.724,2427.921,0.007328035,-0.002327603,0.01468737,-0.752646803855896,-0.212915733456612,0.431895732879639,-0.678873453515702,-0.29210028151913,0.420255006953505,0
3.68000030517578,-2.48777055740356,1.5944709777832,2.77230262756348,-2.65064357486757,1.82531850058072,2.78373173068862,1930.605,3489.495,2872.958,29.42882,0.001625871,-0.003695402,0.0168859,-0.739684522151947,-0.207016423344612,0.403153449296951,-0.665981146317811,-0.286553081901244,0.412274054652249,0
3.69999694824219,-2.50233268737793,1.59043574333191,2.78063678741455,-2.66383127580226,1.81964420129024,2.79189554578451,1525.612,2459.303,2012.501,2426.295,0.009539621,-0.004337224,0.01113535,-0.728103399276733,-0.201781302690506,0.416704505681992,-0.65299527533123,-0.280965624398954,0.404235181908735,0
3.72000122070313,-2.51663303375244,1.58651781082153,2.78840637207031,-2.6767633032417,1.81407991116207,2.79990108680742,1910.548,3478.563,2835.998,80.70267,0.004074303,-0.005588377,0.01319071,-0.715005159378052,-0.195871978998184,0.388479471206665,-0.639917282339434,-0.275338529371411,0.396139281255611,0
3.73999786376953,-2.53069424629211,1.58270668983459,2.79642534255981,-2.68942811570037,1.808630596175,2.80774120902801,1534.187,2466.261,2015.66,2387.796,0.01163229,-0.006177468,0.007505896,-0.703075468540192,-0.190570294857025,0.400953739881516,-0.626763698705669,-0.269678909802388,0.38799658639423,0
3.76000213623047,-2.54449129104614,1.57901346683502,2.80389904975891,-2.70183383146282,1.803292763258,2.81542093805117,1889.25,3458.14,2796.589,147.0752,0.00641123,-0.007299192,0.009285701,-0.689841628074646,-0.184662938117981,0.373686492443085,-0.613531154887639,-0.263985315871967,0.379805011417393,0
3.77999877929688,-2.55804204940796,1.57542681694031,2.81159162521362,-2.7139695770734,1.79807109095524,2.82293354268985,1543.115,2485.429,2035.63,2319.374,0.01337188,-0.007838748,0.003755182,-0.67754590511322,-0.179327711462975,0.384626239538193,-0.60023651686137,-0.258265004538452,0.371574997167698,0
3.80000305175781,-2.57132577896118,1.57195723056793,2.81876707077026,-2.72584333814708,1.79296214327972,2.83028396642013,1863.711,3426.564,2756.485,231.3642,0.00846407,-0.008835835,0.005218585,-0.664171576499939,-0.173473328351974,0.358771592378616,-0.586876524285838,-0.252516572968186,0.363304525338741,0
3.81999969482422,-2.58435583114624,1.56859409809113,2.82612442970276,-2.73744492223163,1.78797030575888,2.83746589962856,1552.346,2515.462,2067.793,2227.265,0.01470297,-0.009342369,-1.767057E-05,-0.651515483856201,-0.16816720366478,0.367871075868607,-0.573468357077023,-0.246747413199059,0.355004231116903,0
3.83999633789063,-2.59711623191833,1.56534552574158,2.83300065994263,-2.74877791451009,1.78309403578861,2.84448156171422,1835.668,3384.427,2713.78,332.8903,0.01024298,-0.0102324,0.001137454,-0.638009190559387,-0.162423476576805,0.343812644481659,-0.560014026276881,-0.240958390526246,0.346675359432959,0
3.86000061035156,-2.60961651802063,1.56220149993896,2.84001851081848,-2.75984563331209,1.77833190558438,2.85133300688122,1562.581,2553.328,2104.726,2121.492,0.01575387,-0.01072242,-0.003689011,-0.625030040740967,-0.157197445631027,0.350897818803787,-0.546515580872635,-0.235150386571708,0.338319178707605,0
3.87999725341797,-2.62184500694275,1.55916976928711,2.84659647941589,-2.77063893010371,1.77368785150474,2.85801457175126,1809.092,3334.716,2665.803,447.0188,0.01187433,-0.0115251,-0.00283893,-0.611413836479187,-0.151598408818245,0.328897505998611,-0.532990631455729,-0.229330978680956,0.329946590735853,0
3.90000152587891,-2.63380837440491,1.55624008178711,2.85327410697937,-2.78116548164984,1.76915857045225,2.8645310086075,1575.24,2596.931,2140.071,2009.338,0.01667127,-0.01201032,-0.007202253,-0.598166167736053,-0.146470993757248,0.333883494138718,-0.519436284009554,-0.223498921639498,0.32155580398356,0
3.91999816894531,-2.6454975605011,1.55341994762421,2.85955381393433,-2.79141684911929,1.7647476934202,2.87087709341145,1783.197,3280.94,2615.063,568.0849,0.01343045,-0.0127379,-0.006666425,-0.584465861320496,-0.141027182340622,0.313985407352448,-0.505870408491346,-0.2176619043907,0.313157880805522,0
