t,x_s1,x_s2,x_s3,x_s_d1,x_s_d2,x_s_d3,propellers_rpms1,propellers_rpms2,propellers_rpms3,propellers_rpms4,rollRad,pitchRad,yawRad,v_s1,v_s2,v_s3,v_s_d1,v_s_d2,v_s_d3,insideCount
0,-0.0599999986588955,2.94000005722046,1.17999994754791,-0.0599999986588955,2.94000005722046,1.17999994754791,0,0,0,0,0,0,0,0,0,0,-1.06581410364015E-15,4.44089209850063E-16,4.44089209850063E-16,0
0.019989013671875,-0.0599999986588955,2.94000005722046,1.17811644077301,-0.0600018659130177,2.93999925379318,1.18000110346716,0,0,0,0,-0.01635288,0.0001297794,-0.01587137,-1.10653664009419E-09,-7.76775763711157E-08,-0.0941759571433067,-0.000279680311988734,-0.000120338624884473,0.000173135436141649,9
0.0399932861328125,-0.0599999986588955,2.94000005722046,1.17242503166199,-0.060014863945674,2.93999366110285,1.18000914986856,0,0,0,0,-0.03270202,0.0005238493,-0.03175127,-1.08383135799528E-09,-7.60859677484405E-08,-0.284568399190903,-0.00111059898697896,-0.000477859717552347,0.000687513678106196,9
0.05999755859375,-0.0599058866500854,2.93990302085876,1.16596508026123,-0.0600498857373401,2.93997859220429,1.18003083002592,1868.354,3252.841,3183.737,1722.314,-0.04942294,0.000329806,-0.01369557,0.00470561534166336,-0.00484914472326636,-0.32299879193306,-0.00247936261166862,-0.00106680046642749,0.00153484356504269,9
0.0800018310546875,-0.0598203726112843,2.93960738182068,1.16000318527222,-0.0601175574246769,2.93994947496775,1.18007272202403,1925.478,2314.355,3252.169,2829.42,-0.07543564,-0.002136388,0.02094805,0.00427567213773727,-0.014778820797801,-0.298097044229507,-0.00437268608126799,-0.00188144466206175,0.00270690098422899,9
0.0999908447265625,-0.0599374547600746,2.93904495239258,1.15498673915863,-0.0602281370710988,2.93990189563514,1.18014117609281,980.0964,1498.883,3915.018,3896.587,-0.1032007,-0.008063519,0.06330951,-0.00585401896387339,-0.0281177312135696,-0.25082466006279,-0.00677536694902951,-0.00291525111632684,0.0041942748969354,8
0.1199951171875,-0.0604638755321503,2.93818354606628,1.15081346035004,-0.0603918861403606,2.93983143898525,1.18024254456713,346.0178,980.1927,4173.286,4613.497,-0.1214359,-0.0154229,0.104006,-0.0263210758566856,-0.0430709719657898,-0.208664610981941,-0.00967801353495435,-0.00416417885169243,0.00599115140585487,8
0.139999389648438,-0.0615636557340622,2.93704128265381,1.1472829580307,-0.0606185767455666,2.93973390035084,1.18038287685052,352.9745,747.1586,3975.09,4855.053,-0.1254024,-0.0211684,0.1351104,-0.0549890846014023,-0.057116162031889,-0.1765246540308,-0.0130660253322238,-0.00562194567796536,0.00808849210174802,7
0.159988403320313,-0.0633409321308136,2.93568086624146,1.14427483081818,-0.0609175312885481,2.93960526856281,1.18056794395381,821.1297,814.9834,3462.453,4692.479,-0.1184601,-0.0235253,0.1522726,-0.0888638496398926,-0.0680163130164146,-0.150403559207916,-0.0169234294955564,-0.00728167892605071,0.0104764090324936,7
0.17999267578125,-0.0658470541238785,2.9341721534729,1.14182531833649,-0.0612985250199726,2.93944133760391,1.18080379722281,1348.496,1083.136,3007.172,4255.248,-0.1079784,-0.02278068,0.1557796,-0.125306099653244,-0.0754325985908508,-0.122476495802402,-0.0212433804254414,-0.00914043312572283,0.0131506644458931,7
0.199996948242188,-0.0690851733088493,2.93255376815796,1.140061378479,-0.0617704296168641,2.93923829023936,1.18109592864822,1636.58,1381.371,2918.107,3666.323,-0.0998238,-0.02030128,0.1501555,-0.161906167864799,-0.0809164941310883,-0.0881941169500351,-0.0260104776919234,-0.0111915819022102,0.0161017247421801,7
0.220001220703125,-0.0730105489492416,2.93082594871521,1.13903534412384,-0.0623420644491781,2.93899233174064,1.18144979784016,1641.675,1580.896,3147.912,3112.963,-0.09583811,-0.01735475,0.1421851,-0.196268945932388,-0.086386501789093,-0.0512994378805161,-0.03121219533433,-0.0134297356845702,0.019321835755004,7
0.239990234375,-0.0775503292679787,2.92897343635559,1.13863289356232,-0.0630214373585105,2.93870001655724,1.18187036203406,1524.136,1624.287,3417.867,2777.301,-0.094759,-0.01467775,0.137729,-0.226989030838013,-0.0926253348588943,-0.0201202891767025,-0.0368316683029241,-0.015847637913056,0.022800557215184,7
0.259994506835938,-0.0826392844319344,2.92699217796326,1.13863551616669,-0.0638179029240226,2.93835731967507,1.18236341216003,1438.42,1500.553,3534.079,2744.198,-0.09439095,-0.0125893,0.1393012,-0.254447758197784,-0.09906055778265,0.000129921361804008,-0.0428651747123285,-0.0184436871643672,0.0265355850983733,7
0.279998779296875,-0.088245153427124,2.9249005317688,1.13885200023651,-0.0647390625194898,2.93796097043536,1.18293365383054,1400.692,1276.099,3476.247,2977.699,-0.09320851,-0.01110591,0.145685,-0.280293643474579,-0.104587085545063,0.0108242519199848,-0.0492963837173861,-0.0212108567320638,0.030516809833474,7
0.300003051757813,-0.0943709015846252,2.92273235321045,1.13920664787292,-0.0657927507678135,2.93750759781875,1.18358593705038,1351.099,1061.738,3344.545,3324.79,-0.09053203,-0.009934656,0.1533108,-0.306287497282028,-0.108407936990261,0.0177300870418549,-0.0561132031658829,-0.0241439437008635,0.0347367458022363,7
0.319992065429688,-0.101036235690117,2.92052555084229,1.13972473144531,-0.0669855955880233,2.93699435001684,1.18432436481717,1280.946,941.1042,3237.547,3590.591,-0.08598335,-0.008523713,0.1583598,-0.333266407251358,-0.110342785716057,0.0259024240076542,-0.0632980253096114,-0.0272353719486164,0.0391844929697465,7
0.339996337890625,-0.108251884579659,2.91831183433533,1.14046168327332,-0.068326768706371,2.93641728069206,1.18515461486636,1252.259,943.6888,3172.185,3650.011,-0.07944795,-0.006293582,0.1584796,-0.360783100128174,-0.110682338476181,0.0368449799716473,-0.0708499516420146,-0.0304847548730522,0.0438594951176439,7
0.360000610351563,-0.116003453731537,2.91611456871033,1.14145255088806,-0.0698225328270578,2.93577369517774,1.1860805641102,1319.792,1047.361,3120.259,3498.22,-0.07154316,-0.002963566,0.1534759,-0.387578278779984,-0.109861329197884,0.0495458766818047,-0.0787518717320621,-0.0338847303337087,0.0487511600740379,8
0.379989624023438,-0.124251812696457,2.91394948959351,1.14270722866058,-0.0714784451857985,2.93506120235061,1.1871056527423,1456.214,1182.025,3089.908,3231.007,-0.06361067,0.001260014,0.1450371,-0.412417948246002,-0.10825751721859,0.0627333149313927,-0.0869857157641562,-0.0374275233937465,0.0538483017622888,8
0.399993896484375,-0.132943660020828,2.91182613372803,1.14421701431274,-0.0733036822025899,2.9342758538535,1.18823556140379,1579.036,1273.281,3105.608,2981.872,-0.05701562,0.005826182,0.1357475,-0.434592515230179,-0.106165312230587,0.0754878148436546,-0.0955525119207663,-0.0411135764513579,0.0591515566763244,8
0.419998168945313,-0.142024040222168,2.90974998474121,1.14595746994019,-0.0753034649285836,2.93341540321397,1.18947352217404,1631.095,1288.649,3158.795,2845.064,-0.05243551,0.01017584,0.127856,-0.4540194272995,-0.103802002966404,0.0870240405201912,-0.104434660908044,-0.0449353170220673,0.0646500300148815,8
0.44000244140625,-0.151446461677551,2.90772414207458,1.14789521694183,-0.077483988232608,2.93247718495301,1.19082336997196,1607.569,1238.401,3218.911,2842.495,-0.04965517,0.01397656,0.1224571,-0.47112113237381,-0.101289466023445,0.0968871489167213,-0.113620829717891,-0.048887868829098,0.0703367061060819,8
0.459991455078125,-0.161177173256874,2.9057514667511,1.14999663829803,-0.0798493430620752,2.93145943885026,1.19228763728888,1541.568,1158.262,3252.868,2938.092,-0.04789056,0.01718702,0.1193366,-0.486535489559174,-0.0986378937959671,0.105069682002068,-0.123092454730403,-0.0529632444654124,0.0762000931848968,8
0.479995727539063,-0.171194046735764,2.9038360118866,1.15223908424377,-0.0824088828700873,2.93035814037613,1.19387211435783,1473.191,1085.763,3249.468,3067.286,-0.04629053,0.01998629,0.1173795,-0.500843346118927,-0.0957786813378334,0.112124599516392,-0.132852887402757,-0.0571628859694044,0.0822422659629699,8
0.5,-0.181481435894966,2.9019832611084,1.15461552143097,-0.085166398670376,2.92917165836334,1.1955791479969,1431.913,1046.368,3215.809,3169.901,-0.04432938,0.02264407,0.1152257,-0.514370381832123,-0.0926406979560852,0.118820823729038,-0.142884000065179,-0.0614789935111996,0.0884520025491718,8
0.519989013671875,-0.192024603486061,2.90019869804382,1.1571341753006,-0.0881248588203387,2.92789871561062,1.19741057576073,1424.919,1045.374,3176.528,3209.707,-0.04191656,0.02538114,0.111884,-0.527157962322235,-0.0892267748713493,0.125933229923248,-0.153166947611899,-0.0659034585682559,0.0948176369253132,9
0.539993286132813,-0.202804893255234,2.89848589897156,1.15980970859528,-0.091293865515634,2.92653518056143,1.19937234186584,1444.626,1072.989,3149.925,3184.925,-0.03929281,0.02828891,0.1070518,-0.539014935493469,-0.0856376141309738,0.133775055408478,-0.163706645289342,-0.0704383960337938,0.101342211863077,9
0.55999755859375,-0.213798135519028,2.89684534072876,1.16265261173248,-0.094676112580471,2.92507989413848,1.20146611391775,1483.768,1113.86,3138.33,3114.846,-0.03688265,0.03132767,0.1010603,-0.549663126468658,-0.0820306092500687,0.142143383622169,-0.17448465888317,-0.0750758741803766,0.108014315705644,9
0.580001831054688,-0.224976405501366,2.8952739238739,1.16566753387451,-0.0982762614093182,2.92353085067394,1.20369477754168,1522.305,1149.133,3145.142,3034.053,-0.03512337,0.03434771,0.09464987,-0.558912694454193,-0.0785738378763199,0.150745674967766,-0.185490414529404,-0.0798113433697334,0.11482740272751,9
0.599990844726563,-0.236311018466949,2.8937656879425,1.16885113716125,-0.102095761416081,2.92188742652551,1.20605922999388,1540.726,1167.108,3163.36,2978.987,-0.03429566,0.03716256,0.08861164,-0.566731989383698,-0.0754157155752182,0.15917806327343,-0.19670480600515,-0.0846365827279185,0.121769645266545,9
0.6199951171875,-0.247776329517365,2.89231252670288,1.17219471931458,-0.106144683970236,2.92014528826426,1.20856570593183,1533.169,1166.947,3183.56,2964.62,-0.03442508,0.03963116,0.08345965,-0.573265969753265,-0.0726639926433563,0.167179852724075,-0.208134604141382,-0.0895545055543457,0.128845234789665,9
0.639999389648438,-0.259351521730423,2.89090490341187,1.17568695545197,-0.110424235525481,2.91830391678686,1.21121495220784,1506.765,1156.372,3194.236,2987.34,-0.03534121,0.04169882,0.07929713,-0.578759789466858,-0.0703800991177559,0.17461034655571,-0.219761081350814,-0.0945570538913933,0.136042578028218,9
0.659988403320313,-0.271021246910095,2.88953304290771,1.1793200969696,-0.114934715429503,2.91636318329238,1.21400715413238,1468.892,1144.649,3196.711,3029.858,-0.03677506,0.04338856,0.07589924,-0.583485901355743,-0.0685942471027374,0.181657835841179,-0.231565018351745,-0.0996359582190702,0.143349777331291,9
0.67999267578125,-0.282774180173874,2.88818669319153,1.18308961391449,-0.119686638739014,2.91431856344567,1.21694882102647,1427.895,1139.371,3191.724,3075.774,-0.03844486,0.04477638,0.07288582,-0.587647318840027,-0.0673229694366455,0.18847844004631,-0.243554411173546,-0.104794659005432,0.150771782621969,9
0.699996948242188,-0.294601112604141,2.88685512542725,1.18699204921722,-0.124680083855354,2.91217002351282,1.22004000142426,1403.796,1146.136,3176.835,3103.091,-0.0401658,0.04596687,0.06985991,-0.591346144676208,-0.066572517156601,0.195121809840202,-0.255710395848158,-0.11002503961202,0.158296916205407,9
0.720001220703125,-0.30649334192276,2.88552808761597,1.19102811813354,-0.129918284978346,2.90991617190799,1.22328269744952,1395.401,1163.181,3162.802,3105.401,-0.04192721,0.04702372,0.06662225,-0.594610929489136,-0.0663566291332245,0.20180556178093,-0.268023157655716,-0.11532287703907,0.16591910230247,9
0.739990234375,-0.318441689014435,2.88419389724731,1.19519889354706,-0.135400001298574,2.90755754251682,1.2266761409821,1392.251,1185.209,3153.627,3094.019,-0.04383883,0.04795366,0.06321364,-0.597417771816254,-0.0667059049010277,0.208541333675385,-0.280473432677602,-0.12067988256057,0.173626415629864,9
0.759994506835938,-0.330436736345291,2.88284063339233,1.19950473308563,-0.14113644597991,2.90508931062815,1.2302272735046,1390.211,1207.305,3151.329,3075.417,-0.0460093,0.04873223,0.05981484,-0.599754095077515,-0.0676610320806503,0.215291693806648,-0.293070637251543,-0.126100107763583,0.181424685349205,9
0.779998779296875,-0.34246951341629,2.88145542144775,1.20394206047058,-0.147126184485884,2.90251209348295,1.23393520697061,1387.578,1226.459,3150.151,3059.505,-0.04853664,0.04931828,0.0566516,-0.601637125015259,-0.0692554339766502,0.221868470311165,-0.305795832832518,-0.131575403921268,0.189302187598958,9
0.800003051757813,-0.354532390832901,2.88002514839172,1.20850801467896,-0.153371683173492,2.89982482987671,1.2378014681726,1376.762,1240.894,3153.081,3052.533,-0.05146559,0.04966401,0.0539276,-0.6031454205513,-0.0715180635452271,0.22829981148243,-0.318639638509124,-0.13710173468952,0.197253115148089,9
0.819992065429688,-0.366620123386383,2.87853574752808,1.21319794654846,-0.159870162197751,2.89702871589906,1.2418243362541,1352.718,1250.961,3156.222,3062.154,-0.05475619,0.04974002,0.05175768,-0.604386687278748,-0.0744654908776283,0.234498113393784,-0.33158286215529,-0.142670842232658,0.205265587156312,9
0.839996337890625,-0.378729909658432,2.87697386741638,1.21800696849823,-0.166633637018892,2.89411858163313,1.24601124935738,1323.65,1259.231,3157.505,3079.734,-0.05826836,0.04955576,0.05011235,-0.605487585067749,-0.0780984312295914,0.240448340773582,-0.344636106234817,-0.148287288494656,0.213346167053785,8
0.860000610351563,-0.390860944986343,2.87532591819763,1.22292840480804,-0.173659158941841,2.89109569582005,1.2503603820997,1300.089,1268.962,3151.167,3097.965,-0.06187482,0.04914943,0.04886889,-0.606552302837372,-0.0823931396007538,0.246070325374603,-0.357780475378537,-0.153942943326036,0.221483157706883,8
0.879989624023438,-0.403014302253723,2.87357950210571,1.22795951366425,-0.18094280014554,2.88796174849148,1.25486930297274,1280.441,1281.248,3144.491,3111.147,-0.06550418,0.04855713,0.04791178,-0.607668042182922,-0.0873251780867577,0.251554787158966,-0.370996904517929,-0.159629603560431,0.229664756929996,8
0.899993896484375,-0.415191948413849,2.87172198295593,1.23309850692749,-0.18849723509595,2.8847112861788,1.25954585807468,1257.657,1295.173,3139.609,3124.645,-0.06911382,0.04780538,0.04718203,-0.608883380889893,-0.0928701013326645,0.256951242685318,-0.384296738353309,-0.165352150505452,0.237897987633041,8
0.919998168945313,-0.427396416664124,2.86974215507507,1.23834180831909,-0.196318384305134,2.8813460641717,1.26438752200817,1246.174,1310.754,3131.858,3128.9,-0.07266168,0.04693355,0.04661119,-0.610223531723022,-0.0989942848682404,0.262164026498795,-0.397661187980262,-0.171102499820431,0.246171218589148,8
0.94000244140625,-0.439630717039108,2.86762881278992,1.24368846416473,-0.204407453948074,2.87786556348678,1.26939504145298,1238.889,1326.828,3127.549,3126.603,-0.07617386,0.04595186,0.04622269,-0.611713349819183,-0.105671718716621,0.267331123352051,-0.411081631631503,-0.176876941799768,0.254479112513653,8
0.959991455078125,-0.451898127794266,2.8653712272644,1.24913692474365,-0.212759000778906,2.87427212620069,1.27456504678061,1226.946,1341.217,3126.011,3128.608,-0.07968497,0.04485378,0.0460963,-0.613371312618256,-0.11287447810173,0.27242049574852,-0.424539267042903,-0.182667386354485,0.262810029909387,8
0.979995727539063,-0.46420282125473,2.86295986175537,1.2546854019165,-0.22138664033507,2.87055989392801,1.27990596665734,1213.58,1353.062,3127.088,3132.373,-0.08316519,0.04364096,0.04627997,-0.615234375,-0.120573781430721,0.27742213010788,-0.438046240701377,-0.188479059778567,0.271171490030365,8
1,-0.476549565792084,2.86038541793823,1.26032972335815,-0.230284798736574,2.86673126495361,1.28541435058594,1205.153,1363.45,3124.071,3137.319,-0.08659002,0.04232495,0.04677908,-0.617339432239532,-0.128722980618477,0.28221333026886,-0.451584000205995,-0.194303979492187,0.279552008056641,8
1.01998901367188,-0.488944441080093,2.8576397895813,1.266068816185,-0.239446912293295,2.86278906344998,1.29108613532954,1195.843,1372.592,3123.191,3143.393,-0.08995146,0.04091088,0.04759603,-0.619741797447205,-0.137285977602005,0.286954551935196,-0.46513400752272,-0.200134169097193,0.287940108062054,8
1.03999328613281,-0.501394093036652,2.85471534729004,1.27190208435059,-0.248887339851819,2.85872711120656,1.2969302096982,1177.589,1380.082,3124.716,3157.879,-0.09321543,0.03940551,0.04872932,-0.622483551502228,-0.146223708987236,0.291665315628052,-0.478708875293167,-0.205975055460915,0.29634359787259,8
1.05999755859375,-0.513906002044678,2.85160565376282,1.27782642841339,-0.258599401509697,2.85454828239877,1.30294243851408,1168.803,1387.313,3121.627,3168.178,-0.09630203,0.03784792,0.05008665,-0.625594556331635,-0.155480116605759,0.296218574047089,-0.492290296490434,-0.211818761581115,0.30475114456651,8
1.08000183105469,-0.526488065719604,2.84830546379089,1.28384208679199,-0.268583149539609,2.85025255453512,1.30912285413647,1164.424,1395.032,3120.031,3173.553,-0.09919689,0.03626093,0.05161938,-0.629104733467102,-0.165011197328568,0.300782710313797,-0.50587040849135,-0.217661904390701,0.313157880805523,8
1.09999084472656,-0.539148509502411,2.84481000900269,1.28994929790497,-0.278830554044452,2.84584338265603,1.31546648567654,1156.877,1402.126,3119.736,3182.216,-0.1019096,0.03465564,0.05332074,-0.633019864559174,-0.1747687458992,0.305360674858093,-0.519431110871131,-0.223496695782555,0.321552601564445,7
1.1199951171875,-0.551895380020142,2.84111571311951,1.29614889621735,-0.289357002179081,2.84131414609862,1.32198285851614,1150.892,1407.902,3121.825,3188.87,-0.104405,0.03305148,0.05516475,-0.637347638607025,-0.184709027409554,0.309978991746902,-0.532985466132485,-0.229328756186667,0.329943393154705,7
1.13999938964844,-0.564737021923065,2.83722019195557,1.30243945121765,-0.300154365346813,2.83666834237095,1.3286669406667,1153.569,1413.517,3119.838,3191.97,-0.1066809,0.03147071,0.0571182,-0.64208048582077,-0.194772079586983,0.314530521631241,-0.546515580872639,-0.235150386571708,0.338319178707607,7
1.15998840332031,-0.577681541442871,2.83312177658081,1.30882322788239,-0.31121353909136,2.83190988886621,1.33551309603608,1156.751,1418.218,3121.054,3193.662,-0.1087773,0.02991572,0.05918904,-0.647229075431824,-0.20491985976696,0.319187313318253,-0.560003743914979,-0.240953966313175,0.346668994161124,7
1.17999267578125,-0.590737462043762,2.82881951332092,1.31530272960663,-0.322550701230474,2.8270318247214,1.34253133946411,1150.717,1420.746,3126.489,3202.722,-0.1107049,0.02838178,0.06140775,-0.652792930603027,-0.215116649866104,0.32397386431694,-0.573463232144024,-0.246745208083563,0.355001058539242,7
1.19999694824219,-0.603912770748138,2.8243134021759,1.32187724113464,-0.334156660511822,2.8220381046756,1.34971598112778,1153.031,1422.428,3127.634,3208.695,-0.1124221,0.02689396,0.06371999,-0.658764660358429,-0.225308507680893,0.328728020191193,-0.58687652428584,-0.252516572968185,0.36330452533874,7
1.22000122070313,-0.617215871810913,2.81960415840149,1.32854926586151,-0.346030421585499,2.81692915700008,1.35706640485806,1158.136,1423.817,3130.405,3211.619,-0.1139412,0.0254613,0.06610368,-0.665154337882996,-0.235460013151169,0.333602875471115,-0.600236516861372,-0.258265004538453,0.371574997167698,7
1.239990234375,-0.630654871463776,2.81469345092773,1.33532118797302,-0.358161486344149,2.81170949873715,1.36457611182642,1158.021,1424.138,3134.56,3219.738,-0.1152808,0.02408368,0.0685626,-0.671952545642853,-0.245533138513565,0.338599145412445,-0.613526094901141,-0.263983138701136,0.379801879044709,7
1.25999450683594,-0.644237995147705,2.80958366394043,1.34219574928284,-0.3705671011502,2.80637170925886,1.37225577835275,1157.791,1423.119,3140.54,3227.501,-0.1164041,0.02277453,0.07106315,-0.679153323173523,-0.255494177341461,0.343726277351379,-0.626758665639206,-0.269676744214496,0.387993470686331,7
1.27999877929688,-0.657972574234009,2.8042778968811,1.34917306900024,-0.383236695417198,2.80092033679326,1.3800988607405,1166.656,1422.801,3141.016,3231.363,-0.1173064,0.02155642,0.07354834,-0.686732292175293,-0.265291541814804,0.348864078521729,-0.639917282339435,-0.275338529371412,0.396139281255613,8
1.30000305175781,-0.671866357326508,2.79877996444702,1.35625696182251,-0.396168722856641,2.79535604666509,1.38810440176341,1176.173,1422.293,3144.378,3232.895,-0.118034,0.02042975,0.07600744,-0.694685578346252,-0.274900674819946,0.354196310043335,-0.652995275331231,-0.280965624398954,0.404235181908735,8
1.31999206542969,-0.685926139354706,2.79309391975403,1.36345136165619,-0.409351342777246,2.78968393359302,1.39626507146953,1178.968,1420.583,3150.615,3239.393,-0.1186172,0.01938783,0.07845695,-0.702988803386688,-0.284298896789551,0.35972198843956,-0.665976209205206,-0.286550957599616,0.412270998344359,8
1.33999633789063,-0.700158536434174,2.78722453117371,1.37075972557068,-0.422802873722428,2.78389611561957,1.40459220990988,1181.385,1417.479,3159.039,3245.025,-0.1190167,0.01843853,0.08087904,-0.711621105670929,-0.293465733528137,0.36541748046875,-0.678873453515705,-0.29210028151913,0.420255006953505,8
1.36000061035156,-0.714569389820099,2.78117728233337,1.37818217277527,-0.436511415158101,2.77799771321212,1.41307845008695,1193.622,1415.318,3160.781,3246.628,-0.1192292,0.01759894,0.08323114,-0.720545172691345,-0.302357912063599,0.371123492717743,-0.691670720740693,-0.297606588091785,0.42817712498415,8
1.37998962402344,-0.72916454076767,2.77495813369751,1.38572263717651,-0.450464156928423,2.77199423822282,1.42171586190405,1206.188,1412.917,3164.8,3246.679,-0.1193128,0.01686189,0.08551458,-0.729754447937012,-0.310959905385971,0.377022981643677,-0.704352136620515,-0.303063047067127,0.436027525513373,8
1.39999389648438,-0.743948996067047,2.76857280731201,1.393385887146,-0.464680216184654,2.76587746507559,1.43051627978847,1207.657,1408.674,3173.9,3254.076,-0.119292,0.0162106,0.08776052,-0.739226818084717,-0.319265633821487,0.383160948753357,-0.716930938559026,-0.308475354130225,0.443814403124744,8
1.41999816894531,-0.758927524089813,2.76202774047852,1.40117275714874,-0.47914673136562,2.75965292774086,1.43947174182117,1216.597,1404.905,3177.823,3257.988,-0.119136,0.01566379,0.08991651,-0.748923063278198,-0.327248752117157,0.389342099428177,-0.729391385793766,-0.313836736470737,0.451528013536465,8
1.44000244140625,-0.774104177951813,2.75532960891724,1.40908670425415,-0.493861275572861,2.75332167044526,1.4485807456364,1228.232,1401.392,3183.12,3257.895,-0.1188654,0.01522113,0.09196694,-0.758831918239594,-0.334902286529541,0.395697355270386,-0.741727567798258,-0.319144650954242,0.459164697851088,8
1.45999145507813,-0.789482533931732,2.74848532676697,1.41713094711304,-0.508809800712713,2.74688973769103,1.45783459479497,1234.477,1397.257,3189.789,3262.027,-0.1185096,0.01487076,0.09393147,-0.768921732902527,-0.342219084501266,0.402214229106903,-0.753924423002454,-0.324392617007921,0.466715132239272,8
1.47999572753906,-0.805065929889679,2.74150133132935,1.42530858516693,-0.524012471663969,2.74034845309416,1.46724577231745,1239.197,1392.127,3198.168,3266.225,-0.1180435,0.0146129,0.09580061,-0.779167056083679,-0.349196225404739,0.408882170915604,-0.765994882555672,-0.329586198544069,0.474187321698441,8
1.5,-0.820856392383575,2.73438501358032,1.43361961841583,-0.539455198877605,2.73370387899399,1.4768055561018,1252.179,1388.555,3199.795,3267.012,-0.1174747,0.01445882,0.09753544,-0.789525032043457,-0.355810970067978,0.415550142526627,-0.777924000354858,-0.334718964672088,0.481572013878822,8
1.51998901367188,-0.836856186389923,2.72714376449585,1.44206750392914,-0.555123050061237,2.72696244033876,1.48650470234772,1264.385,1384.937,3204.253,3266.109,-0.1168574,0.01439692,0.09913999,-0.799987018108368,-0.362068474292755,0.422396570444107,-0.789697369743256,-0.339784716610053,0.488860290373601,8
1.53999328613281,-0.853066742420197,2.71978402137756,1.45065641403198,-0.571036956668503,2.72011513090874,1.49635616862212,1265.621,1379.628,3214.038,3271.55,-0.1162012,0.01440767,0.100651,-0.81052565574646,-0.367983013391495,0.429447621107101,-0.801327600455846,-0.344788879974649,0.496059957209413,8
1.55999755859375,-0.869488537311554,2.71231317520142,1.4593859910965,-0.587181951496087,2.71316839067337,1.50635068951315,1274.964,1375.545,3217.341,3273.09,-0.1154763,0.01450679,0.1020257,-0.821092903614044,-0.37354439496994,0.436476409435272,-0.812800388649436,-0.349725300221754,0.503162159625937,8
1.58000183105469,-0.886122107505798,2.70473790168762,1.4682582616806,-0.60355483331529,2.70612359703193,1.51648628330776,1287.098,1371.886,3221.549,3270.636,-0.1147098,0.01468857,0.1032597,-0.831678092479706,-0.378759473562241,0.443613439798355,-0.824110582941666,-0.354591760855452,0.510163708672098,8
1.59999084472656,-0.902967095375061,2.69706511497498,1.4772754907608,-0.620139554045575,2.69898765502515,1.52675301547962,1292.549,1367.567,3227.61,3273.021,-0.113937,0.01493404,0.1043866,-0.842252612113953,-0.383638858795166,0.450859755277634,-0.835244706287931,-0.359382463079953,0.517056261415284,8
1.6199951171875,-0.920023024082184,2.68930125236511,1.48643946647644,-0.636958033083316,2.69175113334911,1.53716445517924,1295.022,1362.265,3235.695,3276.228,-0.1131268,0.01523915,0.105407,-0.852794051170349,-0.388196527957916,0.458196938037872,-0.846214826007804,-0.364102599125749,0.523847288101157,8
1.63999938964844,-0.937288224697113,2.68145275115967,1.49574840068817,-0.653994195024907,2.68442094880091,1.54771065096602,1305.866,1358.988,3236.02,3276.144,-0.1122778,0.01561556,0.1062834,-0.863260388374329,-0.392423629760742,0.465446352958679,-0.857007552155828,-0.368746407673381,0.530528499715628,8
1.65998840332031,-0.954761266708374,2.67352604866028,1.50520431995392,-0.67123120513297,2.67700434489773,1.55838118133557,1316.407,1355.876,3239.062,3273.666,-0.1114389,0.01605022,0.1070204,-0.873650372028351,-0.396336495876312,0.472794771194458,-0.867610144209785,-0.373308406832068,0.537092009268528,8
1.67999267578125,-0.9724400639534,2.66552686691284,1.51480972766876,-0.688691692550512,2.66949158495151,1.56919005480539,1315.262,1351.134,3247.637,3277.827,-0.1106155,0.01652118,0.1076623,-0.883942306041718,-0.399961650371552,0.48027029633522,-0.878034183119987,-0.377793579561193,0.543544985919778,8
1.69999694824219,-0.990321815013885,2.65746092796326,1.5245623588562,-0.706358800111611,2.66188992212981,1.58012683598675,1322.136,1348.039,3248.981,3278.366,-0.1097766,0.01704386,0.1081696,-0.89409077167511,-0.40329983830452,0.487629860639572,-0.888267004546665,-0.382196476749158,0.549879589839776,8
1.72000122070313,-1.00840365886688,2.64933347702026,1.53446269035339,-0.724228658537036,2.6542010212754,1.5911891296115,1331.979,1345.477,3251.446,3274.363,-0.1089451,0.01761227,0.1085407,-0.904093563556671,-0.406366944313049,0.495016664266586,-0.898304216251578,-0.386515208538549,0.556093102023817,8
1.739990234375,-1.02668225765228,2.6411497592926,1.54451131820679,-0.74228345468553,2.64643254688532,1.60236590849663,1334.458,1342.296,3255.918,3275.597,-0.1081536,0.01820551,0.1088169,-0.913928151130676,-0.409182548522949,0.502428829669952,-0.908134108040217,-0.390744736359816,0.562178273303667,8
1.75999450683594,-1.04515385627747,2.63291430473328,1.55470812320709,-0.760546715064628,2.63857437616062,1.61367173667103,1333.861,1338.198,3262.359,3277.66,-0.1073643,0.01881986,0.1090039,-0.923579394817352,-0.411768108606339,0.509842455387115,-0.917767514700581,-0.394889722119545,0.568141810929231,8
1.77999877929688,-1.06381404399872,2.62463188171387,1.56504952907562,-0.779000609654483,2.63063418086074,1.62509557650306,1341.989,1336.359,3260.448,3276.433,-0.1065722,0.01946727,0.1090667,-0.933011770248413,-0.414120435714722,0.517069339752197,-0.927192788821983,-0.398945154262308,0.57397650459845,8
1.80000305175781,-1.0826587677002,2.6163067817688,1.57553565502167,-0.797640935141499,2.62261376955408,1.63663482594136,1349.745,1334.71,3261.361,3272.803,-0.105825,0.02013496,0.1090135,-0.942234218120575,-0.416259527206421,0.524308502674103,-0.936405971974637,-0.402909329586356,0.579679903854719,7
1.81999206542969,-1.10168349742889,2.60794258117676,1.58616673946381,-0.816448984455027,2.61452119137054,1.64827790441807,1348.073,1332.192,3265.705,3275.078,-0.1051421,0.02080303,0.1088845,-0.951230406761169,-0.418212562799454,0.53155642747879,-0.945396434568188,-0.406777674475912,0.585245428475252,7
1.83999633789063,-1.12088310718536,2.59954261779785,1.59694182872772,-0.835449117627072,2.60634596486888,1.66003989195343,1344.459,1328.914,3271.896,3276.833,-0.104462,0.02147446,0.1086791,-0.959986746311188,-0.420003831386566,0.538757562637329,-0.954174163352093,-0.410554485950274,0.590679260733698,7
1.86000061035156,-1.14025247097015,2.59110999107361,1.60785579681396,-0.854622615239374,2.59809614449182,1.6719092003358,1351.798,1328.207,3268.378,3274.218,-0.1037706,0.02216409,0.108361,-0.968467772006989,-0.421626836061478,0.545695900917053,-0.962728579444532,-0.414235212212131,0.595974851798267,7
1.87998962402344,-1.15978622436523,2.58264803886414,1.61890769004822,-0.873950157556149,2.58978004298193,1.6838738697284,1359.504,1327.748,3267.391,3268.99,-0.1031272,0.02285831,0.107944,-0.976688086986542,-0.423097282648087,0.552592515945435,-0.971049893464309,-0.417815641164241,0.601126141575667,7
1.89999389648438,-1.17947924137115,2.57415914535522,1.63009774684906,-0.893456683142228,2.58138692997148,1.69594933829086,1353.164,1325.426,3272.79,3272.285,-0.1025466,0.02353096,0.1074869,-0.984642505645752,-0.424445331096649,0.55950129032135,-0.979147395688901,-0.421299770153459,0.606138881190213,7
1.91999816894531,-1.19932508468628,2.56564569473267,1.64142119884491,-0.913122862707269,2.57292512231409,1.70812364027167,1354.016,1324.619,3271.189,3272.647,-0.1019858,0.02420002,0.1069506,-0.992300987243652,-0.425677001476288,0.566170692443848,-0.987011339258123,-0.424683405378145,0.611007036871143,7
1.94000244140625,-1.21931874752045,2.55710959434509,1.65287613868713,-0.932943991899774,2.5643966441608,1.72039386345315,1358.593,1324.4,3270.908,3267.526,-0.1014515,0.02486471,0.10633,-0.999676287174225,-0.426808446645737,0.572747230529785,-0.994638524886308,-0.427965170275055,0.615728628108227,7
1.95999145507813,-1.23945379257202,2.54855251312256,1.66446053981781,-0.952900013794853,2.55581012544606,1.73274759164336,1356.025,1323.696,3272.204,3267.865,-0.1009674,0.02550745,0.105668,-1.00675785541534,-0.42785632610321,0.579218745231628,-1.00202031904361,-0.431141350077486,0.620298310335216,7
1.97999572753906,-1.25972461700439,2.53997588157654,1.67617189884186,-0.973016570682103,2.54715453300902,1.74520069864106,1351.142,1322.165,3275.214,3268.682,-0.1004891,0.02612829,0.1049699,-1.01354432106018,-0.42883762717247,0.585568904876709,-1.00916501115878,-0.434215511495054,0.624721215103391,7
2,-1.28012502193451,2.53138089179993,1.68800413608551,-0.993273599084619,2.53843849960327,1.7577407641983,1355.169,1322.792,3269.736,3266.518,-0.1000134,0.02674097,0.104202,-1.02001368999481,-0.429744482040405,0.591614365577698,-1.01606400046349,-0.437183953857422,0.628992018127441,6
2.01998901367188,-1.30064868927002,2.5227689743042,1.699955701828,-1.01365055070775,2.52967086658596,1.77035506794184,1358.67,1323.513,3267.782,3261.758,-0.09958518,0.02733484,0.1033744,-1.02618896961212,-0.430592149496078,0.597580254077911,-1.02270954399163,-0.440043345582587,0.633105926142498,6
2.03999328613281,-1.32129001617432,2.51414084434509,1.71202564239502,-1.03417354141348,2.52084039703127,1.78305977683431,1348.844,1322.548,3271.854,3264.987,-0.09920222,0.02788993,0.1025405,-1.0320690870285,-0.43140584230423,0.603496134281158,-1.02910913225408,-0.442796909628122,0.637067576131623,6
2.05999755859375,-1.34204268455505,2.50549721717834,1.72420752048492,-1.05482201812353,2.5119559343546,1.79584216754118,1348.194,1323.122,3268.074,3264.341,-0.09881552,0.02842939,0.1016561,-1.03762936592102,-0.432182908058167,0.609096229076385,-1.03525504859546,-0.445441325732794,0.640872191117535,6
2.08000183105469,-1.36290049552917,2.49683856964111,1.73649859428406,-1.07559088172821,2.50301967256038,1.80869908347065,1351.796,1324.271,3265.624,3258.027,-0.09843896,0.02895216,0.1007184,-1.042888879776,-0.432931393384933,0.614552199840546,-1.04114485287423,-0.447975543971863,0.644518260536375,6
2.09999084472656,-1.3838574886322,2.48816537857056,1.74889588356018,-1.09645901288412,2.49404069871208,1.82161745074311,1347.193,1324.787,3265.181,3258.145,-0.098105,0.02944034,0.09977558,-1.0478435754776,-0.433661937713623,0.619866609573364,-1.04677201701582,-0.450396755497224,0.648001743199023,5
2.1199951171875,-1.4049072265625,2.47947764396667,1.76139640808105,-1.11745308225396,2.48500753716864,1.83461377976925,1339.641,1324.231,3266.987,3259.153,-0.09776571,0.02989546,0.09883223,-1.05249893665314,-0.434386491775513,0.625027716159821,-1.0521429102862,-0.45270770082608,0.651326581984514,5
2.13999938964844,-1.42604398727417,2.47077584266663,1.77399325370789,-1.138551967509,2.47592927627801,1.8476749948214,1341.685,1325.608,3260.399,3256.7,-0.09740778,0.03033513,0.0978504,-1.05683863162994,-0.435091584920883,0.629844129085541,-1.05725102347782,-0.454905579228273,0.654488747383304,4
2.15998840332031,-1.44726181030273,2.46206021308899,1.78668403625488,-1.15973418543027,2.46681515966915,1.86078779676364,1343.855,1327.11,3257.07,3251.397,-0.09707168,0.03075138,0.09683823,-1.06088829040527,-0.435784429311752,0.634540796279907,-1.06209075728,-0.456987981476842,0.657484773155346,4
2.17999267578125,-1.46855485439301,2.45333051681519,1.79946708679199,-1.18102676265167,2.45765355853653,1.8739689163698,1332.709,1326.988,3259.551,3254.417,-0.09676063,0.03112599,0.09584836,-1.06465089321136,-0.436481952667236,0.639153480529785,-1.06666760390386,-0.458957270716794,0.660318059240953,3
2.19999694824219,-1.48991692066193,2.44458699226379,1.81233561038971,-1.20240821395574,2.44845371736898,1.88720505326679,1331.002,1328.075,3254.507,3253.462,-0.09642348,0.03148307,0.09483375,-1.06810784339905,-0.437174320220947,0.643424451351166,-1.07097597819164,-0.460811043810786,0.662985148161421,1
2.22000122070313,-1.51134264469147,2.43582963943481,1.82528626918793,-1.22387315175433,2.43921795429519,1.90049287228091,1333.523,1329.665,3251.026,3246.835,-0.0960746,0.0318238,0.09379,-1.07128071784973,-0.437863618135452,0.647533178329468,-1.07501419914593,-0.462548577472581,0.665484999299265,0
2.239990234375,-1.53282594680786,2.42705845832825,1.83831584453583,-1.24539969505118,2.42995568409656,1.91381882803312,1327.694,1330.592,3249.565,3246.901,-0.0957449,0.03213178,0.09276403,-1.07416772842407,-0.438553631305695,0.651481509208679,-1.07877792518082,-0.464168003639063,0.667814925005999,0
2.25999450683594,-1.55436158180237,2.41827344894409,1.8514209985733,-1.26701526177039,2.4206551096063,1.92719989352455,1319.388,1330.364,3250.353,3247.591,-0.09538537,0.03241107,0.09175665,-1.0767765045166,-0.43924954533577,0.655258774757385,-1.08227143928024,-0.465671165158559,0.669977576652695,0
2.27999877929688,-1.57594347000122,2.40947484970093,1.86459445953369,-1.28869796983554,2.41132564607061,1.9406225227075,1320.987,1331.801,3242.894,3244.76,-0.09498164,0.03268052,0.09072768,-1.07909345626831,-0.439931392669678,0.658675670623779,-1.08549040888332,-0.467056197851165,0.67197027217779,0
2.29998779296875,-1.59756624698639,2.40066289901733,1.87783372402191,-1.31042570636616,2.40197680804417,1.95407302665558,1323.083,1333.361,3238.737,3238.803,-0.09457577,0.03293352,0.08968381,-1.08114421367645,-0.440600574016571,0.661964476108551,-1.08843144721369,-0.468321644481621,0.673790915005368,0
2.31999206542969,-1.61922490596771,2.39183759689331,1.89113700389862,-1.33222611841886,2.3925966997709,1.96756852021384,1311.493,1333.334,3240.322,3241.677,-0.09417471,0.03315235,0.08867821,-1.08293235301971,-0.441267430782318,0.665162622928619,-1.09109790637238,-0.469468947365361,0.675441580245663,0
2.33999633789063,-1.64091372489929,2.38299918174744,1.90449726581573,-1.35407709248145,2.38319483607731,1.98109531406483,1309.543,1334.135,3234.699,3240.511,-0.09372516,0.03336249,0.08766031,-1.08444201946259,-0.441917330026627,0.668014228343964,-1.09348640563071,-0.470496651869278,0.67692017506657,0
2.36000061035156,-1.66262757778168,2.37414836883545,1.91791141033173,-1.37597305876702,2.37377361348711,1.99464996024512,1312.138,1335.414,3230.785,3233.323,-0.09324046,0.03356581,0.08662346,-1.08569443225861,-0.442547798156738,0.670704960823059,-1.09559602313537,-0.471404361345641,0.678226128796969,0
2.37998962402344,-1.68436145782471,2.36528491973877,1.9313759803772,-1.39789168475144,2.36434264106153,2.00821863385843,1306.305,1336.066,3228.606,3233.228,-0.09275471,0.03374691,0.08561344,-1.08668673038483,-0.443157106637955,0.673230290412903,-1.09742465646102,-0.47219117117957,0.679358139935436,0
2.39999389648438,-1.70610988140106,2.35641002655029,1.94488775730133,-1.41986083522252,2.35488992936084,2.02181858453579,1298.354,1335.462,3228.888,3233.386,-0.09221835,0.03391135,0.0846278,-1.08742737770081,-0.443746238946915,0.675589859485626,-1.09897439291323,-0.472857979480329,0.680317500623536,0
2.41999816894531,-1.72786796092987,2.34752416610718,1.95843958854675,-1.44185817738692,2.34542508756209,2.03543598721428,1300.292,1336.294,3221.012,3230.231,-0.0916186,0.03407732,0.08362529,-1.08790290355682,-0.444291323423386,0.677590906620026,-1.10024313330221,-0.473403883025206,0.681102911362803,0
2.44000244140625,-1.74963068962097,2.33862829208374,1.97202908992767,-1.46387808506052,2.33595053645515,2.04906735901791,1302.964,1337.253,3216.544,3223.676,-0.09099808,0.03423949,0.08261039,-1.0881370306015,-0.444790959358215,0.679472923278809,-1.10123038958312,-0.473828671822132,0.681714070030222,0
2.45999145507813,-1.77139329910278,2.3297233581543,1.98565363883972,-1.48589810917879,2.32647593524532,2.06269880290633,1295.027,1337.317,3215.267,3224.947,-0.09038396,0.03438276,0.08162607,-1.0881279706955,-0.445248275995255,0.681230127811432,-1.10193535162022,-0.474131997292339,0.68215047511319,0
2.47999572753906,-1.79315090179443,2.32081007957458,1.99931001663208,-1.50794623031618,2.31698924467309,2.07634764018804,1286.09,1336.192,3216.099,3225.414,-0.08970485,0.03451813,0.08065943,-1.08788049221039,-0.445664703845978,0.682821452617645,-1.10235882472314,-0.474314205938057,0.682412625136718,0
2.5,-1.81489849090576,2.31188988685608,2.01299095153809,-1.52999999932945,2.30750012397766,2.08999997377396,1289.499,1336.615,3208.177,3220.683,-0.08893786,0.03466677,0.07966466,-1.08737862110138,-0.446014106273651,0.684044718742371,-1.10250000050292,-0.474374949932098,0.682500019669533,0
2.51998901367188,-1.8366311788559,2.30296397209167,2.02669382095337,-1.5520369476803,2.29801824074336,2.10364189456856,1294.107,1337.281,3202.93,3212.885,-0.08813998,0.03482103,0.07865277,-1.08664166927338,-0.446290820837021,0.685139238834381,-1.10235904000526,-0.474314298567936,0.682412758406603,0
2.53999328613281,-1.85834467411041,2.29403400421143,2.04041719436646,-1.57408507527774,2.28853154739156,2.11729073584934,1284.045,1336.397,3203.5,3214.966,-0.08733571,0.03495976,0.0776815,-1.08567202091217,-0.446500450372696,0.686163008213043,-1.10193578218388,-0.474132182551855,0.682150741652607,0
2.55999755859375,-1.88003396987915,2.28510141372681,2.05415463447571,-1.59612191359838,2.27904971150017,2.13093258853001,1282.383,1335.719,3197.955,3213.752,-0.08647604,0.03510646,0.07669974,-1.08445727825165,-0.446628779172897,0.686871647834778,-1.10123038958312,-0.473828671822132,0.681714070030222,0
2.58000183105469,-1.90169417858124,2.27616786956787,2.06790351867676,-1.61814182127198,2.26957516039323,2.14456396033363,1285.282,1335.519,3194.313,3206.219,-0.08556577,0.03526454,0.07569543,-1.08301472663879,-0.446673423051834,0.687443494796753,-1.10024313330221,-0.473403883025206,0.681102911362804,0
2.59999084472656,-1.92332088947296,2.26723527908325,2.08166074752808,-1.64012239440973,2.26011753383818,2.15817098218581,1280.487,1334.896,3191.927,3205.312,-0.08463419,0.03542052,0.07470944,-1.08133828639984,-0.446630507707596,0.687861025333405,-1.09897546783438,-0.47285844198887,0.680318166050934,0
2.6199951171875,-1.94490957260132,2.25830507278442,2.09542298316956,-1.66209156852628,2.2506648119635,2.17177094750084,1274.37,1333.095,3191.383,3204.504,-0.08363817,0.03557994,0.07373525,-1.07943296432495,-0.446497976779938,0.688117682933807,-1.09742594550583,-0.472191725819537,0.679358937915576,0
2.63999938964844,-1.96645534038544,2.24938035011292,2.10918402671814,-1.68402693989188,2.24122663446822,2.18534998730279,1278.118,1332.435,3183.566,3199.932,-0.08256865,0.03575908,0.07273247,-1.07728683948517,-0.446254014968872,0.688048779964447,-1.09559602313537,-0.471404361345641,0.67822612879697,0
2.65998840332031,-1.9879537820816,2.24046230316162,2.12294149398804,-1.70590622088595,2.23181259109281,2.19889430449282,1281.716,1331.979,3178.881,3192.996,-0.08147515,0.03595032,0.07170814,-1.07491600513458,-0.44589701294899,0.6878781914711,-1.09348812118877,-0.470497390025984,0.676921237078733,0
2.67999267578125,-2.00940012931824,2.23155355453491,2.13669443130493,-1.72775723139253,2.2224107117184,2.21242112090437,1271.912,1330.253,3179.734,3194.562,-0.08036941,0.03613742,0.0707106,-1.07232069969177,-0.44543445110321,0.687648296356201,-1.09109983431736,-0.469469776906228,0.675442773735451,0
2.69999694824219,-2.03078961372375,2.22265648841858,2.15043640136719,-1.74955768413056,2.21303058593937,2.22591663964878,1271.576,1328.707,3174.11,3192.195,-0.07919815,0.03634328,0.06968802,-1.06948673725128,-0.444852769374847,0.687103152275085,-1.08843358680109,-0.468322565086308,0.673792239511893,0
2.72000122070313,-2.0521183013916,2.21377325057983,2.16416478157043,-1.77130202882336,2.20367460188472,2.23937742484041,1276.424,1327.763,3169.918,3183.343,-0.07797523,0.03656974,0.06863066,-1.06642699241638,-0.444149106740952,0.686423301696777,-1.08549040888332,-0.467056197851165,0.671970272177789,0
2.739990234375,-2.07338070869446,2.20490717887878,2.1778769493103,-1.79296822271738,2.1943522439355,2.25278983096475,1272.702,1326.422,3167.261,3181.76,-0.07674218,0.03680102,0.06758433,-1.06313538551331,-0.443321526050568,0.685608506202698,-1.08227399942825,-0.465672266718727,0.669979161506271,0
2.75999450683594,-2.09457302093506,2.1960597038269,2.19156980514526,-1.81458384274179,2.18505164650952,2.26617092945464,1266.907,1323.842,3166.592,3180.884,-0.07545854,0.03704017,0.06654339,-1.05961608886719,-0.442371338605881,0.684648215770721,-1.07878069424208,-0.464169195088763,0.667816639186824,0
2.77999877929688,-2.11569046974182,2.18723392486572,2.20523762702942,-1.83612684690458,2.17578229366013,2.27950707526701,1270.782,1322.209,3159.397,3175.808,-0.07410938,0.03730337,0.06546629,-1.05585908889771,-0.441282510757446,0.683386206626892,-1.07501419914593,-0.462548577472581,0.665484999299265,0
2.79998779296875,-2.13672780990601,2.17843317985535,2.21887826919556,-1.85757544288233,2.1665535620153,2.29278477791556,1274.659,1320.931,3155.011,3168.304,-0.07273892,0.03758298,0.06436139,-1.05187618732452,-0.440055221319199,0.682027280330658,-1.07097916161324,-0.460812413548163,0.662987118851036,0
2.81999206542969,-2.15768146514893,2.16965913772583,2.23249006271362,-1.87895695992541,2.1573536925621,2.30602095550813,1266.113,1318.647,3154.951,3169.305,-0.07136153,0.0378638,0.06327325,-1.0476655960083,-0.438696056604385,0.680593907833099,-1.06667099276523,-0.458958728849171,0.660320157107579,0
2.83999633789063,-2.17854595184326,2.16091513633728,2.2460675239563,-1.90024960698239,2.14819206138118,2.31920211834584,1266.929,1316.385,3149.358,3165.823,-0.06992929,0.03816602,0.06215134,-1.04321753978729,-0.437196582555771,0.678870558738708,-1.06209435025759,-0.456989527434725,0.657486997379635,0
2.86000061035156,-2.19931650161743,2.15220427513123,2.25960803031921,-1.9214480311499,2.13907097167731,2.33232495272651,1271.506,1314.783,3145.249,3157.081,-0.06845975,0.03848921,0.06099129,-1.03854131698608,-0.43555673956871,0.677024483680725,-1.05725102347782,-0.454905579228273,0.654488747383304,0
2.87998962402344,-2.21998882293701,2.14352869987488,2.273108959198,-1.94253086194772,2.12999961857111,2.34537622930486,1268.25,1312.885,3142.335,3155.056,-0.06699022,0.03881885,0.05983371,-1.03363084793091,-0.433777391910553,0.675044775009155,-1.05214690704168,-0.452709420518306,0.651329056166547,0
2.89999389648438,-2.24055862426758,2.13489151000977,2.28656768798828,-1.96352501326936,2.1209664217661,2.35837260906308,1263.139,1309.881,3141.688,3153.16,-0.06548128,0.03915785,0.05867415,-1.02849102020264,-0.431863248348236,0.672934293746948,-1.04677621342161,-0.450398561093403,0.648004340974112,0
2.91999816894531,-2.26102113723755,2.12629580497742,2.29997801780701,-1.98440911693069,2.11198057539494,2.37130086407726,1266.887,1307.661,3134.454,3148.053,-0.06391853,0.03951937,0.05747565,-1.02311193943024,-0.429802238941193,0.670522630214691,-1.04114485287423,-0.447975543971863,0.644518260536375,0
2.94000244140625,-2.28137111663818,2.11774349212646,2.31333827972412,-2.00517798053537,2.10304431360073,2.38415778000673,1271.577,1305.905,3129.85,3139.671,-0.06234407,0.03989718,0.05624291,-1.01750409603119,-0.427596300840378,0.668016672134399,-1.03525504859546,-0.445441325732794,0.640872191117535,0
2.95999145507813,-2.30160427093506,2.10923862457275,2.32664656639099,-2.02581075424974,2.0941666074844,2.39693044981124,1266.514,1303.729,3127.724,3138.565,-0.06078931,0.04027664,0.05501634,-1.01166391372681,-0.425252139568329,0.665411829948425,-1.02911391720548,-0.442798968459032,0.637070538244476,0
2.97999572753906,-2.32171630859375,2.10078287124634,2.33989977836609,-2.04633384260397,2.08533609591429,2.40963521915279,1260.102,1300.52,3127.18,3137.487,-0.05919941,0.04066383,0.05378376,-1.00559508800507,-0.422776609659195,0.662664592266083,-1.02271452148052,-0.440045487257004,0.633109007445237,0
3,-2.34170150756836,2.09238004684448,2.35309219360352,-2.06672639957428,2.07656174835205,2.42225918334961,1264.919,1298.18,3120.061,3130.819,-0.05754878,0.04107554,0.05250192,-0.999289333820343,-0.420159757137299,0.659615993499756,-1.01606400046349,-0.437183953857422,0.628992018127441,0
3.01998901367188,-2.36155676841736,2.08403158187866,2.36622142791748,-2.0869680292999,2.06785234056679,2.43478971639231,1270.491,1296.501,3114.861,3121.67,-0.05589017,0.04150196,0.05118439,-0.992752850055695,-0.417401880025864,0.656461179256439,-1.00917036754089,-0.434217816196637,0.624724530959079,0
3.03999328613281,-2.38127636909485,2.07574129104614,2.37928628921509,-2.10708469520508,2.05919670122237,2.4472428908773,1262.961,1294.032,3114.21,3121.424,-0.05425179,0.04192496,0.04988348,-0.985985636711121,-0.414512366056442,0.653248429298401,-1.00202586176059,-0.431143734953757,0.620301741541063,0
3.05999755859375,-2.40085601806641,2.06751155853271,2.39228129386902,-2.12705600675913,2.05060360379452,2.45960608409476,1262.927,1291.143,3108.528,3118.423,-0.05258998,0.04236122,0.0485544,-0.978983342647552,-0.411490231752396,0.649755895137787,-0.994638524886308,-0.427965170275055,0.615728628108227,0
3.08000183105469,-2.42029094696045,2.05934500694275,2.40520429611206,-2.14687713595163,2.04207512564123,2.47187630727625,1267.236,1289.023,3104.594,3109.149,-0.05091005,0.04281146,0.04718696,-0.971755981445313,-0.408339858055115,0.646155476570129,-0.987011339258122,-0.424683405378145,0.611007036871143,0
3.09999084472656,-2.43957686424255,2.05124378204346,2.41805267333984,-2.16652837486666,2.03361974652815,2.48404136028297,1263.488,1286.924,3101.439,3106.895,-0.04924771,0.04326169,0.04582266,-0.964298605918884,-0.405065298080444,0.642422914505005,-0.979153483542501,-0.421302389586788,0.606142649861596,0
3.1199951171875,-2.4587094783783,2.04321002960205,2.430823802948,-2.18603502400946,2.02522658035469,2.49611690533293,1258.97,1283.857,3099.955,3104.227,-0.04756192,0.04371555,0.04445349,-0.956617414951324,-0.401673197746277,0.638552010059357,-0.971056158224178,-0.417818336715394,0.601130019760458,0
3.13999938964844,-2.47768354415894,2.03524708747864,2.44351172447205,-2.20537738341953,2.01690410346351,2.50809074721212,1262.841,1281.399,3092.8,3098.185,-0.04584099,0.04418397,0.04304736,-0.948707759380341,-0.398157626390457,0.634401142597198,-0.962728579444533,-0.414235212212131,0.595974851798267,0
3.15998840332031,-2.49649500846863,2.02735662460327,2.45611476898193,-2.22453632143911,2.00866054767245,2.51995104251302,1267.165,1279.55,3087.836,3089.615,-0.04412698,0.04465946,0.04161291,-0.940576553344727,-0.394521653652191,0.630155205726624,-0.954180774018563,-0.410557330335374,0.590683353051152,0
3.17999267578125,-2.51513934135437,2.01954078674316,2.46863174438477,-2.24353658854737,2.00048526354177,2.53171311296128,1259.369,1277.255,3086.679,3089.349,-0.0424428,0.04512697,0.04019566,-0.932225048542023,-0.390775203704834,0.625844895839691,-0.945403214201559,-0.406780591562751,0.585249625391267,0
3.19999694824219,-2.53361248970032,2.01180291175842,2.48105716705322,-2.2623590635174,1.99238647840124,2.54336512160655,1259.228,1274.438,3081.199,3085.658,-0.0407405,0.04560226,0.03875221,-0.923653483390808,-0.386920422315598,0.621270716190338,-0.936405971974636,-0.402909329586355,0.579679903854719,0
3.22000122070313,-2.55190992355347,2.00414323806763,2.49338865280151,-2.28099938900442,1.98436606709459,2.55490437104486,1263.173,1272.471,3076.77,3076.574,-0.03902809,0.04608559,0.03727532,-0.914868950843811,-0.382960855960846,0.616578280925751,-0.927192788821982,-0.398945154262308,0.573976504598449,0
3.239990234375,-2.57002758979797,1.99656558036804,2.50562405586243,-2.2994392795179,1.97643189735754,2.5663195416865,1260.086,1270.611,3073.432,3073.215,-0.03733965,0.04656416,0.03580482,-0.905869364738464,-0.378901362419128,0.611766755580902,-0.917774783907129,-0.394892849856044,0.568146310914365,0
3.25999450683594,-2.58796072006226,1.98907041549683,2.51776027679443,-2.31770268688992,1.96857366338589,2.57762546085652,1255.151,1267.85,3071.149,3071.112,-0.03564535,0.0470396,0.03433795,-0.896661221981049,-0.374748438596725,0.606810748577118,-0.90814153446928,-0.390747931744771,0.562182870617026,0
3.27999877929688,-2.60570573806763,1.98166036605835,2.52979230880737,-2.33577134012187,1.96079922667992,2.58881081793642,1258.952,1265.449,3064.38,3064.421,-0.03392708,0.04752274,0.03284043,-0.88724559545517,-0.370500147342682,0.601603448390961,-0.898304216251578,-0.386515208538549,0.556093102023818,0
3.29998779296875,-2.62325811386108,1.97433733940125,2.54171848297119,-2.35362764460945,1.95311615770631,2.59986472102797,1261.848,1263.801,3059.659,3056.483,-0.03222638,0.04800557,0.03132766,-0.877627551555634,-0.366159707307816,0.596309125423431,-0.888274735793772,-0.382199803288803,0.549884375850026,0
3.31999206542969,-2.64061450958252,1.9671026468277,2.55353713035583,-2.37129490830989,1.94551442770222,2.61080159886703,1254.251,1261.768,3057.803,3056.137,-0.03055977,0.04847567,0.02983743,-0.867810189723969,-0.361735761165619,0.590936005115509,-0.878042061913513,-0.37779696958594,0.54354986326829,0
3.33999633789063,-2.65777039527893,1.95995783805847,2.56524348258972,-2.38875555478454,1.93800159931817,2.62161057080077,1254.332,1259.148,3052.25,3051.96,-0.02888092,0.04894809,0.02832739,-0.85779857635498,-0.357231795787811,0.585318863391876,-0.867618167158097,-0.373311858882592,0.53709697585572,0
3.36000061035156,-2.67472243309021,1.9529048204422,2.57683539390564,-2.406005803634,1.93057929915441,2.6322892965819,1257.647,1257.458,3047.966,3042.949,-0.027201,0.04942193,0.02679586,-0.847598671913147,-0.352651089429855,0.579600811004639,-0.857007552155826,-0.36874640767338,0.530528499715627,0
3.37998962402344,-2.69146656990051,1.94594502449036,2.5883104801178,-2.42302905329872,1.92325467039821,2.6428274990542,1253.959,1255.853,3044.008,3040.418,-0.0255525,0.04988564,0.02527948,-0.837210059165955,-0.347997844219208,0.57375568151474,-0.846223126656603,-0.364106170663035,0.523852426598178,0
3.39999389648438,-2.70799946784973,1.93907928466797,2.59966635704041,-2.43984769972619,1.91601807669906,2.65323904237604,1249.884,1253.449,3041.579,3037.269,-0.023904,0.05034259,0.02377012,-0.826642394065857,-0.343278646469116,0.567789316177368,-0.835253140422974,-0.35938609205264,0.51706148254665,0
3.41999816894531,-2.7243173122406,1.93230962753296,2.61089825630188,-2.45644516534361,1.90887665092339,2.66351366424015,1252.199,1251.337,3035.089,3031.519,-0.02224325,0.05080026,0.02224414,-0.815898239612579,-0.338493019342422,0.561593234539032,-0.824110582941664,-0.354591760855451,0.510163708672097,0
3.44000244140625,-2.74041700363159,1.92563676834106,2.62200450897217,-2.47281804716281,1.90183185728196,2.67364925803476,1254.844,1249.859,3030.375,3023.651,-0.02060062,0.05125357,0.0207103,-0.804982662200928,-0.333643645048141,0.555313885211945,-0.812800388649434,-0.349725300221754,0.503162159625937,0
3.45999145507813,-2.75629472732544,1.91906201839447,2.63298320770264,-2.48895081463434,1.8948903781363,2.68363620960993,1250.055,1248.325,3026.927,3021.807,-0.01900272,0.05169274,0.01919954,-0.793899297714233,-0.328736692667007,0.548938453197479,-0.80133641229185,-0.344792671461508,0.496065412155666,0
3.47999572753906,-2.77194809913635,1.9125862121582,2.64383220672607,-2.50486489870395,1.88804299234919,2.69348778574196,1244.808,1246.095,3024.796,3019.419,-0.01740749,0.05212274,0.01770092,-0.782658874988556,-0.323779940605164,0.542449533939362,-0.789706299681989,-0.339788558913217,0.488865818431069,0
3.5,-2.78737306594849,1.90621089935303,2.65454697608948,-2.5205447997813,1.88129636896134,2.70319439144611,1247.052,1244.088,3018.526,3013.505,-0.01579308,0.05255301,0.01618671,-0.77126532793045,-0.318772971630096,0.535735011100769,-0.777924000354857,-0.334718964672089,0.481572013878822,0
3.51998901367188,-2.80256748199463,1.89993643760681,2.66512560844421,-2.53597583877076,1.87465682397749,2.71274693966292,1250.459,1242.826,3013.567,3005.093,-0.01419252,0.05297855,0.01466659,-0.75972181558609,-0.313716441392899,0.528937220573425,-0.766004036374581,-0.329590137176618,0.474192988348404,0
3.53999328613281,-2.81752824783325,1.89376425743103,2.67556715011597,-2.55117869390181,1.86811546013321,2.72215823120146,1244.167,1241.508,3010.922,3003.969,-0.01263404,0.0533876,0.01318075,-0.748032212257385,-0.308615475893021,0.522078096866608,-0.753933682518821,-0.324396601119134,0.466720864320997,0
3.55999755859375,-2.83225226402283,1.88769459724426,2.68586754798889,-2.56613872308604,1.86167857751006,2.73141920191151,1243.479,1239.255,3005.607,3000.527,-0.01108141,0.05379076,0.01169579,-0.736206829547882,-0.303474873304367,0.515019118785858,-0.741727567798258,-0.319144650954242,0.459164697851087,0
3.58000183105469,-2.84673738479614,1.8817286491394,2.69602537155151,-2.58085326729328,1.85534732021446,2.74052820572674,1245.647,1237.868,3001.745,2992.457,-0.009537845,0.05418848,0.0102079,-0.724252104759216,-0.298297554254532,0.507892429828644,-0.729391385793765,-0.313836736470737,0.451528013536464,0
3.59999084472656,-2.86098051071167,1.87586688995361,2.70603847503662,-2.59530884290342,1.84912748987145,2.74947689564398,1241.466,1236.685,2997.834,2990.503,-0.008030496,0.05457214,0.008748653,-0.712170898914337,-0.29308670759201,0.500661253929138,-0.716940488958392,-0.308479463400265,0.4438203152769,0
3.6199951171875,-2.87498021125793,1.87011003494263,2.71590518951416,-2.60952509409627,1.84301063413925,2.75827743234631,1238.215,1234.775,2995.07,2987.089,-0.006526875,0.05494607,0.007306109,-0.699974000453949,-0.287847310304642,0.493330895900726,-0.704361775018033,-0.303067194200314,0.436033492140578,0
3.63999938964844,-2.88873362541199,1.8644585609436,2.72562170028687,-2.6234885835008,1.83700253474321,2.76692149746096,1239.95,1233.053,2989.081,2981.875,-0.005020591,0.05531539,0.005863185,-0.687666952610016,-0.282579392194748,0.485820353031158,-0.691670720740692,-0.297606588091786,0.428177124984152,0
3.65998840332031,-2.9022388458252,1.85891270637512,2.73518681526184,-2.63718676607487,1.8311085894645,2.77540132500924,1241.981,1231.919,2984.751,2974.721,-0.003537211,0.05567651,0.004428179,-0.675253629684448,-0.277284055948257,0.478257477283478,-0.678883253871145,-0.292104498338286,0.420261073840379,0
3.67999267578125,-2.91549348831177,1.85347330570221,2.74459958076477,-2.65063849381582,1.82532068681534,2.78372858527554,1235.774,1230.806,2982.102,2973.943,-0.00209644,0.0560208,0.003032705,-0.662739813327789,-0.271965712308884,0.470643848180771,-0.665986083416798,-0.286555206197011,0.41227711095171,0
3.69999694824219,-2.92849612236023,1.84814083576202,2.75385689735413,-2.66383127580226,1.81964420129024,2.79189554578451,1235.476,1228.777,2977.198,2970.242,-0.0006604639,0.05635853,0.001644178,-0.650137484073639,-0.266628921031952,0.462863564491272,-0.65299527533123,-0.280965624398954,0.404235181908735,0
3.72000122070313,-2.94124507904053,1.84291505813599,2.76295757293701,-2.6767633032417,1.81407991116207,2.79990108680742,1237.466,1227.631,2973.305,2962.933,0.0007615933,0.05668933,0.0002617613,-0.637451112270355,-0.261275082826614,0.45503169298172,-0.639917282339434,-0.275338529371411,0.396139281255611,0
3.739990234375,-2.95373845100403,1.83779692649841,2.77190017700195,-2.68942333385363,1.80863265367006,2.80773824883709,1233.99,1226.668,2969.642,2960.696,0.002145288,0.05700592,-0.00108657,-0.624685049057007,-0.255906701087952,0.447127550840378,-0.62676873176137,-0.26968107538565,0.387999702095468,0
3.75999450683594,-2.96597576141357,1.83278632164001,2.7806830406189,-2.70182915057228,1.80329477731443,2.81541804035694,1230.839,1225.023,2966.797,2957.932,0.003515286,0.05731175,-0.002409095,-0.611850202083588,-0.250528037548065,0.439145922660828,-0.613536214864365,-0.263987493038594,0.379808143784027,0
3.77999877929688,-2.97795486450195,1.82788395881653,2.78930354118347,-2.7139695770734,1.79807109095524,2.82293354268985,1232.346,1223.441,2961.618,2952.982,0.004880942,0.05761151,-0.003722567,-0.598953902721405,-0.245140239596367,0.431030720472336,-0.60023651686137,-0.258265004538452,0.371574997167698,0
3.79998779296875,-2.98967504501343,1.82308864593506,2.79776120185852,-2.72583438304408,1.79296599641037,2.83027842278479,1233.794,1222.454,2957.579,2946.901,0.006218782,0.05790208,-0.005019526,-0.585999488830566,-0.239743769168854,0.422880709171295,-0.586886736182787,-0.252520966862155,0.36331084698941,0
3.81999206542969,-3.00113439559937,1.81840193271637,2.80605530738831,-2.73744054699573,1.78797218830065,2.83746319114912,1228.743,1221.518,2955.103,2945.647,0.007513909,0.05817683,-0.006273342,-0.572993695735931,-0.234342217445374,0.414705842733383,-0.573473482003301,-0.246749618311662,0.355007403690404,0
3.83999633789063,-3.0123336315155,1.81382310390472,2.81418323516846,-2.74877791451009,1.78309403578861,2.84448156171422,1228.341,1219.703,2950.551,2942.591,0.008794845,0.0584439,-0.007510114,-0.559949100017548,-0.228940054774284,0.406399458646774,-0.560014026276881,-0.240958390526246,0.346675359432959,0
3.86000061035156,-3.02327084541321,1.8093523979187,2.8221447467804,-2.75984563331209,1.77833190558438,2.85133300688122,1230.194,1218.667,2947.197,2935.882,0.01005658,0.05870318,-0.008732505,-0.546869933605194,-0.223538413643837,0.398074746131897,-0.546515580872635,-0.235150386571708,0.338319178707605,0
3.87998962402344,-3.03394627571106,1.80498933792114,2.82993865013123,-2.7706348636882,1.77368960116974,2.85801205444635,1226.991,1217.84,2943.676,2934.226,0.01127473,0.05894838,-0.009914949,-0.53376168012619,-0.218139454722404,0.38970023393631,-0.532995796775444,-0.22933320117373,0.329949788314816,0
3.89999389648438,-3.04435920715332,1.8007345199585,2.83756446838379,-2.78116151864576,1.76916027562219,2.86452855531919,1224.683,1216.399,2941.205,2931.285,0.01247265,0.0591831,-0.01106756,-0.52063512802124,-0.212747320532799,0.381286561489105,-0.519441457145543,-0.223501147495394,0.321559006401168,0
3.91999816894531,-3.05450892448425,1.79658734798431,2.84502005577087,-2.79141684911929,1.7647476934202,2.87087709341145,1225.642,1215.023,2936.606,2927.336,0.01365498,0.05941042,-0.01220101,-0.507498383522034,-0.207363605499268,0.37277752161026,-0.505870408491346,-0.2176619043907,0.313157880805522,0
