t,x_s1,x_s2,x_s3,x_s_d1,x_s_d2,x_s_d3,propellers_rpms1,propellers_rpms2,propellers_rpms3,propellers_rpms4,rollRad,pitchRad,yawRad,v_s1,v_s2,v_s3,v_s_d1,v_s_d2,v_s_d3,insideCount
0,-0.0599999986588955,2.94000005722046,1.17999994754791,-0.0599999986588955,2.94000005722046,1.17999994754791,0,0,0,0,0,0,0,0,0,0,-1.06581410364015E-15,4.44089209850063E-16,4.44089209850063E-16,0
0.019989013671875,-0.0599999986588955,2.94000005722046,1.17811644077301,-0.0600018659130177,2.93999925379318,1.18000110346716,0,0,0,0,-0.01635288,0.0001297794,-0.01587137,-1.10653664009419E-09,-7.76775763711157E-08,-0.0941759571433067,-0.000279680311988734,-0.000120338624884473,0.000173135436141649,5
0.0399932861328125,-0.0599999986588955,2.94000005722046,1.17242503166199,-0.060014863945674,2.93999366110285,1.18000914986856,0,0,0,0,-0.03270202,0.0005238493,-0.03175127,-1.08383135799528E-09,-7.60859677484405E-08,-0.284568399190903,-0.00111059898697896,-0.000477859717552347,0.000687513678106196,5
0.05999755859375,-0.0599058866500854,2.93990302085876,1.16596508026123,-0.0600498857373401,2.93997859220429,1.18003083002592,1868.354,3252.841,3183.737,1722.314,-0.04942294,0.000329806,-0.01369557,0.00470561534166336,-0.00484914472326636,-0.32299879193306,-0.00247936261166862,-0.00106680046642749,0.00153484356504269,5
0.0800018310546875,-0.0598203726112843,2.93960738182068,1.16000318527222,-0.0601175574246769,2.93994947496775,1.18007272202403,1925.478,2314.355,3252.169,2829.42,-0.07543564,-0.002136388,0.02094805,0.00427567213773727,-0.014778820797801,-0.298097044229507,-0.00437268608126799,-0.00188144466206175,0.00270690098422899,5
0.0999908447265625,-0.0599374547600746,2.93904495239258,1.15498673915863,-0.0602281370710988,2.93990189563514,1.18014117609281,980.0964,1498.883,3915.018,3896.587,-0.1032007,-0.008063519,0.06330951,-0.00585401896387339,-0.0281177312135696,-0.25082466006279,-0.00677536694902951,-0.00291525111632684,0.0041942748969354,4
0.1199951171875,-0.0604638755321503,2.93818354606628,1.15081346035004,-0.0603918861403606,2.93983143898525,1.18024254456713,346.0178,980.1927,4173.286,4613.497,-0.1214359,-0.0154229,0.104006,-0.0263210758566856,-0.0430709719657898,-0.208664610981941,-0.00967801353495435,-0.00416417885169243,0.00599115140585487,4
0.139999389648438,-0.0615636557340622,2.93704128265381,1.1472829580307,-0.0606185767455666,2.93973390035084,1.18038287685052,352.9745,747.1586,3975.09,4855.053,-0.1254024,-0.0211684,0.1351104,-0.0549890846014023,-0.057116162031889,-0.1765246540308,-0.0130660253322238,-0.00562194567796536,0.00808849210174802,4
0.159988403320313,-0.0633409321308136,2.93568086624146,1.14427483081818,-0.0609175312885481,2.93960526856281,1.18056794395381,821.1297,814.9834,3462.453,4692.479,-0.1184601,-0.0235253,0.1522726,-0.0888638496398926,-0.0680163130164146,-0.150403559207916,-0.0169234294955564,-0.00728167892605071,0.0104764090324936,3
0.17999267578125,-0.0658470541238785,2.9341721534729,1.14182531833649,-0.0612985250199726,2.93944133760391,1.18080379722281,1348.496,1083.136,3007.172,4255.248,-0.1079784,-0.02278068,0.1557796,-0.125306099653244,-0.0754325985908508,-0.122476495802402,-0.0212433804254414,-0.00914043312572283,0.0131506644458931,3
0.199996948242188,-0.0690851733088493,2.93255376815796,1.140061378479,-0.0617704296168641,2.93923829023936,1.18109592864822,1636.58,1381.371,2918.107,3666.323,-0.0998238,-0.02030128,0.1501555,-0.161906167864799,-0.0809164941310883,-0.0881941169500351,-0.0260104776919234,-0.0111915819022102,0.0161017247421801,3
0.220001220703125,-0.0730105489492416,2.93082594871521,1.13903534412384,-0.0623420644491781,2.93899233174064,1.18144979784016,1641.675,1580.896,3147.912,3112.963,-0.09583811,-0.01735475,0.1421851,-0.196268945932388,-0.086386501789093,-0.0512994378805161,-0.03121219533433,-0.0134297356845702,0.019321835755004,3
0.239990234375,-0.0775503292679787,2.92897343635559,1.13863289356232,-0.0630214373585105,2.93870001655724,1.18187036203406,1524.136,1624.287,3417.867,2777.301,-0.094759,-0.01467775,0.137729,-0.226989030838013,-0.0926253348588943,-0.0201202891767025,-0.0368316683029241,-0.015847637913056,0.022800557215184,3
0.259994506835938,-0.0826392844319344,2.92699217796326,1.13863551616669,-0.0638179029240226,2.93835731967507,1.18236341216003,1438.42,1500.553,3534.079,2744.198,-0.09439095,-0.0125893,0.1393012,-0.254447758197784,-0.09906055778265,0.000129921361804008,-0.0428651747123285,-0.0184436871643672,0.0265355850983733,3
0.279998779296875,-0.088245153427124,2.9249005317688,1.13885200023651,-0.0647390625194898,2.93796097043536,1.18293365383054,1400.692,1276.099,3476.247,2977.699,-0.09320851,-0.01110591,0.145685,-0.280293643474579,-0.104587085545063,0.0108242519199848,-0.0492963837173861,-0.0212108567320638,0.030516809833474,3
0.29998779296875,-0.0943709015846252,2.92273235321045,1.13920664787292,-0.0657918945890516,2.93750796620855,1.18358540703494,1351.099,1061.738,3344.545,3324.79,-0.09053203,-0.009934656,0.1533108,-0.306287497282028,-0.108407936990261,0.0177300870418549,-0.0561078595514081,-0.0241416444928383,0.0347334378503248,3
0.319992065429688,-0.101036250591278,2.92052555084229,1.1397248506546,-0.0669855955880233,2.93699435001684,1.18432436481717,1280.436,940.7252,3238.277,3590.712,-0.08597696,-0.008524246,0.1583618,-0.333267629146576,-0.110343515872955,0.0259103775024414,-0.0632980253096114,-0.0272353719486164,0.0391844929697465,3
0.339996337890625,-0.108251839876175,2.91831183433533,1.14046132564545,-0.068326768706371,2.93641728069206,1.18515461486636,1253.033,944.2374,3170.793,3650.048,-0.07944263,-0.006292517,0.1584778,-0.360779643058777,-0.110680609941483,0.0368248336017132,-0.0708499516420146,-0.0304847548730522,0.0438594951176439,4
0.360000610351563,-0.116003394126892,2.91611456871033,1.14145219326019,-0.0698225328270578,2.93577369517774,1.1860805641102,1320.192,1047.51,3120.178,3497.871,-0.07154582,-0.002961968,0.1534706,-0.387577593326569,-0.109857924282551,0.0495462417602539,-0.0787518717320621,-0.0338847303337087,0.0487511600740379,4
0.379989624023438,-0.124251767992973,2.91394948959351,1.14270722866058,-0.0714784451857985,2.93506120235061,1.1871056527423,1455.453,1181.706,3090.85,3231.156,-0.06361706,0.001259462,0.1450345,-0.412418901920319,-0.108256012201309,0.0627491101622581,-0.0869857157641562,-0.0374275233937465,0.0538483017622888,4
0.399993896484375,-0.132943600416183,2.91182613372803,1.14421713352203,-0.0733036822025899,2.9342758538535,1.18823556140379,1578.68,1273.232,3105.932,2981.868,-0.05701828,0.005825592,0.1357478,-0.434592366218567,-0.106166318058968,0.0754956007003784,-0.0955525119207663,-0.0411135764513579,0.0591515566763244,4
0.41998291015625,-0.142023950815201,2.90974998474121,1.14595746994019,-0.075301871434707,2.93341608884986,1.18947253572543,1631.46,1288.725,3158.449,2844.924,-0.05243391,0.01017598,0.1278578,-0.454017549753189,-0.103803545236588,0.0870173200964928,-0.104427768518458,-0.0449323514193797,0.064645763297398,4
0.44000244140625,-0.151446357369423,2.90772414207458,1.14789521694183,-0.077483988232608,2.93247718495301,1.19082336997196,1607.169,1238.017,3219.447,2842.731,-0.04964665,0.01397622,0.1224623,-0.471120566129684,-0.1012904047966,0.0968891084194183,-0.113620829717891,-0.048887868829098,0.0703367061060819,4
0.459991455078125,-0.161176979541779,2.9057514667511,1.14999604225159,-0.0798493430620752,2.93145943885026,1.19228763728888,1542.635,1158.67,3251.213,2938.271,-0.04788364,0.01718826,0.1193367,-0.48653119802475,-0.0986358076334,0.105039313435555,-0.123092454730403,-0.0529632444654124,0.0762000931848968,4
0.47998046875,-0.171193853020668,2.9038360118866,1.15223860740662,-0.082406855753501,2.93035901258777,1.1938708594761,1473.685,1085.948,3249.54,3066.707,-0.04629373,0.01998757,0.1173745,-0.500842750072479,-0.0957742258906364,0.112129293382168,-0.132845337826091,-0.057159637597476,0.0822375924153778,5
0.5,-0.181481301784515,2.9019832611084,1.15461575984955,-0.085166398670376,2.92917165836334,1.1955791479969,1429.506,1045.654,3217.964,3170.802,-0.04433151,0.02264164,0.1152279,-0.514372944831848,-0.0926388427615166,0.118856497108936,-0.142884000065179,-0.0614789935111996,0.0884520025491718,5
0.519989013671875,-0.192024379968643,2.90019869804382,1.15713393688202,-0.0881248588203387,2.92789871561062,1.19741057576073,1425.82,1045.856,3175.01,3209.654,-0.04190963,0.0253823,0.1118808,-0.527154386043549,-0.0892260521650314,0.125909999012947,-0.153166947611899,-0.0659034585682559,0.0948176369253132,5
0.540008544921875,-0.202804610133171,2.89848589897156,1.15980935096741,-0.0912963635428427,2.92653410573011,1.19937388826368,1446.452,1073.415,3149.361,3183.382,-0.03928908,0.0282923,0.1070428,-0.539012014865875,-0.0856348946690559,0.133768692612648,-0.163714777034477,-0.0704418948965508,0.101347245800684,5
0.55999755859375,-0.213797777891159,2.89684534072876,1.16265213489532,-0.094676112580471,2.92507989413848,1.20146611391775,1483.873,1113.926,3138.048,3115.085,-0.0368981,0.03132852,0.1010561,-0.549658536911011,-0.0820275098085403,0.14213889837265,-0.17448465888317,-0.0750758741803766,0.108014315705644,5
0.579986572265625,-0.224976047873497,2.8952739238739,1.16566789150238,-0.0982734311149,2.92353206847056,1.2036930254546,1519.979,1148.533,3147.473,3034.649,-0.03514254,0.0343438,0.09465798,-0.55891352891922,-0.0785747244954109,0.1507887840271,-0.185481935470438,-0.0798076950675377,0.114822153786096,5
0.600006103515625,-0.236310690641403,2.89376544952393,1.1688517332077,-0.102098762959148,2.92188613504538,1.20606108809202,1538.196,1166.393,3164.474,2980.77,-0.03429139,0.0371575,0.08862992,-0.566733062267303,-0.0754214599728584,0.15918955206871,-0.196713446836865,-0.0846403006364086,0.121774994352997,5
0.6199951171875,-0.247775912284851,2.89231204986572,1.17219364643097,-0.106144683970236,2.92014528826426,1.20856570593183,1538.414,1167.969,3179.133,2962.737,-0.03440751,0.03963545,0.08345605,-0.573261260986328,-0.0726657882332802,0.167095556855202,-0.208134604141382,-0.0895545055543457,0.128845234789665,5
0.639984130859375,-0.259351164102554,2.89090442657471,1.17568635940552,-0.110420882305709,2.91830535958365,1.21121287640506,1507.454,1156.439,3195.568,2985.737,-0.03534387,0.04170046,0.07929358,-0.578762233257294,-0.0703772231936455,0.174637198448181,-0.219752140575416,-0.0945532069255159,0.136037043262338,5
0.660003662109375,-0.271020948886871,2.88953256607056,1.17932033538818,-0.114938248900541,2.91636166293851,1.21400934151928,1463.033,1143.672,3199.235,3033.986,-0.03678305,0.04338146,0.07591633,-0.583489060401917,-0.0685939490795135,0.181698709726334,-0.231574097577923,-0.0996398647564507,0.143355397804799,5
0.67999267578125,-0.282773852348328,2.88818621635437,1.18308866024017,-0.119686638739014,2.91431856344567,1.21694882102647,1431.91,1140.172,3188.251,3074.222,-0.03843794,0.04477899,0.07287777,-0.587646067142487,-0.0673220306634903,0.188417091965675,-0.243554411173546,-0.104794659005432,0.150771782621969,5
0.699981689453125,-0.29460084438324,2.88685488700867,1.18699193000793,-0.124676182095571,2.91217170233105,1.22003758604909,1404.945,1146.428,3178.424,3100.416,-0.04016686,0.04596979,0.06984861,-0.591350555419922,-0.0665709227323532,0.195161640644073,-0.25570106256044,-0.110021023759057,0.158291138455704,5
0.720001220703125,-0.306493133306503,2.88552761077881,1.19102871417999,-0.129918284978346,2.90991617190799,1.22328269744952,1390.05,1162.355,3164.85,3109.296,-0.04192934,0.04701875,0.06663458,-0.594612836837769,-0.0663580298423767,0.201837807893753,-0.268023157655716,-0.11532287703907,0.16591910230247,5
0.739990234375,-0.318441420793533,2.88419342041016,1.1951984167099,-0.135400001298574,2.90755754251682,1.2266761409821,1395.979,1185.539,3150.954,3092.426,-0.04381805,0.04795743,0.06320734,-0.597415626049042,-0.0667053237557411,0.208485469222069,-0.280473432677602,-0.12067988256057,0.173626415629864,5
0.760009765625,-0.33043646812439,2.88284039497375,1.19950413703918,-0.141140917956636,2.9050873864615,1.23023004187122,1393.15,1207.755,3150.84,3072.876,-0.04599918,0.0487376,0.05980182,-0.599752843379974,-0.0676564946770668,0.215285390615463,-0.293080296154222,-0.126104263719567,0.181430664670081,5
0.779998779296875,-0.342469155788422,2.88145542144775,1.20394146442413,-0.147126184485884,2.90251209348295,1.23393520697061,1386.458,1226.495,3149.882,3061.046,-0.04856008,0.04931785,0.05664996,-0.601633191108704,-0.0692498162388802,0.221866354346275,-0.305795832832518,-0.131575403921268,0.189302187598958,5
0.79998779296875,-0.354532063007355,2.88002514839172,1.20850872993469,-0.153366821193532,2.89982692185086,1.2377984583754,1373.067,1240.465,3156.055,3053.64,-0.05149648,0.04965813,0.05393932,-0.603147387504578,-0.0715192407369614,0.228365644812584,-0.318629798715703,-0.137097500901303,0.197247023847227,5
0.82000732421875,-0.366619855165482,2.87853574752808,1.21319913864136,-0.159875221826383,2.89702653888221,1.24182746840525,1348.777,1250.334,3157.607,3064.797,-0.05475566,0.04973324,0.05177835,-0.604389548301697,-0.0744722336530685,0.234520107507706,-0.331592781842754,-0.14267511039705,0.205271727915392,4
0.839996337890625,-0.378729581832886,2.87697386741638,1.21800589561462,-0.166633637018892,2.89411858163313,1.24601124935738,1331.922,1259.851,3152.4,3075.846,-0.05823747,0.04956344,0.05009761,-0.60548597574234,-0.0780980437994003,0.240336835384369,-0.344636106234817,-0.148287288494656,0.213346167053785,4
0.8599853515625,-0.390860706567764,2.87532615661621,1.22292792797089,-0.173653699721778,2.89109804476993,1.25035700258242,1301.562,1269.44,3152.504,3095.374,-0.06187109,0.04915336,0.04885842,-0.606555640697479,-0.0823910906910896,0.246103927493095,-0.357770416714212,-0.153938615363784,0.221476930914505,4
0.8800048828125,-0.403014063835144,2.87357974052429,1.2279599905014,-0.180948461186242,2.88795931270381,1.25487280742661,1271.859,1280.482,3147.037,3117.748,-0.06552122,0.04854859,0.0479349,-0.607669353485107,-0.0873256549239159,0.251603007316589,-0.371007022483504,-0.159633957038354,0.229671020432672,4
0.899993896484375,-0.41519170999527,2.87172245979309,1.23309755325317,-0.18849723509595,2.8847112861788,1.25954585807468,1263.365,1295.345,3136.116,3121.984,-0.0691069,0.04780905,0.04717033,-0.608882308006287,-0.092866562306881,0.256876260042191,-0.384296738353309,-0.165352150505452,0.237897987633041,4
0.91998291015625,-0.427396297454834,2.86974263191223,1.23834192752838,-0.196312316554895,2.88134867495511,1.26438376578173,1247.176,1311.287,3133.826,3125.836,-0.07266542,0.04693624,0.04659861,-0.610228657722473,-0.0989950373768806,0.262218147516251,-0.397650971463704,-0.171098103938772,0.246164894078718,4
0.94000244140625,-0.439630568027496,2.8676290512085,1.24368941783905,-0.204407453948074,2.87786556348678,1.26939504145298,1231.5,1326.233,3129.681,3132.12,-0.07618185,0.04594533,0.04624081,-0.611714243888855,-0.105675913393497,0.267372190952301,-0.411081631631503,-0.176876941799768,0.254479112513653,4
0.959991455078125,-0.451897948980331,2.86537170410156,1.2491363286972,-0.212759000778906,2.87427212620069,1.27456504678061,1232.377,1341.127,3123.06,3125.924,-0.07965621,0.0448587,0.04608632,-0.613368570804596,-0.112872637808323,0.272347658872604,-0.424539267042903,-0.182667386354485,0.262810029909387,3
0.97998046875,-0.464202642440796,2.86296033859253,1.25468456745148,-0.221379956358585,2.87056276985637,1.27990182895749,1217.57,1353.7,3126.245,3129.071,-0.08314922,0.04364799,0.04626158,-0.615233182907104,-0.120568737387657,0.277409702539444,-0.438035925118965,-0.188474621271639,0.271165104193453,3
1,-0.476549357175827,2.86038589477539,1.26032996177673,-0.230284798736574,2.86673126495361,1.28541435058594,1198.962,1363.135,3126.581,3141.394,-0.08660121,0.04232096,0.04678957,-0.617337942123413,-0.128720998764038,0.28226763010025,-0.451584000205995,-0.194303979492187,0.279552008056641,3
1.01998901367188,-0.488944053649902,2.85764026641846,1.26606833934784,-0.239446912293295,2.86278906344998,1.29108613532954,1196.87,1372.326,3121.707,3143.784,-0.0899504,0.04091145,0.04759445,-0.619736313819885,-0.137280613183975,0.286918818950653,-0.46513400752272,-0.200134169097193,0.287940108062054,3
1.04000854492188,-0.501393616199493,2.8547158241272,1.27190172672272,-0.248894644448595,2.85872396824263,1.29693473159157,1180.739,1380.472,3124.703,3154.545,-0.09321117,0.03940999,0.04871481,-0.622481465339661,-0.146219953894615,0.291671484708786,-0.47871923339115,-0.205979512261105,0.296350010028666,3
1.05999755859375,-0.513905465602875,2.85160636901855,1.27782595157623,-0.258599401509697,2.85454828239877,1.30294243851408,1168.794,1387.673,3120.753,3168.85,-0.09632494,0.0378489,0.05008205,-0.625588715076447,-0.155475616455078,0.296208918094635,-0.492290296490434,-0.211818761581115,0.30475114456651,3
1.07998657226563,-0.526487529277802,2.84830594062805,1.28384292125702,-0.268575430648764,2.85025587575821,1.30911807577533,1160.655,1394.552,3123.106,3174.726,-0.09922885,0.03625454,0.05163366,-0.629104852676392,-0.165017113089561,0.300847440958023,-0.50586005237609,-0.217657448443621,0.313151469876847,3
1.10000610351563,-0.539147913455963,2.84481024742126,1.28995060920715,-0.278838480013141,2.84583997233313,1.31547139222872,1152.074,1401.354,3121.341,3185.597,-0.1019085,0.03464665,0.05334906,-0.63301944732666,-0.174779057502747,0.305382937192917,-0.519441457145546,-0.223501147495394,0.321559006401169,3
1.1199951171875,-0.551894724369049,2.84111618995667,1.29614746570587,-0.289357002179081,2.84131414609862,1.32198285851614,1160.795,1408.51,3115.738,3184.35,-0.1043709,0.03305931,0.05515109,-0.637341141700745,-0.184703350067139,0.309842556715012,-0.532985466132485,-0.229328756186667,0.329943393154705,3
1.13998413085938,-0.564736425876617,2.83722066879272,1.3024388551712,-0.300146026259498,2.83667193044725,1.3286617783744,1154.502,1414.117,3121.272,3189.842,-0.1066836,0.03147354,0.05710934,-0.642086148262024,-0.194770187139511,0.314567416906357,-0.546505271550557,-0.235145950758426,0.338312796746137,3
1.16000366210938,-0.577681124210358,2.83312225341797,1.30882406234741,-0.311222084148811,2.83190621216671,1.33551838583369,1146.195,1417.38,3124.706,3201.128,-0.1088008,0.02990423,0.05921663,-0.647234082221985,-0.204925045371056,0.319260507822037,-0.560014026276883,-0.240958390526247,0.34667535943296,3
1.17999267578125,-0.590736925601959,2.82881999015808,1.31530177593231,-0.322550701230474,2.8270318247214,1.34253133946411,1157.697,1420.995,3122.312,3199.262,-0.1106927,0.02838689,0.06139213,-0.652790069580078,-0.215111911296844,0.323884278535843,-0.573463232144024,-0.246745208083563,0.355001058539242,3
1.19998168945313,-0.60391241312027,2.82431387901306,1.32187724113464,-0.334147705564643,2.8220419577392,1.34971043758889,1155.059,1423.034,3129.406,3204.828,-0.1124206,0.02689912,0.06370132,-0.658771753311157,-0.22531133890152,0.328775554895401,-0.586866312357874,-0.25251217906087,0.363298203668868,3
1.22000122070313,-0.6172154545784,2.81960463523865,1.32855033874512,-0.346030421585499,2.81692915700008,1.35706640485806,1149.92,1423.081,3133.187,3217.492,-0.1139471,0.02545424,0.06612291,-0.665155827999115,-0.235467776656151,0.333654522895813,-0.600236516861372,-0.258265004538453,0.371574997167698,3
1.239990234375,-0.630654394626617,2.81469392776489,1.33532059192657,-0.358161486344149,2.81170949873715,1.36457611182642,1163.609,1424.127,3130.994,3217.382,-0.1152504,0.02408911,0.06855427,-0.671945035457611,-0.245529547333717,0.338514149188995,-0.613526094901141,-0.263983138701136,0.379801879044709,2
1.25997924804688,-0.644237339496613,2.80958414077759,1.34219479560852,-0.370557537648727,2.80637582416637,1.37224985808977,1162.218,1423.846,3139.377,3224.062,-0.1163903,0.02278253,0.07104369,-0.679151356220245,-0.255487024784088,0.343707680702209,-0.626748599474006,-0.269672413024826,0.387987239250554,2
1.27999877929688,-0.657972037792206,2.80427837371826,1.34917342662811,-0.383236695417198,2.80092033679326,1.3800988607405,1159.498,1422.209,3144.462,3235.748,-0.1173208,0.02155114,0.07356039,-0.686733901500702,-0.265291601419449,0.34893411397934,-0.639917282339435,-0.275338529371412,0.396139281255613,2
1.29998779296875,-0.67186564207077,2.79878044128418,1.35625660419464,-0.396158759015336,2.79536033382764,1.388098233671,1177.199,1422.185,3142.685,3233.24,-0.1180313,0.02043009,0.07600655,-0.694678485393524,-0.274895787239075,0.354160010814667,-0.652985332144132,-0.280961346123326,0.404229026602261,2
1.32000732421875,-0.685925364494324,2.79309439659119,1.36345160007477,-0.409361504843077,2.78967956113998,1.39627136227237,1180.067,1420.568,3151.964,3237.02,-0.1185975,0.0193911,0.07844795,-0.702988266944885,-0.284298121929169,0.359748274087906,-0.6659860834168,-0.286555206197011,0.41227711095171,2
1.33999633789063,-0.700157582759857,2.78722524642944,1.3707582950592,-0.422802873722428,2.78389611561957,1.40459220990988,1185.643,1418.524,3154.516,3244.355,-0.1190177,0.01844612,0.08086111,-0.711607038974762,-0.293452084064484,0.365335404872894,-0.678873453515705,-0.29210028151913,0.420255006953505,2
1.3599853515625,-0.714568495750427,2.78117799758911,1.37818229198456,-0.436500861174643,2.77800225429635,1.41307191666844,1191.771,1414.955,3164.443,3245.664,-0.1192617,0.01759788,0.08322817,-0.720546424388885,-0.302356868982315,0.371200442314148,-0.69166099897751,-0.297602405088682,0.428171106749628,2
1.3800048828125,-0.729163527488708,2.77495861053467,1.38572430610657,-0.450474904562636,2.77198961381608,1.4217225152016,1196.721,1411.513,3169.072,3252.66,-0.1193331,0.01684833,0.08554932,-0.729753911495209,-0.310971140861511,0.377098768949509,-0.704361775018035,-0.303067194200314,0.436033492140578,2
1.39999389648438,-0.743947803974152,2.76857328414917,1.39338481426239,-0.464680216184654,2.76587746507559,1.43051627978847,1216.938,1409.644,3167.178,3250.123,-0.1192697,0.01621671,0.0877542,-0.739210546016693,-0.319260716438293,0.383023589849472,-0.716930938559026,-0.308475354130225,0.443814403124744,2
1.41998291015625,-0.758926331996918,2.76202845573425,1.40117204189301,-0.479135601808478,2.75965771647838,1.43946485209513,1219.178,1405.342,3178.81,3254.769,-0.1191381,0.01566738,0.08990878,-0.748925268650055,-0.32724666595459,0.389362007379532,-0.729381927869995,-0.313832666990362,0.451522158631107,2
1.44000244140625,-0.774102985858917,2.75533032417297,1.40908741950989,-0.493861275572861,2.75332167044526,1.4485807456364,1218.164,1400.13,3187.223,3264.905,-0.1188824,0.0152085,0.0919985,-0.758836805820465,-0.334908545017242,0.395767211914063,-0.741727567798258,-0.319144650954242,0.459164697851088,2
1.45999145507813,-0.789481341838837,2.74848604202271,1.4171302318573,-0.508809800712713,2.74688973769103,1.45783459479497,1238.521,1397.598,3186.325,3260.595,-0.1184867,0.01487253,0.09392986,-0.768915891647339,-0.342216581106186,0.402140885591507,-0.753924423002454,-0.324392617007921,0.466715132239272,2
1.47998046875,-0.805064678192139,2.74150228500366,1.42530739307404,-0.524000783579472,2.74035348215039,1.46723853683636,1244.535,1393.125,3196.617,3261.896,-0.1180244,0.01462241,0.09577429,-0.779167115688324,-0.349189132452011,0.408857762813568,-0.76598572865452,-0.329582259876133,0.474181654997567,2
1.5,-0.820855259895325,2.73438596725464,1.43361973762512,-0.539455198877605,2.73370387899399,1.4768055561018,1246.33,1387.899,3203.399,3270.05,-0.1174763,0.01445694,0.09753467,-0.789529204368591,-0.355810612440109,0.415617346763611,-0.777924000354858,-0.334718964672088,0.481572013878822,1
1.51998901367188,-0.836854875087738,2.72714471817017,1.4420667886734,-0.555123050061237,2.72696244033876,1.48650470234772,1265.893,1385.198,3202.062,3266.203,-0.1168489,0.01440048,0.09912989,-0.799976766109467,-0.362062633037567,0.422354489564896,-0.789697369743256,-0.339784716610053,0.488860290373601,1
1.54000854492188,-0.853065192699432,2.71978521347046,1.45065569877625,-0.571049184024557,2.72010986981902,1.49636373793799,1269.266,1380.087,3213.576,3268.193,-0.116199,0.01441507,0.100631,-0.810518860816956,-0.367976874113083,0.429443269968033,-0.801336412291853,-0.344792671461508,0.496065412155667,1
1.55999755859375,-0.869486808776855,2.71231436729431,1.45938503742218,-0.587181951496087,2.71316839067337,1.50635068951315,1275.059,1375.979,3216.487,3273.688,-0.1155146,0.01450781,0.1020197,-0.821082711219788,-0.373538374900818,0.436469584703445,-0.812800388649436,-0.349725300221754,0.503162159625937,1
1.57998657226563,-0.886120498180389,2.70473885536194,1.46825909614563,-0.603542258451077,2.7061290076447,1.51647849886779,1281.627,1370.562,3226.546,3272.375,-0.1147556,0.01467767,0.1032836,-0.831681191921234,-0.378770560026169,0.443705350160599,-0.82410201904291,-0.354588076049064,0.510158407210813,0
1.60000610351563,-0.902965486049652,2.69706559181213,1.47727680206299,-0.620152298932711,2.69898217125626,1.52676090517188,1286.947,1366.098,3230.077,3276.769,-0.1139284,0.01492014,0.1044316,-0.842252433300018,-0.383658409118652,0.450886011123657,-0.835253140422976,-0.35938609205264,0.51706148254665,0
1.6199951171875,-0.920021057128906,2.68930172920227,1.48643684387207,-0.636958033083316,2.69175113334911,1.53716445517924,1307.08,1364.331,3225.884,3271.813,-0.1130858,0.01524875,0.1054011,-0.852775573730469,-0.388190984725952,0.458003312349319,-0.846214826007804,-0.364102599125749,0.523847288101157,0
1.63998413085938,-0.93728631734848,2.68145346641541,1.49574637413025,-0.653981118189727,2.68442657539777,1.54770255578211,1307.45,1359.378,3237.593,3273.747,-0.1122879,0.01561872,0.1062732,-0.863270163536072,-0.392416507005692,0.465476363897324,-0.856999388527105,-0.368742895092007,0.53052344604056,0
1.66000366210938,-0.95475971698761,2.67352652549744,1.50520467758179,-0.671244443874359,2.67699864863716,1.55838937674714,1303.449,1354.094,3245.544,3281.639,-0.1114671,0.01603378,0.1070505,-0.873667776584625,-0.396343916654587,0.472912698984146,-0.867618167158098,-0.373311858882592,0.53709697585572,0
1.67999267578125,-0.972438454627991,2.66552734375,1.514808177948,-0.688691692550512,2.66949158495151,1.56919005480539,1321.995,1352.501,3241.975,3274.769,-0.1106037,0.01652627,0.1076455,-0.883938193321228,-0.399961292743683,0.480173259973526,-0.878034183119987,-0.377793579561193,0.543544985919778,0
1.69998168945313,-0.9903205037117,2.65746116638184,1.52456152439117,-0.706345246291743,2.66189575395985,1.5801184455266,1326.003,1348.489,3250.642,3272.982,-0.1097675,0.01705258,0.108142,-0.894101202487946,-0.40330371260643,0.487667173147202,-0.88825927318574,-0.382193150160541,0.549874803759068,0
1.72000122070313,-1.00840246677399,2.64933371543884,1.53446304798126,-0.724228658537036,2.6542010212754,1.5911891296115,1323.857,1344.11,3255.399,3279.686,-0.1089398,0.01760587,0.1085584,-0.904099464416504,-0.406377613544464,0.495078414678574,-0.898304216251578,-0.386515208538549,0.556093102023817,0
1.739990234375,-1.0266809463501,2.64114999771118,1.54450953006744,-0.74228345468553,2.64643254688532,1.60236590849663,1339.643,1342.935,3250.884,3274.462,-0.1081217,0.01821135,0.1088137,-0.913915574550629,-0.409180253744125,0.502325236797333,-0.908134108040217,-0.390744736359816,0.562178273303667,0
1.75997924804688,-1.0451523065567,2.63291478157043,1.55470585823059,-0.760532711099173,2.63858040167573,1.61366306754931,1338.737,1338.984,3260.819,3274.2,-0.1073568,0.01882849,0.1089853,-0.923576354980469,-0.411758035421371,0.509816706180573,-0.917760245372929,-0.394886594330938,0.568137310869129,0
1.77999877929688,-1.06381285190582,2.62463235855103,1.56504917144775,-0.779000609654483,2.63063418086074,1.62509557650306,1333.678,1335.084,3265.594,3280.956,-0.1065914,0.01945944,0.1090813,-0.933019816875458,-0.414119720458984,0.517165124416351,-0.927192788821983,-0.398945154262308,0.57397650459845,0
1.79998779296875,-1.0826575756073,2.61630725860596,1.57553458213806,-0.797626646773287,2.62261991743975,1.63662598076079,1350.267,1334.943,3259.199,3273.633,-0.1058212,0.02013413,0.1090148,-0.942227840423584,-0.416257053613663,0.524271368980408,-0.936399026186941,-0.402906341007953,0.579675604081262,0
1.82000732421875,-1.10168194770813,2.60794305801392,1.58616614341736,-0.816463410111527,2.61451498441355,1.64828683458664,1350.168,1332.098,3267.017,3271.802,-0.1051128,0.02080846,0.1088728,-0.951231896877289,-0.418212115764618,0.531578600406647,-0.94540321420156,-0.406780591562751,0.585249625391268,0
1.83999633789063,-1.12088143825531,2.59954333305359,1.59693920612335,-0.835449117627072,2.60634596486888,1.66003989195343,1349.771,1330.589,3265.816,3276.15,-0.1044625,0.02148448,0.1086555,-0.959968566894531,-0.419988751411438,0.538653016090393,-0.954174163352093,-0.410554485950274,0.590679260733698,0
1.8599853515625,-1.14025092124939,2.59111094474792,1.60785508155823,-0.854607925216182,2.59810246519841,1.67190010651166,1349.602,1327.522,3273.245,3272.867,-0.1038127,0.02216308,0.1083544,-0.968472599983215,-0.4216228723526,0.545794606208801,-0.962722140342816,-0.41423244164655,0.595970865687568,0
1.8800048828125,-1.15978467464447,2.58264875411987,1.6189090013504,-0.873964974649439,2.58977366760063,1.68388304221498,1347.993,1325.684,3273.224,3275.968,-0.1031506,0.02284167,0.1079853,-0.976692259311676,-0.423110604286194,0.552693545818329,-0.971056158224177,-0.417818336715394,0.601130019760457,0
1.89999389648438,-1.17947721481323,2.57415986061096,1.63009572029114,-0.893456683142228,2.58138692997148,1.69594933829086,1363.542,1327.021,3264.15,3268.389,-0.102521,0.02353821,0.1074822,-0.984622180461884,-0.424444288015366,0.559335052967072,-0.979147395688901,-0.421299770153459,0.606138881190213,0
1.91998291015625,-1.19932329654694,2.5656464099884,1.64141952991486,-0.91310780215452,2.5729316024492,1.70811431707208,1358.176,1325.034,3272.211,3268.002,-0.1019858,0.02420597,0.1069392,-0.992303967475891,-0.425673842430115,0.566188871860504,-0.98700543065471,-0.424680863071164,0.611003379164165,0
1.94000244140625,-1.2193169593811,2.55711007118225,1.65287625789642,-0.932943991899774,2.5643966441608,1.72039386345315,1346.748,1322.73,3276.109,3275.643,-0.1014707,0.02484974,0.1063674,-0.999684512615204,-0.42681422829628,0.572834730148315,-0.994638524886308,-0.427965170275055,0.615728628108227,0
1.95999145507813,-1.23945200443268,2.54855298995972,1.66445899009705,-0.952900013794853,2.55581012544606,1.73274759164336,1359.909,1324.218,3268.033,3267.002,-0.1009429,0.02550834,0.1056706,-1.00675213336945,-0.427855253219604,0.579135060310364,-1.00202031904361,-0.431141350077486,0.620298310335216,0
1.97998046875,-1.25972294807434,2.5399763584137,1.67616975307465,-0.973001172086935,2.54716115859433,1.74519116617712,1357.682,1323.309,3273.349,3263.372,-0.1004667,0.02613916,0.1049408,-1.01354563236237,-0.428829848766327,0.585539758205414,-1.0091596546337,-0.434213206731958,0.624717899159203,0
2,-1.28012323379517,2.53138160705566,1.68800365924835,-0.993273599084619,2.53843849960327,1.7577407641983,1348.587,1322.014,3274.027,3269.77,-0.1000139,0.02673863,0.1042019,-1.02002096176147,-0.429742574691772,0.591695070266724,-1.01606400046349,-0.437183953857422,0.628992018127441,0
2.01998901367188,-1.30064690113068,2.52276992797852,1.69995427131653,-1.01365055070775,2.52967086658596,1.77035506794184,1360.026,1323.865,3265.033,3262.415,-0.09957612,0.02733862,0.1033643,-1.02617907524109,-0.43058568239212,0.597528755664825,-1.02270954399163,-0.440043345582587,0.633105926142498,0
2.04000854492188,-1.32128810882568,2.51414203643799,1.71202409267426,-1.03418924440916,2.52083364047092,1.78306949773667,1353.405,1323.079,3271.356,3260.74,-0.09919956,0.02789894,0.1025157,-1.03206360340118,-0.43139836192131,0.603492736816406,-1.02911391720548,-0.442798968459032,0.637070538244476,0
2.05999755859375,-1.34204041957855,2.50549840927124,1.72420597076416,-1.05482201812353,2.5119559343546,1.79584216754118,1348,1323.604,3267.244,3265.203,-0.09885973,0.02843052,0.1016476,-1.03761959075928,-0.43217596411705,0.609092712402344,-1.03525504859546,-0.445441325732794,0.640872191117535,0
2.07998657226563,-1.36289834976196,2.49683952331543,1.73649919033051,-1.07557499515204,2.50302650811029,1.80868924892322,1345.681,1322.868,3271.307,3259.783,-0.09849115,0.0289405,0.1007432,-1.04289364814758,-0.43294233083725,0.614660859107971,-1.04114045847258,-0.4479736531836,0.644515540192423,0
2.10000610351563,-1.3838552236557,2.48816585540771,1.74889707565308,-1.09647498538954,2.49403382618922,1.82162733848484,1340.771,1323.219,3267.804,3262.53,-0.09809648,0.02942563,0.09982526,-1.04784512519836,-0.433682978153229,0.619896173477173,-1.04677621342161,-0.450398561093403,0.648004340974112,0
2.1199951171875,-1.40490472316742,2.47947812080383,1.76139318943024,-1.11745308225396,2.48500753716864,1.83461377976925,1353.505,1326.198,3256.182,3254.001,-0.09771724,0.02990663,0.09882426,-1.0524810552597,-0.434382945299149,0.624807715415955,-1.0521429102862,-0.45270770082608,0.651326581984514,0
2.13998413085938,-1.42604184150696,2.47077655792236,1.77399086952209,-1.13853583516761,2.47593621757383,1.84766500813359,1343.975,1326.131,3262.248,3253.361,-0.09741577,0.0303388,0.09783899,-1.05684924125671,-0.43508392572403,0.629882574081421,-1.05724722779031,-0.454903946049977,0.654486397671922,0
2.16000366210938,-1.4472599029541,2.46206068992615,1.78668427467346,-1.15975039167652,2.46680818657414,1.86079782920208,1328.413,1325.434,3263.807,3261.458,-0.09710898,0.03073188,0.09687685,-1.06090569496155,-0.435790330171585,0.634670078754425,-1.0620943502576,-0.456989527434725,0.657486997379635,0
2.17999267578125,-1.46855282783508,2.45333099365234,1.79946517944336,-1.18102676265167,2.45765355853653,1.8739689163698,1340.212,1328.058,3253.546,3251.119,-0.09674891,0.03113072,0.09583108,-1.06464922428131,-0.436481475830078,0.639043152332306,-1.06666760390386,-0.458957270716794,0.660318059240953,0
2.19998168945313,-1.48991537094116,2.44458746910095,1.81233465671539,-1.20239187218348,2.44846074877705,1.8871949369313,1335.775,1328.702,3256.55,3246.685,-0.09641176,0.03149289,0.09480108,-1.06812143325806,-0.437178403139114,0.64347380399704,-1.07097279461286,-0.460809674005774,0.6629831773745,0
2.22000122070313,-1.51134097576141,2.43582987785339,1.8252866268158,-1.22387315175433,2.43921795429519,1.90049287228091,1323.904,1328.542,3254.885,3253.471,-0.09607087,0.03181707,0.09380919,-1.07128739356995,-0.437873989343643,0.647599160671234,-1.07501419914593,-0.462548577472581,0.665484999299265,0
2.239990234375,-1.53282403945923,2.42705893516541,1.83831393718719,-1.24539969505118,2.42995568409656,1.91381882803312,1334.019,1330.916,3244.395,3245.044,-0.09570762,0.03213925,0.09275685,-1.07415735721588,-0.438551634550095,0.65136706829071,-1.07877792518082,-0.464168003639063,0.667814925005999,0
2.25997924804688,-1.55435967445374,2.41827416419983,1.85141861438751,-1.26699874763832,2.42066221517598,1.92718967049012,1325.106,1331.165,3248.858,3243.314,-0.09537419,0.03242094,0.09173436,-1.07677435874939,-0.439239710569382,0.655233681201935,-1.08226887897249,-0.465670063529659,0.669975991700231,0
2.27999877929688,-1.57594156265259,2.40947556495667,1.86459422111511,-1.28869796983554,2.41132564607061,1.9406225227075,1311.379,1330.814,3247.996,3250.359,-0.09500614,0.0326718,0.09074615,-1.07910001277924,-0.439929962158203,0.658778667449951,-1.08549040888332,-0.467056197851165,0.67197027217779,0
2.29998779296875,-1.59756433963776,2.40066361427307,1.87783265113831,-1.31042570636616,2.40197680804417,1.95407302665558,1323.493,1333.305,3236.568,3239.971,-0.09457577,0.03293231,0.08968704,-1.08113884925842,-0.440597623586655,0.661922216415405,-1.08843144721369,-0.468321644481621,0.673790915005368,0
2.32000732421875,-1.61922299861908,2.39183831214905,1.89113569259644,-1.33224276726637,2.39258953623693,1.96757882664355,1317.288,1333.952,3239.428,3236.371,-0.09416085,0.03316074,0.08865577,-1.08293175697327,-0.441263645887375,0.665150880813599,-1.09109983431736,-0.469469776906228,0.675442773735451,0
2.33999633789063,-1.64091169834137,2.38300013542175,1.90449559688568,-1.35407709248145,2.38319483607731,1.98109531406483,1310.615,1334.904,3233.013,3240.735,-0.09375446,0.03336567,0.08764821,-1.08443605899811,-0.441910982131958,0.667993605136871,-1.09348640563071,-0.470496651869278,0.67692017506657,0
2.3599853515625,-1.66262578964233,2.37414908409119,1.91791176795959,-1.37595634130987,2.37378080654189,1.99463961134278,1306.215,1334.362,3235.973,3235.178,-0.09328733,0.03355612,0.08664273,-1.0857013463974,-0.442556262016296,0.670808553695679,-1.09559452046326,-0.471403714787811,0.678225198571351,0
2.3800048828125,-1.68435966968536,2.36528563499451,1.93137717247009,-1.39790843013262,2.36433543599182,2.00822900004707,1298.971,1334.63,3231.57,3238.122,-0.09275097,0.03373308,0.08565765,-1.08669173717499,-0.443175435066223,0.673272550106049,-1.09742594550583,-0.472191725819537,0.679358937915576,0
2.39999389648438,-1.70610797405243,2.35641074180603,1.94488477706909,-1.41986083522252,2.35488992936084,2.02181858453579,1312.018,1336.881,3219.082,3227.913,-0.09216987,0.03392299,0.08461317,-1.08741545677185,-0.443743050098419,0.6753830909729,-1.09897439291323,-0.472857979480329,0.680317500623536,0
2.41998291015625,-1.72786617279053,2.34752511978149,1.95843744277954,-1.4418413890156,2.34543231112926,2.03542559441269,1303.089,1336.991,3222.844,3226.178,-0.09162126,0.03408278,0.08360893,-1.08791351318359,-0.444285988807678,0.677634537220001,-1.10024227275454,-0.473403512755585,0.681102378642803,0
2.44000244140625,-1.7496292591095,2.33862924575806,1.97202932834625,-1.46387808506052,2.33595053645515,2.04906735901791,1287.613,1335.956,3222.461,3234.102,-0.09103484,0.03422178,0.08264866,-1.08815050125122,-0.444796800613403,0.679592847824097,-1.10123038958312,-0.473828671822132,0.681714070030222,0
2.45999145507813,-1.77139186859131,2.32972431182861,1.98565244674683,-1.48589810917879,2.32647593524532,2.06269880290633,1299.553,1337.275,3211.905,3222.973,-0.0903568,0.03438518,0.08161924,-1.08812999725342,-0.445250481367111,0.681155800819397,-1.10193535162022,-0.474131997292339,0.68215047511319,0
2.47998046875,-1.79314970970154,2.3208110332489,1.99930822849274,-1.50792940965705,2.3169964821328,2.07633722739875,1294.759,1337.403,3213.986,3218.146,-0.08966544,0.03453304,0.0806181,-1.08788442611694,-0.44566085934639,0.68278694152832,-1.10235860927677,-0.474314113237503,0.682412491765153,0
2.5,-1.81489706039429,2.3118908405304,2.01299047470093,-1.52999999932945,2.30750012397766,2.08999997377396,1283.29,1336.359,3211.398,3224.236,-0.08893307,0.03466743,0.07966118,-1.0873818397522,-0.446012437343597,0.684112191200256,-1.10250000050292,-0.474374949932098,0.682500019669533,0
2.51998901367188,-1.83662986755371,2.30296516418457,2.02669215202332,-1.5520369476803,2.29801824074336,2.10364189456856,1295.251,1337.152,3200.466,3214.046,-0.08813465,0.03482466,0.07864533,-1.08663153648376,-0.446283251047134,0.685085415840149,-1.10235904000526,-0.474314298567936,0.682412758406603,0
2.54000854492188,-1.85834312438965,2.29403495788574,2.0404155254364,-1.57410188948011,2.28852431271001,2.11730114464159,1287.728,1336.645,3203.638,3211.23,-0.0873405,0.03496592,0.07766346,-1.08566749095917,-0.446493566036224,0.686172068119049,-1.10193535162022,-0.474131997292339,0.682150475113189,0
2.55999755859375,-1.88003206253052,2.2851026058197,2.05415296554565,-1.59612191359838,2.27904971150017,2.13093258853001,1281.383,1336.111,3197.402,3215.109,-0.08652238,0.03510487,0.07669892,-1.08444964885712,-0.446623831987381,0.686875820159912,-1.10123038958312,-0.473828671822132,0.681714070030222,0
2.57998657226563,-1.90169239044189,2.27616882324219,2.06790375709534,-1.61812503288753,2.26958238396605,2.14455356752391,1279.402,1334.516,3199.193,3208.072,-0.0856153,0.03525267,0.07572249,-1.08301877975464,-0.446684181690216,0.68754369020462,-1.1002439936861,-0.473404253224357,0.681103443981416,0
2.60000610351563,-1.92331922054291,2.26723575592041,2.08166146278381,-1.64013916343638,2.26011031859448,2.15818136301212,1274.532,1333.713,3193.941,3209.519,-0.08462567,0.03540738,0.07475427,-1.08134174346924,-0.446648985147476,0.687884747982025,-1.09897439291323,-0.472857979480329,0.680317500623536,0
2.6199951171875,-1.94490766525269,2.25830578804016,2.09541964530945,-1.66209156852628,2.2506648119635,2.17177094750084,1288.56,1334.261,3181.862,3198.578,-0.08358384,0.03559136,0.07372008,-1.07942390441895,-0.446495443582535,0.687909185886383,-1.09742594550583,-0.472191725819537,0.679358937915576,0
2.63998413085938,-1.9664534330368,2.24938082695007,2.10918140411377,-1.6840102224118,2.24123382753286,2.18533963838626,1280.458,1333.295,3185.215,3196.387,-0.08257078,0.03576331,0.07271732,-1.07729661464691,-0.446248382329941,0.688092350959778,-1.09559752564474,-0.471405007833448,0.678227058921845,0
2.66000366210938,-1.98795223236084,2.24046277999878,2.12294149398804,-1.70592290617745,2.23180541187802,2.19890463348308,1266.123,1330.957,3184.683,3203.52,-0.0815151,0.03593258,0.0717461,-1.0749284029007,-0.445901811122894,0.68800300359726,-1.09348640563071,-0.470496651869278,0.67692017506657,0
2.67999267578125,-2.00939869880676,2.23155403137207,2.13669228553772,-1.72775723139253,2.2224107117184,2.21242112090437,1279.359,1330.443,3174.684,3191.252,-0.08035822,0.03614176,0.07069384,-1.0723215341568,-0.445434272289276,0.687542021274567,-1.09109983431736,-0.469469776906228,0.675442773735451,0
2.69998168945313,-2.03078842163086,2.22265696525574,2.15043544769287,-1.74954107593572,2.21303773198162,2.22590635838503,1276.347,1329.487,3176.056,3185.34,-0.0791859,0.03635185,0.06965706,-1.06949853897095,-0.444857120513916,0.687156677246094,-1.08843572622736,-0.468323485621663,0.673793563918671,0
2.72000122070313,-2.05211734771729,2.21377372741699,2.16416525840759,-1.77130202882336,2.20367460188472,2.23937742484041,1266.458,1327.163,3173.002,3190.573,-0.07797682,0.03656298,0.06865124,-1.0664314031601,-0.444157749414444,0.686485588550568,-1.08549040888332,-0.467056197851165,0.671970272177789,0
2.739990234375,-2.07337975502014,2.20490741729736,2.17787528038025,-1.79296822271738,2.1943522439355,2.25278983096475,1279.142,1326.129,3162.898,3179.591,-0.0767049,0.03680777,0.06757575,-1.06312906742096,-0.443320572376251,0.685499846935272,-1.08227399942825,-0.465672266718727,0.669979161506271,0
2.75997924804688,-2.09457206726074,2.19606018066406,2.19156789779663,-1.81456738183361,2.18505872917844,2.26616073936833,1272.782,1324.593,3165.434,3176.127,-0.07544202,0.03704957,0.06652048,-1.05961489677429,-0.442364126443863,0.684630990028381,-1.07878346314437,-0.464170386470068,0.667818353269249,0
2.77999877929688,-2.11568927764893,2.18723487854004,2.20523738861084,-1.83612684690458,2.17578229366013,2.27950707526701,1261.226,1321.789,3163.448,3181.833,-0.07413282,0.03729554,0.06548534,-1.05586111545563,-0.441280364990234,0.683478772640228,-1.07501419914593,-0.462548577472581,0.665484999299265,0
2.79998779296875,-2.13672661781311,2.17843389511108,2.21887707710266,-1.85757544288233,2.1665535620153,2.29278477791556,1275.34,1320.54,3153.068,3169.367,-0.07273892,0.03758238,0.06436332,-1.05187153816223,-0.440051674842834,0.6819828748703,-1.07097916161324,-0.460812413548163,0.662987118851036,0
2.82000732421875,-2.15768027305603,2.16965985298157,2.23248887062073,-1.87897323600723,2.1573466894188,2.30603103117811,1271.692,1319.147,3154.537,3163.87,-0.07134821,0.03787121,0.06325059,-1.04766535758972,-0.438692718744278,0.68059229850769,-1.06666760390385,-0.458957270716794,0.660318059240952,0
2.83999633789063,-2.17854452133179,2.16091585159302,2.24606609344482,-1.90024960698239,2.14819206138118,2.31920211834584,1267.286,1317.071,3147.938,3166.491,-0.06995592,0.03816835,0.06214152,-1.04321157932281,-0.437191605567932,0.678855895996094,-1.06209435025759,-0.456989527434725,0.657486997379635,0
2.8599853515625,-2.19931507110596,2.15220475196838,2.25960850715637,-1.92143189875059,2.13907791299805,2.33231496600284,1266.303,1314.097,3149.578,3158.677,-0.06850236,0.03848126,0.06100905,-1.03854358196259,-0.435562938451767,0.677117049694061,-1.05725481901126,-0.454907212340279,0.654491096999312,0
2.8800048828125,-2.2199878692627,2.14352869987488,2.27311015129089,-1.94254691640495,2.12999271078668,2.34538616777867,1261.427,1311.815,3144.65,3159.834,-0.06699075,0.03880731,0.05987334,-1.03363358974457,-0.433791220188141,0.675080478191376,-1.0521429102862,-0.45270770082608,0.651326581984514,0
2.89999389648438,-2.24055767059326,2.13489174842834,2.28656530380249,-1.96352501326936,2.1209664217661,2.35837260906308,1275.812,1310.369,3133.886,3147.612,-0.06543334,0.03916768,0.05865961,-1.0284857749939,-0.431863069534302,0.672754049301147,-1.04677621342161,-0.450398561093403,0.648004340974112,0
2.91998291015625,-2.26101970672607,2.12629580497742,2.29997658729553,-1.98439323028747,2.1119874109737,2.37129102948832,1269.596,1308.578,3135.79,3144.213,-0.06391586,0.03952381,0.05746196,-1.02311825752258,-0.429798394441605,0.670562088489532,-1.0411492471255,-0.447977434695422,0.644520980787238,0
2.94000244140625,-2.28137016296387,2.11774349212646,2.31333899497986,-2.00517798053537,2.10304431360073,2.38415778000673,1257.532,1305.285,3134.314,3149.619,-0.06237869,0.03988244,0.05627996,-1.0175107717514,-0.42759844660759,0.668117880821228,-1.03525504859546,-0.445441325732794,0.640872191117535,0
2.95999145507813,-2.30160355567932,2.10923862457275,2.32664585113525,-2.02581075424974,2.0941666074844,2.39693044981124,1270.505,1303.152,3125.23,3136.901,-0.06076641,0.04027824,0.05501153,-1.0116673707962,-0.425253123044968,0.66534560918808,-1.02911391720548,-0.442798968459032,0.637070538244476,0
2.97998046875,-2.32171559333801,2.10078310966492,2.33989858627319,-2.04631823718085,2.08534281049189,2.40962555865248,1267.891,1301.498,3125.701,3130.622,-0.05916212,0.04067626,0.05374714,-1.00559961795807,-0.422773391008377,0.662641942501068,-1.0227194988233,-0.440047628868552,0.633112088657521,0
3,-2.34170126914978,2.09238004684448,2.35309195518494,-2.06672639957428,2.07656174835205,2.42225918334961,1259.137,1298.391,3122.357,3134.339,-0.05754452,0.04107609,0.05249919,-0.999289631843567,-0.420156240463257,0.659673452377319,-1.01606400046349,-0.437183953857422,0.628992018127441,0
3.01998901367188,-2.36155581474304,2.08403205871582,2.36622023582458,-2.0869680292999,2.06785234056679,2.43478971639231,1271.764,1296.075,3112.979,3122.454,-0.05588271,0.04150582,0.05117624,-0.992745339870453,-0.41739496588707,0.656412601470947,-1.00917036754089,-0.434217816196637,0.624724530959079,0
3.04000854492188,-2.38127565383911,2.0757417678833,2.37928533554077,-2.10709998486405,2.05919012250926,2.44725235590455,1266.623,1294.24,3114.332,3117.74,-0.05425232,0.04193091,0.04986589,-0.985980331897736,-0.414505392313004,0.653255820274353,-1.00202031904361,-0.431141350077486,0.620298310335216,0
3.05999755859375,-2.40085506439209,2.06751203536987,2.39228057861328,-2.12705600675913,2.05060360379452,2.45960608409476,1261.666,1291.484,3108.016,3120.016,-0.05262992,0.04236022,0.04855436,-0.978974997997284,-0.411484509706497,0.649758815765381,-0.994638524886308,-0.427965170275055,0.615728628108227,0
3.07998657226563,-2.42029023170471,2.05934524536133,2.40520548820496,-2.14686207530873,2.04208160581513,2.47186698402085,1261.975,1288.411,3108.575,3110.909,-0.05095533,0.04280207,0.04721048,-0.971755385398865,-0.408344924449921,0.64624297618866,-0.987017247723776,-0.424685947625853,0.611010694492843,0
3.10000610351563,-2.43957591056824,2.05124402046204,2.4180543422699,-2.16654331551667,2.03361331798384,2.48405060925705,1257.918,1286.082,3103,3110.958,-0.04924558,0.04325147,0.04586009,-0.964300632476807,-0.40507698059082,0.6424440741539,-0.979147395688901,-0.421299770153459,0.606138881190213,0
3.1199951171875,-2.45870852470398,2.04321050643921,2.43082189559937,-2.18603502400946,2.02522658035469,2.49611690533293,1271.629,1284.076,3092.731,3098.449,-0.04751026,0.04372554,0.04443653,-0.956615388393402,-0.401673793792725,0.638376712799072,-0.971056158224178,-0.417818336715394,0.601130019760458,0
3.13998413085938,-2.4776828289032,2.0352475643158,2.44351077079773,-2.20536269329809,2.01691042421237,2.50808165332716,1265.541,1282.477,3093.939,3094.372,-0.04583513,0.04418866,0.04303196,-0.948711574077606,-0.398152947425842,0.634439170360565,-0.962735018414262,-0.414237982720922,0.59597883782726,0
3.16000366210938,-2.49649429321289,2.02735686302185,2.45611572265625,-2.22455088103183,2.00865428308644,2.51996005559448,1253.307,1279.227,3091.718,3099.699,-0.04416533,0.04464613,0.04164686,-0.940579414367676,-0.394520938396454,0.63024890422821,-0.954174163352092,-0.410554485950274,0.590679260733698,0
3.17999267578125,-2.51513862609863,2.0195415019989,2.46863079071045,-2.24353658854737,2.00048526354177,2.53171311296128,1265.789,1276.641,3083.334,3086.293,-0.04243481,0.04513047,0.04018136,-0.932227313518524,-0.390774607658386,0.625758171081543,-0.945403214201559,-0.406780591562751,0.585249625391267,0
3.19998168945313,-2.53361177444458,2.011803150177,2.48105716705322,-2.26234477504321,1.99239262633251,2.54335627636037,1263.013,1275.347,3082.815,3079.853,-0.04073092,0.0456088,0.03872636,-0.923659682273865,-0.386921852827072,0.621321380138397,-0.936412917636688,-0.402912318110697,0.579684203550396,0
3.22000122070313,-2.55190944671631,2.00414395332336,2.49338960647583,-2.28099938900442,1.98436606709459,2.55490437104486,1254.477,1272.404,3078.844,3083.024,-0.03903395,0.04608056,0.0372924,-0.91486918926239,-0.3829645216465,0.616627991199493,-0.927192788821982,-0.398945154262308,0.573976504598449,0
3.239990234375,-2.57002687454224,1.99656581878662,2.50562310218811,-2.2994392795179,1.97643189735754,2.5663195416865,1265.86,1269.82,3070.267,3071.068,-0.03730822,0.04657015,0.03579494,-0.90586656332016,-0.378901332616806,0.611672639846802,-0.917774783907129,-0.394892849856044,0.568146310914365,0
3.25997924804688,-2.58796000480652,1.98907101154327,2.51775908470154,-2.31768882969315,1.96857962575054,2.57761688259161,1260.629,1268.484,3070.457,3066.298,-0.03562723,0.04704738,0.03431715,-0.896658658981323,-0.374743640422821,0.60680091381073,-0.908148960779607,-0.390751127078637,0.562187467856884,0
3.27999877929688,-2.60570478439331,1.98166108131409,2.52979254722595,-2.33577134012187,1.96079922667992,2.58881081793642,1250.508,1265.568,3066.915,3070.303,-0.03395051,0.04751657,0.0328592,-0.887241125106812,-0.37049600481987,0.601670444011688,-0.898304216251578,-0.386515208538549,0.556093102023818,0
3.29998779296875,-2.62325716018677,1.97433793544769,2.54171800613403,-2.35362764460945,1.95311615770631,2.59986472102797,1262.45,1263.067,3058.469,3057.343,-0.03222958,0.0480045,0.03133135,-0.877623796463013,-0.366156727075577,0.596271216869354,-0.888274735793772,-0.382199803288803,0.549884375850026,0
3.32000732421875,-2.64061331748962,1.96710324287415,2.55353689193726,-2.37130830610839,1.94550866300381,2.61080989274252,1258.608,1262.126,3057.751,3051.644,-0.03055019,0.04848035,0.02982122,-0.867809116840363,-0.361733257770538,0.590939521789551,-0.878034183119985,-0.377793579561194,0.543544985919778,0
3.33999633789063,-2.65776920318604,1.95995855331421,2.56524300575256,-2.38875555478454,1.93800159931817,2.62161057080077,1254.286,1259.679,3051.077,3052.812,-0.02890062,0.04894903,0.02832164,-0.857793509960175,-0.357228517532349,0.585304498672485,-0.867618167158097,-0.373311858882592,0.53709697585572,0
3.3599853515625,-2.67472100257874,1.95290565490723,2.57683634757996,-2.40599272667425,1.93058492580486,2.63228120132087,1254.023,1257.224,3050.822,3043.986,-0.02723295,0.04941653,0.0268081,-0.847596824169159,-0.35265326499939,0.579665541648865,-0.857015715678588,-0.368749920209162,0.530533553325099,0
3.3800048828125,-2.69146537780762,1.94594526290894,2.58831191062927,-2.42304196557559,1.92324911460621,2.64283549236868,1248.564,1255.313,3045.391,3044.414,-0.02555889,0.04987807,0.02530636,-0.837211012840271,-0.348004847764969,0.573778569698334,-0.846214826007803,-0.364102599125748,0.523847288101157,0
3.39999389648438,-2.70799827575684,1.93907976150513,2.59966516494751,-2.43984769972619,1.91601807669906,2.65323904237604,1259.64,1253.134,3036.84,3032.419,-0.02386725,0.05034951,0.0237548,-0.826644003391266,-0.343281686306,0.567663013935089,-0.835253140422974,-0.35938609205264,0.51706148254665,0
3.41998291015625,-2.72431612014771,1.93230974674225,2.61089777946472,-2.45643259034873,1.90888206159239,2.66350587971929,1254.328,1252.31,3036.035,3028.267,-0.02223793,0.05080312,0.02223334,-0.81589937210083,-0.338491946458817,0.561626851558685,-0.824119146742881,-0.354595445619869,0.510169010073001,0
3.44000244140625,-2.74041604995728,1.92563724517822,2.62200522422791,-2.47281804716281,1.90183185728196,2.67364925803476,1244.117,1249.796,3032.773,3031.855,-0.02063044,0.05124306,0.0207408,-0.80498206615448,-0.333643734455109,0.55537474155426,-0.812800388649434,-0.349725300221754,0.503162159625937,0
3.45999145507813,-2.7562940120697,1.91906213760376,2.63298296928406,-2.48895081463434,1.8948903781363,2.68363620960993,1253.516,1247.368,3025.388,3020.348,-0.01898834,0.05169337,0.01919662,-0.793903052806854,-0.328738272190094,0.548882246017456,-0.80133641229185,-0.344792671461508,0.496065412155666,0
3.47998046875,-2.77194714546204,1.91258692741394,2.6438319683075,-2.50485284867397,1.88804817714046,2.69348032619939,1250.267,1246.81,3024.259,3014.113,-0.01738192,0.05212961,0.01767644,-0.782662212848663,-0.323779314756393,0.542444705963135,-0.789715229532172,-0.33979240117828,0.488871346433721,0
3.5,-2.78737235069275,1.90621113777161,2.65454745292664,-2.5205447997813,1.88129636896134,2.70319439144611,1241.998,1244.563,3019.638,3017.077,-0.01579521,0.0525522,0.01618883,-0.771263360977173,-0.318770736455917,0.535770535469055,-0.777924000354857,-0.334718964672089,0.481572013878822,0
3.51998901367188,-2.80256652832031,1.89993691444397,2.66512537002563,-2.53597583877076,1.87465682397749,2.71274693966292,1252.166,1242.183,3012.509,3004.896,-0.01418559,0.05298128,0.01465954,-0.759718894958496,-0.313713818788528,0.5288987159729,-0.766004036374581,-0.329590137176618,0.474192988348404,0
3.54000854492188,-2.81752753257751,1.89376473426819,2.67556715011597,-2.55119019794619,1.86811051026429,2.72216535275294,1246.887,1241.734,3011.073,3001.108,-0.01263137,0.05339133,0.01316805,-0.748028516769409,-0.308612376451492,0.522083938121796,-0.753924423002452,-0.324392617007921,0.466715132239272,0
3.55999755859375,-2.83225107192993,1.8876953125,2.68586754798889,-2.56613872308604,1.86167857751006,2.73141920191151,1242.272,1239.479,3005.124,3002.083,-0.01110751,0.05378971,0.01169744,-0.73620080947876,-0.303472250699997,0.515015602111816,-0.741727567798258,-0.319144650954242,0.459164697851087,0
3.57998657226563,-2.84673595428467,1.88172960281372,2.69602656364441,-2.58084213759183,1.85535210901407,2.74052131591136,1242.311,1237.659,3004.095,2993.583,-0.009570336,0.05418264,0.01022361,-0.724249184131622,-0.298299640417099,0.507946312427521,-0.72940084364523,-0.31384080592,0.451533868397061,0
3.60000610351563,-2.86097955703735,1.87586760520935,2.70604014396667,-2.59531978247425,1.84912278287974,2.74948366775945,1237.357,1236.318,2998.662,2993.661,-0.008036887,0.05456558,0.008772472,-0.712172508239746,-0.29309293627739,0.500673651695251,-0.716930938559024,-0.308475354130224,0.443814403124743,0
3.6199951171875,-2.87497901916504,1.87011027336121,2.715904712677,-2.60952509409627,1.84301063413925,2.75827743234631,1246.527,1234.333,2991.38,2982.798,-0.006493319,0.05495125,0.00729266,-0.699978828430176,-0.287851899862289,0.493225961923599,-0.704361775018033,-0.303067194200314,0.436033492140578,0
3.63998413085938,-2.88873219490051,1.86445903778076,2.72562170028687,-2.623478029369,1.83700707589127,2.76691496395061,1241.927,1234.021,2989.839,2978.831,-0.005011537,0.05531771,0.005853649,-0.687668085098267,-0.282579600811005,0.485850006341934,-0.691680442442073,-0.297610771068296,0.428183143180413,0
3.66000366210938,-2.90223741531372,1.85891318321228,2.73518753051758,-2.63719712493647,1.83110413233575,2.77540773763803,1233.14,1232.002,2986.118,2981.965,-0.003561712,0.05566867,0.004452904,-0.675252497196198,-0.277283757925034,0.4782954454422,-0.678873453515702,-0.29210028151913,0.420255006953505,0
3.67999267578125,-2.91549205780029,1.85347378253937,2.74459910392761,-2.65063849381582,1.82532068681534,2.78372858527554,1240.805,1229.837,2980.408,2971.29,-0.002089516,0.05602255,0.003023621,-0.662744104862213,-0.27196729183197,0.470582872629166,-0.665986083416798,-0.286555206197011,0.41227711095171,0
3.69998168945313,-2.92849469184875,1.84814143180847,2.75385737419128,-2.66382131180924,1.81964848851807,2.79188937759817,1236.946,1229.676,2978.461,2966.96,-0.0006599313,0.05636033,0.001632462,-0.650140047073364,-0.266630232334137,0.46290847659111,-0.653005218467595,-0.280969902652754,0.404241337183804,0
3.72000122070313,-2.94124412536621,1.84291565418243,2.76295852661133,-2.6767633032417,1.81407991116207,2.79990108680742,1230.839,1227.777,2974.171,2968.306,0.0007489468,0.0566848,0.0002772271,-0.637451648712158,-0.261277139186859,0.455057233572006,-0.639917282339434,-0.275338529371411,0.396139281255611,0
3.739990234375,-2.95373773574829,1.83779740333557,2.77189993858337,-2.68942333385363,1.80863265367006,2.80773824883709,1238.592,1225.756,2968.286,2958.139,0.002167791,0.05700947,-0.001095624,-0.624689042568207,-0.255909591913223,0.447071433067322,-0.62676873176137,-0.26968107538565,0.387999702095468,0
3.75997924804688,-2.96597480773926,1.83278679847717,2.78068280220032,-2.70181978867538,1.80329880547712,2.81541224489679,1234.309,1225.583,2966.323,2954.749,0.003532017,0.05731619,-0.002423477,-0.611850738525391,-0.25052797794342,0.439139991998672,-0.6135463347885,-0.263991847359231,0.379814408499146,0
3.77999877929688,-2.97795391082764,1.82788419723511,2.78930401802063,-2.7139695770734,1.79807109095524,2.82293354268985,1227.502,1223.746,2962.602,2956.614,0.004868953,0.0576087,-0.003712446,-0.598950684070587,-0.245138466358185,0.431061148643494,-0.60023651686137,-0.258265004538452,0.371574997167698,0
3.79998779296875,-2.98967361450195,1.82308971881866,2.79776120185852,-2.72583438304408,1.79296599641037,2.83027842278479,1234.275,1221.774,2957.123,2947.335,0.006216489,0.05790132,-0.005016863,-0.585999250411987,-0.239743307232857,0.422856450080872,-0.586886736182787,-0.252520966862155,0.36331084698941,0
3.82000732421875,-3.00113391876221,1.81840229034424,2.80605530738831,-2.73744929742843,1.78796842323393,2.8374686080838,1231.005,1221.696,2955.076,2943.338,0.007516521,0.05817851,-0.006280799,-0.572993874549866,-0.234341949224472,0.414706647396088,-0.573463232144022,-0.246745208083563,0.355001058539243,0
3.83999633789063,-3.01233291625977,1.81382369995117,2.81418323516846,-2.74877791451009,1.78309403578861,2.84448156171422,1227.764,1220.018,2950.269,2943.205,0.00878173,0.05844336,-0.007511179,-0.559947788715363,-0.228939950466156,0.406399846076965,-0.560014026276881,-0.240958390526246,0.346675359432959,0
3.8599853515625,-3.02327013015747,1.80935311317444,2.82214522361755,-2.75983729406747,1.77833549372837,2.85132784449154,1228.016,1218.635,2948.456,2936.795,0.01003922,0.05870024,-0.008724515,-0.546869277954102,-0.223540186882019,0.398104250431061,-0.546525890176286,-0.235154822377061,0.338325560657667,0
3.8800048828125,-3.03394556045532,1.80499005317688,2.82993936538696,-2.77064299647982,1.77368610185671,2.85801708903178,1224.8,1217.627,2944.112,2935.93,0.01127334,0.0589457,-0.009903763,-0.533764064311981,-0.218143314123154,0.389705240726471,-0.532985466132484,-0.229328756186666,0.329943393154704,0
3.89999389648438,-3.04435801506042,1.80073535442352,2.83756375312805,-2.78116151864576,1.76916027562219,2.86452855531919,1230.007,1215.995,2939.078,2928.457,0.01249477,0.05918686,-0.01107875,-0.520640254020691,-0.212750986218452,0.381221920251846,-0.519441457145543,-0.223501147495394,0.321559006401168,0
3.91998291015625,-3.05450820922852,1.79658758640289,2.84501981735229,-2.79140913007042,1.76475101471128,2.87087231495249,1226.739,1215.7,2937.091,2925.498,0.01365856,0.05941202,-0.01220793,-0.507498562335968,-0.207364201545715,0.372798383235931,-0.505880764601328,-0.217666360335509,0.313164291730931,0
