t,x_s1,x_s2,x_s3,x_s_d1,x_s_d2,x_s_d3,propellers_rpms1,propellers_rpms2,propellers_rpms3,propellers_rpms4,rollRad,pitchRad,yawRad,v_s1,v_s2,v_s3,v_s_d1,v_s_d2,v_s_d3,insideCount
0,-0.0599999986588955,2.94000005722046,1.17999994754791,-0.0599999986588955,2.94000005722046,1.17999994754791,0,0,0,0,0,45.0048027038574,0,0,0,0,-1.06581410364015E-15,4.44089209850063E-16,-7.105427357601E-16,0
0.0200004577636719,-0.0599999986588955,2.94000005722046,1.17705690860748,-0.0600018691155303,2.93999925241522,1.18000109018068,0,0,0,0,0.937003672122955,44.8630027770996,-0.00115976633969694,3.71994488546079E-08,3.50004931704007E-08,-0.147149950265884,-0.000279999361409376,-0.000120475902936966,0.000171047240579747,5
0.0399990081787109,-0.0599999986588955,2.94000005722046,1.17018985748291,-0.0600148703014743,2.93999365836812,1.1800090324023,0,0,0,0,1.87400352954865,44.7211418151855,-0.00311126722954214,3.70364325874561E-08,3.5142885934647E-08,-0.343349903821945,-0.0011109142447864,-0.000477995364179603,0.000678640176663706,6
0.0599994659423828,-0.0599062256515026,2.94009447097778,1.16346502304077,-0.0600498904664975,2.93997859016946,1.18003042567463,3197.363,2848.726,1517.214,2782.315,1.40364193916321,44.7413597106934,0.0288910828530788,0.00468865968286991,0.00471883174031973,-0.336239248514175,-0.00247951833951941,-0.00106686747177115,0.00151469906149035,6
0.0799999237060547,-0.0597377829253674,2.94026732444763,1.15723741054535,-0.0601175490846357,2.93994947855624,1.18007175726866,2865.647,2651.736,2344.559,2562.228,0.339677214622498,44.8158226013184,0.099793016910553,0.00842223223298788,0.00864465534687042,-0.311380654573441,-0.00437248097278563,-0.00188135640961186,0.00267108039505331,6
0.100000381469727,-0.0595562905073166,2.94046425819397,1.15151941776276,-0.0602282016920704,2.93990186783054,1.18013935321984,2239.936,2528.128,3137.934,2508.577,359.321655273438,44.9191017150879,0.178534150123596,0.00907463300973177,0.0098490696400404,-0.285898268222809,-0.0067766330492767,-0.00291579588389246,0.00413973938252838,5
0.119998931884766,-0.0594243705272675,2.94063234329224,1.146568775177,-0.0603919230601972,2.93983142309968,1.18023936804881,2123.86,2454.792,3351.758,2464.45,358.750030517578,44.999870300293,0.25333297252655,0.00659602321684361,0.00839866697788239,-0.247529804706573,-0.00967861374975049,-0.00416443710735115,0.005912514107932,5
0.139999389648438,-0.0593829341232777,2.94074034690857,1.14257037639618,-0.0606185767455666,2.93973390035084,1.18037782724834,2312.221,2456.597,3069.155,2463.4,358.636169433594,45.0326461791992,0.326381623744965,0.00207190355286002,0.00539933890104294,-0.199919819831848,-0.0130660253322238,-0.00562194567796536,0.00798183098414958,5
0.159999847412109,-0.0594432651996613,2.94078588485718,1.139524102211,-0.0609177249752248,2.93960518522485,1.18056057223372,2536.61,2486.779,2635.438,2491.884,358.756988525391,45.0249900817871,0.39821520447731,-0.00301660550758243,0.00228015147149563,-0.152312070131302,-0.0169257706321904,-0.00728268625174051,0.0103396891577615,5
0.180000305175781,-0.0595999509096146,2.94078183174133,1.13730895519257,-0.0612986871007165,2.9394412678651,1.18079329605139,2666.516,2506.061,2302.529,2513.226,358.8642578125,44.9985504150391,0.467375010251999,-0.00783427432179451,-0.000196825712919235,-0.110757261514664,-0.0212451141043368,-0.00914117907931815,0.0129783086828701,5
0.19999885559082,-0.0598474815487862,2.94074010848999,1.13576078414917,-0.0617704792283666,2.93923826889292,1.1810815065,2653.548,2500.147,2183.281,2508.574,358.817016601563,44.9743957519531,0.532909095287323,-0.0123764835298061,-0.00209056492894888,-0.0774063766002655,-0.0260109531407025,-0.0111917864745373,0.0158896853807343,5
0.219999313354492,-0.0601893849670887,2.9406623840332,1.1347451210022,-0.0623420049171324,2.93899235735562,1.18143064262478,2540.333,2470.477,2245.714,2478.966,358.612457275391,44.9636764526367,0.594555735588074,-0.0170951653271914,-0.00388051406480372,-0.0507820546627045,-0.0312116790433783,-0.0134295135389972,0.0190667276789517,5
0.239999771118164,-0.0606386177241802,2.94054174423218,1.13419318199158,-0.063021788625926,2.93869986541668,1.18184591188467,2411.815,2429.76,2374.113,2437.292,358.334655761719,44.9659080505371,0.652664959430695,-0.0224615633487701,-0.00603117980062962,-0.0275977924466133,-0.0368344480011416,-0.0158488339395432,0.02250158949367,5
0.260000228881836,-0.0612129643559456,2.94036626815796,1.13409042358398,-0.0638181482056218,2.93835721413725,1.18233239552496,2329.697,2392.004,2462.487,2398.564,358.076354980469,44.9738845825195,0.707798540592194,-0.028717253357172,-0.00876812450587749,-0.00513989105820656,-0.0428669580186739,-0.0184444544712678,0.026186755727918,4
0.279998779296875,-0.0619294866919518,2.94012522697449,1.1344405412674,-0.0647390625194898,2.93796097043536,1.18289496770872,2305.734,2365.083,2470.06,2370.698,357.887054443359,44.9803276062012,0.760589182376862,-0.0358260497450829,-0.0120560135692358,0.0175061784684658,-0.0492963837173861,-0.0212108567320638,0.0301143915580518,4
0.299999237060547,-0.0628010258078575,2.93981099128723,1.13523614406586,-0.065792536715479,2.93750768991949,1.18353851865591,2317.405,2348.209,2415.789,2353.502,357.765014648438,44.9817962646484,0.811309278011322,-0.0435767956078053,-0.0157061107456684,0.0397828593850136,-0.0561118672418845,-0.0241433688900884,0.0342778640896448,4
0.319999694824219,-0.0638358443975449,2.93942046165466,1.13644909858704,-0.0669860785243584,2.93699414222283,1.1842676347221,2334.871,2336.541,2342.638,2341.601,357.678680419922,44.9788475036621,0.860045611858368,-0.0517411194741726,-0.0195238441228867,0.0606493167579174,-0.0633008373176985,-0.0272365818771378,0.0386694937272938,4
0.340000152587891,-0.0650394931435585,2.93895244598389,1.13803601264954,-0.0683270389802989,2.93641716440073,1.18508680653936,2337.899,2324.756,2286.677,2330.047,357.594451904297,44.9741477966309,0.906596720218658,-0.0601825825870037,-0.0234038364142179,0.0793485715985298,-0.0708514254995047,-0.0304853890327553,0.0432820302229541,4
0.35999870300293,-0.0664170235395432,2.93840551376343,1.13995063304901,-0.069822382620517,2.93577375980741,1.18600028863479,2322.26,2310.591,2261.669,2315.948,357.494537353516,44.9702987670898,0.950827777385712,-0.0688765123486519,-0.0273418817669153,0.0957334265112877,-0.0787511019946779,-0.0338843991372162,0.0481078193218347,4
0.379999160766602,-0.067974328994751,2.93777775764465,1.1421537399292,-0.0714792747653362,2.93506084540571,1.18701245819077,2295.373,2294.328,2261.051,2299.566,357.379760742188,44.968563079834,0.992731392383575,-0.0778652355074883,-0.0313891991972923,0.110153935849667,-0.0869897229117765,-0.0374292475574207,0.0531406642789461,4
0.399999618530273,-0.0697183087468147,2.93706583976746,1.14461696147919,-0.0733042289655903,2.93427561859665,1.18812729423385,2268.688,2277.846,2268.449,2282.807,357.261566162109,44.9687576293945,1.03242969512939,-0.0871988609433174,-0.0355981886386871,0.123159594833851,-0.0955550080350531,-0.0411146504596022,0.0583730633021172,4
0.420000076293945,-0.0716562047600746,2.93626594543457,1.14732038974762,-0.075303664122713,2.9334153175063,1.18934871797077,2249.01,2262.925,2270.954,2267.702,357.151916503906,44.9699096679688,1.07004380226135,-0.0968946889042854,-0.0399892963469028,0.135168954730034,-0.104435522469179,-0.0449356877277546,0.0637980309922297,4
0.439998626708984,-0.0737948343157768,2.93537497520447,1.1502480506897,-0.0774835548069347,2.93247737144397,1.19068037917324,2237.854,2250.535,2263.512,2255.058,357.056854248047,44.9710388183594,1.10572910308838,-0.106931388378143,-0.0445482023060322,0.146381333470345,-0.113619049702587,-0.0488871029382406,0.0694081044730023,4
0.459999084472656,-0.0761401206254959,2.9343900680542,1.15338408946991,-0.0798502821969742,2.93145903476675,1.19212617600376,2232.132,2240.358,2248.802,2244.865,356.975616455078,44.9716987609863,1.13951456546783,-0.117264240980148,-0.0492413714528084,0.156802341341972,-0.123096124252221,-0.0529648233581361,0.075197501428542,4
0.479999542236328,-0.0786970779299736,2.93330931663513,1.15671157836914,-0.0824093896672336,2.93035792231548,1.19368949482325,2228.044,2231.936,2232.356,2236.081,356.903503417969,44.9719047546387,1.17155516147614,-0.127847820520401,-0.0540360547602177,0.166377335786819,-0.13285477482153,-0.0571636980729742,0.0811589087805935,4
0.5,-0.0814700797200203,2.93213105201721,1.16021299362183,-0.085166398670376,2.92917165836334,1.195373708601,2222.46,2224.144,2219.375,2228.287,356.835784912109,44.9720115661621,1.20183265209198,-0.138650208711624,-0.0589117258787155,0.17507092654705,-0.142884000065179,-0.0614789935111996,0.0872856059789651,5
0.519998550415039,-0.0844632163643837,2.93085384368896,1.16387176513672,-0.0881263195578599,2.92789808709608,1.19718187808251,2215.113,2216.811,2211.391,2220.833,356.769897460938,44.9723167419434,1.23038184642792,-0.149656876921654,-0.0638624280691147,0.182941362261772,-0.153171913786256,-0.0659055953743427,0.093570331931443,5
0.539999008178711,-0.0876804813742638,2.92947602272034,1.16767382621765,-0.0912948022612966,2.92653477750595,1.19911745472284,2206.931,2209.84,2207.408,2213.838,356.705993652344,44.9729919433594,1.25720298290253,-0.160863161087036,-0.0688899010419846,0.190103486180305,-0.163709694677519,-0.0704397081003365,0.100007697839088,5
0.559999465942383,-0.0911258086562157,2.92799615859985,1.17160785198212,-0.0946764453845371,2.92507975094219,1.20118324773733,2199.776,2203.713,2204.733,2207.316,356.645446777344,44.9739761352539,1.28246819972992,-0.17226642370224,-0.0739965066313744,0.196703597903252,-0.174485697560587,-0.0750763210942518,0.106590589844145,5
0.579999923706055,-0.0948029905557632,2.92641258239746,1.17566466331482,-0.0982759076154404,2.92353100290156,1.20338210304568,2193.995,2198.247,2202.062,2201.855,356.589599609375,44.9751243591309,1.30618286132813,-0.18385899066925,-0.0791796147823334,0.202843546867371,-0.18548935464012,-0.0798108873289844,0.11331255224535,5
0.599998474121094,-0.0987155735492706,2.92472386360168,1.17983675003052,-0.102097262171133,2.92188678079254,1.2057165089127,2189.945,2193.763,2198.574,2197.239,356.539093017578,44.9763069152832,1.32841145992279,-0.195629090070724,-0.0844331383705139,0.208606109023094,-0.196709126405959,-0.0846384416756885,0.120166535736014,5
0.619998931884766,-0.102866813540459,2.92292881011963,1.18411755561829,-0.106145477944935,2.92014494663912,1.20818950075775,2187.003,2190.072,2194.74,2193.512,356.493713378906,44.9774627685547,1.34917306900024,-0.20756171643734,-0.0897484421730042,0.214037820696831,-0.208136802817102,-0.0895554515830839,0.127147524930208,5
0.639999389648438,-0.107259660959244,2.92102646827698,1.18850135803223,-0.110424235525481,2.91830391678686,1.21080332699501,2185.1,2187.261,2190.76,2190.348,356.452545166016,44.9785499572754,1.36861979961395,-0.219642952084541,-0.0951175391674042,0.219188809394836,-0.219761081350814,-0.0945570538913933,0.134248615293163,5
0.659999847412109,-0.111896857619286,2.91901588439941,1.19298303127289,-0.114937365519793,2.91636204303257,1.21356032768253,2183.131,2184.812,2187.901,2187.944,356.414733886719,44.9796257019043,1.38672959804535,-0.23185983300209,-0.100533574819565,0.224080875515938,-0.231571827761751,-0.0996388881179631,0.141463615972542,5
0.680000305175781,-0.116780936717987,2.91689610481262,1.19755828380585,-0.119688496929273,2.91431776391831,1.21646271972064,2181.331,2182.871,2186.134,2185.913,356.379821777344,44.9807281494141,1.40353846549988,-0.244203358888626,-0.105992764234543,0.228764757514,-0.243559016194652,-0.104796640417365,0.148786402329814,5
0.69999885559082,-0.121914237737656,2.91466617584229,1.20222413539886,-0.124680571585341,2.91216981365623,1.21951230022824,2179.781,2181.379,2185.244,2184.274,356.347717285156,44.9818725585938,1.41910803318024,-0.256666004657745,-0.111492358148098,0.23329122364521,-0.255711562515536,-0.1100255415964,0.156210203240496,5
0.719999313354492,-0.127299040555954,2.91232562065125,1.20697820186615,-0.129917773765869,2.90991639186844,1.2227116253154,2178.512,2180.225,2185.017,2183.104,356.318572998047,44.9830589294434,1.43344569206238,-0.269240438938141,-0.117029771208763,0.237706184387207,-0.268021976505935,-0.115322368823317,0.163730443047009,5
0.739999771118164,-0.132937431335449,2.90987348556519,1.21181952953339,-0.13540267613015,2.90755639161152,1.22606226657952,2178.23,2179.651,2184.502,2182.238,356.292419433594,44.9842262268066,1.44667971134186,-0.281919866800308,-0.122602231800556,0.24206854403019,-0.280479406212952,-0.12068245280595,0.171340492460669,5
0.760000228881836,-0.138831332325935,2.90730929374695,1.21674740314484,-0.141138122953911,2.90508858907309,1.22956596154428,2178.005,2179.328,2184.449,2181.904,356.269104003906,44.9853630065918,1.45881485939026,-0.294694870710373,-0.128205448389053,0.246391713619232,-0.293074259331322,-0.126101666243323,0.179034491691874,5
0.779998779296875,-0.144982486963272,2.90463256835938,1.22176170349121,-0.147126184485884,2.90251209348295,1.2332239748923,2178.251,2179.337,2184.525,2181.882,356.24853515625,44.9864807128906,1.4698657989502,-0.307557910680771,-0.133836060762405,0.250712633132935,-0.305795832832518,-0.131575403921268,0.186805902427515,5
0.799999237060547,-0.151392504572868,2.90184283256531,1.22686266899109,-0.153370467664426,2.8998253528763,1.23703851004595,2178.602,2179.573,2184.998,2182.187,356.230560302734,44.9875526428223,1.47980105876923,-0.320500731468201,-0.139490529894829,0.255050122737885,-0.318637178554805,-0.1371006762399,0.194650480144012,5
0.819999694824219,-0.15806283056736,2.89893960952759,1.23205149173737,-0.159872691993147,2.89702762739878,1.24101061742316,2179.624,2180.316,2185.229,2182.534,356.214965820313,44.9885864257813,1.48879301548004,-0.333516597747803,-0.145166292786598,0.259442031383514,-0.331587821991737,-0.142672976311719,0.202561826128828,5
0.840000152587891,-0.164994776248932,2.89592242240906,1.23732924461365,-0.166634951706069,2.89411801595997,1.2451415763588,2180.369,2181.04,2186.082,2183.318,356.201507568359,44.989574432373,1.49681341648102,-0.346597164869308,-0.150859698653221,0.263886570930481,-0.344638604388044,-0.148288363380199,0.210534345441289,5
0.85999870300293,-0.172189503908157,2.89279103279114,1.2426974773407,-0.173658476530939,2.8910959894424,1.24943213807437,2181.328,2181.973,2187.172,2184.19,356.190155029297,44.9905433654785,1.50388848781586,-0.359736442565918,-0.156568557024002,0.268410384654999,-0.357779218042882,-0.153942402329629,0.218561741267797,5
0.879999160766602,-0.17964805662632,2.88954520225525,1.24815797805786,-0.180946338277887,2.88796022613197,1.25388417909074,2182.281,2182.958,2188.573,2185.288,356.180969238281,44.9914703369141,1.50997030735016,-0.372927695512772,-0.162290424108505,0.273025691509247,-0.371003228241413,-0.159632324481982,0.22664008274147,5
0.899999618530273,-0.187371358275414,2.88618469238281,1.25371325016022,-0.188499434070438,2.88471034002151,1.25849824744668,2183.912,2184.367,2189.473,2186.295,356.173797607422,44.9923477172852,1.51523268222809,-0.386165231466293,-0.168023407459259,0.277763545513153,-0.384300552311253,-0.165353791545005,0.234763210515085,5
0.920000076293945,-0.195360168814659,2.88270950317383,1.25936543941498,-0.196319142784876,2.88134573781905,1.26327518547618,2185.187,2185.63,2190.815,2187.666,356.168548583984,44.9931716918945,1.51962780952454,-0.399440884590149,-0.17376397550106,0.282609730958939,-0.397662465047122,-0.171103049306624,0.242925794496891,5
0.939998626708984,-0.20361515879631,2.87911939620972,1.26511704921722,-0.204405885800988,2.87786623821667,1.26821525059358,2186.647,2186.999,2192.186,2189.051,356.165100097656,44.993953704834,1.52314972877502,-0.412749111652374,-0.17951013147831,0.287581950426102,-0.411079067636589,-0.176875838584386,0.251121787656841,5
0.959999084472656,-0.212136834859848,2.8754141330719,1.27097058296204,-0.212762239776093,2.87427073255068,1.27332001683864,2187.913,2188.371,2193.86,2190.511,356.16357421875,44.9947052001953,1.52575981616974,-0.426082968711853,-0.185259386897087,0.292678743600845,-0.424544411524882,-0.18266959988136,0.259347556115652,5
0.979999542236328,-0.220925539731979,2.87159395217896,1.27692914009094,-0.221388311353785,2.87055917493534,1.27858954935826,2189.802,2190.095,2194.938,2191.76,356.163818359375,44.9953842163086,1.52766358852386,-0.4394371509552,-0.191010147333145,0.297925174236298,-0.438048819599778,-0.188480169406503,0.267597188276474,5
1,-0.229981631040573,2.86765885353088,1.28299510478973,-0.230284798736574,2.86673126495361,1.28402427467346,2191.253,2191.51,2196.383,2193.372,356.165679931641,44.996021270752,1.52877521514893,-0.452804028987885,-0.196759030222893,0.303299158811569,-0.451584000205995,-0.194303979492187,0.275865618896484,5
1.01999855041504,-0.239305168390274,2.86360883712769,1.28917133808136,-0.239451348187707,2.86278715480854,1.28962397669198,2192.74,2192.986,2197.875,2194.877,356.169158935547,44.9966201782227,1.52908062934875,-0.466178089380264,-0.20250415802002,0.308809340000153,-0.465140476318736,-0.200136952439402,0.284147058609119,5
1.03999900817871,-0.248896226286888,2.85944390296936,1.2954603433609,-0.248890079057088,2.85872593260306,1.29538995009159,2194.016,2194.398,2199.573,2196.378,356.17431640625,44.9971771240234,1.52854347229004,-0.479552984237671,-0.208243444561958,0.314450830221176,-0.478712759579464,-0.205976726760794,0.292438154661794,5
1.05999946594238,-0.258754730224609,2.85516428947449,1.30186522006989,-0.258600340480156,2.85454787838601,1.3013217972693,2195.875,2196.098,2200.582,2197.62,356.181121826172,44.9976768493652,1.52736020088196,-0.492923617362976,-0.213975369930267,0.320243060588837,-0.492291591500725,-0.211819318787865,0.300733251188999,5
1.07999992370605,-0.268880367279053,2.85077047348022,1.3083883523941,-0.268582184669612,2.85025296969173,1.30741955012103,2197.189,2197.438,2201.956,2199.158,356.189422607422,44.9981307983398,1.52544462680817,-0.506282210350037,-0.219696536660194,0.326156467199326,-0.505869113977232,-0.21766134739744,0.309027547796837,5
1.09999847412109,-0.279272794723511,2.84626245498657,1.31503236293793,-0.278834517009062,2.84584167750307,1.31368253996271,2198.593,2198.777,2203.224,2200.557,356.199188232422,44.9985389709473,1.52277147769928,-0.519623816013336,-0.225405231118202,0.332198739051819,-0.519436284009554,-0.223498921639497,0.317315520258069,5
1.11999893188477,-0.289931654930115,2.84164047241211,1.32179951667786,-0.289359035362208,2.84131327127672,1.32011180399278,2199.635,2200.015,2204.755,2201.894,356.210571289063,44.9989242553711,1.51929676532745,-0.53294175863266,-0.231099352240562,0.338355928659439,-0.532988048794549,-0.229329867434001,0.325594081894103,5
1.13999938964844,-0.300856232643127,2.83690500259399,1.32869243621826,-0.300154365346813,2.83666834237095,1.32670650262257,2201.289,2201.509,2205.509,2202.921,356.223449707031,44.9992523193359,1.51522350311279,-0.546231329441071,-0.236777395009995,0.344647228717804,-0.546515580872639,-0.235150386571708,0.333857840147634,5
1.15999984741211,-0.312045931816101,2.83205628395081,1.33571314811707,-0.311219947869739,2.83190713134792,1.33346629431082,2202.353,2202.597,2206.596,2204.223,356.237731933594,44.9995346069336,1.51045823097229,-0.559484839439392,-0.242436066269875,0.351038604974747,-0.560011455688534,-0.240957284473894,0.34210225947369,6
1.17999839782715,-0.323499858379364,2.8270947933197,1.34286379814148,-0.322553982624406,2.82703041282926,1.34039007927832,2203.388,2203.679,2207.656,2205.313,356.25341796875,44.9997940063477,1.50499773025513,-0.572697222232819,-0.248073682188988,0.357532441616058,-0.573467075844405,-0.246746861920456,0.3503220878561,6
1.19999885559082,-0.335217118263245,2.82202100753784,1.35014617443085,-0.334157779891176,2.82203762303794,1.3474786579549,2204.133,2204.571,2208.865,2206.38,356.270660400391,45.0000343322754,1.49876570701599,-0.585862278938293,-0.253688126802444,0.364116966724396,-0.586877800774655,-0.252517122205661,0.358514490445754,6
1.21999931335449,-0.347196578979492,2.81683540344238,1.35756230354309,-0.346029276726411,2.81692964960096,1.35473077012049,2205.507,2205.746,2209.208,2207.083,356.289398193359,45.0002059936523,1.4919673204422,-0.598975241184235,-0.259277760982513,0.370808511972427,-0.600235245789198,-0.258264457631606,0.36667434516632,6
1.23999977111816,-0.359437167644501,2.81153869628906,1.36511361598969,-0.3581673374151,2.81170698118478,1.36214572198451,2206.188,2206.498,2209.951,2208.036,356.309448242188,45.0003547668457,1.48451352119446,-0.612028360366821,-0.264839291572571,0.377567768096924,-0.613532419882739,-0.263985860164018,0.374797381321754,6
1.2599983215332,-0.371937483549118,2.80613136291504,1.3728015422821,-0.370569492049568,2.80637068052165,1.3697220047189,2206.873,2207.182,2210.622,2208.802,356.330841064453,45.0004768371582,1.47636902332306,-0.625016808509827,-0.270371079444885,0.384398460388184,-0.626761182173783,-0.269677827009021,0.382878625774588,6
1.27999877929688,-0.384696125984192,2.80061388015747,1.38062727451324,-0.383236695417198,2.80092033679326,1.37746020158837,2207.206,2207.723,2211.484,2209.468,356.353759765625,45.0006065368652,1.46747994422913,-0.637934446334839,-0.275871068239212,0.391285628080368,-0.639917282339435,-0.275338529371412,0.39091548206889,6
1.29999923706055,-0.39771169424057,2.79498720169067,1.38859224319458,-0.396166231882091,2.79535711846185,1.38535865365334,2208.189,2208.546,2211.455,2209.746,356.378143310547,45.000659942627,1.458083152771,-0.650776624679565,-0.281337797641754,0.398246556520462,-0.652992789539212,-0.280964554832093,0.398903105377968,6
1.31999969482422,-0.410982400178909,2.78925180435181,1.39669704437256,-0.409356423791328,2.7896817473746,1.39341633606181,2208.471,2208.839,2211.81,2210.376,356.40380859375,45.0007057189941,1.44803059101105,-0.663535833358765,-0.286767780780792,0.405240833759308,-0.665981146317813,-0.286553081901244,0.406837489854705,6
1.33999824523926,-0.424506545066833,2.78340864181519,1.40494251251221,-0.42280416857195,2.783895558482,1.40163135350037,2208.746,2209.202,2212.101,2210.67,356.430847167969,45.0007362365723,1.43735218048096,-0.67620724439621,-0.292159467935562,0.412271320819855,-0.678874678563316,-0.292100808622893,0.41471394750388,6
1.35999870300293,-0.438282251358032,2.77745842933655,1.41332900524139,-0.436510095902056,2.77799828085114,1.41000409062955,2208.683,2209.282,2212.562,2211.006,356.459381103516,45.0007591247559,1.42593765258789,-0.688784956932068,-0.297510534524918,0.4193235039711,-0.691669505523675,-0.297606065217852,0.422530107634626,6
1.3799991607666,-0.452307522296906,2.77140212059021,1.42185735702515,-0.450470874182571,2.77199134797602,1.41853251222747,2209.316,2209.708,2212.082,2210.894,356.489349365234,45.0007286071777,1.41401970386505,-0.701264441013336,-0.302819639444351,0.42641544342041,-0.704358160626625,-0.303065639028665,0.430281409034459,6
1.39999961853027,-0.466580241918564,2.76524043083191,1.43052744865417,-0.464684318506637,2.76587569996104,1.42721528356862,2209.184,2209.652,2212.053,2211.086,356.520599365234,45.0006866455078,1.40149092674255,-0.713638186454773,-0.308083266019821,0.433504015207291,-0.716934519966859,-0.308476895109962,0.437964110705191,6
1.41999816894531,-0.481098294258118,2.75897455215454,1.43933928012848,-0.47914673136562,2.75965292774086,1.43605014590267,2209.049,2209.594,2211.977,2211.014,356.553161621094,45.0006370544434,1.38835597038269,-0.725901663303375,-0.313299864530563,0.440593689680099,-0.729391385793766,-0.313836736470737,0.445573815653291,6
1.43999862670898,-0.495859265327454,2.75260519981384,1.44829273223877,-0.4938584461112,2.75332288788357,1.44503730286896,2208.583,2209.264,2212.08,2210.98,356.587249755859,45.0005950927734,1.37448823451996,-0.738049209117889,-0.318467289209366,0.447670608758926,-0.741725227577294,-0.31914364402254,0.453108367133042,6
1.45999908447266,-0.510860741138458,2.74613356590271,1.45738780498505,-0.508815552717244,2.74688726276417,1.45417436589355,2208.847,2209.361,2211.221,2210.43,356.622711181641,45.0004959106445,1.36016714572906,-0.750076413154602,-0.323584139347076,0.454753994941711,-0.753929052770513,-0.324394609067776,0.460563493506643,6
1.47999954223633,-0.526100277900696,2.73956060409546,1.46662378311157,-0.524015393706918,2.74034719582071,1.4634597115653,2208.343,2208.906,2210.822,2210.275,356.659484863281,45.0004081726074,1.34526109695435,-0.761976003646851,-0.328646898269653,0.461800754070282,-0.76599717101811,-0.329587183205524,0.467935718624829,6
1.5,-0.541575133800507,2.73288750648499,1.4760000705719,-0.539455198877605,2.73370387899399,1.47289164761066,2207.844,2208.459,2210.388,2209.859,356.697540283203,45.0003089904785,1.32975780963898,-0.773743629455566,-0.333653956651688,0.468815892934799,-0.777924000354858,-0.334718964672088,0.475221632552146,6
1.51999855041504,-0.557282686233521,2.72611546516418,1.48551595211029,-0.555130581228843,2.72695919988774,1.48246749407952,2207.306,2207.961,2209.825,2209.326,356.736968994141,45.0002021789551,1.31367206573486,-0.785374164581299,-0.338603436946869,0.475794076919556,-0.789702950965343,-0.339787118053995,0.482417209673192,6
1.53999900817871,-0.573219835758209,2.71924567222595,1.49517035484314,-0.571041541911266,2.72011315800687,1.49218725167476,2206.399,2207.219,2209.481,2208.835,356.777893066406,45.0000991821289,1.29689574241638,-0.796862006187439,-0.343493103981018,0.482719451189041,-0.801330904905084,-0.34479030178684,0.489520545284337,6
1.55999946594238,-0.589383959770203,2.71227931976318,1.504962682724,-0.587183501790833,2.71316772362485,1.50204812307488,2206.329,2206.889,2208.097,2207.87,356.820220947266,44.9999580383301,1.27970337867737,-0.808202981948853,-0.348321348428726,0.489615023136139,-0.812801474874933,-0.34972576759424,0.496527737484203,6
1.57999992370605,-0.605771780014038,2.70521759986877,1.5148913860321,-0.603553261450117,2.7061242733616,1.51204815380567,2205.357,2205.996,2207.327,2207.33,356.863739013672,44.999813079834,1.26194143295288,-0.819389939308167,-0.353084772825241,0.496433287858963,-0.824109512459656,-0.354591300256948,0.503435641186264,6
1.59999847412109,-0.622380137443542,2.6980619430542,1.52495503425598,-0.620145926473056,2.69898491314762,1.52218435394475,2204.475,2205.191,2206.498,2206.462,356.908538818359,44.9996795654297,1.24363648891449,-0.830419182777405,-0.357782006263733,0.503184974193573,-0.835248923368005,-0.359384277571697,0.510240533483095,5
1.61999893188477,-0.639205753803253,2.69081377983093,1.53515219688416,-0.636961261140657,2.69174974440622,1.53245657949507,2203.228,2204.128,2205.917,2205.669,356.954742431641,44.9995613098145,1.22467231750488,-0.841285526752472,-0.362411022186279,0.509856224060059,-0.846216901179681,-0.364103492014234,0.516940699976329,5
1.63999938964844,-0.656245529651642,2.68347430229187,1.54548168182373,-0.653994195024907,2.68442094880091,1.54286173301126,2202.858,2203.473,2204.286,2204.423,357.002319335938,44.999397277832,1.20530521869659,-0.851985216140747,-0.36697044968605,0.516472101211548,-0.857007552155828,-0.368746407673381,0.523532540272869,5
1.65999984741211,-0.673495769500732,2.67604517936707,1.5559413433075,-0.671241134177535,2.67700007270724,1.55339761900642,2201.576,2202.329,2203.285,2203.566,357.051086425781,44.9992523193359,1.18540847301483,-0.862511396408081,-0.371456891298294,0.522985279560089,-0.867616161431205,-0.373310995874343,0.530013174135115,5
1.67999839782715,-0.690952956676483,2.66852784156799,1.5665295124054,-0.688696716710861,2.66948942319567,1.56406096198704,2200.485,2201.216,2202.142,2202.469,357.10107421875,44.999095916748,1.1649763584137,-0.872860729694366,-0.375869184732437,0.529409945011139,-0.878037137680598,-0.377794850826084,0.536379185909741,5
1.69999885559082,-0.708613455295563,2.66092371940613,1.57724404335022,-0.706360494347389,2.66188919314749,1.57485148810738,2198.965,2199.926,2201.312,2201.396,357.152465820313,44.9989738464355,1.14391553401947,-0.883028149604797,-0.380205184221268,0.53572952747345,-0.888267970958778,-0.382196892569292,0.542629042310376,5
1.71999931335449,-0.72647362947464,2.65323448181152,1.58808350563049,-0.724226945158621,2.65420175849427,1.58576582410749,2198.36,2199.041,2199.443,2199.882,357.205169677734,44.9988021850586,1.12249779701233,-0.893010079860687,-0.384463638067245,0.541971445083618,-0.898303268694426,-0.386514800831178,0.54875944909935,5
1.73999977111816,-0.744529664516449,2.64546155929565,1.59904527664185,-0.74229211534941,2.6464288204436,1.59680155467563,2196.893,2197.646,2198.158,2198.817,357.258972167969,44.9986419677734,1.10057926177979,-0.902800381183624,-0.38864129781723,0.548090636730194,-0.908138749572296,-0.3907467334814,0.554767790887989,5
1.7599983215332,-0.76277756690979,2.63760685920715,1.61012721061707,-0.760550216073323,2.63857286977439,1.60795514349582,2195.505,2196.32,2196.873,2197.483,357.31396484375,44.9984970092773,1.07816505432129,-0.912395775318146,-0.392737030982971,0.554097831249237,-0.917769332013572,-0.394890504058555,0.560650963419089,4
1.77999877929688,-0.781213402748108,2.6296718120575,1.62132680416107,-0.779000609654483,2.63063418086074,1.61922620102184,2193.806,2194.785,2195.825,2196.222,357.370300292969,44.9983711242676,1.05513572692871,-0.921791732311249,-0.396748960018158,0.559982717037201,-0.927192788821983,-0.398945154262308,0.566407606133204,4
1.79999923706055,-0.799833118915558,2.62165832519531,1.63264226913452,-0.79763736303951,2.62261530652977,1.63061110284395,2193.01,2193.732,2193.753,2194.474,357.427886962891,44.9981994628906,1.03179264068604,-0.930984914302826,-0.400675892829895,0.565771460533142,-0.936404235539493,-0.402908582446823,0.572034735191139,4
1.81999969482422,-0.818632483482361,2.61356806755066,1.64407062530518,-0.816456197270346,2.61451808789761,1.64210723501345,2191.365,2192.136,2192.275,2193.231,357.486511230469,44.9980506896973,1.00798141956329,-0.939969599246979,-0.404514670372009,0.571420013904572,-0.945399824400851,-0.406779133026206,0.577530000053147,3
1.83999824523926,-0.837607324123383,2.60540270805359,1.65560936927795,-0.835450937570646,2.606345181798,1.65371082545583,2189.829,2190.633,2190.782,2191.719,357.546203613281,44.9979095458984,0.983706593513489,-0.948742866516113,-0.408264338970184,0.576940417289734,-0.954174989692508,-0.410554841501469,0.582890611596066,3
1.85999870300293,-0.856753349304199,2.59716415405273,1.6672557592392,-0.854620778981102,2.59809693458245,1.665421382434,2187.888,2188.956,2189.645,2190.259,357.607177734375,44.997802734375,0.958874046802521,-0.957300662994385,-0.411923199892044,0.582320272922516,-0.962727774564036,-0.414234865894539,0.588115374410506,0
1.8799991607666,-0.876066148281097,2.58885431289673,1.6790075302124,-0.873959418228252,2.58977605837344,1.67723505537657,2186.982,2187.695,2187.398,2188.382,357.669342041016,44.9976425170898,0.933750987052917,-0.965640068054199,-0.415490120649338,0.587591409683228,-0.971053808954927,-0.417817325890467,0.593201618894697,0
1.89999961853027,-0.895541250705719,2.5804750919342,1.69086170196533,-0.8934622858751,2.58138451927205,1.68914905288578,2185.184,2185.975,2185.772,2186.97,357.732452392578,44.9975051879883,0.908202588558197,-0.973755776882172,-0.418962240219116,0.592707872390747,-0.979149678649926,-0.42130075244781,0.598147259357817,0
1.91999816894531,-0.915174067020416,2.57202839851379,1.70281541347504,-0.913122862707269,2.57292512231409,1.7011593924753,2183.516,2184.317,2184.137,2185.332,357.796569824219,44.9973678588867,0.882220566272736,-0.981645166873932,-0.422338515520096,0.597682893276215,-0.987011339258123,-0.424683405378145,0.60294982514457,0
1.93999862670898,-0.934960126876831,2.56351613998413,1.71486556529999,-0.932940197657643,2.56439827671719,1.71326549315307,2181.478,2182.507,2182.835,2183.748,357.861846923828,44.9972724914551,0.855707764625549,-0.989304661750793,-0.425617575645447,0.602505505084991,-0.99463709319481,-0.4279645542582,0.607608279226948,0
1.95999908447266,-0.954894781112671,2.55494022369385,1.7270096540451,-0.952907658613767,2.55580683609405,1.72546330346508,2180.432,2181.138,2180.489,2181.73,357.928192138672,44.9971313476563,0.828944265842438,-0.996731519699097,-0.42879843711853,0.607206165790558,-1.00202309041976,-0.431142542523221,0.612120269675456,0
1.97999954223633,-0.974973261356354,2.54630255699158,1.73924446105957,-0.973020420343666,2.54715287660719,1.73774987575242,2178.485,2179.31,2178.8,2180.19,357.995422363281,44.9970016479492,0.801805078983307,-1.00392115116119,-0.431878536939621,0.611740350723267,-1.00916635026771,-0.434216087676217,0.616483975648197,0
1.99999809265137,-0.995190560817719,2.53760552406311,1.75156688690186,-0.993271661096953,2.53843933346522,1.75012104271422,2176.697,2177.556,2177.094,2178.427,358.063598632813,44.9968795776367,0.774293482303619,-1.01087141036987,-0.43485701084137,0.616123199462891,-1.01606335446626,-0.437183675902864,0.620697247887466,0
2.01999855041504,-1.01554214954376,2.5288507938385,1.76397383213043,-1.01366030404084,2.52966666999921,1.76257614653014,2174.622,2175.616,2175.638,2176.783,358.132843017578,44.9967842102051,0.746282875537872,-1.01757919788361,-0.437732487916946,0.620345950126648,-1.02271265493931,-0.440044684136465,0.624759201786162,0
2.03999900817871,-1.03602302074432,2.52004075050354,1.77646255493164,-1.03417943002831,2.52083786332482,1.77511096040124,2173.462,2174.179,2173.223,2174.652,358.203033447266,44.9966583251953,0.718070924282074,-1.02404177188873,-0.440504044294357,0.624435722827911,-1.02911092662815,-0.442797681697156,0.628667806117814,0
2.05999946594238,-1.0566281080246,2.51117730140686,1.78902959823608,-1.05482399271638,2.51195508474246,1.78772240159534,2171.484,2172.241,2171.404,2173.057,358.273986816406,44.9965400695801,0.689510881900787,-1.03025543689728,-0.443169444799423,0.628352046012878,-1.03525562241752,-0.445441572632395,0.632421504889455,0
2.07999801635742,-1.07735252380371,2.50226283073425,1.80167174339294,-1.07558691007788,2.50302138145056,1.80040614381254,2169.61,2170.431,2169.628,2171.198,358.345764160156,44.9964370727539,0.660622298717499,-1.03621816635132,-0.445728093385696,0.632107734680176,-1.04114375428791,-0.447975071280863,0.63601847276659,0
2.09999847412109,-1.09819102287292,2.49329924583435,1.81438565254211,-1.09646699912883,2.4940372624541,1.8131614643864,2167.398,2168.399,2168.18,2169.5,358.418487548828,44.9963645935059,0.631263673305511,-1.04192745685577,-0.448178768157959,0.635694205760956,-1.04677411523768,-0.450397658303471,0.63945797241075,0
2.11999893188477,-1.11913859844208,2.48428893089294,1.82716858386993,-1.11745709586255,2.485005810225,1.82598398693703,2166.256,2166.935,2165.649,2167.253,358.492095947266,44.9962501525879,0.601770877838135,-1.04738104343414,-0.450520813465118,0.639143884181976,-1.0521439094894,-0.452708130755304,0.642738295925142,0
2.13999938964844,-1.14019012451172,2.47523379325867,1.84001684188843,-1.138551967509,2.47592927627801,1.83887051484687,2164.185,2164.921,2163.798,2165.627,358.566314697266,44.9961433410645,0.571975886821747,-1.05257570743561,-0.452752083539963,0.642411768436432,-1.05725102347782,-0.454905579228273,0.645858152165725,0
2.15999794006348,-1.16134035587311,2.46613645553589,1.85292708873749,-1.15974431432775,2.46681080148754,1.85181658881839,2162.237,2163.048,2162.006,2163.722,358.641235351563,44.9960670471191,0.541893720626831,-1.05751001834869,-0.454872190952301,0.645512819290161,-1.06209300290918,-0.456988947708343,0.648816041842745,0
2.17999839782715,-1.18258380889893,2.45699882507324,1.86589586734772,-1.18103286617629,2.4576509323604,1.86482143294137,2160.009,2160.965,2160.491,2161.982,358.717041015625,44.9960021972656,0.511376738548279,-1.06218183040619,-0.456880211830139,0.648440539836884,-1.06666887474518,-0.458957817524312,0.651611370542283,0
2.19999885559082,-1.2039155960083,2.44782328605652,1.87892043590546,-1.20241025668069,2.44845283844151,1.8778805472129,2158.847,2159.493,2157.905,2159.657,358.793548583984,44.995906829834,0.480790346860886,-1.06658899784088,-0.458775520324707,0.651226222515106,-1.07097637612794,-0.460811215031657,0.654242755919777,0
2.21999931335449,-1.22533011436462,2.43861222267151,1.89199686050415,-1.22387110132782,2.43921883653644,1.89099064231796,2156.701,2157.413,2156.057,2158.029,358.87060546875,44.9958152770996,0.449940413236618,-1.07072913646698,-0.460556268692017,0.653824090957642,-1.07501382704219,-0.462548417366737,0.656709171680113,0
2.23999977111816,-1.24682211875916,2.42936778068542,1.90512192249298,-1.24540998308744,2.42995125744197,1.90414840907728,2154.799,2155.493,2154.172,2156.106,358.948211669922,44.9957542419434,0.418828338384628,-1.07460117340088,-0.462222248315811,0.656253457069397,-1.07877965586273,-0.46416874830314,0.659009657741985,0
2.2599983215332,-1.26838624477386,2.42009234428406,1.91829216480255,-1.26701939030951,2.42065333321126,1.9173492587411,2152.829,2153.608,2152.327,2154.149,359.026428222656,44.9956893920898,0.387485176324844,-1.07820343971252,-0.463772833347321,0.658511400222778,-1.08227207933222,-0.465671440555045,0.661143124741302,0
2.27999877929688,-1.29001677036285,2.4107882976532,1.93150401115417,-1.28869796983554,2.41132564607061,1.93059236468599,2150.574,2151.533,2150.768,2152.354,359.105377197266,44.9956588745117,0.355791509151459,-1.08153426647186,-0.465207368135452,0.66059136390686,-1.08549040888332,-0.467056197851165,0.663109152043028,0
2.29999923706055,-1.31170868873596,2.40145778656006,1.94475448131561,-1.31043816248474,2.40197144852433,1.94387310912637,2149.476,2149.989,2148.079,2150.046,359.184936523438,44.9955673217773,0.324073493480682,-1.08459198474884,-0.466525256633759,0.662526488304138,-1.08843305191934,-0.468322334941636,0.664906766754694,0
2.31999969482422,-1.333456158638,2.39210319519043,1.95803987979889,-1.33223444283894,2.39259311800549,1.9571881166705,2147.265,2147.926,2146.234,2148.381,359.264831542969,44.9955024719238,0.292161136865616,-1.08737480640411,-0.46772500872612,0.664267599582672,-1.09109887036509,-0.469469362144493,0.666535273643923,0
2.33999824523926,-1.35525381565094,2.38272714614868,1.97135663032532,-1.35407917814146,2.38319393867607,1.97053272458644,2145.353,2146.013,2144.348,2146.412,359.345123291016,44.9954414367676,0.260078608989716,-1.08988237380981,-0.468806475400925,0.665836989879608,-1.09348662008434,-0.470496744142684,0.667993912687316,0
2.35999870300293,-1.37709593772888,2.37333202362061,1.98470115661621,-1.37597096908363,2.3737745126195,1.98390607805835,2143.049,2143.881,2142.828,2144.664,359.425964355469,44.9954147338867,0.227661550045013,-1.09211349487305,-0.469769388437271,0.6672243475914,-1.09559583531025,-0.471404280529741,0.669282399355169,0
2.3799991607666,-1.39897727966309,2.36391949653625,1.99807047843933,-1.39790215061238,2.36433813789396,1.99730349462492,2141.904,2142.335,2140.218,2142.328,359.507232666016,44.9953422546387,0.195248410105705,-1.09406697750092,-0.470613569021225,0.668464362621307,-1.09742546213314,-0.472191517837776,0.670400089830511,0
2.39999961853027,-1.42089223861694,2.35449266433716,2.01146054267883,-1.41986712360559,2.35488722364528,2.01072155386983,2139.62,2140.362,2138.476,2140.565,359.588775634766,44.9953002929688,0.162748396396637,-1.09574174880981,-0.47133794426918,0.669508576393127,-1.09897479602782,-0.472858152929276,0.671346553729889,0
2.41999816894531,-1.44283485412598,2.34505391120911,2.02486824989319,-1.44185817738692,2.34542508756209,2.02415554546122,2137.769,2138.311,2136.568,2138.734,359.670623779297,44.9952583312988,0.130067184567451,-1.09713768959045,-0.471942454576492,0.670383155345917,-1.10024313330221,-0.473403883025206,0.672121361178802,0
2.43999862670898,-1.46479988098145,2.33560538291931,2.03828978538513,-1.46387388420027,2.33595234396796,2.03760459720517,2135.541,2136.319,2134.974,2136.879,359.7529296875,44.9952545166016,0.0971455201506615,-1.0982540845871,-0.472426891326904,0.671075880527496,-1.10123022817855,-0.473828602374257,0.672724362035447,0
2.45999908447266,-1.48678183555603,2.32614946365356,2.05172204971313,-1.48590651627916,2.32647231790489,2.05106398832971,2134.328,2134.732,2132.446,2134.612,359.835510253906,44.9951820373535,0.0642750412225723,-1.09908986091614,-0.472791016101837,0.671616733074188,-1.10193556692257,-0.474132089930926,0.673155242467576,0
2.47999954223633,-1.50877475738525,2.31668877601624,2.06516146659851,-1.50795043548148,2.31698743530794,2.06453027458184,2132.172,2132.708,2130.626,2132.925,359.918212890625,44.9951477050781,0.0313111543655396,-1.099644780159,-0.473034143447876,0.671965301036835,-1.10235887855907,-0.474314229102152,0.673413836940663,0
2.49999809265137,-1.5307731628418,2.30722570419312,2.07860422134399,-1.52999789647758,2.30750102877607,2.07799872446051,2130.318,2130.799,2128.736,2130.999,0.00104163913056254,44.9951171875,-0.00173834105953574,-1.09991884231567,-0.473156571388245,0.672141671180725,-1.10250000050163,-0.474374949931546,0.67350004613321,0
2.51999855041504,-1.55277132987976,2.29776263237,2.09204697608948,-1.5520474605947,2.29801371732999,2.09146845910299,2128.03,2128.768,2127.253,2129.225,0.0841940119862556,44.9951133728027,359.965026855469,-1.09991216659546,-0.473158240318298,0.672134280204773,-1.10235890547318,-0.474314240682543,0.673413853382076,0
2.53999900817871,-1.57476389408112,2.28830194473267,2.10548663139343,-1.5740913806044,2.28852883438564,2.10493474584833,2126.907,2127.205,2124.72,2126.959,0.167499393224716,44.9950714111328,359.931884765625,-1.09962379932404,-0.473039209842682,0.671978354454041,-1.10193562074175,-0.474132113087814,0.67315527534487,0
2.55999946594238,-1.59674501419067,2.27884578704834,2.11891913414001,-1.59612401402858,2.27904880774374,2.1183941377947,2124.771,2125.211,2122.925,2125.302,0.250783026218414,44.995044708252,359.898681640625,-1.09905433654785,-0.472798943519592,0.671630024909973,-1.10123030888212,-0.473828637098746,0.672724411335995,0
2.57999801635742,-1.61870908737183,2.26939725875854,2.1323413848877,-1.6181376241771,2.2695769662859,2.13184190871882,2122.874,2123.364,2121.143,2123.375,0.3340904712677,44.9950332641602,359.865509033203,-1.09820413589478,-0.472437918186188,0.671108424663544,-1.10024334841354,-0.473403975581601,0.672121492586955,0
2.59999847412109,-1.64065051078796,2.25995779037476,2.14574956893921,-1.64013077892511,2.26011392621545,2.14527718375796,2120.728,2121.281,2119.603,2121.707,0.417582243680954,44.9950408935547,359.832153320313,-1.09707355499268,-0.47195628285408,0.670408248901367,-1.09897493039424,-0.472858210743393,0.671346635812239,0
2.61999893188477,-1.66256380081177,2.25053095817566,2.15914058685303,-1.66209575487342,2.25066301069528,2.1586952448081,2119.527,2119.884,2117.204,2119.352,0.501107931137085,44.9950141906738,359.799011230469,-1.09566211700439,-0.471354156732559,0.669556319713593,-1.09742562325992,-0.472191587166126,0.670400188260345,0
2.63999938964844,-1.68444323539734,2.24111843109131,2.17251086235046,-1.68402693989188,2.24122663446822,2.17209266350648,2117.592,2117.756,2115.317,2117.89,0.584464550018311,44.994987487793,359.765808105469,-1.09397101402283,-0.470631241798401,0.668519139289856,-1.09559602313537,-0.471404361345641,0.669282514094601,0
2.65999794006348,-1.70628309249878,2.2317225933075,2.18585705757141,-1.70591664919621,2.23180810408224,2.18546474533832,2115.677,2116.032,2113.596,2115.943,0.667662560939789,44.9949760437012,359.732635498047,-1.09200096130371,-0.469788193702698,0.667306661605835,-1.093487048984,-0.470496928686224,0.667994174695423,0
2.67999839782715,-1.72807836532593,2.22234606742859,2.1991753578186,-1.7277634747138,2.22240802539167,2.19881063013402,2113.494,2114.105,2112.186,2114.204,0.750906646251678,44.9949989318848,359.699432373047,-1.08975291252136,-0.468825578689575,0.66591614484787,-1.09109911135695,-0.469469465836558,0.666535420862089,0
2.69999885559082,-1.74982261657715,2.21299123764038,2.21246290206909,-1.74955976015262,2.21302969268507,2.21212564078427,2112.398,2112.488,2109.817,2112.131,0.834058225154877,44.9949798583984,359.666381835938,-1.08722674846649,-0.467743486166,0.664378821849823,-1.08843331936148,-0.468322450014513,0.664906930130919,0
2.71999931335449,-1.77151119709015,2.20366048812866,2.22571611404419,-1.77129995841443,2.20367549272384,2.22540638865331,2110.504,2110.722,2107.97,2110.412,0.916908860206604,44.9949645996094,359.633453369141,-1.08442401885986,-0.46654212474823,0.662658512592316,-1.08549070267236,-0.467056324260381,0.663109331514168,0
2.73999786376953,-1.79313802719116,2.19435596466064,2.23893141746521,-1.79297647980783,2.19434869114016,2.23864823731709,2108.617,2108.803,2106.324,2108.758,0.999475240707397,44.9949722290039,359.600555419922,-1.08134603500366,-0.465222030878067,0.660764813423157,-1.08227271937422,-0.465671715947234,0.661143515732969,0
2.7599983215332,-1.81469798088074,2.1850802898407,2.25210547447205,-1.81458795796224,2.18504987584512,2.25185035208115,2106.531,2107.018,2104.93,2106.979,1.08195197582245,44.9949989318848,359.567657470703,-1.07799410820007,-0.463784128427505,0.658697664737701,-1.07878000199166,-0.464168897232749,0.659009869186748,0
2.77999877929688,-1.83618545532227,2.17583560943604,2.26523518562317,-1.83612684690458,2.17578229366013,2.2650081232283,2105.507,2105.475,2102.598,2104.937,1.16417562961578,44.994987487793,359.535003662109,-1.07436835765839,-0.462228506803513,0.656486332416534,-1.07501419914593,-0.462548577472581,0.656709398992482,0
2.79999923706055,-1.85759460926056,2.16662454605103,2.27831697463989,-1.85758769925251,2.16654828844162,2.27811822303765,2103.56,2103.695,2100.911,2103.354,1.24597704410553,44.9949836730957,359.502471923828,-1.07047116756439,-0.460555762052536,0.654092609882355,-1.07097677406178,-0.460811386251471,0.65424299901135,0
2.81999778747559,-1.87892091274261,2.1574490070343,2.29134774208069,-1.87896306346215,2.15735106638076,2.29117609947734,2101.924,2101.964,2099.173,2101.605,1.32733380794525,44.994987487793,359.470123291016,-1.06630384922028,-0.458766579627991,0.651535451412201,-1.06666972196052,-0.458958182057406,0.651611888092917,0
2.83999824523926,-1.90015828609467,2.14831209182739,2.30432367324829,-1.90025163276617,2.14819118974301,2.30418095426359,2099.713,2100.087,2097.976,2100.075,1.40845572948456,44.9950408935547,359.437774658203,-1.06186878681183,-0.456862032413483,0.648801743984222,-1.06209390114388,-0.456989334193641,0.648816590560307,0
2.85999870300293,-1.92130136489868,2.13921523094177,2.31724238395691,-1.92144601460316,2.13907183934104,2.317128271396,2098.926,2098.649,2095.597,2098.012,1.48916101455688,44.9950294494629,359.405670166016,-1.05716574192047,-0.454842358827591,0.645934045314789,-1.05725149792792,-0.454905783370899,0.645858441999891,0
2.8799991607666,-1.94234538078308,2.13016104698181,2.33010005950928,-1.94254089599063,2.12999530120277,2.33001480525648,2096.967,2097.044,2094.016,2096.41,1.56926476955414,44.9950332641602,359.373870849609,-1.0521981716156,-0.452708601951599,0.642884612083435,-1.05214440908742,-0.452708345718374,0.642738601121776,0
2.89999771118164,-1.96328461170197,2.1211519241333,2.34289360046387,-1.96352900640172,2.1209647036328,2.34283611439361,2095.263,2095.225,2092.494,2094.88,1.64882218837738,44.9950561523438,359.342193603516,-1.04696786403656,-0.450461596250534,0.639674067497253,-1.04677516433438,-0.450398109700476,0.639458613287558,0
2.91999816894531,-1.98411428928375,2.11218976974487,2.35561966896057,-1.98440911693069,2.11198057539494,2.35559144808806,2093.371,2093.526,2091.165,2093.284,1.72799587249756,44.9951057434082,359.310607910156,-1.04147708415985,-0.448102414608002,0.636300206184387,-1.04114485287423,-0.447975543971863,0.636019143875825,0
2.93999862670898,-2.00482869148254,2.1032772064209,2.36827540397644,-2.00517403134858,2.10304601282548,2.36827641027585,2092.383,2092.164,2089.068,2091.328,1.80663454532623,44.9951133728027,359.279418945313,-1.0357266664505,-0.445631682872772,0.632787525653839,-1.03525619623725,-0.445441819530995,0.632421855426973,0
2.95999908447266,-2.02542328834534,2.09441590309143,2.38085746765137,-2.02581860575671,2.0941632292003,2.38088785862954,2090.709,2090.501,2087.426,2089.885,1.88455188274384,44.9951133728027,359.248443603516,-1.02971994876862,-0.443050354719162,0.629106998443604,-1.02911152474823,-0.442797939051516,0.628668171500036,0
2.9799976348877,-2.04589223861694,2.085608959198,2.39336276054382,-2.04633579327653,2.08533525659438,2.393421488321,2088.997,2088.905,2086.014,2088.319,1.9617817401886,44.9951515197754,359.217742919922,-1.02345943450928,-0.440359592437744,0.625266671180725,-1.0227138993024,-0.44004521955114,0.624759961948157,0
2.99999809265137,-2.06623125076294,2.07685780525208,2.40578818321228,-2.06672446158539,2.07656258221453,2.40587660763199,2087.335,2087.203,2084.639,2086.863,2.0384304523468,44.9951972961426,359.187194824219,-1.01694762706757,-0.437560498714447,0.621272802352905,-1.01606464645845,-0.437184231811008,0.620698037145332,0
3.01999855041504,-2.08643531799316,2.06816482543945,2.41813111305237,-2.08697765348254,2.06784819954987,2.41824896651713,2086.306,2085.936,2082.709,2084.994,2.11434626579285,44.9952087402344,359.157043457031,-1.01018595695496,-0.434654027223587,0.61714094877243,-1.00916701981882,-0.434216375765357,0.616484384666525,0
3.03999900817871,-2.10649871826172,2.05953192710876,2.4303879737854,-2.1070904288371,2.05919423420069,2.43053554712756,2084.615,2084.312,2081.277,2083.66,2.18942618370056,44.9952430725098,359.127136230469,-1.00317847728729,-0.431641608476639,0.612846970558167,-1.00202378325828,-0.431142840632279,0.612120692919695,0
3.05999946594238,-2.12641716003418,2.0509614944458,2.44255614280701,-2.12705790388088,2.05060278751603,2.4427333660455,2083.197,2082.934,2079.79,2082.01,2.26366257667542,44.9952735900879,359.09765625,-0.995927453041077,-0.428524374961853,0.608406662940979,-0.994637809041649,-0.427964862267096,0.607608716526612,0
3.07999801635742,-2.14618587493896,2.04245543479919,2.45463252067566,-2.14687337079936,2.04207674568107,2.45483832557174,2081.724,2081.347,2078.366,2080.638,2.33704805374146,44.9953079223633,359.068481445313,-0.988436281681061,-0.425303637981415,0.603818953037262,-0.987012816387451,-0.424684040945629,0.602950727499826,0
3.09999847412109,-2.16580009460449,2.03401613235474,2.46661400794983,-2.16653584520328,2.033616532251,2.46684982435823,2079.974,2079.815,2077.239,2079.277,2.40972948074341,44.9953804016113,359.039520263672,-0.980708181858063,-0.421980917453766,0.599080145359039,-0.979150439632689,-0.421301079877433,0.598147724230312,0
3.11999893188477,-2.18525505065918,2.02564477920532,2.4784984588623,-2.18603872829175,2.02522498650551,2.47876383130049,2079.287,2078.588,2075.258,2077.542,2.48150992393494,44.9953956604004,359.011016845703,-0.972744464874268,-0.418556928634644,0.594219744205475,-0.971054592046769,-0.41781766283301,0.593202097273285,0
3.13999938964844,-2.20454597473145,2.01734399795532,2.49028253555298,-2.20537738341953,2.01690410346351,2.49057751394429,2077.615,2077.253,2073.969,2076.192,2.55225443840027,44.9954299926758,358.982940673828,-0.964550256729126,-0.415033549070358,0.58920156955719,-0.962728579444533,-0.414235212212131,0.588115866099442,0
3.15999794006348,-2.22366881370544,2.00911569595337,2.5019633769989,-2.22454542119638,2.00865663230111,2.50228696911083,2076.341,2075.76,2072.596,2074.868,2.62195706367493,44.9954795837402,358.955261230469,-0.956128299236298,-0.411411941051483,0.584047675132751,-0.954176642367246,-0.410555552601238,0.582891621189275,0
3.17999839782715,-2.24261856079102,2.0009617805481,2.5135383605957,-2.24354199818069,2.00048293592768,2.51389168155481,2074.644,2074.266,2071.597,2073.669,2.69076085090637,44.9955444335938,358.927825927734,-0.947482764720917,-0.407693922519684,0.578748881816864,-0.945400671854024,-0.406779497661632,0.577530517749065,0
3.19999885559082,-2.26139068603516,1.99288403987885,2.52500510215759,-2.26236084956923,1.99238570991304,2.52538782420568,2074.015,2073.23,2069.774,2071.923,2.75850105285645,44.9955749511719,358.900970458984,-0.938615262508392,-0.403880536556244,0.573336243629456,-0.936405103758047,-0.402908956017012,0.572035265572306,0
3.21999931335449,-2.2799813747406,1.98488473892212,2.53636074066162,-2.28099762052367,1.98436682802245,2.53677273676068,2072.546,2071.896,2068.512,2070.752,2.82502222061157,44.9956092834473,358.874572753906,-0.929531276226044,-0.399973809719086,0.567777812480927,-0.927193677444144,-0.398945536611599,0.566408148978615,0
3.23999786376953,-2.29838609695435,1.9769651889801,2.54760241508484,-2.29944628156995,1.97642888457015,2.54804273590817,2071.258,2070.47,2067.323,2069.587,2.89033770561218,44.9956588745117,358.848571777344,-0.920234501361847,-0.395975261926651,0.562088668346405,-0.917771149318993,-0.394891285994308,0.560652073582612,0
3.2599983215332,-2.31660079956055,1.96912717819214,2.55872774124146,-2.31770615117141,1.96857217280235,2.55919740530806,2069.7,2069.25,2066.419,2068.308,2.95460891723633,44.995735168457,358.822967529297,-0.910729050636292,-0.391887009143829,0.556266248226166,-0.908139677873146,-0.390747132903322,0.554768357972493,0
3.27999877929688,-2.3346209526062,1.9613733291626,2.56973457336426,-2.33577134012187,1.96079922667992,2.57023314733618,2069.07,2068.214,2064.8,2066.779,3.01771283149719,44.9957809448242,358.797973632813,-0.901017248630524,-0.387710124254227,0.550336837768555,-0.898304216251578,-0.386515208538549,0.548760027947228,0
3.29999923706055,-2.3524432182312,1.95370411872864,2.5806200504303,-2.35363781007389,1.95311178379095,2.5811474950291,2067.907,2066.879,2063.49,2065.791,3.07945156097412,44.9958190917969,358.7734375,-0.891104698181152,-0.383446574211121,0.544277429580688,-0.888268937369113,-0.38219730838866,0.542629632675369,0
3.31999778747559,-2.37006282806396,1.94612240791321,2.59138178825378,-2.37129993249841,1.94551226593426,2.59193701000626,2066.507,2065.808,2062.558,2064.548,3.13986563682556,44.9958801269531,358.749420166016,-0.880995810031891,-0.379098474979401,0.53808981180191,-0.87803910737898,-0.377795698332271,0.536380389167745,0
3.33999824523926,-2.38747692108154,1.93862891197205,2.6020176410675,-2.38875720963391,1.93800088728271,2.6026013881929,2065.387,2064.514,2061.524,2063.497,3.19903349876404,44.9959487915039,358.725860595703,-0.87069445848465,-0.37466749548912,0.531788408756256,-0.8676171642955,-0.373311427378832,0.530013786769263,0
3.35999870300293,-2.40468072891235,1.93122565746307,2.61252522468567,-2.40600416902084,1.93058000248278,2.61313728654888,2064.599,2063.611,2060.193,2062.127,3.25684857368469,44.9959907531738,358.702941894531,-0.86020439863205,-0.370155513286591,0.525380253791809,-0.857008572601967,-0.368746846742847,0.523533163647493,0
3.3799991607666,-2.42167139053345,1.92391443252563,2.62290239334106,-2.42303712348661,1.92325119802182,2.623542452638,2063.547,2062.537,2059.058,2061.074,3.31318926811218,44.9960556030273,358.680633544922,-0.84953099489212,-0.365564465522766,0.51885586977005,-0.846217938763199,-0.364103938457435,0.51694133381991,0
3.39999771118164,-2.43844509124756,1.91669642925262,2.6331467628479,-2.43985088596004,1.91601670575165,2.63381371775943,2062.458,2061.33,2058.088,2060.167,3.36803507804871,44.9961166381836,358.658813476563,-0.838679194450378,-0.360896408557892,0.512219369411469,-0.835251031898626,-0.359385184813519,0.51024182155155,0
3.41999816894531,-2.45499801635742,1.90957355499268,2.64325618743896,-2.45644516534361,1.90887665092339,2.64395090408624,2061.197,2060.329,2057.349,2059.123,3.42151284217834,44.9961967468262,358.637512207031,-0.827653765678406,-0.356153577566147,0.505472183227539,-0.824110582941664,-0.354591760855451,0.503436295127018,0
3.43999862670898,-2.47132730484009,1.90254664421082,2.6532289981842,-2.47281494657125,1.90183319137989,2.6539509479928,2060.861,2059.495,2055.907,2057.847,3.47344589233398,44.9962463378906,358.616912841797,-0.816457867622375,-0.35133758187294,0.498639672994614,-0.812802561098952,-0.34972623496609,0.496528401041508,0
3.45999908447266,-2.48742914199829,1.89561748504639,2.66306281089783,-2.48895692832918,1.89488774758421,2.66381183275806,2059.604,2058.518,2055.114,2057.021,3.52375292778015,44.9963111877441,358.596954345703,-0.805098652839661,-0.346451163291931,0.491691648960114,-0.801332006385299,-0.344790775723006,0.489521218161412,0
3.4799976348877,-2.50330066680908,1.88878750801086,2.6727557182312,-2.50486640494811,1.88804234425441,2.67353068376208,2058.82,2057.572,2054.176,2056.038,3.57242941856384,44.9963836669922,358.577667236328,-0.793580234050751,-0.341496169567108,0.484651297330856,-0.78970518344449,-0.339788078627405,0.482418573459868,0
3.49999809265137,-2.51893901824951,1.88205814361572,2.68230605125427,-2.52054331600794,1.88129700738756,2.68310746409516,2057.703,2056.566,2053.518,2055.269,3.61955451965332,44.9964752197266,358.558898925781,-0.781908512115479,-0.336475074291229,0.477511346340179,-0.777925130847354,-0.334719451091428,0.475222323152372,0
3.51999855041504,-2.53434085845947,1.87543034553528,2.69171190261841,-2.53598314392723,1.87465368077274,2.69253941403729,2057.33,2055.818,2052.339,2054.184,3.66500186920166,44.9965286254883,358.540832519531,-0.770087242126465,-0.331389755010605,0.470294177532196,-0.765998315247401,-0.329587675535422,0.467936417616648,0
3.53999900817871,-2.54950332641602,1.86890542507172,2.70097160339355,-2.55118300793501,1.86811360392524,2.70182477377044,2056.381,2055.053,2051.558,2053.359,3.70867109298706,44.9966049194336,358.523529052734,-0.758123159408569,-0.326243042945862,0.462980538606644,-0.753930210209441,-0.324395107081412,0.460564200568024,0
3.55999755859375,-2.56442379951477,1.86248469352722,2.71008324623108,-2.56613872308604,1.86167857751006,2.71096098677687,2055.629,2054.233,2050.799,2052.55,3.75055122375488,44.9966735839844,358.506896972656,-0.746021568775177,-0.32103705406189,0.455583453178406,-0.741727567798258,-0.319144650954242,0.45310979673751,0
3.57999801635742,-2.57909965515137,1.85616910457611,2.71904540061951,-2.58085048488145,1.85534851740854,2.71994817248517,2054.693,2053.362,2050.246,2051.897,3.79071879386902,44.9967727661133,358.490905761719,-0.733788430690765,-0.315774470567703,0.448101967573166,-0.72939375026341,-0.313837753835969,0.445575260070899,0
3.59999847412109,-2.59352803230286,1.84996020793915,2.72785639762878,-2.59531431270705,1.84912513636775,2.72878389920025,2054.396,2052.806,2049.25,2050.897,3.82905840873718,44.9968299865723,358.475738525391,-0.721428096294403,-0.310457229614258,0.440555065870285,-0.716935713767317,-0.308477408768949,0.437964839979262,0
3.61999893188477,-2.60770726203918,1.84385824203491,2.73651504516602,-2.6095277810186,1.84300947803163,2.73746668519498,2053.717,2052.045,2048.504,2050.318,3.86543369293213,44.9969024658203,358.461303710938,-0.708947777748108,-0.305088192224503,0.432929128408432,-0.704359365424783,-0.303066157419654,0.430282145026854,0
3.6399974822998,-2.62163424491882,1.83786487579346,2.74501967430115,-2.62348726424244,1.83700310238323,2.74599431566298,2052.861,2051.406,2048.064,2049.653,3.89989280700684,44.9969940185547,358.447601318359,-0.696353614330292,-0.299670219421387,0.42522719502449,-0.691671935956746,-0.297607110965304,0.422531592348262,0
3.65999794006348,-2.63530731201172,1.83198118209839,2.75336885452271,-2.6371932403809,1.83110580375149,2.75436708260842,2052.285,2050.734,2047.516,2049.02,3.93249416351318,44.9970893859863,358.434631347656,-0.683651030063629,-0.294205635786057,0.417463034391403,-0.67887712865581,-0.292101862829246,0.414715444227152,0
3.67999839782715,-2.64872407913208,1.82620692253113,2.76156163215637,-2.65064230460817,1.82531904713786,2.76258290607635,2052.094,2050.197,2046.647,2048.323,3.9630823135376,44.9971618652344,358.422485351563,-0.670845568180084,-0.288696855306625,0.409644961357117,-0.665982380593835,-0.286553612975735,0.406838243854667,0
3.69999885559082,-2.66188311576843,1.8205441236496,2.76959681510925,-2.66383252129072,1.81964366539135,2.77064060361845,2051.342,2049.827,2046.235,2047.668,3.99160575866699,44.9972534179688,358.411224365234,-0.657944858074188,-0.283147126436234,0.401758074760437,-0.652994032435616,-0.280965089615694,0.398903864643987,0
