t,x_s1,x_s2,x_s3,x_s_d1,x_s_d2,x_s_d3,propellers_rpms1,propellers_rpms2,propellers_rpms3,propellers_rpms4,rollRad,pitchRad,yawRad,v_s1,v_s2,v_s3,v_s_d1,v_s_d2,v_s_d3,insideCount
0,-0.0599999986588955,2.94000005722046,1.17999994754791,-0.0599999986588955,2.94000005722046,1.17999994754791,0,0,0,0,0,0,0,0,0,0,-1.06581410364015E-15,4.44089209850063E-16,4.44089209850063E-16,0
0.019989013671875,-0.0599999986588955,2.94000005722046,1.17811644077301,-0.0600018659130177,2.93999925379318,1.18000110346716,0,0,0,0,-0.01635288,0.0001297794,-0.01587137,-1.10653664009419E-09,-7.76775763711157E-08,-0.0941759571433067,-0.000279680311988734,-0.000120338624884473,0.000173135436141649,5
0.040008544921875,-0.0599999986588955,2.94000005722046,1.17242503166199,-0.060014880898484,2.93999365380853,1.18000916036316,0,0,0,0,-0.03270202,0.0005238493,-0.03175127,-1.08383135799528E-09,-7.60859677484405E-08,-0.284568399190903,-0.00111143977225461,-0.000478221483967637,0.00068803416424398,5
0.05999755859375,-0.0599058866500854,2.93990302085876,1.16596496105194,-0.0600498857373401,2.93997859220429,1.18003083002592,1868.637,3252.903,3183.539,1722.181,-0.04942454,0.000330191,-0.0136961,0.00470551569014788,-0.00484904320910573,-0.32300192117691,-0.00247936261166862,-0.00106680046642749,0.00153484356504269,5
0.079986572265625,-0.0598203726112843,2.93960738182068,1.16000318527222,-0.0601174907153006,2.93994950367094,1.18007268072775,1925.04,2314.229,3252.61,2829.559,-0.07543723,-0.00213692,0.0209493,0.00427562370896339,-0.0147794876247644,-0.298089414834976,-0.00437104534358026,-0.00188073869847162,0.00270588528944111,5
0.100006103515625,-0.0599374510347843,2.93904495239258,1.15498673915863,-0.0602282404704493,2.93990185114529,1.18014124010193,979.8604,1498.825,3915.135,3896.708,-0.1031991,-0.008064052,0.06331196,-0.0058539817109704,-0.0281186141073704,-0.25082266330719,-0.00677739276378709,-0.00291612276782231,0.00419552897277328,4
0.1199951171875,-0.0604638531804085,2.93818354606628,1.15081310272217,-0.0603918861403606,2.93983143898525,1.18024254456713,346.7827,980.5504,4172.278,4613.394,-0.1214359,-0.01542183,0.1040051,-0.0263201259076595,-0.0430696196854115,-0.208680123090744,-0.00967801353495435,-0.00416417885169243,0.00599115140585487,4
0.139984130859375,-0.061563678085804,2.93704128265381,1.14728283882141,-0.0606183773949454,2.93973398612584,1.18038275344299,352.6307,746.7843,3975.87,4855.073,-0.1254035,-0.0211684,0.1351094,-0.054991353303194,-0.0571161657571793,-0.17651554942131,-0.0130632593357409,-0.00562075554695178,0.00808677981816243,4
0.160003662109375,-0.0633409917354584,2.93568086624146,1.14427495002747,-0.0609177895434042,2.93960515744296,1.18056810382587,820.7041,814.7951,3463.009,4692.467,-0.1184558,-0.02352583,0.1522733,-0.088865727186203,-0.0680177286267281,-0.150393575429916,-0.0169265510445065,-0.00728302204135792,0.0104783414199936,3
0.17999267578125,-0.0658470541238785,2.9341721534729,1.14182507991791,-0.0612985250199726,2.93944133760391,1.18080379722281,1349.314,1083.925,3005.585,4255.208,-0.1079784,-0.02277961,0.1557775,-0.125303074717522,-0.0754311233758926,-0.122494615614414,-0.0212433804254414,-0.00914043312572283,0.0131506644458931,3
0.199981689453125,-0.0690852105617523,2.93255376815796,1.140061378479,-0.0617700327574899,2.93923846099686,1.18109568297336,1636.322,1380.934,2918.999,3666.222,-0.09982699,-0.02030074,0.1501536,-0.161907717585564,-0.0809157937765121,-0.0881838649511337,-0.0260066742439309,-0.011189945384795,0.0160993702266893,3
0.220001220703125,-0.0730106234550476,2.93082594871521,1.13903570175171,-0.0623420644491781,2.93899233174064,1.18144979784016,1640.916,1580.443,3148.872,3113.134,-0.09583492,-0.01735582,0.1421871,-0.196270614862442,-0.086388036608696,-0.0512861013412476,-0.03121219533433,-0.0134297356845702,0.019321835755004,3
0.239990234375,-0.0775503441691399,2.92897343635559,1.13863301277161,-0.0630214373585105,2.93870001655724,1.18187036203406,1524.842,1624.845,3416.565,2777.27,-0.0947542,-0.01467668,0.1377292,-0.226986169815063,-0.0926249250769615,-0.0201374348253012,-0.0368316683029241,-0.015847637913056,0.022800557215184,3
0.260009765625,-0.0826392769813538,2.92699217796326,1.13863551616669,-0.0638185570309634,2.93835703823113,1.18236381708338,1438.813,1500.592,3533.861,2744.074,-0.09439041,-0.01258823,0.139299,-0.254446655511856,-0.0990583896636963,0.000124491751194,-0.0428699302682246,-0.0184457333472145,0.0265385290140116,3
0.279998779296875,-0.0882451385259628,2.9249005317688,1.13885200023651,-0.0647390625194898,2.93796097043536,1.18293365383054,1400.755,1276.221,3476.16,2977.668,-0.09321703,-0.01110538,0.1456816,-0.280293375253677,-0.104584880173206,0.0108258314430714,-0.0492963837173861,-0.0212108567320638,0.030516809833474,3
0.29998779296875,-0.09437096118927,2.92273235321045,1.13920712471008,-0.0657918945890516,2.93750796620855,1.18358540703494,1350.078,1061.213,3346.092,3324.77,-0.09053896,-0.009935722,0.153312,-0.306290775537491,-0.108409576117992,0.0177554599940777,-0.0561078595514081,-0.0241416444928383,0.0347334378503248,3
0.32000732421875,-0.101036295294762,2.92052531242371,1.13972532749176,-0.0669865614821475,2.93699393441958,1.18432496275165,1280.239,940.6936,3238.181,3590.889,-0.0859743,-0.008525311,0.158367,-0.333266973495483,-0.110347002744675,0.0259086079895496,-0.0633036493784043,-0.0272377918282996,0.0391879745362408,3
0.339996337890625,-0.108251810073853,2.91831159591675,1.14046132564545,-0.068326768706371,2.93641728069206,1.18515461486636,1254.397,944.9417,3169.014,3649.796,-0.07944263,-0.006290919,0.1584797,-0.360775709152222,-0.110681094229221,0.0367981716990471,-0.0708499516420146,-0.0304847548730522,0.0438594951176439,4
0.3599853515625,-0.116003409028053,2.91611433029175,1.14145243167877,-0.0698213312158394,2.93577421219747,1.18607982025561,1319.669,1046.932,3121.279,3497.998,-0.07154955,-0.002963033,0.1534741,-0.387580215930939,-0.109857775270939,0.049557089805603,-0.0787457139191101,-0.0338820807988248,0.0487473480944833,4
0.3800048828125,-0.12425185739994,2.91394925117493,1.14270770549774,-0.0714797725314022,2.93506063123087,1.18710647443246,1453.982,1181.013,3092.12,3231.933,-0.06361014,0.001257024,0.1450419,-0.412422984838486,-0.108257763087749,0.0627636611461639,-0.0869921272359981,-0.0374302820709642,0.0538522707687797,4
0.399993896484375,-0.132943630218506,2.91182589530945,1.14421677589417,-0.0733036822025899,2.9342758538535,1.18823556140379,1580.743,1274.49,3102.973,2981.468,-0.05701242,0.005827696,0.1357435,-0.434589147567749,-0.106164880096912,0.0754552707076073,-0.0955525119207663,-0.0411135764513579,0.0591515566763244,4
0.41998291015625,-0.14202407002449,2.90974998474121,1.14595758914948,-0.075301871434707,2.93341608884986,1.18947253572543,1631.53,1288.573,3159.597,2844.081,-0.05243817,0.01017734,0.1278505,-0.454021513462067,-0.103800535202026,0.0870386138558388,-0.104427768518458,-0.0449323514193797,0.064645763297398,4
0.44000244140625,-0.151446521282196,2.90772414207458,1.14789569377899,-0.077483988232608,2.93247718495301,1.19082336997196,1605.434,1237.505,3220.604,2843.722,-0.04965198,0.01397443,0.1224621,-0.47112312912941,-0.101290382444859,0.0969071984291077,-0.113620829717891,-0.048887868829098,0.0703367061060819,4
0.459991455078125,-0.161177158355713,2.9057514667511,1.14999639987946,-0.0798493430620752,2.93145943885026,1.19228763728888,1543.093,1158.947,3250.803,2937.838,-0.04788044,0.01718861,0.119335,-0.486531674861908,-0.0986375063657761,0.105036944150925,-0.123092454730403,-0.0529632444654124,0.0762000931848968,4
0.480010986328125,-0.17119400203228,2.9038360118866,1.15223872661591,-0.0824109101018722,2.93035726811493,1.19387336931088,1474.461,1086.056,3249.056,3066.326,-0.04628893,0.01998884,0.1173726,-0.500841677188873,-0.0957750231027603,0.11211895942688,-0.132860437136906,-0.0571661344090936,0.082246939608052,5
0.5,-0.18148136138916,2.9019832611084,1.15461528301239,-0.085166398670376,2.92917165836334,1.1955791479969,1431.537,1046.39,3215.899,3170.27,-0.04434589,0.02264393,0.1152214,-0.51436859369278,-0.0926371365785599,0.118825107812881,-0.142884000065179,-0.0614789935111996,0.0884520025491718,5
0.519989013671875,-0.192024603486061,2.90019869804382,1.15713477134705,-0.0881248588203387,2.92789871561062,1.19741057576073,1422.782,1044.783,3178.847,3210.067,-0.04193201,0.02537742,0.111889,-0.527161359786987,-0.089228093624115,0.125976771116257,-0.153166947611899,-0.0659034585682559,0.0948176369253132,5
0.540008544921875,-0.202804908156395,2.89848589897156,1.15981018543243,-0.0912963635428427,2.92653410573011,1.19937388826368,1443.899,1072.766,3149.819,3185.706,-0.03929068,0.02828601,0.1070616,-0.539015054702759,-0.0856431797146797,0.133769378066063,-0.163714777034477,-0.0704418948965508,0.101347245800684,5
0.55999755859375,-0.213798090815544,2.89684534072876,1.16265213489532,-0.094676112580471,2.92507989413848,1.20146611391775,1487.111,1114.644,3135.717,3113.387,-0.03687626,0.03133032,0.1010589,-0.549660325050354,-0.0820334255695343,0.142096996307373,-0.17448465888317,-0.0750758741803766,0.108014315705644,5
0.579986572265625,-0.224976420402527,2.8952739238739,1.16566741466522,-0.0982734311149,2.92353206847056,1.2036930254546,1521.585,1148.754,3146.529,3034.02,-0.03512816,0.0343465,0.09465387,-0.558915734291077,-0.0785742998123169,0.150766536593437,-0.185481935470438,-0.0798076950675377,0.114822153786096,5
0.600006103515625,-0.236311137676239,2.89376544952393,1.16885137557983,-0.102098762959148,2.92188613504538,1.20606108809202,1537.214,1166.318,3164.997,2981.466,-0.03429299,0.03715712,0.08862613,-0.566736400127411,-0.075418159365654,0.159200549125671,-0.196713446836865,-0.0846403006364086,0.121774994352997,5
0.6199951171875,-0.247776418924332,2.8923122882843,1.17219376564026,-0.106144683970236,2.92014528826426,1.20856570593183,1537.118,1167.951,3179.95,2963.19,-0.03441337,0.03963426,0.08345158,-0.573265135288239,-0.0726640149950981,0.167118147015572,-0.208134604141382,-0.0895545055543457,0.128845234789665,5
0.639984130859375,-0.259351700544357,2.89090466499329,1.17568671703339,-0.110420882305709,2.91830535958365,1.21121287640506,1507.326,1156.535,3195.802,2985.418,-0.03534334,0.04170113,0.07928669,-0.578764796257019,-0.0703778564929962,0.174647599458694,-0.219752140575416,-0.0945532069255159,0.136037043262338,5
0.660003662109375,-0.271021485328674,2.88953280448914,1.17932069301605,-0.114938248900541,2.91636166293851,1.21400934151928,1463.873,1143.785,3199.022,3033.21,-0.03677719,0.04338377,0.07590885,-0.58348935842514,-0.0685954019427299,0.181696444749832,-0.231574097577923,-0.0996398647564507,0.143355397804799,5
0.67999267578125,-0.282774358987808,2.88818645477295,1.18308889865875,-0.119686638739014,2.91431856344567,1.21694882102647,1432.474,1140.16,3188.009,3073.956,-0.03843421,0.04478104,0.07287417,-0.587644219398499,-0.0673227086663246,0.188410639762878,-0.243554411173546,-0.104794659005432,0.150771782621969,5
0.699981689453125,-0.294601321220398,2.88685512542725,1.18699204921722,-0.124676182095571,2.91217170233105,1.22003758604909,1404.839,1146.315,3178.396,3100.714,-0.04016846,0.04597005,0.06985021,-0.591348171234131,-0.0665709376335144,0.195159018039703,-0.25570106256044,-0.110021023759057,0.158291138455704,5
0.720001220703125,-0.306493550539017,2.88552784919739,1.19102883338928,-0.129918284978346,2.90991617190799,1.22328269744952,1389.51,1162.228,3165.017,3109.797,-0.0419352,0.04701752,0.06663937,-0.594611287117004,-0.0663581266999245,0.201840415596962,-0.268023157655716,-0.11532287703907,0.16591910230247,5
0.739990234375,-0.318441897630692,2.88419365882874,1.19519853591919,-0.135400001298574,2.90755754251682,1.2266761409821,1395.573,1185.476,3151.06,3092.745,-0.04382178,0.04795595,0.06321178,-0.597415387630463,-0.0667059645056725,0.208487987518311,-0.280473432677602,-0.12067988256057,0.173626415629864,5
0.760009765625,-0.330436944961548,2.88284039497375,1.19950425624847,-0.141140917956636,2.9050873864615,1.23023004187122,1393.177,1207.777,3150.785,3072.842,-0.04599865,0.04873711,0.05980331,-0.599753499031067,-0.0676574409008026,0.21528497338295,-0.293080296154222,-0.126104263719567,0.181430664670081,5
0.779998779296875,-0.34246963262558,2.88145542144775,1.20394158363342,-0.147126184485884,2.90251209348295,1.23393520697061,1386.75,1226.566,3149.795,3060.766,-0.04855688,0.0493184,0.05664865,-0.60163402557373,-0.0692505985498428,0.22186541557312,-0.305795832832518,-0.131575403921268,0.189302187598958,5
0.79998779296875,-0.354532569646835,2.88002514839172,1.20850884914398,-0.153366821193532,2.89982692185086,1.2377984583754,1373.26,1240.517,3155.932,3053.534,-0.05149328,0.049659,0.05393695,-0.603147625923157,-0.0715194195508957,0.228363394737244,-0.318629798715703,-0.137097500901303,0.197247023847227,5
0.82000732421875,-0.366620361804962,2.87853574752808,1.21319925785065,-0.159875221826383,2.89702653888221,1.24182746840525,1348.886,1250.363,3157.588,3064.705,-0.05475353,0.049734,0.05177578,-0.604389309883118,-0.0744720101356506,0.234520211815834,-0.331592781842754,-0.14267511039705,0.205271727915392,4
0.839996337890625,-0.378730058670044,2.87697386741638,1.21800601482391,-0.166633637018892,2.89411858163313,1.24601124935738,1331.802,1259.849,3152.487,3075.892,-0.05823747,0.04956384,0.05009602,-0.605485260486603,-0.07809779047966,0.240339308977127,-0.344636106234817,-0.148287288494656,0.213346167053785,4
0.8599853515625,-0.390861183404922,2.87532615661621,1.22292816638947,-0.173653699721778,2.89109804476993,1.25035700258242,1301.448,1269.421,3152.582,3095.419,-0.06187215,0.04915347,0.04885776,-0.606554687023163,-0.0823910534381866,0.246106058359146,-0.357770416714212,-0.153938615363784,0.221476930914505,4
0.8800048828125,-0.403014540672302,2.87357974052429,1.22796022891998,-0.180948461186242,2.88795931270381,1.25487280742661,1271.837,1280.463,3147.058,3117.752,-0.06552175,0.04854858,0.04793484,-0.607668280601501,-0.0873257890343666,0.251603603363037,-0.371007022483504,-0.159633957038354,0.229671020432672,4
0.899993896484375,-0.415192127227783,2.87172245979309,1.23309779167175,-0.18849723509595,2.8847112861788,1.25954585807468,1263.407,1295.332,3136.086,3121.978,-0.06910637,0.0478091,0.04717059,-0.608881235122681,-0.0928666740655899,0.256875455379486,-0.384296738353309,-0.165352150505452,0.237897987633041,4
0.91998291015625,-0.427396714687347,2.86974263191223,1.23834216594696,-0.196312316554895,2.88134867495511,1.26438376578173,1247.208,1311.28,3133.786,3125.85,-0.07266542,0.04693622,0.04659903,-0.610227644443512,-0.098995104432106,0.262217134237289,-0.397650971463704,-0.171098103938772,0.246164894078718,4
0.94000244140625,-0.43963098526001,2.8676290512085,1.24368965625763,-0.204407453948074,2.87786556348678,1.26939504145298,1231.47,1326.23,3129.677,3132.16,-0.07618185,0.04594525,0.0462412,-0.611713409423828,-0.105675891041756,0.267372041940689,-0.411081631631503,-0.176876941799768,0.254479112513653,4
0.959991455078125,-0.451898336410522,2.86537170410156,1.24913656711578,-0.212759000778906,2.87427212620069,1.27456504678061,1232.328,1341.128,3123.061,3125.967,-0.07965621,0.0448587,0.0460864,-0.613367855548859,-0.112872608006001,0.272347807884216,-0.424539267042903,-0.182667386354485,0.262810029909387,3
0.980010986328125,-0.464202970266342,2.86296033859253,1.25468480587006,-0.221393324468958,2.87055701793193,1.27991010445463,1217.583,1353.71,3126.246,3129.042,-0.08314868,0.04364819,0.04626106,-0.615232527256012,-0.120568640530109,0.277409851551056,-0.438056556301695,-0.188483498293199,0.271177875878363,3
1,-0.476549655199051,2.86038589477539,1.26032912731171,-0.230284798736574,2.86673126495361,1.28541435058594,1203.698,1363.666,3123.693,3139.22,-0.08661878,0.04232521,0.04677597,-0.617334425449371,-0.128716468811035,0.282213449478149,-0.451584000205995,-0.194303979492187,0.279552008056641,3
1.01998901367188,-0.488944530487061,2.85764002799988,1.2660698890686,-0.239446912293295,2.86278906344998,1.29108613532954,1190.772,1372.042,3126.966,3145.17,-0.08999194,0.04090323,0.04761156,-0.619743347167969,-0.137291252613068,0.287038326263428,-0.46513400752272,-0.200134169097193,0.287940108062054,3
1.04000854492188,-0.501394152641296,2.85471534729004,1.27190327644348,-0.248894644448595,2.85872396824263,1.29693473159157,1175.153,1379.632,3124.985,3159.897,-0.09322502,0.03939861,0.04874847,-0.62248307466507,-0.146232396364212,0.291666924953461,-0.47871923339115,-0.205979512261105,0.296350010028666,3
1.05999755859375,-0.513906002044678,2.85160565376282,1.27782607078552,-0.258599401509697,2.85454828239877,1.30294243851408,1176.191,1387.739,3118.244,3163.742,-0.09628233,0.03785264,0.05007783,-0.625593423843384,-0.155482470989227,0.296142518520355,-0.492290296490434,-0.211818761581115,0.30475114456651,3
1.07998657226563,-0.526488244533539,2.84830522537231,1.28384232521057,-0.268575430648764,2.85025587575821,1.30911807577533,1163.306,1395.277,3121.272,3173.647,-0.09919956,0.03625939,0.05162518,-0.629109621047974,-0.165015920996666,0.300810277462006,-0.50586005237609,-0.217657448443621,0.313151469876847,3
1.10000610351563,-0.539148688316345,2.84480977058411,1.28995013237,-0.278838480013141,2.84583997233313,1.31547139222872,1150.21,1401.371,3121.719,3187.372,-0.1019107,0.0346467,0.05334706,-0.633024871349335,-0.17477548122406,0.305392235517502,-0.519441457145546,-0.223501147495394,0.321559006401169,3
1.1199951171875,-0.551895618438721,2.84111571311951,1.29614770412445,-0.289357002179081,2.84131414609862,1.32198285851614,1158.594,1408.347,3117.051,3185.358,-0.1043821,0.03305791,0.05514804,-0.637347519397736,-0.184702903032303,0.309875935316086,-0.532985466132485,-0.229328756186667,0.329943393154705,3
1.13998413085938,-0.564737498760223,2.83722019195557,1.30243945121765,-0.300146026259498,2.83667193044725,1.3286617783744,1154.061,1414.118,3122.018,3189.34,-0.1066841,0.03147457,0.05710122,-0.642090678215027,-0.194772869348526,0.314589709043503,-0.546505271550557,-0.235145950758426,0.338312796746137,3
1.16000366210938,-0.577682197093964,2.83312153816223,1.30882453918457,-0.311222084148811,2.83190621216671,1.33551838583369,1147.519,1417.494,3124.388,3199.913,-0.1087885,0.02990809,0.05920606,-0.647234380245209,-0.204927161335945,0.319256216287613,-0.560014026276883,-0.240958390526247,0.34667535943296,3
1.17999267578125,-0.590737879276276,2.82881927490234,1.31530201435089,-0.322550701230474,2.8270318247214,1.34253133946411,1159.078,1421.062,3121.722,3198.49,-0.1106815,0.02839063,0.06138562,-0.652787208557129,-0.215111404657364,0.323870986700058,-0.573463232144024,-0.246745208083563,0.355001058539242,3
1.19998168945313,-0.603913247585297,2.82431316375732,1.32187747955322,-0.334147705564643,2.8220419577392,1.34971043758889,1154.924,1422.937,3129.226,3205.358,-0.1124216,0.02689974,0.06370357,-0.65876829624176,-0.22530908882618,0.32877042889595,-0.586866312357874,-0.25251217906087,0.363298203668868,3
1.22000122070313,-0.617216408252716,2.81960391998291,1.32855069637299,-0.346030421585499,2.81692915700008,1.35706640485806,1148.848,1422.881,3133.537,3218.426,-0.1139556,0.02545208,0.06613068,-0.665154218673706,-0.235466167330742,0.333661884069443,-0.600236516861372,-0.258265004538453,0.371574997167698,3
1.239990234375,-0.630655229091644,2.81469345092773,1.33532118797302,-0.358161486344149,2.81170949873715,1.36457611182642,1162.721,1423.998,3131.345,3217.953,-0.1152568,0.02408645,0.06856152,-0.67194539308548,-0.245529413223267,0.3385229408741,-0.613526094901141,-0.263983138701136,0.379801879044709,2
1.260009765625,-0.644238352775574,2.80958366394043,1.34219527244568,-0.37057666480527,2.80636759428526,1.37226169871082,1162.346,1423.882,3139.248,3223.929,-0.1163881,0.02278185,0.07104545,-0.679152250289917,-0.255487054586411,0.343706667423248,-0.626768731761373,-0.26968107538565,0.387999702095469,2
1.27999877929688,-0.657972931861877,2.8042778968811,1.34917259216309,-0.383236695417198,2.80092033679326,1.3800988607405,1165.632,1423.264,3140.535,3232.754,-0.1173378,0.02155728,0.07354187,-0.686730086803436,-0.265283614397049,0.348867505788803,-0.639917282339435,-0.275338529371412,0.396139281255613,2
1.29998779296875,-0.671866774559021,2.79877972602844,1.35625851154327,-0.396158759015336,2.79536033382764,1.388098233671,1170.31,1421.407,3149.109,3234.82,-0.118075,0.02042118,0.0760224,-0.694692552089691,-0.274909228086472,0.35429510474205,-0.652985332144132,-0.280961346123326,0.404229026602261,2
1.32000732421875,-0.685926616191864,2.79309344291687,1.36345362663269,-0.409361504843077,2.78967956113998,1.39627136227237,1174.06,1419.557,3152.845,3242.269,-0.1186065,0.01937851,0.07848427,-0.702990889549255,-0.284314304590225,0.359755158424377,-0.6659860834168,-0.286555206197011,0.41227711095171,2
1.33999633789063,-0.700158774852753,2.78722429275513,1.37075865268707,-0.422802873722428,2.78389611561957,1.40459220990988,1193.5,1418.865,3150.898,3239.557,-0.1189677,0.01845098,0.08085897,-0.711607873439789,-0.293457746505737,0.365249305963516,-0.678873453515705,-0.29210028151913,0.420255006953505,2
1.3599853515625,-0.714569747447968,2.78117728233337,1.37818157672882,-0.436500861174643,2.77800225429635,1.41307191666844,1195.297,1415.851,3161.886,3244.38,-0.1192303,0.01760482,0.08321651,-0.720550000667572,-0.302350878715515,0.371149212121964,-0.69166099897751,-0.297602405088682,0.428171106749628,2
1.3800048828125,-0.729165017604828,2.77495789527893,1.3857239484787,-0.450474904562636,2.77198961381608,1.4217225152016,1194.146,1411.518,3169.971,3254.728,-0.1193421,0.01684854,0.08554354,-0.729762315750122,-0.310964107513428,0.377121299505234,-0.704361775018035,-0.303067194200314,0.436033492140578,2
1.39999389648438,-0.743949353694916,2.76857256889343,1.39338552951813,-0.464680216184654,2.76587746507559,1.43051627978847,1213.76,1409.326,3169.425,3251.25,-0.1192857,0.01621463,0.08774854,-0.739220559597015,-0.319260686635971,0.383077919483185,-0.716930938559026,-0.308475354130225,0.443814403124744,2
1.41998291015625,-0.758928000926971,2.76202750205994,1.4011732339859,-0.479135601808478,2.75965771647838,1.43946485209513,1219.089,1405.312,3179.573,3253.809,-0.1191333,0.01566938,0.08989794,-0.748929858207703,-0.327250957489014,0.389384925365448,-0.729381927869995,-0.313832666990362,0.451522158631107,2
1.44000244140625,-0.774104654788971,2.75532937049866,1.40908825397491,-0.493861275572861,2.75332167044526,1.4485807456364,1220.596,1400.363,3186.28,3263.102,-0.1188622,0.01521442,0.09198584,-0.758833944797516,-0.334910273551941,0.395749807357788,-0.741727567798258,-0.319144650954242,0.459164697851088,2
1.45999145507813,-0.789482772350311,2.74848508834839,1.41713058948517,-0.508809800712713,2.74688973769103,1.45783459479497,1240.078,1397.72,3185.255,3260.17,-0.1184755,0.01487708,0.09392444,-0.768909573554993,-0.342213183641434,0.402117341756821,-0.753924423002454,-0.324392617007921,0.466715132239272,2
1.47998046875,-0.805066108703613,2.74150133132935,1.4253077507019,-0.524000783579472,2.74035348215039,1.46723853683636,1243.744,1392.927,3196.739,3262.93,-0.1180324,0.01462192,0.0957794,-0.779162883758545,-0.349184334278107,0.408859133720398,-0.76598572865452,-0.329582259876133,0.474181654997567,2
1.5,-0.820856630802155,2.7343852519989,1.43362045288086,-0.539455198877605,2.73370387899399,1.4768055561018,1244.413,1387.564,3204.284,3271.361,-0.1174912,0.01445286,0.09754533,-0.789528667926788,-0.355808466672897,0.415636509656906,-0.777924000354858,-0.334718964672088,0.481572013878822,1
1.51998901367188,-0.836856186389923,2.72714400291443,1.44206774234772,-0.555123050061237,2.72696244033876,1.48650470234772,1265.138,1385.066,3202.406,3266.553,-0.1168536,0.01439751,0.09913688,-0.799977540969849,-0.362062782049179,0.422363698482513,-0.789697369743256,-0.339784716610053,0.488860290373601,1
1.54000854492188,-0.853066623210907,2.71978449821472,1.45065641403198,-0.571049184024557,2.72010986981902,1.49636373793799,1270.136,1380.24,3213.145,3267.5,-0.1161911,0.01441553,0.10063,-0.81051903963089,-0.367976486682892,0.429436445236206,-0.801336412291853,-0.344792671461508,0.496065412155667,1
1.55999755859375,-0.86948823928833,2.71231389045715,1.45938563346863,-0.587181951496087,2.71316839067337,1.50635068951315,1276.027,1376.201,3215.905,3273.132,-0.1155045,0.01451013,0.1020141,-0.821081817150116,-0.373535752296448,0.43645903468132,-0.812800388649436,-0.349725300221754,0.503162159625937,1
1.57998657226563,-0.886121809482574,2.70473861694336,1.46825969219208,-0.603542258451077,2.7061290076447,1.51647849886779,1281.785,1370.656,3226.407,3272.357,-0.1147524,0.0146798,0.1032776,-0.831679940223694,-0.378766506910324,0.443703711032867,-0.82410201904291,-0.354588076049064,0.510158407210813,0
1.60000610351563,-0.902966797351837,2.69706559181213,1.47727763652802,-0.620152298932711,2.69898217125626,1.52676090517188,1286.504,1366.06,3230.416,3276.941,-0.1139311,0.01492111,0.104427,-0.842251121997833,-0.383655041456223,0.45089465379715,-0.835253140422976,-0.35938609205264,0.51706148254665,0
1.6199951171875,-0.920022249221802,2.68930172920227,1.48643791675568,-0.636958033083316,2.69175113334911,1.53716445517924,1306.687,1364.258,3226.234,3271.881,-0.1130885,0.01524938,0.1053979,-0.852773427963257,-0.388189196586609,0.458012014627457,-0.846214826007804,-0.364102599125749,0.523847288101157,0
1.63998413085938,-0.937287509441376,2.68145346641541,1.49574744701385,-0.653981118189727,2.68442657539777,1.54770255578211,1307.594,1359.348,3237.65,3273.52,-0.1122874,0.01561957,0.1062712,-0.863266587257385,-0.39241561293602,0.465478122234344,-0.856999388527105,-0.368742895092007,0.53052344604056,0
1.66000366210938,-0.954760849475861,2.67352652549744,1.5052056312561,-0.671244443874359,2.67699864863716,1.55838937674714,1303.749,1354.092,3245.345,3281.525,-0.1114655,0.01603453,0.1070501,-0.873663127422333,-0.396342545747757,0.472907990217209,-0.867618167158098,-0.373311858882592,0.53709697585572,0
1.67999267578125,-0.972439527511597,2.66552734375,1.51480901241302,-0.688691692550512,2.66949158495151,1.56919005480539,1322.082,1352.484,3241.807,3274.886,-0.1106043,0.01652629,0.1076468,-0.883933663368225,-0.399959117174149,0.480168640613556,-0.878034183119987,-0.377793579561193,0.543544985919778,0
1.69998168945313,-0.990321516990662,2.65746140480042,1.5245623588562,-0.706345246291743,2.66189575395985,1.5801184455266,1325.757,1348.449,3250.677,3273.239,-0.1097702,0.01705197,0.108144,-0.894097745418549,-0.403301537036896,0.487667053937912,-0.88825927318574,-0.382193150160541,0.549874803759068,0
1.72000122070313,-1.00840330123901,2.64933395385742,1.53446400165558,-0.724228658537036,2.6542010212754,1.5911891296115,1323.561,1344.088,3255.475,3279.9,-0.1089425,0.01760501,0.1085594,-0.904096841812134,-0.406375974416733,0.495079696178436,-0.898304216251578,-0.386515208538549,0.556093102023817,0
1.739990234375,-1.02668154239655,2.64115047454834,1.54451048374176,-0.74228345468553,2.64643254688532,1.60236590849663,1339.673,1342.961,3250.94,3274.317,-0.1081222,0.01821116,0.1088126,-0.913913309574127,-0.409179270267487,0.502326369285583,-0.908134108040217,-0.390744736359816,0.562178273303667,0
1.760009765625,-1.04515302181244,2.63291525840759,1.55470681190491,-0.760560719141003,2.63856835059778,1.61368040586141,1338.915,1339.047,3260.704,3274.057,-0.1073558,0.01882915,0.1089828,-0.923573434352875,-0.411757200956345,0.509814083576202,-0.91777478390713,-0.394892849856044,0.568146310914365,0
1.77999877929688,-1.06381320953369,2.62463307380676,1.56504857540131,-0.779000609654483,2.63063418086074,1.62509557650306,1339.847,1336.712,3260.679,3278.425,-0.1066255,0.01946564,0.1090602,-0.933008193969727,-0.41411092877388,0.517088532447815,-0.927192788821983,-0.398945154262308,0.57397650459845,0
1.79998779296875,-1.08265829086304,2.61630773544312,1.57553732395172,-0.797626646773287,2.62261991743975,1.63662598076079,1342.303,1333.123,3268.052,3274.9,-0.1058793,0.02012155,0.1090341,-0.94224613904953,-0.41627237200737,0.524439096450806,-0.936399026186941,-0.402906341007953,0.579675604081262,0
1.82000732421875,-1.10168290138245,2.60794305801392,1.5861691236496,-0.816463410111527,2.61451498441355,1.64828683458664,1343.013,1330.753,3268.308,3277.876,-0.1051208,0.02079161,0.1089215,-0.951234221458435,-0.418237000703812,0.531587481498718,-0.94540321420156,-0.406780591562751,0.585249625391268,0
1.83999633789063,-1.12088227272034,2.59954309463501,1.59693968296051,-0.835449117627072,2.60634596486888,1.66003989195343,1359.177,1331.417,3260.389,3271.055,-0.1044018,0.02148994,0.1086608,-0.959964454174042,-0.420000582933426,0.538531005382538,-0.954174163352093,-0.410554485950274,0.590679260733698,0
1.8599853515625,-1.14025163650513,2.59111070632935,1.60785412788391,-0.854607925216182,2.59810246519841,1.67190010651166,1354.336,1328.64,3269.762,3271.279,-0.103777,0.02217079,0.108344,-0.968473672866821,-0.421616852283478,0.545720636844635,-0.962722140342816,-0.41423244164655,0.595970865687568,0
1.8800048828125,-1.15978574752808,2.58264875411987,1.61890864372253,-0.873964974649439,2.58977366760063,1.68388304221498,1344.366,1325.649,3274.76,3278.624,-0.1031677,0.02283937,0.1079802,-0.976703405380249,-0.423101991415024,0.552727997303009,-0.971056158224177,-0.417818336715394,0.601130019760457,0
1.89999389648438,-1.17947852611542,2.57415986061096,1.63009679317474,-0.893456683142228,2.58138692997148,1.69594933829086,1358.988,1326.597,3267.26,3270.044,-0.1025445,0.02353316,0.1074763,-0.984637022018433,-0.424445629119873,0.559407651424408,-0.979147395688901,-0.421299770153459,0.606138881190213,0
1.91998291015625,-1.1993248462677,2.56564617156982,1.64142107963562,-0.91310780215452,2.5729316024492,1.70811431707208,1358.408,1325.064,3273.092,3266.421,-0.1019767,0.0242083,0.1069239,-0.992311716079712,-0.425682455301285,0.566214323043823,-0.98700543065471,-0.424680863071164,0.611003379164165,0
1.94000244140625,-1.21931838989258,2.55710983276367,1.65287721157074,-0.932943991899774,2.5643966441608,1.72039386345315,1350.344,1323.125,3274.632,3273.064,-0.1014414,0.02485827,0.1063488,-0.999681353569031,-0.426820009946823,0.572804749011993,-0.994638524886308,-0.427965170275055,0.615728628108227,0
1.95999145507813,-1.23945355415344,2.54855275154114,1.66445922851563,-0.952900013794853,2.55581012544606,1.73274759164336,1362.123,1324.399,3266.597,3266.349,-0.1009279,0.02551457,0.105662,-1.00674378871918,-0.427853882312775,0.579101324081421,-1.00202031904361,-0.431141350077486,0.620298310335216,0
1.97998046875,-1.25972414016724,2.53997611999512,1.67617011070251,-0.973001172086935,2.54716115859433,1.74519116617712,1356.334,1322.996,3273.689,3264.939,-0.1004795,0.02613766,0.1049479,-1.01354002952576,-0.428826212882996,0.585543394088745,-1.0091596546337,-0.434213206731958,0.624717899159203,0
2,-1.28012442588806,2.53138136863708,1.68800449371338,-0.993273599084619,2.53843849960327,1.7577407641983,1345.911,1321.542,3275.286,3271.566,-0.1000353,0.0267323,0.1042169,-1.02002036571503,-0.429742515087128,0.591721177101135,-1.01606400046349,-0.437183953857422,0.628992018127441,0
2.01998901367188,-1.30064821243286,2.52276945114136,1.69995534420013,-1.01365055070775,2.52967086658596,1.77035506794184,1359.049,1323.675,3265.539,3262.807,-0.09958252,0.02733407,0.1033749,-1.02618074417114,-0.43058916926384,0.597540736198425,-1.02270954399163,-0.440043345582587,0.633105926142498,0
2.04000854492188,-1.32128942012787,2.51414155960083,1.71202492713928,-1.03418924440916,2.52083364047092,1.78306949773667,1354.606,1323.258,3270.736,3259.843,-0.09918784,0.02789913,0.1025163,-1.03206467628479,-0.431401193141937,0.603480637073517,-1.02911391720548,-0.442798968459032,0.637070538244476,0
2.05999755859375,-1.34204196929932,2.50549817085266,1.72420644760132,-1.05482201812353,2.5119559343546,1.79584216754118,1349.44,1323.895,3266.338,3264.461,-0.09884536,0.02843332,0.1016418,-1.0376193523407,-0.432175278663635,0.609073996543884,-1.03525504859546,-0.445441325732794,0.640872191117535,0
2.07998657226563,-1.36289978027344,2.49683928489685,1.73649954795837,-1.07557499515204,2.50302650811029,1.80868924892322,1345.864,1323,3271.119,3259.81,-0.09848636,0.02894254,0.1007364,-1.04289352893829,-0.432939350605011,0.614657580852509,-1.04114045847258,-0.4479736531836,0.644515540192423,0
2.10000610351563,-1.38385665416718,2.48816561698914,1.74889779090881,-1.09647498538954,2.49403382618922,1.82162733848484,1340.007,1323.177,3268.373,3262.817,-0.09809967,0.029426,0.09982033,-1.04784536361694,-0.433680862188339,0.619909942150116,-1.04677621342161,-0.450398561093403,0.648004340974112,0
2.1199951171875,-1.40490627288818,2.47947788238525,1.76139414310455,-1.11745308225396,2.48500753716864,1.83461377976925,1352.912,1326.112,3256.683,3254.105,-0.09771937,0.02990679,0.09882107,-1.05248010158539,-0.434382826089859,0.624819874763489,-1.0521429102862,-0.45270770082608,0.651326581984514,0
2.13998413085938,-1.42604303359985,2.47077608108521,1.77399182319641,-1.13853583516761,2.47593621757383,1.84766500813359,1344.295,1326.109,3262.206,3253.034,-0.09741257,0.03033991,0.09783635,-1.05684626102448,-0.435084462165833,0.629881978034973,-1.05724722779031,-0.454903946049977,0.654486397671922,0
2.16000366210938,-1.447261095047,2.46206021308899,1.78668510913849,-1.15975039167652,2.46680818657414,1.86079782920208,1329.073,1325.454,3263.511,3261.085,-0.09710471,0.03073327,0.09687575,-1.06090140342712,-0.435789912939072,0.634663224220276,-1.0620943502576,-0.456989527434725,0.657486997379635,0
2.17999267578125,-1.46855401992798,2.45333051681519,1.7994658946991,-1.18102676265167,2.45765355853653,1.8739689163698,1340.197,1328.023,3253.365,3251.392,-0.09674891,0.03113066,0.09583338,-1.06464493274689,-0.436479836702347,0.639038145542145,-1.06666760390386,-0.458957270716794,0.660318059240953,0
2.19998168945313,-1.48991656303406,2.44458699226379,1.81233537197113,-1.20239187218348,2.44846074877705,1.8871949369313,1335.346,1328.623,3256.653,3247.096,-0.09641495,0.03149171,0.09480488,-1.06811857223511,-0.437176704406738,0.643475353717804,-1.07097279461286,-0.460809674005774,0.6629831773745,0
2.22000122070313,-1.5113422870636,2.43582963943481,1.82528746128082,-1.22387315175433,2.43921795429519,1.90049287228091,1323.481,1328.494,3255.065,3253.718,-0.09607354,0.03181563,0.09381204,-1.07128572463989,-0.437872886657715,0.647603154182434,-1.07501419914593,-0.462548577472581,0.665484999299265,0
2.239990234375,-1.53282523155212,2.42705869674683,1.83831477165222,-1.24539969505118,2.42995568409656,1.91381882803312,1334.016,1330.945,3244.337,3245.024,-0.09570602,0.03213897,0.09275656,-1.07415580749512,-0.438550740480423,0.651366233825684,-1.07877792518082,-0.464168003639063,0.667814925005999,0
2.260009765625,-1.55436062812805,2.41827392578125,1.85141944885254,-1.26703177594152,2.42064800401982,1.92721011658316,1325.542,1331.248,3248.733,3242.918,-0.09536993,0.03242218,0.09173089,-1.07677245140076,-0.439238518476486,0.655231416225433,-1.08227399942825,-0.465672266718726,0.669979161506271,0
2.27999877929688,-1.57594227790833,2.40947556495667,1.86459338665009,-1.28869796983554,2.41132564607061,1.9406225227075,1318.214,1332.225,3242.971,3247.51,-0.09503704,0.03267868,0.09072261,-1.07908940315247,-0.439920663833618,0.658694982528687,-1.08549040888332,-0.467056197851165,0.67197027217779,0
2.29998779296875,-1.59756553173065,2.40066337585449,1.87783551216125,-1.31042570636616,2.40197680804417,1.95407302665558,1314.874,1331.965,3245.529,3241.363,-0.09463809,0.03291928,0.08970761,-1.08115530014038,-0.440611630678177,0.662105083465576,-1.08843144721369,-0.468321644481621,0.673790915005368,0
2.32000732421875,-1.61922419071198,2.39183759689331,1.89113867282867,-1.33224276726637,2.39258953623693,1.96757882664355,1308.726,1332.618,3240.594,3243.873,-0.0941763,0.03314272,0.08870788,-1.08293437957764,-0.441286832094193,0.665159583091736,-1.09109983431736,-0.469469776906228,0.675442773735451,0
2.33999633789063,-1.64091300964355,2.38299894332886,1.90449607372284,-1.35407709248145,2.38319483607731,1.98109531406483,1321.411,1335.295,3228.049,3234.185,-0.09368734,0.03337216,0.08764887,-1.08443593978882,-0.441923022270203,0.667872190475464,-1.09348640563071,-0.470496651869278,0.67692017506657,0
2.3599853515625,-1.66262710094452,2.37414813041687,1.91791081428528,-1.37595634130987,2.37378080654189,1.99463961134278,1311.377,1335.525,3232.525,3233.114,-0.09324366,0.03356461,0.08663075,-1.08570384979248,-0.442551285028458,0.670735597610474,-1.09559452046326,-0.471403714787811,0.678225198571351,0
2.3800048828125,-1.68436098098755,2.36528491973877,1.93137681484222,-1.39790843013262,2.36433543599182,2.00822900004707,1295.254,1334.722,3232.597,3241.278,-0.09276482,0.03373111,0.08565558,-1.08670020103455,-0.443166047334671,0.673298537731171,-1.09742594550583,-0.472191725819537,0.679358937915576,0
2.39999389648438,-1.70610952377319,2.35641002655029,1.9448858499527,-1.41986083522252,2.35488992936084,2.02181858453579,1307.367,1336.529,3221.939,3229.89,-0.09219544,0.033918,0.08461004,-1.08742797374725,-0.4437415599823,0.675452768802643,-1.09897439291323,-0.472857979480329,0.680317500623536,0
2.41998291015625,-1.72786796092987,2.34752416610718,1.95843923091888,-1.4418413890156,2.34543231112926,2.03542559441269,1302.673,1336.957,3224.032,3224.999,-0.09161807,0.03408397,0.08359529,-1.08792185783386,-0.444291710853577,0.677667617797852,-1.10024227275454,-0.473403512755585,0.681102378642803,0
2.44000244140625,-1.74963092803955,2.33862805366516,1.97203063964844,-1.46387808506052,2.33595053645515,2.04906735901791,1290.97,1336.236,3221.391,3231.405,-0.09100554,0.03422999,0.08262899,-1.08814990520477,-0.444801151752472,0.679571032524109,-1.10123038958312,-0.473828671822132,0.681714070030222,0
2.45999145507813,-1.77139353752136,2.32972311973572,1.98565304279327,-1.48589810917879,2.32647593524532,2.06269880290633,1302.25,1337.454,3210.508,3221.751,-0.09033602,0.03439249,0.08160787,-1.08812320232391,-0.445248693227768,0.681122541427612,-1.10193535162022,-0.474131997292339,0.68215047511319,0
2.47998046875,-1.79315102100372,2.32081007957458,1.9993087053299,-1.50792940965705,2.3169964821328,2.07633722739875,1293.99,1337.196,3213.947,3219.428,-0.08967236,0.03453356,0.08062343,-1.08787786960602,-0.445655852556229,0.68278306722641,-1.10235860927677,-0.474314113237503,0.682412491765153,0
2.5,-1.81489849090576,2.31188988685608,2.01299142837524,-1.52999999932945,2.30750012397766,2.08999997377396,1280.693,1335.952,3212.368,3226.242,-0.08895437,0.03466251,0.07967648,-1.08737945556641,-0.446009486913681,0.684132814407349,-1.10250000050292,-0.474374949932098,0.682500019669533,0
2.51998901367188,-1.8366311788559,2.30296421051025,2.02669358253479,-1.5520369476803,2.29801824074336,2.10364189456856,1293.755,1336.911,3201.191,3214.816,-0.08814584,0.03481998,0.07865772,-1.08663284778595,-0.446283906698227,0.685102522373199,-1.10235904000526,-0.474314298567936,0.682412758406603,0
2.54000854492188,-1.85834467411041,2.29403424263,2.04041695594788,-1.57410188948011,2.28852431271001,2.11730114464159,1288.44,1336.734,3203.301,3210.578,-0.08733251,0.03496558,0.07766555,-1.0856693983078,-0.44649475812912,0.686166167259216,-1.10193535162022,-0.474131997292339,0.682150475113189,0
2.55999755859375,-1.88003373146057,2.28510165214539,2.05415415763855,-1.59612191359838,2.27904971150017,2.13093258853001,1282.943,1336.37,3196.544,3214.171,-0.08650746,0.03510822,0.07669248,-1.08445036411285,-0.446622312068939,0.68685781955719,-1.10123038958312,-0.473828671822132,0.681714070030222,0
2.57998657226563,-1.90169405937195,2.27616810798645,2.06790494918823,-1.61812503288753,2.26958238396605,2.14455356752391,1280.069,1334.693,3198.932,3207.633,-0.08560625,0.03525615,0.07571434,-1.08301877975464,-0.446680426597595,0.687538743019104,-1.1002439936861,-0.473404253224357,0.681103443981416,0
2.60000610351563,-1.92332088947296,2.26723551750183,2.08166289329529,-1.64013916343638,2.26011031859448,2.15818136301212,1273.856,1333.717,3194.217,3209.982,-0.08462621,0.03540917,0.07474925,-1.08134067058563,-0.446644842624664,0.687891781330109,-1.09897439291323,-0.472857979480329,0.680317500623536,0
2.6199951171875,-1.94490945339203,2.25830578804016,2.0954213142395,-1.66209156852628,2.2506648119635,2.17177094750084,1288.012,1334.18,3182.222,3198.806,-0.08358704,0.03559254,0.07371616,-1.07942199707031,-0.446492373943329,0.687917590141296,-1.09742594550583,-0.472191725819537,0.679358937915576,0
2.63998413085938,-1.96645522117615,2.24938082695007,2.1091833114624,-1.6840102224118,2.24123382753286,2.18533963838626,1280.465,1333.252,3185.391,3196.184,-0.08257131,0.03576506,0.07271345,-1.07729375362396,-0.446246385574341,0.688096344470978,-1.09559752564474,-0.471405007833448,0.678227058921845,0
2.66000366210938,-1.9879537820816,2.24046277999878,2.12294340133667,-1.70592290617745,2.23180541187802,2.19890463348308,1266.415,1330.941,3184.613,3203.28,-0.08151297,0.03593456,0.07174333,-1.07492434978485,-0.445899963378906,0.688000500202179,-1.09348640563071,-0.470496651869278,0.67692017506657,0
2.67999267578125,-2.00940012931824,2.23155403137207,2.13669419288635,-1.72775723139253,2.2224107117184,2.21242112090437,1279.642,1330.425,3174.499,3191.175,-0.08035663,0.03614328,0.0706929,-1.07231664657593,-0.445431888103485,0.687536180019379,-1.09109983431736,-0.469469776906228,0.675442773735451,0
2.69998168945313,-2.03079009056091,2.22265696525574,2.1504373550415,-1.74954107593572,2.21303773198162,2.22590635838503,1276.277,1329.453,3175.996,3185.514,-0.07918696,0.03635243,0.06965812,-1.06949388980865,-0.444854378700256,0.687153458595276,-1.08843572622736,-0.468323485621663,0.673793563918671,0
2.72000122070313,-2.05211853981018,2.21377396583557,2.16416716575623,-1.77130202882336,2.20367460188472,2.23937742484041,1266.058,1327.115,3173.097,3190.908,-0.07797949,0.03656269,0.06865326,-1.06642746925354,-0.444155275821686,0.686485886573792,-1.08549040888332,-0.467056197851165,0.671970272177789,0
2.739990234375,-2.07338070869446,2.20490765571594,2.17787718772888,-1.79296822271738,2.1943522439355,2.25278983096475,1279.037,1326.126,3162.883,3179.67,-0.0767065,0.03680772,0.06757601,-1.06312561035156,-0.443318396806717,0.685498118400574,-1.08227399942825,-0.465672266718727,0.669979161506271,0
2.760009765625,-2.09457325935364,2.19606041908264,2.19156980514526,-1.81460030360772,2.18504456385877,2.26618111951479,1272.952,1324.641,3165.414,3175.907,-0.07544096,0.03705031,0.06651852,-1.05961167812347,-0.44236221909523,0.684629261493683,-1.07877792518082,-0.464168003639063,0.667814925005998,0
2.77999877929688,-2.11569023132324,2.18723464012146,2.205237865448,-1.83612684690458,2.17578229366013,2.27950707526701,1267.651,1322.687,3159.2,3179.045,-0.07415945,0.03730135,0.06546456,-1.05585217475891,-0.441272884607315,0.683399140834808,-1.07501419914593,-0.462548577472581,0.665484999299265,0
2.79998779296875,-2.13672780990601,2.1784336566925,2.21888089179993,-1.85757544288233,2.1665535620153,2.29278477791556,1267.295,1319.967,3160.737,3170.677,-0.07279644,0.03757105,0.06438378,-1.05188083648682,-0.440062344074249,0.682150840759277,-1.07097916161324,-0.460812413548163,0.662987118851036,0
2.82000732421875,-2.15768122673035,2.16965937614441,2.23249268531799,-1.87897323600723,2.1573466894188,2.30603103117811,1263.205,1318.019,3155.194,3171.688,-0.07136685,0.03785532,0.06329904,-1.04766666889191,-0.438710510730743,0.680590510368347,-1.06666760390385,-0.458957270716794,0.660318059240952,0
2.83999633789063,-2.17854523658752,2.16091537475586,2.2460675239563,-1.90024960698239,2.14819206138118,2.31920211834584,1278.118,1316.97,3143.989,3159.434,-0.06989253,0.03817487,0.06213649,-1.04321491718292,-0.437202274799347,0.678745031356812,-1.06209435025759,-0.456989527434725,0.657486997379635,0
2.8599853515625,-2.19931650161743,2.15220427513123,2.25960850715637,-1.92143189875059,2.13907791299805,2.33231496600284,1271.043,1315.259,3146.553,3156.548,-0.06846081,0.03848888,0.06099474,-1.03854644298553,-0.435560047626495,0.677053213119507,-1.05725481901126,-0.454907212340279,0.654491096999312,0
2.8800048828125,-2.21998906135559,2.14352869987488,2.27311062812805,-1.94254691640495,2.12999271078668,2.34538616777867,1257.831,1311.986,3145.536,3162.869,-0.06700353,0.03880539,0.05987196,-1.0336377620697,-0.433784067630768,0.675102949142456,-1.0521429102862,-0.45270770082608,0.651326581984514,0
2.89999389648438,-2.24055910110474,2.13489127159119,2.28656673431396,-1.96352501326936,2.1209664217661,2.35837260906308,1271.55,1310.091,3136.162,3149.72,-0.0654589,0.03916304,0.05865869,-1.02849221229553,-0.431861221790314,0.672808825969696,-1.04677621342161,-0.450398561093403,0.648004340974112,0
2.91998291015625,-2.26102137565613,2.12629556655884,2.29997849464417,-1.98439323028747,2.1119874109737,2.37129102948832,1269.209,1308.524,3136.958,3143.113,-0.06391586,0.0395244,0.05745115,-1.02312350273132,-0.429802656173706,0.670591533184052,-1.0411492471255,-0.447977434695422,0.644520980787238,0
2.94000244140625,-2.28137159347534,2.11774349212646,2.31334042549133,-2.00517798053537,2.10304431360073,2.38415778000673,1260.178,1305.462,3133.409,3147.566,-0.06235579,0.03988823,0.05626357,-1.01751017570496,-0.427602380514145,0.668096005916595,-1.03525504859546,-0.445441325732794,0.640872191117535,0
2.95999145507813,-2.30160474777222,2.10923838615417,2.32664656639099,-2.02581075424974,2.0941666074844,2.39693044981124,1273.235,1303.276,3124.015,3135.479,-0.06074777,0.04028423,0.05499943,-1.01166188716888,-0.425252795219421,0.665313124656677,-1.02911391720548,-0.442798968459032,0.637070538244476,0
2.97998046875,-2.32171654701233,2.10078287124634,2.33989930152893,-2.04631823718085,2.08534281049189,2.40962555865248,1267.385,1301.398,3125.73,3131.449,-0.05916798,0.04067657,0.05374995,-1.00559318065643,-0.422770708799362,0.662638902664185,-1.0227194988233,-0.440047628868552,0.633112088657521,0
3,-2.3417022228241,2.0923798084259,2.35309314727783,-2.06672639957428,2.07656174835205,2.42225918334961,1256.639,1298.073,3123.175,3136.315,-0.05756476,0.04107141,0.05251344,-0.999285519123077,-0.420154958963394,0.659689247608185,-1.01606400046349,-0.437183953857422,0.628992018127441,0
3.01998901367188,-2.36155724525452,2.08403182029724,2.36622166633606,-2.0869680292999,2.06785234056679,2.43478971639231,1270.484,1295.841,3113.51,3123.23,-0.05589442,0.04150139,0.05118846,-0.992744743824005,-0.417396456003189,0.65642249584198,-1.00917036754089,-0.434217816196637,0.624724530959079,0
3.04000854492188,-2.38127684593201,2.0757417678833,2.37928652763367,-2.10709998486405,2.05919012250926,2.44725235590455,1267.158,1294.28,3114.078,3117.27,-0.05424699,0.0419297,0.04986896,-0.985981523990631,-0.41450771689415,0.653248846530914,-1.00202031904361,-0.431141350077486,0.620298310335216,0
3.05999755859375,-2.40085625648499,2.06751203536987,2.39228129386902,-2.12705600675913,2.05060360379452,2.45960608409476,1263.059,1291.689,3107.32,3119.136,-0.05261661,0.04236191,0.04854917,-0.978975772857666,-0.411485105752945,0.649742305278778,-0.994638524886308,-0.427965170275055,0.615728628108227,0
3.07998657226563,-2.42029142379761,2.05934500694275,2.40520596504211,-2.14686207530873,2.04208160581513,2.47186698402085,1262.617,1288.595,3108.304,3110.481,-0.05094787,0.04280428,0.04720329,-0.971755027770996,-0.408343613147736,0.646236777305603,-0.987017247723776,-0.424685947625853,0.611010694492843,0
3.10000610351563,-2.43957710266113,2.05124378204346,2.41805505752563,-2.16654331551667,2.03361331798384,2.48405060925705,1257.383,1286.123,3103.314,3111.209,-0.04924664,0.04325232,0.04585607,-0.964299261569977,-0.405075341463089,0.642451226711273,-0.979147395688901,-0.421299770153459,0.606138881190213,0
3.1199951171875,-2.45870971679688,2.04321026802063,2.4308226108551,-2.18603502400946,2.02522658035469,2.49611690533293,1270.984,1284.003,3093.078,3098.784,-0.04751346,0.04372567,0.04443518,-0.956613302230835,-0.40167298913002,0.638383507728577,-0.971056158224178,-0.417818336715394,0.601130019760458,0
3.13998413085938,-2.47768378257751,2.03524708747864,2.44351148605347,-2.20536269329809,2.01691042421237,2.50808165332716,1265.647,1282.413,3094.028,3094.191,-0.04583513,0.04418892,0.04303088,-0.948709189891815,-0.398152887821198,0.634439289569855,-0.962735018414262,-0.414237982720922,0.59597883782726,0
3.16000366210938,-2.49649500846863,2.02735686302185,2.45611643791199,-2.22455088103183,2.00865428308644,2.51996005559448,1253.678,1279.213,3091.627,3099.425,-0.0441632,0.04464671,0.04164688,-0.940576672554016,-0.394520878791809,0.63024491071701,-0.954174163352092,-0.410554485950274,0.590679260733698,0
3.17999267578125,-2.51513957977295,2.0195415019989,2.46863150596619,-2.24353658854737,2.00048526354177,2.53171311296128,1265.892,1276.618,3083.058,3086.505,-0.04243481,0.04513039,0.040183,-0.932224273681641,-0.390773952007294,0.62574964761734,-0.945403214201559,-0.406780591562751,0.585249625391267,0
3.19998168945313,-2.53361296653748,2.011803150177,2.48105788230896,-2.26234477504321,1.99239262633251,2.54335627636037,1262.904,1275.317,3082.892,3079.942,-0.04073305,0.04560818,0.03872827,-0.923657476902008,-0.386921048164368,0.621321320533752,-0.936412917636688,-0.402912318110697,0.579684203550396,0
3.22000122070313,-2.55191040039063,2.00414395332336,2.49339056015015,-2.28099938900442,1.98436606709459,2.55490437104486,1253.923,1272.396,3078.984,3083.422,-0.03903715,0.04607958,0.03729463,-0.914867639541626,-0.382964015007019,0.616630434989929,-0.927192788821982,-0.398945154262308,0.573976504598449,0
3.239990234375,-2.57002758979797,1.99656593799591,2.50562405586243,-2.2994392795179,1.97643189735754,2.5663195416865,1265.916,1269.816,3070.279,3070.962,-0.03730716,0.04656987,0.03579451,-0.905865430831909,-0.378901183605194,0.611671626567841,-0.917774783907129,-0.394892849856044,0.568146310914365,0
3.260009765625,-2.58796048164368,1.98907101154327,2.51776003837585,-2.31771654397337,1.96856770107001,2.57763403905129,1261.012,1268.539,3070.325,3065.989,-0.03562404,0.04704807,0.03431443,-0.896657288074493,-0.374743342399597,0.606796979904175,-0.908134108040216,-0.390744736359816,0.562178273303667,0
3.27999877929688,-2.60570549964905,1.98166120052338,2.52979207038879,-2.33577134012187,1.96079922667992,2.58881081793642,1255.936,1265.902,3063.922,3067.757,-0.03396649,0.04752064,0.03284232,-0.887237012386322,-0.370493322610855,0.601607143878937,-0.898304216251578,-0.386515208538549,0.556093102023818,0
3.29998779296875,-2.62325811386108,1.97433793544769,2.54172015190125,-2.35362764460945,1.95311615770631,2.59986472102797,1255.824,1263.255,3063.778,3058.79,-0.03227805,0.0479958,0.03134887,-0.877625703811646,-0.366162061691284,0.596402108669281,-0.888274735793772,-0.382199803288803,0.549884375850026,0
3.32000732421875,-2.64061403274536,1.96710300445557,2.55353879928589,-2.37130830610839,1.94550866300381,2.61080989274252,1251.17,1261.268,3058.164,3058.651,-0.03057309,0.04846828,0.02985976,-0.867811977863312,-0.361744999885559,0.590937852859497,-0.878034183119985,-0.377793579561194,0.543544985919778,0
3.33999633789063,-2.65777015686035,1.95995819568634,2.56524348258972,-2.38875555478454,1.93800159931817,2.62161057080077,1263.184,1259.147,3048.905,3046.401,-0.02885109,0.04895387,0.02831409,-0.857802093029022,-0.357239186763763,0.585230350494385,-0.867618167158097,-0.373311858882592,0.53709697585572,0
3.3599853515625,-2.67472219467163,1.95290517807007,2.5768358707428,-2.40599272667425,1.93058492580486,2.63228120132087,1257.679,1258.18,3048.626,3042.102,-0.02719567,0.0494223,0.0267962,-0.847601592540741,-0.3526551425457,0.579621911048889,-0.857015715678588,-0.368749920209162,0.530533553325099,0
3.3800048828125,-2.69146633148193,1.94594526290894,2.58831167221069,-2.42304196557559,1.92324911460621,2.64283549236868,1246.443,1255.489,3045.583,3046.541,-0.02556155,0.04987751,0.02530629,-0.837212681770325,-0.348001539707184,0.573785424232483,-0.846214826007803,-0.364102599125748,0.523847288101157,0
3.39999389648438,-2.70799922943115,1.93907952308655,2.59966564178467,-2.43984769972619,1.91601807669906,2.65323904237604,1256.704,1252.968,3038.131,3034.193,-0.02388589,0.05034665,0.02375654,-0.826646506786346,-0.343279540538788,0.567695736885071,-0.835253140422974,-0.35938609205264,0.51706148254665,0
3.41998291015625,-2.72431755065918,1.93230962753296,2.61089873313904,-2.45643259034873,1.90888206159239,2.66350587971929,1253.376,1252.278,3037.03,3028.025,-0.02224432,0.05080269,0.02222867,-0.815903186798096,-0.338493287563324,0.561654269695282,-0.824119146742881,-0.354595445619869,0.510169010073001,0
3.44000244140625,-2.74041724205017,1.9256364107132,2.62200617790222,-2.47281804716281,1.90183185728196,2.67364925803476,1245.243,1249.854,3032.542,3030.749,-0.02061873,0.05124627,0.02073056,-0.804984509944916,-0.333646357059479,0.555370151996613,-0.812800388649434,-0.349725300221754,0.503162159625937,0
3.45999145507813,-2.7562952041626,1.91906177997589,2.63298344612122,-2.48895081463434,1.8948903781363,2.68363620960993,1255.733,1247.414,3024.848,3018.703,-0.01897023,0.05169806,0.01918645,-0.793902575969696,-0.328739494085312,0.548866927623749,-0.80133641229185,-0.344792671461508,0.496065412155666,0
3.47998046875,-2.77194809913635,1.91258633136749,2.6438319683075,-2.50485284867397,1.88804817714046,2.69348032619939,1250.532,1246.786,3023.733,3014.553,-0.01737766,0.05213156,0.01767577,-0.782658815383911,-0.323778033256531,0.542430281639099,-0.789715229532172,-0.33979240117828,0.488871346433721,0
3.5,-2.78737354278564,1.90621066093445,2.65454745292664,-2.5205447997813,1.88129636896134,2.70319439144611,1241.197,1244.401,3019.99,3017.775,-0.0158032,0.05255095,0.01619541,-0.77126008272171,-0.318768829107285,0.535777032375336,-0.777924000354857,-0.334718964672089,0.481572013878822,0
3.51998901367188,-2.80256772041321,1.89993667602539,2.66512560844421,-2.53597583877076,1.87465682397749,2.71274693966292,1250.48,1242.074,3012.922,3006.201,-0.01419731,0.05297808,0.01466973,-0.759717464447021,-0.313712894916534,0.528909683227539,-0.766004036374581,-0.329590137176618,0.474192988348404,0
3.54000854492188,-2.81752824783325,1.89376425743103,2.67556738853455,-2.55119019794619,1.86811051026429,2.72216535275294,1246.709,1241.657,3011.153,3001.157,-0.01263297,0.05338991,0.01317212,-0.748029470443726,-0.308612585067749,0.522085905075073,-0.753924423002452,-0.324392617007921,0.466715132239272,0
3.55999755859375,-2.83225226402283,1.88769507408142,2.68586754798889,-2.56613872308604,1.86167857751006,2.73141920191151,1243.195,1239.594,3004.912,3001.225,-0.01110006,0.0537906,0.01169455,-0.736202478408813,-0.303472429513931,0.515012383460999,-0.741727567798258,-0.319144650954242,0.459164697851087,0
3.57998657226563,-2.84673714637756,1.88172888755798,2.69602632522583,-2.58084213759183,1.85535210901407,2.74052131591136,1242.799,1237.787,3003.749,2993.362,-0.009562346,0.05418443,0.01021901,-0.724249720573425,-0.298298686742783,0.507939636707306,-0.72940084364523,-0.31384080592,0.451533868397061,0
3.60000610351563,-2.86098051071167,1.87586712837219,2.7060399055481,-2.59531978247425,1.84912278287974,2.74948366775945,1237.641,1236.355,2998.749,2993.325,-0.008032626,0.05456722,0.008768453,-0.712171733379364,-0.293091148138046,0.500676214694977,-0.716930938559024,-0.308475354130224,0.443814403124743,0
3.6199951171875,-2.87498021125793,1.87011003494263,2.71590447425842,-2.60952509409627,1.84301063413925,2.75827743234631,1246.072,1234.326,2991.414,2983.242,-0.006494385,0.05495184,0.007291859,-0.699977040290833,-0.287849724292755,0.493227899074554,-0.704361775018033,-0.303067194200314,0.436033492140578,0
3.63998413085938,-2.88873362541199,1.8644585609436,2.72562146186829,-2.623478029369,1.83700707589127,2.76691496395061,1241.793,1233.949,2989.981,2978.888,-0.005013667,0.05531812,0.005853145,-0.687666356563568,-0.282577753067017,0.485853254795074,-0.691680442442073,-0.297610771068296,0.428183143180413,0
3.66000366210938,-2.9022388458252,1.8589129447937,2.73518753051758,-2.63719712493647,1.83110413233575,2.77540773763803,1232.96,1232.001,2986.286,2981.96,-0.003562244,0.05566897,0.004453123,-0.675250947475433,-0.277282357215881,0.478300720453262,-0.678873453515702,-0.29210028151913,0.420255006953505,0
3.67999267578125,-2.91549348831177,1.85347366333008,2.74459910392761,-2.65063849381582,1.82532068681534,2.78372858527554,1240.777,1229.804,2980.292,2971.438,-0.002088451,0.0560231,0.003023817,-0.662742614746094,-0.271966010332108,0.470580369234085,-0.665986083416798,-0.286555206197011,0.41227711095171,0
3.69998168945313,-2.92849636077881,1.84814095497131,2.75385713577271,-2.66382131180924,1.81964848851807,2.79188937759817,1237.385,1229.659,2978.359,2966.656,-0.0006572682,0.05636129,0.001630872,-0.650138556957245,-0.26662877202034,0.462906032800674,-0.653005218467595,-0.280969902652754,0.404241337183804,0
3.72000122070313,-2.94124507904053,1.84291553497314,2.76295828819275,-2.6767633032417,1.81407991116207,2.79990108680742,1230.768,1227.831,2974.227,2968.296,0.0007502769,0.0566854,0.0002766521,-0.637449741363525,-0.261275470256805,0.455060511827469,-0.639917282339434,-0.275338529371411,0.396139281255611,0
3.739990234375,-2.95373916625977,1.83779716491699,2.77189970016479,-2.68942333385363,1.80863265367006,2.80773824883709,1238.488,1225.732,2968.177,2958.37,0.002167717,0.05700994,-0.001095624,-0.62468695640564,-0.255907773971558,0.447069704532623,-0.62676873176137,-0.26968107538565,0.387999702095468,0
3.760009765625,-2.96597623825073,1.83278679847717,2.78068256378174,-2.70183851231475,1.80329074921818,2.81542383572149,1234.359,1225.582,2966.441,2954.594,0.003532016,0.05731672,-0.002424542,-0.611848652362823,-0.250526189804077,0.439143896102905,-0.613526094901139,-0.263983138701136,0.379801879044709,0
3.77999877929688,-2.97795486450195,1.82788419723511,2.78930306434631,-2.7139695770734,1.79807109095524,2.82293354268985,1230.314,1223.694,2961.105,2955.435,0.004860797,0.05761072,-0.003720969,-0.59894859790802,-0.245136901736259,0.431026816368103,-0.60023651686137,-0.258265004538452,0.371574997167698,0
3.79998779296875,-2.98967456817627,1.8230893611908,2.79776167869568,-2.72583438304408,1.79296599641037,2.83027842278479,1230.874,1222.258,2959.768,2947.788,0.006190309,0.05789772,-0.005007808,-0.585995972156525,-0.239743337035179,0.422932505607605,-0.586886736182787,-0.252520966862155,0.36331084698941,0
3.82000732421875,-3.00113487243652,1.81840240955353,2.80605578422546,-2.73744929742843,1.78796842323393,2.8374686080838,1226.46,1221.286,2955.087,2947.801,0.007500683,0.05817292,-0.006260026,-0.572994709014893,-0.234345510601997,0.41470405459404,-0.573463232144022,-0.246745208083563,0.355001058539243,0
3.83999633789063,-3.01233386993408,1.8138233423233,2.81418299674988,-2.74877791451009,1.78309403578861,2.84448156171422,1233.097,1219.455,2949.403,2939.199,0.008809518,0.05844633,-0.007518637,-0.559953451156616,-0.228944569826126,0.406362533569336,-0.560014026276881,-0.240958390526246,0.346675359432959,0
3.8599853515625,-3.02327132225037,1.80935251712799,2.8221447467804,-2.75983729406747,1.77833549372837,2.85132784449154,1229.965,1219.28,2947.469,2935.478,0.01006077,0.05870339,-0.008733038,-0.546871185302734,-0.22354094684124,0.398090273141861,-0.546525890176286,-0.235154822377061,0.338325560657667,0
3.8800048828125,-3.03394651412964,1.8049898147583,2.8299388885498,-2.77064299647982,1.77368610185671,2.85801708903178,1223.427,1217.709,2944.097,2937.399,0.01127317,0.05894535,-0.009902698,-0.533762693405151,-0.218141227960587,0.389707565307617,-0.532985466132484,-0.229328756186666,0.329943393154704,0
3.89999389648438,-3.04435896873474,1.80073475837708,2.83756351470947,-2.78116151864576,1.76916027562219,2.86452855531919,1228.958,1215.83,2939.563,2929.179,0.01248701,0.05918591,-0.01107768,-0.520638942718506,-0.212748870253563,0.381233781576157,-0.519441457145543,-0.223501147495394,0.321559006401168,0
3.91998291015625,-3.05450916290283,1.7965874671936,2.84501981735229,-2.79140913007042,1.76475101471128,2.87087231495249,1226.138,1215.747,2937.615,2925.447,0.01365394,0.05941162,-0.012209,-0.50749808549881,-0.207363128662109,0.372815608978271,-0.505880764601328,-0.217666360335509,0.313164291730931,0
