t,x_s1,x_s2,x_s3,x_s_d1,x_s_d2,x_s_d3,propellers_rpms1,propellers_rpms2,propellers_rpms3,propellers_rpms4,rollRad,pitchRad,yawRad,v_s1,v_s2,v_s3,v_s_d1,v_s_d2,v_s_d3,insideCount
0,-0.0599999986588955,2.94000005722046,1.17999994754791,-0.0599999986588955,2.94000005722046,1.17999994754791,0,0,0,0,0,45.0048027038574,0,0,0,0,-1.06581410364015E-15,4.44089209850063E-16,-7.105427357601E-16,0
0.0200004577636719,-0.0599999986588955,2.94000005722046,1.1790189743042,-0.0600018691155303,2.93999925241522,1.18000109018068,0,0,0,0,0.00112508691381663,44.8630180358887,0.909284114837646,-3.60929135467813E-08,2.95208497647081E-08,-0.0490499772131443,-0.000279999361409376,-0.000120475902936966,0.000171047240579747,5
0.0399990081787109,-0.0599999986588955,2.94000005722046,1.17411398887634,-0.0600148703014743,2.93999365836812,1.1800090324023,0,0,0,0,0.00304071488790214,44.7212371826172,1.81856429576874,-3.62307304158094E-08,2.93641466697636E-08,-0.245249927043915,-0.0011109142447864,-0.000477995364179603,0.000678640176663706,6
0.0599994659423828,-0.0600350871682167,2.94003486633301,1.16684293746948,-0.0600498904664975,2.93997859016946,1.18003042567463,2307.033,2000.209,2127.721,3382.356,-0.00213768915273249,44.8046226501465,1.28310418128967,-0.00175439391750842,0.00174321653321385,-0.363554686307907,-0.00247951833951941,-0.00106686747177115,0.00151469906149035,6
0.0799999237060547,-0.0601342283189297,2.9401330947876,1.15967178344727,-0.0601175490846357,2.93994947855624,1.18007175726866,2848.289,2760.004,2606.549,2299.051,359.914276123047,44.8777160644531,0.619942605495453,-0.00495704310014844,0.00491342507302761,-0.358560591936111,-0.00437248097278563,-0.00188135640961186,0.00267108039505331,6
0.100000381469727,-0.0602752864360809,2.94026303291321,1.1533819437027,-0.0602282016920704,2.93990186783054,1.18013935321984,2872.012,2897.531,2627.957,2213.448,359.724670410156,44.9187965393066,0.190234571695328,-0.00705294357612729,0.00649313442409039,-0.314491778612137,-0.0067766330492767,-0.00291579588389246,0.00413973938252838,5
0.119998931884766,-0.0604444481432438,2.94038772583008,1.14806056022644,-0.0603919230601972,2.93983142309968,1.18023936804881,2725.775,2926.571,2634.754,2219.368,359.427703857422,44.935115814209,0.0502995364367962,-0.00845811329782009,0.00623422348871827,-0.266067624092102,-0.00967861374975049,-0.00416443710735115,0.005912514107932,5
0.139999389648438,-0.0606513433158398,2.94048070907593,1.1437304019928,-0.0606185767455666,2.93973390035084,1.18037782724834,2551.765,2769.985,2667.563,2379.463,359.090637207031,44.9478645324707,0.144071087241173,-0.0103447837755084,0.00464874180033803,-0.216506630182266,-0.0130660253322238,-0.00562194567796536,0.00798183098414958,5
0.159999847412109,-0.0609212145209312,2.94052791595459,1.14032292366028,-0.0609177249752248,2.93960518522485,1.18056057223372,2443.387,2553.619,2687.129,2529.324,358.804504394531,44.9652862548828,0.340535372495651,-0.013493537902832,0.00235689012333751,-0.170373052358627,-0.0169257706321904,-0.00728268625174051,0.0103396891577615,5
0.180000305175781,-0.0612808577716351,2.94052505493164,1.13772797584534,-0.0612986871007165,2.9394412678651,1.18079329605139,2417.352,2395.052,2654.699,2596.434,358.625640869141,44.9838752746582,0.518676280975342,-0.017982168123126,-0.000145002268254757,-0.129749298095703,-0.0212451141043368,-0.00914117907931815,0.0129783086828701,5
0.19999885559082,-0.0617486461997032,2.94047331809998,1.13583755493164,-0.0617704792283666,2.93923826889292,1.1810815065,2450.756,2337.902,2561.817,2580.2,358.55126953125,44.9966087341309,0.617876291275024,-0.0233894903212786,-0.00259085698053241,-0.0945207178592682,-0.0260109531407025,-0.0111917864745373,0.0158896853807343,5
0.219999313354492,-0.062332384288311,2.94037485122681,1.13456833362579,-0.0623420049171324,2.93899235735562,1.18143064262478,2496.941,2359.958,2442.872,2516.219,358.525939941406,44.9992294311523,0.641168057918549,-0.0291869435459375,-0.00492170825600624,-0.063463419675827,-0.0312116790433783,-0.0134295135389972,0.0190667276789517,5
0.239999771118164,-0.0630333498120308,2.94023036956787,1.13386464118958,-0.063021788625926,2.93869986541668,1.18184591188467,2511.846,2408.21,2348.313,2446.461,358.476898193359,44.9927101135254,0.627749621868134,-0.035048458725214,-0.00722944363951683,-0.0351842679083347,-0.0368344480011416,-0.0158488339395432,0.02250158949367,5
0.260000228881836,-0.0638525262475014,2.94003653526306,1.13368916511536,-0.0638181482056218,2.93835721413725,1.18233239552496,2475.399,2437.153,2311.672,2397.042,358.355895996094,44.9817504882813,0.619230151176453,-0.0409589409828186,-0.00969039276242256,-0.00877099297940731,-0.0428669580186739,-0.0184444544712678,0.026186755727918,4
0.279998779296875,-0.064795196056366,2.93978667259216,1.13401007652283,-0.0647390625194898,2.93796097043536,1.18289496770872,2398.646,2429.025,2331.243,2372.532,358.162841796875,44.9715042114258,0.63830828666687,-0.0471336841583252,-0.0124883260577917,0.016048476099968,-0.0492963837173861,-0.0212108567320638,0.0301143915580518,4
0.299999237060547,-0.0658718794584274,2.93947196006775,1.13479292392731,-0.065792536715479,2.93750768991949,1.18353851865591,2313.653,2391.249,2375.593,2363.98,357.940093994141,44.9649963378906,0.685061633586884,-0.0538342781364918,-0.0157369822263718,0.0391435772180557,-0.0561118672418845,-0.0241433688900884,0.0342778640896448,4
0.319999694824219,-0.0670958459377289,2.93908333778381,1.13599860668182,-0.0669860785243584,2.93699414222283,1.1842676347221,2254.722,2343.478,2404.451,2358.746,357.744537353516,44.9626770019531,0.745554864406586,-0.0611983872950077,-0.0194303169846535,0.0602815076708794,-0.0633008373176985,-0.0272365818771378,0.0386694937272938,4
0.340000152587891,-0.0684793144464493,2.93861436843872,1.1375857591629,-0.0683270389802989,2.93641716440073,1.18508680653936,2239.512,2303.417,2392.545,2348.363,357.614837646484,44.9632034301758,0.803852796554565,-0.069173626601696,-0.023448521271348,0.0793574899435043,-0.0708514254995047,-0.0304853890327553,0.0432820302229541,4
0.35999870300293,-0.0700307413935661,2.93806195259094,1.1395149230957,-0.069822382620517,2.93577375980741,1.18600028863479,2261.972,2279.338,2340.882,2330.728,357.552520751953,44.9647369384766,0.850445687770844,-0.0775713697075844,-0.0276182480156422,0.0964584648609161,-0.0787511019946779,-0.0338843991372162,0.0481078193218347,4
0.379999160766602,-0.0717544481158257,2.93742609024048,1.14175117015839,-0.0714792747653362,2.93506084540571,1.18701245819077,2297.133,2269.377,2273.61,2308.736,357.524932861328,44.965763092041,0.884503722190857,-0.0861853733658791,-0.0317949093878269,0.111814476549625,-0.0869897229117765,-0.0374292475574207,0.0531406642789461,4
0.399999618530273,-0.0736524313688278,2.93670749664307,1.14426493644714,-0.0733042289655903,2.93427561859665,1.18812729423385,2316.942,2266.169,2221.173,2286.814,357.486999511719,44.9656410217285,0.911163687705994,-0.0948993191123009,-0.0359255895018578,0.125691264867783,-0.0955550080350531,-0.0411146504596022,0.0583730633021172,4
0.420000076293945,-0.0757269859313965,2.93590617179871,1.14703118801117,-0.075303664122713,2.9334153175063,1.18934871797077,2304.809,2262.08,2203.562,2268.368,357.406951904297,44.9645843505859,0.936926543712616,-0.103727906942368,-0.040060717612505,0.138311088085175,-0.104435522469179,-0.0449356877277546,0.0637980309922297,4
0.439998626708984,-0.0779826045036316,2.93501996994019,1.15002751350403,-0.0774835548069347,2.93247737144397,1.19068037917324,2264.31,2253.216,2219.411,2254.385,357.282287597656,44.9632797241211,0.965989708900452,-0.112781092524529,-0.0443134568631649,0.149815931916237,-0.113619049702587,-0.0488871029382406,0.0694081044730023,4
0.459999084472656,-0.0804262459278107,2.93404412269592,1.15323328971863,-0.0798502821969742,2.93145903476675,1.19212617600376,2214.373,2239.928,2249.926,2243.984,357.137878417969,44.9624710083008,0.998975992202759,-0.12218202650547,-0.048789594322443,0.160287469625473,-0.123096124252221,-0.0529648233581361,0.075197501428542,4
0.479999542236328,-0.083066038787365,2.93297362327576,1.15662884712219,-0.0824093896672336,2.93035792231548,1.19368949482325,2177.88,2225.515,2270.631,2235.316,357.009124755859,44.962574005127,1.03389000892639,-0.13198983669281,-0.0535282492637634,0.169779494404793,-0.13285477482153,-0.0571636980729742,0.0811589087805935,4
0.5,-0.0859094262123108,2.93180394172668,1.160196185112,-0.085166398670376,2.92917165836334,1.195373708601,2168.015,2213,2266.291,2227.389,356.921142578125,44.9636535644531,1.06795632839203,-0.142169430851936,-0.0584839917719364,0.178368464112282,-0.142884000065179,-0.0614789935111996,0.0872856059789651,5
0.519998550415039,-0.0889617651700974,2.93053293228149,1.16391897201538,-0.0881263195578599,2.92789808709608,1.19718187808251,2182.896,2204.38,2237.462,2219.436,356.876434326172,44.9653739929199,1.09924018383026,-0.152616620063782,-0.0635559186339378,0.186140969395638,-0.153171913786256,-0.0659055953743427,0.093570331931443,5
0.539999008178711,-0.0922261327505112,2.92916011810303,1.16778314113617,-0.0912948022612966,2.92653477750595,1.19911745472284,2207.728,2199.345,2198.822,2211.734,356.855743408203,44.9672431945801,1.12737452983856,-0.163218960165977,-0.0686438232660294,0.193206429481506,-0.163709694677519,-0.0704397081003365,0.100007697839088,5
0.559999465942383,-0.0957043766975403,2.92768621444702,1.17177641391754,-0.0946764453845371,2.92507975094219,1.20118324773733,2224.84,2196.565,2168.915,2204.468,356.831146240234,44.9688606262207,1.15333521366119,-0.1739122569561,-0.0736976265907288,0.19966533780098,-0.174485697560587,-0.0750763210942518,0.106590589844145,5
0.579999923706055,-0.0993984937667847,2.92611145973206,1.17588877677917,-0.0982759076154404,2.92353100290156,1.20338210304568,2222.615,2193.887,2160.532,2198.329,356.781921386719,44.9700241088867,1.1785671710968,-0.184705555438995,-0.0787351951003075,0.205618157982826,-0.18548935464012,-0.0798108873289844,0.11331255224535,5
0.599998474121094,-0.103311717510223,2.92443513870239,1.18011152744293,-0.102097262171133,2.92188678079254,1.2057165089127,2202.187,2190.319,2173.195,2193.316,356.705383300781,44.9708824157715,1.20406103134155,-0.195661827921867,-0.0838216468691826,0.211138591170311,-0.196709126405959,-0.0846384416756885,0.120166535736014,5
0.619998931884766,-0.107448771595955,2.92265462875366,1.18443739414215,-0.106145477944935,2.92014494663912,1.20818950075775,2174.692,2185.78,2195.553,2189.468,356.616058349609,44.9717216491699,1.22991991043091,-0.206852719187737,-0.0890260338783264,0.216292679309845,-0.208136802817102,-0.0895554515830839,0.127147524930208,5
0.639999389648438,-0.11181503534317,2.92076706886292,1.18886005878448,-0.110424235525481,2.91830391678686,1.21080332699501,2154.66,2181.479,2212.135,2186.279,356.535949707031,44.9728355407715,1.25555098056793,-0.218312948942184,-0.0943799018859863,0.221130684018135,-0.219761081350814,-0.0945570538913933,0.134248615293163,5
0.659999847412109,-0.116415470838547,2.91876983642578,1.19337439537048,-0.114937365519793,2.91636204303257,1.21356032768253,2150.6,2178.098,2213.38,2183.936,356.481109619141,44.9743843078613,1.28010761737823,-0.230022117495537,-0.0998624414205551,0.225717857480049,-0.231571827761751,-0.0996388881179631,0.141463615972542,5
0.680000305175781,-0.121253818273544,2.91666150093079,1.19797646999359,-0.119688496929273,2.91431776391831,1.21646271972064,2162.072,2176.418,2199.092,2182.056,356.453887939453,44.9762840270996,1.30295252799988,-0.24191714823246,-0.105414427816868,0.230105683207512,-0.243559016194652,-0.104796640417365,0.148786402329814,5
0.69999885559082,-0.126332387328148,2.91444206237793,1.20266342163086,-0.124680571585341,2.91216981365623,1.21951230022824,2180.322,2176.282,2178.028,2180.625,356.442993164063,44.978271484375,1.3239951133728,-0.253928154706955,-0.110972844064236,0.234349548816681,-0.255711562515536,-0.1100255415964,0.156210203240496,5
0.719999313354492,-0.131652623414993,2.91211199760437,1.20743346214294,-0.129917773765869,2.90991639186844,1.2227116253154,2194.011,2176.902,2162.082,2179.666,356.431060791016,44.9800643920898,1.34360432624817,-0.266012966632843,-0.116503156721592,0.238499522209167,-0.268021976505935,-0.115322368823317,0.163730443047009,5
0.739999771118164,-0.137216076254845,2.90967178344727,1.21228528022766,-0.13540267613015,2.90755639161152,1.22606226657952,2196.356,2177.77,2158.641,2178.9,356.405120849609,44.9814987182617,1.36238181591034,-0.278172582387924,-0.122012481093407,0.242590069770813,-0.280479406212952,-0.12068245280595,0.171340492460669,5
0.760000228881836,-0.143024921417236,2.90712094306946,1.21721851825714,-0.141138122953911,2.90508858907309,1.22956596154428,2186.914,2177.966,2168.54,2178.695,356.362548828125,44.9826354980469,1.38078260421753,-0.290442317724228,-0.127538859844208,0.24666340649128,-0.293074259331322,-0.126101666243323,0.179034491691874,5
0.779998779296875,-0.149082213640213,2.90445852279663,1.22223341464996,-0.147126184485884,2.90251209348295,1.2332239748923,2172.549,2177.688,2184.734,2178.817,356.311889648438,44.983642578125,1.39882862567902,-0.302863985300064,-0.133125051856041,0.250743597745895,-0.305795832832518,-0.131575403921268,0.186805902427515,5
0.799999237060547,-0.155391365289688,2.90168261528015,1.22733056545258,-0.153370467664426,2.8998253528763,1.23703851004595,2161.862,2177.246,2198.028,2179.392,356.2666015625,44.9847526550293,1.41614043712616,-0.315458595752716,-0.138792932033539,0.254859834909439,-0.318637178554805,-0.1371006762399,0.194650480144012,5
0.819999694824219,-0.161955609917641,2.89879202842712,1.23251116275787,-0.159872691993147,2.89702762739878,1.24101061742316,2161.193,2177.641,2201.348,2180.004,356.237243652344,44.9860801696777,1.4322612285614,-0.328212112188339,-0.144531354308128,0.259028106927872,-0.331587821991737,-0.142672976311719,0.202561826128828,5
0.840000152587891,-0.168777301907539,2.89578604698181,1.23777687549591,-0.166634951706069,2.89411801595997,1.2451415763588,2169.919,2178.701,2194.944,2181.088,356.225555419922,44.9875793457031,1.44689774513245,-0.341084390878677,-0.150304913520813,0.26328319311142,-0.344638604388044,-0.148288363380199,0.210534345441289,5
0.85999870300293,-0.175857871770859,2.89266467094421,1.24312961101532,-0.173658476530939,2.8910959894424,1.24943213807437,2183.028,2180.571,2183.85,2182.293,356.224884033203,44.9891090393066,1.45999884605408,-0.354028791189194,-0.156073689460754,0.267639696598053,-0.357779218042882,-0.153942402329629,0.218561741267797,5
0.879999160766602,-0.183198168873787,2.88942837715149,1.24857187271118,-0.180946338277887,2.88796022613197,1.25388417909074,2193.377,2182.724,2175.574,2183.682,356.224578857422,44.9904632568359,1.47178173065186,-0.367015302181244,-0.161814734339714,0.272116094827652,-0.371003228241413,-0.159632324481982,0.22664008274147,5
0.899999618530273,-0.190798968076706,2.88607788085938,1.25410628318787,-0.188499434070438,2.88471034002151,1.25849824744668,2196.933,2185,2174.496,2184.968,356.216430664063,44.991527557373,1.48262476921082,-0.380040109157562,-0.167530536651611,0.276718080043793,-0.384300552311253,-0.165353791545005,0.234763210515085,5
0.920000076293945,-0.198661416769028,2.88261294364929,1.25973558425903,-0.196319142784876,2.88134573781905,1.26327518547618,2192.895,2186.606,2181.734,2186.542,356.198425292969,44.9923477172852,1.49282586574554,-0.393121600151062,-0.173243463039398,0.281462699174881,-0.397662465047122,-0.171103049306624,0.242925794496891,5
0.939998626708984,-0.206787064671516,2.87903332710266,1.26546251773834,-0.204405885800988,2.87786623821667,1.26821525059358,2185.388,2187.8,2193.064,2188.102,356.175506591797,44.9930381774902,1.50239598751068,-0.406282663345337,-0.178979635238647,0.286348432302475,-0.411079067636589,-0.176875838584386,0.251121787656841,5
0.959999084472656,-0.21517775952816,2.87533831596375,1.27129018306732,-0.212762239776093,2.87427073255068,1.27332001683864,2179.691,2188.694,2202.831,2189.841,356.155944824219,44.9937591552734,1.51109218597412,-0.419534683227539,-0.184753179550171,0.291383236646652,-0.424544411524882,-0.18266959988136,0.259347556115652,5
0.979999542236328,-0.223835095763206,2.87152719497681,1.27722144126892,-0.221388311353785,2.87055917493534,1.27858954935826,2180.19,2190.065,2206.142,2191.407,356.146575927734,44.9945983886719,1.51862215995789,-0.432866871356964,-0.190557777881622,0.296562701463699,-0.438048819599778,-0.188480169406503,0.267597188276474,5
1,-0.2327601313591,2.86759972572327,1.28325939178467,-0.230284798736574,2.86673126495361,1.28402427467346,2186.273,2191.703,2203.43,2193.145,356.148651123047,44.9955215454102,1.52483034133911,-0.446251660585403,-0.196371242403984,0.301898241043091,-0.451584000205995,-0.194303979492187,0.275865618896484,5
1.01999855041504,-0.241953253746033,2.86355638504028,1.28940713405609,-0.239451348187707,2.86278715480854,1.28962397669198,2195.129,2193.731,2197.484,2194.85,356.158264160156,44.9964447021484,1.52969479560852,-0.45965713262558,-0.202168256044388,0.307388007640839,-0.465140476318736,-0.200136952439402,0.284147058609119,5
1.03999900817871,-0.251414477825165,2.85939764976501,1.29566776752472,-0.248890079057088,2.85872593260306,1.29538995009159,2202.273,2195.747,2193.043,2196.616,356.1689453125,44.9972381591797,1.53333556652069,-0.473061084747314,-0.207933381199837,0.313033699989319,-0.478712759579464,-0.205976726760794,0.292438154661794,5
1.05999946594238,-0.261143624782562,2.8551242351532,1.30204427242279,-0.258600340480156,2.85454787838601,1.3013217972693,2205.435,2197.893,2192.574,2198.07,356.175537109375,44.9978256225586,1.53599798679352,-0.486457020044327,-0.213666662573814,0.318823367357254,-0.492291591500725,-0.211819318787865,0.300733251188999,5
1.07999992370605,-0.271140694618225,2.85073661804199,1.30853950977325,-0.268582184669612,2.85025296969173,1.30741955012103,2203.612,2199.433,2197.336,2199.674,356.176483154297,44.9982261657715,1.53791177272797,-0.499853014945984,-0.219380885362625,0.324762433767319,-0.505869113977232,-0.21766134739744,0.309027547796837,5
1.09999847412109,-0.28140589594841,2.8462347984314,1.31515634059906,-0.278834517009062,2.84584167750307,1.31368253996271,2199.427,2200.572,2204.649,2201.19,356.174652099609,44.99853515625,1.53908169269562,-0.513260662555695,-0.22509178519249,0.330839365720749,-0.519436284009554,-0.223498921639497,0.317315520258069,5
1.11999893188477,-0.291939616203308,2.84161853790283,1.32189726829529,-0.289359035362208,2.84131327127672,1.32011180399278,2195.949,2201.396,2211.264,2202.684,356.175140380859,44.9988479614258,1.53934872150421,-0.526684522628784,-0.230807960033417,0.3370481133461,-0.532988048794549,-0.229329867434001,0.325594081894103,5
1.13999938964844,-0.302741885185242,2.83688807487488,1.32876479625702,-0.300154365346813,2.83666834237095,1.32670650262257,2196.375,2202.572,2213.604,2203.862,356.182373046875,44.9992141723633,1.53855919837952,-0.540115714073181,-0.236525490880013,0.343375086784363,-0.546515580872639,-0.235150386571708,0.333857840147634,5
1.15999984741211,-0.313812613487244,2.83204340934753,1.33576130867004,-0.311219947869739,2.83190713134792,1.33346629431082,2200.123,2203.685,2212.188,2205.201,356.197174072266,44.9996299743652,1.5366427898407,-0.553534924983978,-0.242230251431465,0.349825203418732,-0.560011455688534,-0.240957284473894,0.34210225947369,6
1.17999839782715,-0.325150996446609,2.82708525657654,1.34288895130157,-0.322553982624406,2.82703041282926,1.34039007927832,2205.572,2204.977,2208.636,2206.376,356.217315673828,45.0000457763672,1.53357684612274,-0.566919386386871,-0.247905656695366,0.356385111808777,-0.573467075844405,-0.246746861920456,0.3503220878561,6
1.19999885559082,-0.336756020784378,2.82201433181763,1.35014998912811,-0.334157779891176,2.82203762303794,1.3474786579549,2209.909,2206.149,2205.917,2207.545,356.23876953125,45.0003890991211,1.52941966056824,-0.580252408981323,-0.253541141748428,0.363050252199173,-0.586877800774655,-0.252517122205661,0.358514490445754,6
1.21999931335449,-0.348626583814621,2.81683158874512,1.35754609107971,-0.346029276726411,2.81692964960096,1.35473077012049,2212.057,2207.496,2205.179,2208.332,356.258514404297,45.0005798339844,1.52433896064758,-0.593526661396027,-0.259135454893112,0.369802981615067,-0.600235245789198,-0.258264457631606,0.36667434516632,6
1.23999977111816,-0.360761433839798,2.81153774261475,1.36507904529572,-0.3581673374151,2.81170698118478,1.36214572198451,2210.879,2208.277,2207.798,2209.266,356.275207519531,45.000659942627,1.51851034164429,-0.606744289398193,-0.264695465564728,0.376645624637604,-0.613532419882739,-0.263985860164018,0.374797381321754,6
1.2599983215332,-0.373159646987915,2.80613303184509,1.3727502822876,-0.370569492049568,2.80637068052165,1.3697220047189,2208.09,2208.784,2212.028,2210.016,356.29052734375,45.0006790161133,1.51194262504578,-0.619910001754761,-0.270230114459991,0.383560985326767,-0.626761182173783,-0.269677827009021,0.382878625774588,6
1.27999877929688,-0.385820090770721,2.80061817169189,1.38056111335754,-0.383236695417198,2.80092033679326,1.37746020158837,2205.39,2208.965,2216.081,2210.737,356.3076171875,45.0006980895996,1.50454080104828,-0.6330246925354,-0.275744438171387,0.390541791915894,-0.639917282339435,-0.275338529371412,0.39091548206889,6
1.29999923706055,-0.398741722106934,2.79499340057373,1.38851249217987,-0.396166231882091,2.79535711846185,1.38535865365334,2205.367,2209.431,2217.082,2211.123,356.329406738281,45.0007553100586,1.49621510505676,-0.646080851554871,-0.281235843896866,0.397571384906769,-0.652992789539212,-0.280964554832093,0.398903105377968,6
1.31999969482422,-0.411922991275787,2.78925943374634,1.39660549163818,-0.409356423791328,2.7896817473746,1.39341633606181,2207.132,2209.729,2215.979,2211.591,356.356323242188,45.0008430480957,1.48696434497833,-0.659064292907715,-0.286694705486298,0.404650658369064,-0.665981146317813,-0.286553081901244,0.406837489854705,6
1.33999824523926,-0.425362169742584,2.78341722488403,1.40484082698822,-0.42280416857195,2.783895558482,1.40163135350037,2210.05,2210.077,2213.348,2211.933,356.387176513672,45.0009307861328,1.47677230834961,-0.671958863735199,-0.292110115289688,0.411766856908798,-0.678874678563316,-0.292100808622893,0.41471394750388,6
1.35999870300293,-0.439057201147079,2.77746772766113,1.41321909427643,-0.436510095902056,2.77799828085114,1.41000409062955,2212.165,2210.238,2211.279,2212.263,356.419464111328,45.0009727478027,1.46564936637878,-0.684751868247986,-0.297474354505539,0.418913036584854,-0.691669505523675,-0.297606065217852,0.422530107634626,6
1.3799991607666,-0.453005880117416,2.77141213417053,1.42174053192139,-0.450470874182571,2.77199134797602,1.41853251222747,2213.236,2210.651,2210.003,2212.178,356.451354980469,45.0009460449219,1.45370221138,-0.697436153888702,-0.302785694599152,0.426070272922516,-0.704358160626625,-0.303065639028665,0.430281409034459,6
1.39999961853027,-0.467206090688705,2.76525115966797,1.43040537834167,-0.464684318506637,2.76587569996104,1.42721528356862,2212.034,2210.594,2210.952,2212.242,356.481842041016,45.0008354187012,1.44108045101166,-0.710010766983032,-0.308047205209732,0.433241933584213,-0.716934519966859,-0.308476895109962,0.437964110705191,6
1.41999816894531,-0.481655657291412,2.75898599624634,1.43921363353729,-0.47914673136562,2.75965292774086,1.43605014590267,2209.681,2210.347,2212.991,2212.129,356.511840820313,45.0006942749023,1.42780411243439,-0.722476541996002,-0.313263803720474,0.440411686897278,-0.729391385793766,-0.313836736470737,0.445573815653291,6
1.43999862670898,-0.496352314949036,2.7526171207428,1.44816517829895,-0.4938584461112,2.75332288788357,1.44503730286896,2207.225,2209.755,2215.028,2212.068,356.543304443359,45.0005722045898,1.41379272937775,-0.73483282327652,-0.318438172340393,0.44757479429245,-0.741725227577294,-0.31914364402254,0.453108367133042,6
1.45999908447266,-0.511293709278107,2.74614572525024,1.4572594165802,-0.508815552717244,2.74688726276417,1.45417436589355,2206.602,2209.548,2214.938,2211.534,356.578186035156,45.0004501342773,1.39902126789093,-0.747072815895081,-0.323568016290665,0.454710394144058,-0.753929052770513,-0.324394609067776,0.460563493506643,6
1.47999954223633,-0.526477456092834,2.73957276344299,1.46649599075317,-0.524015393706918,2.74034719582071,1.4634597115653,2206.993,2209.031,2213.588,2211.236,356.616760253906,45.0003623962402,1.38352692127228,-0.759186506271362,-0.328646838665009,0.461826771497726,-0.76599717101811,-0.329587183205524,0.467935718624829,6
1.5,-0.54190069437027,2.73289942741394,1.47587418556213,-0.539455198877605,2.73370387899399,1.47289164761066,2208.076,2208.514,2211.302,2210.792,356.658233642578,45.0002899169922,1.36728072166443,-0.771161913871765,-0.333666831254959,0.468908488750458,-0.777924000354858,-0.334718964672088,0.475221632552146,6
1.51999855041504,-0.557560503482819,2.72612690925598,1.48539316654205,-0.555130581228843,2.72695919988774,1.48246749407952,2208.861,2207.981,2209.11,2210.228,356.701110839844,45.0001907348633,1.35030329227448,-0.78298944234848,-0.338622361421585,0.475947678089142,-0.789702950965343,-0.339787118053995,0.482417209673192,6
1.53999900817871,-0.573453783988953,2.71925663948059,1.49505198001862,-0.571041541911266,2.72011315800687,1.49218725167476,2208.276,2207.223,2208.17,2209.665,356.744110107422,45.0000534057617,1.33261060714722,-0.794663429260254,-0.343511670827866,0.482939481735229,-0.801330904905084,-0.34479030178684,0.489520545284337,6
1.55999946594238,-0.589577376842499,2.71228981018066,1.50484931468964,-0.587183501790833,2.71316772362485,1.50204812307488,2207.268,2206.728,2207.464,2208.718,356.787048339844,44.9998741149902,1.31428146362305,-0.806181013584137,-0.348335921764374,0.489867240190506,-0.812801474874933,-0.34972576759424,0.496527737484203,6
1.57999992370605,-0.605928242206573,2.70522785186768,1.51478409767151,-0.603553261450117,2.7061242733616,1.51204815380567,2205.12,2205.83,2207.859,2207.948,356.830108642578,44.9996795654297,1.29543304443359,-0.817541062831879,-0.353097021579742,0.496736615896225,-0.824109512459656,-0.354591300256948,0.503435641186264,6
1.59999847412109,-0.622502982616425,2.69807195663452,1.52485477924347,-0.620145926473056,2.69898491314762,1.52218435394475,2203.02,2204.774,2208.11,2207.113,356.874359130859,44.9994888305664,1.27603650093079,-0.828741610050201,-0.357795774936676,0.503535807132721,-0.835248923368005,-0.359384277571697,0.510240533483095,5
1.61999893188477,-0.639298617839813,2.6908233165741,1.53505992889404,-0.636961261140657,2.69174974440622,1.53245657949507,2201.241,2203.542,2207.938,2206.259,356.920837402344,44.9993324279785,1.25600385665894,-0.839777946472168,-0.362430483102798,0.510258734226227,-0.846216901179681,-0.364103492014234,0.516940699976329,5
1.63999938964844,-0.656311452388763,2.68348336219788,1.54539775848389,-0.653994195024907,2.68442094880091,1.54286173301126,2200.992,2202.683,2205.978,2205.035,356.970275878906,44.9991836547852,1.23533391952515,-0.850642263889313,-0.366996735334396,0.516890704631805,-0.857007552155828,-0.368746407673381,0.523532540272869,5
1.65999984741211,-0.673537909984589,2.67605352401733,1.55586647987366,-0.671241134177535,2.67700007270724,1.55339761900642,2200.837,2201.573,2203.778,2203.994,357.021881103516,44.9990425109863,1.21410369873047,-0.861326098442078,-0.371489107608795,0.523439168930054,-0.867616161431205,-0.373310995874343,0.530013174135115,5
1.67999839782715,-0.690974414348602,2.66853547096252,1.56646430492401,-0.688696716710861,2.66948942319567,1.56406096198704,2200.53,2200.438,2201.599,2202.845,357.074829101563,44.9989013671875,1.19233059883118,-0.87182205915451,-0.375903218984604,0.52989262342453,-0.878037137680598,-0.377794850826084,0.536379185909741,5
1.69999885559082,-0.708616852760315,2.66093063354492,1.57718932628632,-0.706360494347389,2.66188919314749,1.57485148810738,2199.246,2199.034,2200.331,2201.789,357.128204345703,44.9987373352051,1.16998136043549,-0.882125735282898,-0.380237370729446,0.536249816417694,-0.888267970958778,-0.382196892569292,0.542629042310376,5
1.71999931335449,-0.726461589336395,2.65324091911316,1.58803915977478,-0.724226945158621,2.65420175849427,1.58576582410749,2198.031,2198.056,2198.842,2200.243,357.182067871094,44.9985618591309,1.14711737632751,-0.892233729362488,-0.384491354227066,0.542491555213928,-0.898303268694426,-0.386514800831178,0.54875944909935,5
1.73999977111816,-0.744504392147064,2.64546751976013,1.59901177883148,-0.74229211534941,2.6464288204436,1.59680155467563,2195.91,2196.605,2198.217,2199.064,357.236328125,44.9983673095703,1.12382316589355,-0.902144432067871,-0.388665705919266,0.548632562160492,-0.908138749572296,-0.3907467334814,0.554767790887989,5
1.7599983215332,-0.762741506099701,2.63761234283447,1.61010491847992,-0.760550216073323,2.63857286977439,1.60795514349582,2193.767,2195.216,2197.571,2197.628,357.291564941406,44.9981994628906,1.10009241104126,-0.911855340003967,-0.392760425806046,0.554654955863953,-0.917769332013572,-0.394890504058555,0.560650963419089,4
1.77999877929688,-0.781168818473816,2.62967681884766,1.6213161945343,-0.779000609654483,2.63063418086074,1.61922620102184,2191.628,2193.515,2196.846,2196.4,357.348480224609,44.9980506896973,1.07585406303406,-0.921363234519958,-0.396774083375931,0.560563862323761,-0.927192788821983,-0.398945154262308,0.566407606133204,4
1.79999923706055,-0.799782037734985,2.62166285514832,1.63264298439026,-0.79763736303951,2.62261530652977,1.63061110284395,2190.826,2192.284,2194.619,2194.688,357.407684326172,44.9979019165039,1.05111610889435,-0.930661976337433,-0.400703519582748,0.566339313983917,-0.936404235539493,-0.402908582446823,0.572034735191139,4
1.81999969482422,-0.818576872348785,2.61357188224792,1.644082903862,-0.816456197270346,2.61451808789761,1.64210723501345,2189.92,2190.745,2192.406,2193.269,357.468597412109,44.9977569580078,1.02595770359039,-0.939745545387268,-0.404544711112976,0.571995258331299,-0.945399824400851,-0.406779133026206,0.577530000053147,3
1.83999824523926,-0.837549090385437,2.6054060459137,1.65563333034515,-0.835450937570646,2.606345181798,1.65371082545583,2188.897,2189.235,2190.246,2191.7,357.530578613281,44.9976234436035,1.00039172172546,-0.94860851764679,-0.408294320106506,0.577519118785858,-0.954174989692508,-0.410554841501469,0.582890611596066,3
1.85999870300293,-0.856694042682648,2.59716701507568,1.66729164123535,-0.854620778981102,2.59809693458245,1.665421382434,2187.141,2187.429,2188.777,2190.32,357.593139648438,44.9974899291992,0.974362671375275,-0.957247495651245,-0.411950916051865,0.582914352416992,-0.962727774564036,-0.414234865894539,0.588115374410506,0
1.8799991607666,-0.876007199287415,2.58885669708252,1.67905485630035,-0.873959418228252,2.58977605837344,1.67723505537657,2185.783,2186.11,2186.807,2188.418,357.656433105469,44.9973335266113,0.947912454605103,-0.965659379959106,-0.415513813495636,0.588160872459412,-0.971053808954927,-0.417817325890467,0.593201618894697,0
1.89999961853027,-0.895484030246735,2.58047699928284,1.69092035293579,-0.8934622858751,2.58138451927205,1.68914905288578,2183.655,2184.423,2185.572,2186.857,357.720184326172,44.9971961975098,0.921143233776093,-0.973842263221741,-0.418982744216919,0.593275308609009,-0.979149678649926,-0.42130075244781,0.598147259357817,0
1.91999816894531,-0.915119826793671,2.57202982902527,1.70288527011871,-0.913122862707269,2.57292512231409,1.7011593924753,2181.505,2182.694,2184.337,2185.21,357.784790039063,44.9970512390137,0.894038140773773,-0.98179417848587,-0.4223572909832,0.598246157169342,-0.987011339258123,-0.424683405378145,0.60294982514457,0
1.93999862670898,-0.934910118579865,2.56351709365845,1.71494674682617,-0.932940197657643,2.56439827671719,1.71326549315307,2179.203,2180.778,2183.235,2183.646,357.850616455078,44.9969444274902,0.86652535200119,-0.98951244354248,-0.425636380910873,0.60307365655899,-0.99463709319481,-0.4279645542582,0.607608279226948,0
1.95999908447266,-0.954849898815155,2.55494070053101,1.72710156440735,-0.952907658613767,2.55580683609405,1.72546330346508,2178.062,2179.284,2180.858,2181.686,357.918243408203,44.9968147277832,0.838625371456146,-0.996992886066437,-0.42881777882576,0.607743859291077,-1.00202309041976,-0.431142542523221,0.612120269675456,0
1.97999954223633,-0.97493451833725,2.54630279541016,1.73934698104858,-0.973020420343666,2.54715287660719,1.73774987575242,2176.666,2177.535,2178.683,2179.99,357.987091064453,44.9967002868652,0.810424029827118,-1.00423097610474,-0.431898504495621,0.612269818782806,-1.00916635026771,-0.434216087676217,0.616483975648197,0
1.99999809265137,-0.995159029960632,2.53760528564453,1.75167989730835,-0.993271661096953,2.53843933346522,1.75012104271422,2175.233,2175.727,2176.516,2178.267,358.056823730469,44.9965934753418,0.781910002231598,-1.01122295856476,-0.434876173734665,0.616643667221069,-1.01606335446626,-0.437183675902864,0.620697247887466,0
2.01999855041504,-1.01551830768585,2.52885031700134,1.76409721374512,-1.01366030404084,2.52966666999921,1.76257614653014,2173.179,2173.77,2174.969,2176.6,358.127136230469,44.996509552002,0.753023386001587,-1.01796627044678,-0.437749564647675,0.620864450931549,-1.02271265493931,-0.440044684136465,0.624759201786162,0
2.03999900817871,-1.03600752353668,2.5200400352478,1.77659559249878,-1.03417943002831,2.52083786332482,1.77511096040124,2171.768,2172.253,2172.699,2174.513,358.198211669922,44.9963874816895,0.72382003068924,-1.024458527565,-0.440518110990524,0.624918699264526,-1.02911092662815,-0.442797681697156,0.628667806117814,0
2.05999946594238,-1.05662143230438,2.51117634773254,1.7891720533371,-1.05482399271638,2.51195508474246,1.78772240159534,2169.652,2170.37,2171.112,2172.801,358.269714355469,44.9962768554688,0.694382727146149,-1.03069794178009,-0.443181157112122,0.628823161125183,-1.03525562241752,-0.445441572632395,0.632421504889455,0
2.07999801635742,-1.07735514640808,2.50226163864136,1.80182337760925,-1.07558691007788,2.50302138145056,1.80040614381254,2167.513,2168.538,2169.555,2170.933,358.341857910156,44.9961853027344,0.6647047996521,-1.03668296337128,-0.445738226175308,0.632564961910248,-1.04114375428791,-0.447975071280863,0.63601847276659,0
2.09999847412109,-1.09820342063904,2.49329781532288,1.81454634666443,-1.09646699912883,2.4940372624541,1.8131614643864,2165.109,2166.439,2168.252,2169.284,358.414886474609,44.9961051940918,0.634707868099213,-1.04241192340851,-0.448188424110413,0.636150062084198,-1.04677411523768,-0.450397658303471,0.63945797241075,0
2.11999893188477,-1.11916089057922,2.48428726196289,1.82733750343323,-1.11745709586255,2.485005810225,1.82598398693703,2163.82,2164.861,2165.782,2167.115,358.489318847656,44.9960098266602,0.604422628879547,-1.04788184165955,-0.450530499219894,0.639559924602509,-1.0521439094894,-0.452708130755304,0.642738295925142,0
2.13999938964844,-1.14022278785706,2.47523212432861,1.84019374847412,-1.138551967509,2.47592927627801,1.83887051484687,2162.192,2162.976,2163.604,2165.319,358.564605712891,44.9959335327148,0.573940753936768,-1.05308949947357,-0.452761948108673,0.642813563346863,-1.05725102347782,-0.454905579228273,0.645858152165725,0
2.15999794006348,-1.16138339042664,2.46613454818726,1.853111743927,-1.15974431432775,2.46681080148754,1.85181658881839,2160.494,2161.018,2161.51,2163.509,358.640502929688,44.9958610534668,0.543231725692749,-1.05803251266479,-0.454881310462952,0.645902335643768,-1.06209300290918,-0.456988947708343,0.648816041842745,0
2.17999839782715,-1.18263745307922,2.45699644088745,1.86608827114105,-1.18103286617629,2.4576509323604,1.86482143294137,2158.303,2158.999,2159.918,2161.696,358.716857910156,44.9958000183105,0.512233078479767,-1.06270921230316,-0.456887751817703,0.648824334144592,-1.06666887474518,-0.458957817524312,0.651611370542283,0
2.19999885559082,-1.20397996902466,2.44782114028931,1.8791196346283,-1.20241025668069,2.44845283844151,1.8778805472129,2156.807,2157.433,2157.58,2159.472,358.7939453125,44.9957237243652,0.481033354997635,-1.06711804866791,-0.458781003952026,0.651568591594696,-1.07097637612794,-0.460811215031657,0.654242755919777,0
2.21999931335449,-1.22540497779846,2.43860983848572,1.8922027349472,-1.22387110132782,2.43921883653644,1.89099064231796,2154.793,2155.334,2155.733,2157.838,358.871337890625,44.9956665039063,0.44965985417366,-1.07125759124756,-0.460560202598572,0.65415757894516,-1.07501382704219,-0.462548417366737,0.656709171680113,0
2.23999977111816,-1.24690747261047,2.42936539649963,1.90533411502838,-1.24540998308744,2.42995125744197,1.90414840907728,2152.71,2153.55,2154.012,2155.746,358.949188232422,44.99560546875,0.418110609054565,-1.07512664794922,-0.462224900722504,0.656567454338074,-1.07877965586273,-0.46416874830314,0.659009657741985,0
2.2599983215332,-1.26848208904266,2.42008972167969,1.91851031780243,-1.26701939030951,2.42065333321126,1.9173492587411,2150.654,2151.553,2152.222,2153.944,359.027587890625,44.995548248291,0.386393427848816,-1.07872450351715,-0.463774889707565,0.658813059329987,-1.08227207933222,-0.465671440555045,0.661143124741302,0
2.27999877929688,-1.29012298583984,2.41078567504883,1.93172812461853,-1.28869796983554,2.41132564607061,1.93059236468599,2148.306,2149.488,2150.748,2152.127,359.106658935547,44.9955062866211,0.354430913925171,-1.08204972743988,-0.465209275484085,0.660887777805328,-1.08549040888332,-0.467056197851165,0.663109152043028,0
2.29999923706055,-1.31182503700256,2.40145516395569,1.94498372077942,-1.31043816248474,2.40197144852433,1.94387310912637,2147.167,2147.843,2148.032,2149.934,359.186828613281,44.9954528808594,0.322278022766113,-1.08510041236877,-0.466527104377747,0.662781476974487,-1.08843305191934,-0.468322334941636,0.664906766754694,0
2.31999969482422,-1.33358263969421,2.39210033416748,1.95827388763428,-1.33223444283894,2.39259311800549,1.9571881166705,2145.404,2145.913,2145.917,2148.092,359.267364501953,44.9954147338867,0.290018051862717,-1.08787417411804,-0.467726469039917,0.664510786533356,-1.09109887036509,-0.469469362144493,0.666535273643923,0
2.33999824523926,-1.3553900718689,2.38272428512573,1.97159516811371,-1.35407917814146,2.38319393867607,1.97053272458644,2143.557,2144.014,2143.921,2146.149,359.34814453125,44.9953727722168,0.257657796144485,-1.09037005901337,-0.46880692243576,0.666065871715546,-1.09348662008434,-0.470496744142684,0.667993912687316,0
2.35999870300293,-1.37724184989929,2.37332916259766,1.9849442243576,-1.37597096908363,2.3737745126195,1.98390607805835,2141.281,2141.867,2142.357,2144.443,359.429077148438,44.9953384399414,0.225113809108734,-1.09258794784546,-0.469768345355988,0.667453229427338,-1.09559583531025,-0.471404280529741,0.669282399355169,0
2.3799991607666,-1.39913237094879,2.36391687393188,1.99831736087799,-1.39790215061238,2.36433813789396,1.99730349462492,2139.782,2140.208,2140.037,2142.227,359.510498046875,44.995304107666,0.192416489124298,-1.09452724456787,-0.470610976219177,0.668655097484589,-1.09742546213314,-0.472191517837776,0.670400089830511,0
2.39999961853027,-1.42105603218079,2.35449028015137,2.01171112060547,-1.41986712360559,2.35488722364528,2.01072155386983,2137.661,2138.344,2138.301,2140.325,359.592010498047,44.9952621459961,0.159668281674385,-1.09618711471558,-0.471334308385849,0.669689953327179,-1.09897479602782,-0.472858152929276,0.671346553729889,0
2.41999816894531,-1.44300746917725,2.34505152702332,2.02512216567993,-1.44185817738692,2.34542508756209,2.02415554546122,2135.674,2136.381,2136.457,2138.477,359.673828125,44.995231628418,0.126862928271294,-1.09756767749786,-0.471938371658325,0.670552909374237,-1.10024313330221,-0.473403883025206,0.672121361178802,0
2.43999862670898,-1.46498084068298,2.33560299873352,2.03854703903198,-1.46387388420027,2.33595234396796,2.03760459720517,2133.318,2134.279,2135.011,2136.727,359.755981445313,44.9952201843262,0.0939096659421921,-1.09866845607758,-0.472422808408737,0.671244144439697,-1.10123022817855,-0.473828602374257,0.672724362035447,0
2.45999908447266,-1.48697054386139,2.32614731788635,2.05198192596436,-1.48590651627916,2.32647231790489,2.05106398832971,2132.071,2132.674,2132.475,2134.488,359.8388671875,44.995189666748,0.0608675442636013,-1.09948885440826,-0.472787290811539,0.671749353408813,-1.10193556692257,-0.474132089930926,0.673155242467576,0
2.47999954223633,-1.50897121429443,2.31668663024902,2.06542372703552,-1.50795043548148,2.31698743530794,2.06453027458184,2130.355,2130.734,2130.366,2132.709,359.921936035156,44.995174407959,0.0278091747313738,-1.10002732276917,-0.473030596971512,0.672090649604797,-1.10235887855907,-0.474314229102152,0.673413836940663,0
2.49999809265137,-1.53097689151764,2.3072235584259,2.0788688659668,-1.52999789647758,2.30750102877607,2.07799872446051,2128.527,2128.827,2128.423,2130.818,0.00503096031025052,44.9951515197754,-0.00528518203645945,-1.10028386116028,-0.47315239906311,0.672256171703339,-1.10250000050163,-0.474374949931546,0.67350004613321,0
2.51999855041504,-1.55298209190369,2.29776048660278,2.09231376647949,-1.5520474605947,2.29801371732999,2.09146845910299,2126.275,2126.792,2126.912,2129.065,0.0880682244896889,44.9951477050781,359.961517333984,-1.10025882720947,-0.473153054714203,0.672250688076019,-1.10235890547318,-0.474314240682543,0.673413853382076,0
2.53999900817871,-1.57498109340668,2.28829979896545,2.1057550907135,-1.5740913806044,2.28852883438564,2.10493474584833,2124.852,2125.18,2124.609,2126.886,0.171386629343033,44.9951324462891,359.928283691406,-1.09995269775391,-0.473033100366592,0.672061145305634,-1.10193562074175,-0.474132113087814,0.67315527534487,0
2.55999946594238,-1.59696841239929,2.27884387969971,2.11918926239014,-1.59612401402858,2.27904880774374,2.1183941377947,2122.885,2123.304,2122.811,2125.092,0.254599332809448,44.9951171875,359.895080566406,-1.09936511516571,-0.47279217839241,0.67170649766922,-1.10123030888212,-0.473828637098746,0.672724411335995,0
2.57999801635742,-1.61893820762634,2.26939535140991,2.13261270523071,-1.6181376241771,2.2695769662859,2.13184190871882,2120.939,2121.416,2121.047,2123.251,0.337780177593231,44.9951171875,359.861907958984,-1.09849691390991,-0.472430646419525,0.671178221702576,-1.10024334841354,-0.473403975581601,0.672121492586955,0
2.59999847412109,-1.6408851146698,2.25995635986328,2.1460223197937,-1.64013077892511,2.26011392621545,2.14527718375796,2118.727,2119.399,2119.569,2121.542,0.421009033918381,44.9951210021973,359.828674316406,-1.09734880924225,-0.471948802471161,0.670479893684387,-1.09897493039424,-0.472858210743393,0.671346635812239,0
2.61999893188477,-1.66280364990234,2.25052952766418,2.15941429138184,-1.66209575487342,2.25066301069528,2.1586952448081,2117.439,2117.818,2117.219,2119.389,0.504609525203705,44.9951210021973,359.795440673828,-1.0959210395813,-0.471346825361252,0.669598281383514,-1.09742562325992,-0.472191587166126,0.670400188260345,0
2.63999938964844,-1.68468773365021,2.24111700057983,2.17278528213501,-1.68402693989188,2.24122663446822,2.17209266350648,2115.702,2115.935,2115.272,2117.68,0.588114798069,44.9951286315918,359.762268066406,-1.09421300888062,-0.470624059438705,0.668554306030273,-1.09559602313537,-0.471404361345641,0.669282514094601,0
2.65999794006348,-1.70653223991394,2.2317214012146,2.18613195419312,-1.70591664919621,2.23180810408224,2.18546474533832,2113.998,2114.194,2113.363,2115.758,0.671431243419647,44.9951210021973,359.729156494141,-1.0922257900238,-0.469780743122101,0.667334735393524,-1.093487048984,-0.470496928686224,0.667994174695423,0
2.67999839782715,-1.72833156585693,2.22234511375427,2.19945096969604,-1.7277634747138,2.22240802539167,2.19881063013402,2111.791,2112.175,2111.947,2114.175,0.754469513893127,44.9951438903809,359.696075439453,-1.08996033668518,-0.468817353248596,0.665951609611511,-1.09109911135695,-0.469469465836558,0.666535420862089,0
2.69999885559082,-1.750079870224,2.21299052238464,2.21273875236511,-1.74955976015262,2.21302969268507,2.21212564078427,2110.49,2110.61,2109.722,2112.07,0.837576985359192,44.9951438903809,359.663024902344,-1.08741796016693,-0.46773487329483,0.664385974407196,-1.08843331936148,-0.468322450014513,0.664906930130919,0
2.71999931335449,-1.7717719078064,2.20365977287292,2.22599196434021,-1.77129995841443,2.20367549272384,2.22540638865331,2108.696,2108.857,2107.933,2110.323,0.920347392559052,44.9951515197754,359.630126953125,-1.08459889888763,-0.466533124446869,0.662658214569092,-1.08549070267236,-0.467056324260381,0.663109331514168,0
2.73999786376953,-1.79340183734894,2.19435548782349,2.23920726776123,-1.79297647980783,2.19434869114016,2.23864823731709,2106.847,2107.085,2106.258,2108.554,1.00278472900391,44.9951553344727,359.597320556641,-1.08150470256805,-0.465212881565094,0.660761833190918,-1.08227271937422,-0.465671715947234,0.661143515732969,0
2.7599983215332,-1.81496453285217,2.18508005142212,2.25238132476807,-1.81458795796224,2.18504987584512,2.25185035208115,2104.747,2105.2,2104.852,2106.92,1.0849643945694,44.9951858520508,359.564575195313,-1.07813692092896,-0.463774770498276,0.658700346946716,-1.07878000199166,-0.464168897232749,0.659009869186748,0
2.77999877929688,-1.83645462989807,2.17583560943604,2.26551055908203,-1.83612684690458,2.17578229366013,2.2650081232283,2103.559,2103.646,2102.627,2104.923,1.16719222068787,44.9952049255371,359.531982421875,-1.0744971036911,-0.462219566106796,0.656462788581848,-1.07501419914593,-0.462548577472581,0.656709398992482,0
2.79999923706055,-1.85786628723145,2.1666247844696,2.2785918712616,-1.85758769925251,2.16654828844162,2.27811822303765,2101.854,2101.898,2100.872,2103.274,1.24901103973389,44.9952125549316,359.499542236328,-1.07058548927307,-0.460546851158142,0.654066503047943,-1.07097677406178,-0.460811386251471,0.65424299901135,0
2.81999778747559,-1.87919425964355,2.15744972229004,2.29162192344666,-1.87896306346215,2.15735106638076,2.29117609947734,2100.28,2100.194,2099.06,2101.535,1.33039999008179,44.9952354431152,359.467224121094,-1.0664039850235,-0.458757609128952,0.651503443717957,-1.06666972196052,-0.458958182057406,0.651611888092917,0
2.83999824523926,-1.90043342113495,2.14831256866455,2.30459761619568,-1.90025163276617,2.14819118974301,2.30418095426359,2098.222,2098.394,2097.733,2099.949,1.41125357151031,44.9952697753906,359.435028076172,-1.06195437908173,-0.456852555274963,0.648779392242432,-1.06209390114388,-0.456989334193641,0.648816590560307,0
2.85999870300293,-1.92157804965973,2.13921594619751,2.31751537322998,-1.92144601460316,2.13907183934104,2.317128271396,2096.986,2096.951,2095.682,2097.973,1.49189329147339,44.9952812194824,359.403015136719,-1.05723893642426,-0.454833030700684,0.645882785320282,-1.05725149792792,-0.454905783370899,0.645858441999891,0
2.8799991607666,-1.94262313842773,2.13016200065613,2.33037209510803,-1.94254089599063,2.12999530120277,2.33001480525648,2095.367,2095.281,2093.973,2096.384,1.57196021080017,44.9953002929688,359.371246337891,-1.05225849151611,-0.452699154615402,0.642832696437836,-1.05214440908742,-0.452708345718374,0.642738601121776,0
2.89999771118164,-1.9635636806488,2.12115263938904,2.34316444396973,-1.96352900640172,2.1209647036328,2.34283611439361,2093.708,2093.609,2092.376,2094.757,1.6514151096344,44.9953308105469,359.339691162109,-1.04701554775238,-0.45045194029808,0.639621615409851,-1.04677516433438,-0.450398109700476,0.639458613287558,0
2.91999816894531,-1.98439371585846,2.11219120025635,2.35588955879211,-1.98440911693069,2.11198057539494,2.35559144808806,2091.642,2091.863,2091.206,2093.246,1.73028564453125,44.9953727722168,359.308288574219,-1.04151248931885,-0.448092460632324,0.636253535747528,-1.04114485287423,-0.447975543971863,0.636019143875825,0
2.93999862670898,-2.00510883331299,2.10327863693237,2.36854386329651,-2.00517403134858,2.10304601282548,2.36827641027585,2090.769,2090.438,2088.97,2091.367,1.80896496772766,44.9954032897949,359.277099609375,-1.0357518196106,-0.445622086524963,0.6327183842659,-1.03525619623725,-0.445441819530995,0.632421855426973,0
2.95999908447266,-2.02570343017578,2.09441781044006,2.38112449645996,-2.02581860575671,2.0941632292003,2.38088785862954,2089.088,2088.912,2087.462,2089.793,1.88685297966003,44.9954299926758,359.246185302734,-1.02973425388336,-0.443040758371353,0.629033088684082,-1.02911152474823,-0.442797939051516,0.628668171500036,0
2.9799976348877,-2.04617261886597,2.08561086654663,2.39362835884094,-2.04633579327653,2.08533525659438,2.393421488321,2087.628,2087.349,2085.826,2088.213,1.96402776241302,44.9954605102539,359.215576171875,-1.02346289157867,-0.440349906682968,0.625193059444427,-1.0227138993024,-0.44004521955114,0.624759961948157,0
2.99999809265137,-2.06651163101196,2.07685995101929,2.40605235099792,-2.06672446158539,2.07656258221453,2.40587660763199,2085.743,2085.659,2084.629,2086.813,2.04040884971619,44.9955062866211,359.185180664063,-1.0169403553009,-0.437550634145737,0.621203482151031,-1.01606464645845,-0.437184231811008,0.620698037145332,0
3.01999855041504,-2.08671474456787,2.06816697120667,2.41839337348938,-2.08697765348254,2.06784819954987,2.41824896651713,2084.675,2084.306,2082.747,2085.022,2.1163010597229,44.9955444335938,359.155059814453,-1.01016998291016,-0.434644609689713,0.617052376270294,-1.00916701981882,-0.434216375765357,0.616484384666525,0
3.03999900817871,-2.10677790641785,2.05953431129456,2.43064856529236,-2.1070904288371,2.05919423420069,2.43053554712756,2083.226,2082.906,2081.195,2083.466,2.19134616851807,44.9955711364746,359.125305175781,-1.00315320491791,-0.431632280349731,0.612755715847015,-1.00202378325828,-0.431142840632279,0.612120692919695,0
3.05999946594238,-2.12669610977173,2.05096387863159,2.44281482696533,-2.12705790388088,2.05060278751603,2.4427333660455,2081.719,2081.318,2079.758,2082.103,2.26549959182739,44.9956245422363,359.095886230469,-0.995893180370331,-0.428514927625656,0.608315289020538,-0.994637809041649,-0.427964862267096,0.607608716526612,0
3.07999801635742,-2.1464638710022,2.04245805740356,2.45488929748535,-2.14687337079936,2.04207674568107,2.45483832557174,2080.233,2079.856,2078.385,2080.6,2.33878993988037,44.9956703186035,359.066772460938,-0.988393545150757,-0.425294160842896,0.603724837303162,-0.987012816387451,-0.424684040945629,0.602950727499826,0
3.09999847412109,-2.16607689857483,2.03401875495911,2.46686911582947,-2.16653584520328,2.033616532251,2.46684982435823,2078.618,2078.377,2077.15,2079.2,2.41126799583435,44.9957275390625,359.037933349609,-0.980657041072845,-0.421971321105957,0.598991274833679,-0.979150439632689,-0.421301079877433,0.598147724230312,0
3.11999893188477,-2.18553042411804,2.02564787864685,2.47875118255615,-2.18603872829175,2.02522498650551,2.47876383130049,2077.745,2077.171,2075.29,2077.508,2.48310279846191,44.9957656860352,359.009460449219,-0.972686886787415,-0.418547928333282,0.594107508659363,-0.971054592046769,-0.41781766283301,0.593202097273285,0
3.13999938964844,-2.20482015609741,2.01734733581543,2.49053287506104,-2.20537738341953,2.01690410346351,2.49057751394429,2076.426,2075.802,2073.829,2076.161,2.55385684967041,44.9957962036133,358.981414794922,-0.964485168457031,-0.41502445936203,0.589090168476105,-0.962728579444533,-0.414235212212131,0.588115866099442,0
3.15999794006348,-2.22394156455994,2.00911903381348,2.50221157073975,-2.22454542119638,2.00865663230111,2.50228696911083,2075.033,2074.397,2072.529,2074.826,2.62346839904785,44.995849609375,358.953796386719,-0.95605593919754,-0.411402702331543,0.583934605121613,-0.954176642367246,-0.410555552601238,0.582891621189275,0
3.17999839782715,-2.24288940429688,2.00096559524536,2.51378440856934,-2.24354199818069,2.00048293592768,2.51389168155481,2073.319,2072.945,2071.583,2073.589,2.69198131561279,44.995906829834,358.926544189453,-0.947403013706207,-0.407684445381165,0.578644096851349,-0.945400671854024,-0.406779497661632,0.577530517749065,0
3.19999885559082,-2.26166009902954,1.99288809299469,2.52524852752686,-2.26236084956923,1.99238570991304,2.52538782420568,2072.628,2071.828,2069.775,2071.962,2.75973010063171,44.9959487915039,358.899658203125,-0.938530504703522,-0.403871864080429,0.573209226131439,-0.936405103758047,-0.402908956017012,0.572035265572306,0
3.21999931335449,-2.28024911880493,1.98488891124725,2.53660154342651,-2.28099762052367,1.98436682802245,2.53677273676068,2071.244,2070.56,2068.567,2070.732,2.82622575759888,44.9960021972656,358.873291015625,-0.92944061756134,-0.399965345859528,0.567650437355042,-0.927193677444144,-0.398945536611599,0.566408148978615,0
3.23999786376953,-2.29865169525146,1.97696948051453,2.54784083366394,-2.29944628156995,1.97642888457015,2.54804273590817,2070.051,2069.245,2067.285,2069.495,2.89154458045959,44.9960594177246,358.847351074219,-0.920137882232666,-0.39596700668335,0.561961829662323,-0.917771149318993,-0.394891285994308,0.560652073582612,0
3.2599983215332,-2.31686449050903,1.96913182735443,2.55896377563477,-2.31770615117141,1.96857217280235,2.55919740530806,2068.585,2068.027,2066.308,2068.225,2.95564818382263,44.9961280822754,358.821838378906,-0.910626411437988,-0.39187878370285,0.556144297122955,-0.908139677873146,-0.390747132903322,0.554768357972493,0
3.27999877929688,-2.33488273620605,1.9613778591156,2.56996774673462,-2.33577134012187,1.96079922667992,2.57023314733618,2067.764,2066.907,2064.804,2066.866,3.01875257492065,44.9961776733398,358.796844482422,-0.900910258293152,-0.387702524662018,0.550198674201965,-0.898304216251578,-0.386515208538549,0.548760027947228,0
3.29999923706055,-2.35270261764526,1.95370924472809,2.58085036277771,-2.35363781007389,1.95311178379095,2.5811474950291,2066.718,2065.745,2063.52,2065.681,3.08055686950684,44.9962425231934,358.772338867188,-0.890992820262909,-0.383439302444458,0.544133841991425,-0.888268937369113,-0.38219730838866,0.542629632675369,0
3.31999778747559,-2.37032008171082,1.94612741470337,2.59160923957825,-2.37129993249841,1.94551226593426,2.59193701000626,2065.626,2064.577,2062.357,2064.526,3.14095497131348,44.9962997436523,358.748382568359,-0.880878567695618,-0.379091173410416,0.537949502468109,-0.87803910737898,-0.377795698332271,0.536380389167745,0
3.33999824523926,-2.38773155212402,1.93863415718079,2.60224223136902,-2.38875720963391,1.93800088728271,2.6026013881929,2064.219,2063.432,2061.534,2063.425,3.19991517066956,44.9963607788086,358.724914550781,-0.870572149753571,-0.374660134315491,0.531648457050323,-0.8676171642955,-0.373311427378832,0.530013786769263,0
3.35999870300293,-2.40493297576904,1.9312310218811,2.61274671554565,-2.40600416902084,1.93058000248278,2.61313728654888,2063.489,2062.47,2060.178,2062.118,3.2576949596405,44.9964141845703,358.701995849609,-0.860078454017639,-0.370148718357086,0.525227248668671,-0.857008572601967,-0.368746846742847,0.523533163647493,0
3.3799991607666,-2.42192101478577,1.92392015457153,2.62312078475952,-2.42303712348661,1.92325119802182,2.623542452638,2062.457,2061.445,2059.093,2061.054,3.31401777267456,44.996467590332,358.679656982422,-0.84940105676651,-0.365558058023453,0.518698930740356,-0.846217938763199,-0.364103938457435,0.51694133381991,0
3.39999771118164,-2.43869209289551,1.91670203208923,2.63336205482483,-2.43985088596004,1.91601670575165,2.63381371775943,2061.521,2060.289,2058.011,2060.115,3.36886215209961,44.9965438842773,358.657928466797,-0.838544964790344,-0.360890299081802,0.512064397335052,-0.835251031898626,-0.359385184813519,0.51024182155155,0
3.41999816894531,-2.45524215698242,1.90957927703857,2.64346837997437,-2.45644516534361,1.90887665092339,2.64395090408624,2060.194,2059.324,2057.352,2059.055,3.42216300964355,44.9966087341309,358.63671875,-0.827515304088593,-0.356147676706314,0.505320250988007,-0.824110582941664,-0.354591760855451,0.503436295127018,0
3.43999862670898,-2.47156858444214,1.90255260467529,2.6534378528595,-2.47281494657125,1.90183319137989,2.6539509479928,2059.818,2058.479,2055.908,2057.859,3.47421360015869,44.9966659545898,358.616119384766,-0.816317081451416,-0.351332634687424,0.498468607664108,-0.812802561098952,-0.34972623496609,0.496528401041508,0
3.45999908447266,-2.48766779899597,1.89562356472015,2.66326832771301,-2.48895692832918,1.89488774758421,2.66381183275806,2058.817,2057.533,2055.018,2056.981,3.52454209327698,44.9967231750488,358.596160888672,-0.804953932762146,-0.346446335315704,0.491523504257202,-0.801332006385299,-0.344790775723006,0.489521218161412,0
3.4799976348877,-2.50353622436523,1.88879370689392,2.67295789718628,-2.50486640494811,1.88804234425441,2.67353068376208,2057.952,2056.642,2054.122,2056.014,3.57320165634155,44.9967842102051,358.576843261719,-0.79343193769455,-0.341491550207138,0.484479159116745,-0.78970518344449,-0.339788078627405,0.482418573459868,0
3.49999809265137,-2.51917123794556,1.88206434249878,2.68250465393066,-2.52054331600794,1.88129700738756,2.68310746409516,2056.925,2055.731,2053.422,2055.165,3.62017703056335,44.9968681335449,358.558166503906,-0.781756281852722,-0.336470574140549,0.477342814207077,-0.777925130847354,-0.334719451091428,0.475222323152372,0
3.51999855041504,-2.53456997871399,1.87543678283691,2.69190692901611,-2.53598314392723,1.87465368077274,2.69253941403729,2056.418,2054.982,2052.344,2054.144,3.66560983657837,44.9969291687012,358.540161132813,-0.769932627677917,-0.331385940313339,0.470111042261124,-0.765998315247401,-0.329587675535422,0.467936417616648,0
3.53999900817871,-2.54972958564758,1.86891186237335,2.70116281509399,-2.55118300793501,1.86811360392524,2.70182477377044,2055.619,2054.134,2051.543,2053.392,3.70925283432007,44.9970016479492,358.522827148438,-0.757965505123138,-0.326239466667175,0.462797313928604,-0.753930210209441,-0.324395107081412,0.460564200568024,0
3.55999755859375,-2.56464672088623,1.86249113082886,2.71027064323425,-2.56613872308604,1.86167857751006,2.71096098677687,2054.821,2053.416,2050.836,2052.526,3.75110268592834,44.9970741271973,358.506195068359,-0.745861172676086,-0.321033895015717,0.455396682024002,-0.741727567798258,-0.319144650954242,0.45310979673751,0
3.57999801635742,-2.57931923866272,1.85617566108704,2.71922898292542,-2.58085048488145,1.85534851740854,2.71994817248517,2054.006,2052.67,2050.193,2051.784,3.79120016098022,44.9971466064453,358.490264892578,-0.733624994754791,-0.315771579742432,0.447917431592941,-0.72939375026341,-0.313837753835969,0.445575260070899,0
3.59999847412109,-2.59374451637268,1.84996652603149,2.72803616523743,-2.59531431270705,1.84912513636775,2.72878389920025,2053.658,2052.055,2049.219,2050.913,3.82961869239807,44.9972190856934,358.475067138672,-0.721262872219086,-0.310455203056335,0.440357476472855,-0.716935713767317,-0.308477408768949,0.437964839979262,0
3.61999893188477,-2.60792016983032,1.84386467933655,2.73669075965881,-2.6095277810186,1.84300947803163,2.73746668519498,2053.054,2051.382,2048.504,2050.254,3.86608552932739,44.9972953796387,358.460662841797,-0.70877993106842,-0.305086582899094,0.432728081941605,-0.704359365424783,-0.303066157419654,0.430282145026854,0
3.6399974822998,-2.62184381484985,1.83787155151367,2.7451913356781,-2.62348726424244,1.83700310238323,2.74599431566298,2052.447,2050.745,2047.888,2049.585,3.90055084228516,44.9973602294922,358.446990966797,-0.696182608604431,-0.299668610095978,0.42502823472023,-0.691671935956746,-0.297607110965304,0.422531592348262,0
3.65999794006348,-2.63551330566406,1.83198738098145,2.75353670120239,-2.6371932403809,1.83110580375149,2.75436708260842,2051.733,2050.054,2047.433,2049.058,3.9330096244812,44.9974594116211,358.434051513672,-0.683476984500885,-0.29420393705368,0.417264610528946,-0.67887712865581,-0.292101862829246,0.414715444227152,0
3.67999839782715,-2.64892673492432,1.82621371746063,2.76172518730164,-2.65064230460817,1.82531904713786,2.76258290607635,2051.399,2049.698,2046.734,2048.201,3.9635751247406,44.9975242614746,358.421905517578,-0.670670032501221,-0.288695871829987,0.409430086612701,-0.665982380593835,-0.286553612975735,0.406838243854667,0
3.69999885559082,-2.66208171844482,1.82055068016052,2.76975607872009,-2.66383252129072,1.81964366539135,2.77064060361845,2050.924,2049.113,2046.166,2047.777,3.99208807945251,44.9976081848145,358.410583496094,-0.65776664018631,-0.283146351575851,0.401545912027359,-0.652994032435616,-0.280965089615694,0.398903864643987,0
