t,x_s1,x_s2,x_s3,x_s_d1,x_s_d2,x_s_d3,propellers_rpms1,propellers_rpms2,propellers_rpms3,propellers_rpms4,rollRad,pitchRad,yawRad,v_s1,v_s2,v_s3,v_s_d1,v_s_d2,v_s_d3,insideCount
0,-0.0599999986588955,2.94000005722046,1.17999994754791,-0.0599999986588955,2.94000005722046,1.17999994754791,0,0,0,0,0,45.0048027038574,0,0,0,0,-1.06581410364015E-15,4.44089209850063E-16,4.44089209850063E-16,0
0.0200042724609375,-0.0599999986588955,2.94000005722046,1.17705690860748,-0.0600018701838461,2.93999925195556,1.18000110611101,0,0,0,0,0.937003672122955,44.8630027770996,-0.00115976633969694,3.71994488546079E-08,3.50004931704007E-08,-0.147149950265884,-0.000280105751305916,-0.000120521679537258,0.00017339880334547,5
0.040008544921875,-0.0599999986588955,2.94000005722046,1.17018985748291,-0.060014880898484,2.93999365380853,1.18000916036316,0,0,0,0,1.87400352954865,44.7211418151855,-0.00311126722954214,3.70364325874561E-08,3.5142885934647E-08,-0.343349903821945,-0.00111143977225461,-0.000478221483967637,0.00068803416424398,6
0.0600128173828125,-0.0599062219262123,2.94009447097778,1.16346526145935,-0.0600499235789167,2.93997857592211,1.18003085345166,3197.51,2848.855,1517.284,2782.413,1.40357756614685,44.7413597106934,0.0289044845849276,0.0046888580545783,0.0047190310433507,-0.336230665445328,-0.00248060856799822,-0.00106733656662813,0.00153561487136384,6
0.0800018310546875,-0.0597377754747868,2.94026732444763,1.1572380065918,-0.0601175574246769,2.93994947496775,1.18007272202403,2865.766,2651.884,2344.78,2562.391,0.339527368545532,44.8158378601074,0.0998127534985542,0.00842240825295448,0.00864493101835251,-0.311360538005829,-0.00437268608126799,-0.00188144466206175,0.00270690098422899,6
0.100006103515625,-0.0595562867820263,2.94046425819397,1.15152072906494,-0.0602282404704493,2.93990185114529,1.18014124010193,2239.829,2528.202,3138.514,2508.875,359.321563720703,44.9191551208496,0.178464367985725,0.00907440576702356,0.00984902586787939,-0.285866975784302,-0.00677739276378709,-0.00291612276782231,0.00419552897277328,5
0.120010375976563,-0.0594243779778481,2.94063210487366,1.14657139778137,-0.0603920338334453,2.93983137543704,1.18024263599618,2124.324,2455.14,3351.924,2464.544,358.750061035156,44.9999198913574,0.253282487392426,0.00659537129104137,0.00839794985949993,-0.247464254498482,-0.00968041450003567,-0.00416521191989172,0.00599263771761404,5
0.139999389648438,-0.0593829564750195,2.94074010848999,1.14257490634918,-0.0606185767455666,2.93973390035084,1.18038287685052,2312.606,2456.954,3069.353,2463.661,358.636199951172,45.0326957702637,0.32639142870903,0.00207098387181759,0.00539822783321142,-0.199827313423157,-0.0130660253322238,-0.00562194567796536,0.00808849210174802,5
0.160003662109375,-0.0594433136284351,2.9407856464386,1.1395308971405,-0.0609177895434042,2.93960515744296,1.18056810382587,2536.625,2486.913,2636.111,2492.42,358.757110595703,45.0250549316406,0.398112952709198,-0.00301789259538054,0.00227893586270511,-0.152199149131775,-0.0169265510445065,-0.00728302204135792,0.0104783414199936,5
0.180007934570313,-0.0596000291407108,2.94078159332275,1.13731896877289,-0.0612988491946875,2.93944119812059,1.1808039979024,2667.18,2506.56,2302.736,2513.444,358.864471435547,44.9986038208008,0.467280983924866,-0.00783581659197807,-0.000198562396690249,-0.110596925020218,-0.0212468478482708,-0.00914192506089775,0.0131528109458008,5
0.20001220703125,-0.0598475858569145,2.94073963165283,1.13577473163605,-0.0617708265342762,2.93923811945689,1.181096174359,2654.027,2500.611,2183.612,2508.991,358.817199707031,44.9744415283203,0.532842755317688,-0.0123778786510229,-0.00209223292768002,-0.0772098898887634,-0.0260142813927851,-0.0111932185284278,0.0161040794142088,5
0.220001220703125,-0.0601895190775394,2.94066190719604,1.13476383686066,-0.0623420644491781,2.93899233174064,1.18144979784016,2540.813,2470.971,2246.168,2479.409,358.612579345703,44.9637298583984,0.594538986682892,-0.017096683382988,-0.00388216692954302,-0.0505452826619148,-0.03121219533433,-0.0134297356845702,0.019321835755004,5
0.240005493164063,-0.060638789087534,2.94054126739502,1.13421726226807,-0.0630219993990999,2.93869977472688,1.18187070996396,2411.811,2429.98,2375.193,2438.009,358.334899902344,44.966007232666,0.652484059333801,-0.0224635526537895,-0.00603294931352139,-0.0273290444165468,-0.0368361158647881,-0.0158495515746756,0.0228033104678445,5
0.260009765625,-0.0612131915986538,2.9403657913208,1.13412117958069,-0.0638185570309634,2.93835703823113,1.18236381708338,2330.58,2392.712,2462.834,2398.864,358.076782226563,44.9739532470703,0.707630813121796,-0.0287200789898634,-0.00877064559608698,-0.00480267219245434,-0.0428699302682246,-0.0184457333472145,0.0265385290140116,4
0.279998779296875,-0.0619297698140144,2.94012451171875,1.13447904586792,-0.0647390625194898,2.93796097043536,1.18293365383054,2306.432,2365.707,2470.45,2371.278,357.887512207031,44.9803771972656,0.760452210903168,-0.035828959196806,-0.0120586240664124,0.0178953092545271,-0.0492963837173861,-0.0212108567320638,0.030516809833474,4
0.300003051757813,-0.0628013610839844,2.93981027603149,1.13528323173523,-0.0657927507678135,2.93750759781875,1.18358593705038,2317.562,2348.619,2416.85,2354.284,357.765625,44.9818801879883,0.8110431432724,-0.0435794815421104,-0.0157085061073303,0.040212094783783,-0.0561132031658829,-0.0241439437008635,0.0347367458022363,4
0.32000732421875,-0.0638362467288971,2.93941974639893,1.13650631904602,-0.0669865614821475,2.93699393441958,1.18432496275165,2335.93,2337.34,2342.964,2342.045,357.679443359375,44.9789047241211,0.859803795814514,-0.0517443418502808,-0.0195266269147396,0.0611560791730881,-0.0633036493784043,-0.0272377918282996,0.0391879745362408,4
0.340011596679688,-0.0650399550795555,2.93895173072815,1.13810455799103,-0.0683278498358171,2.93641681551226,1.18515528413699,2338.67,2325.472,2287.165,2330.743,357.595153808594,44.974193572998,0.906387150287628,-0.0601853728294373,-0.0234062448143959,0.0799131840467453,-0.0708558471483356,-0.0304872915447207,0.0438631447168985,4
0.360000610351563,-0.0664175376296043,2.93840479850769,1.14003169536591,-0.0698225328270578,2.93577369517774,1.1860805641102,2322.952,2311.285,2262.368,2316.682,357.4951171875,44.970344543457,0.950632810592651,-0.0688793063163757,-0.0273440293967724,0.0963581278920174,-0.0787518717320621,-0.0338847303337087,0.0487511600740379,4
0.3800048828125,-0.0679749026894569,2.93777704238892,1.14224827289581,-0.0714797725314022,2.93506063123087,1.18710647443246,2295.474,2294.763,2262.513,2300.503,357.380462646484,44.9686698913574,0.992334187030792,-0.0778681635856628,-0.0313913412392139,0.11082873493433,-0.0869921272359981,-0.0374302820709642,0.0538522707687797,4
0.400009155273438,-0.0697189643979073,2.93706512451172,1.14472687244415,-0.0733051402689975,2.93427522648826,1.18823646401636,2269.898,2278.851,2268.925,2283.262,357.262512207031,44.968822479248,1.03206956386566,-0.0872032195329666,-0.0356014221906662,0.123929604887962,-0.0955591682828665,-0.0411164404980124,0.0591556772815509,4
0.419998168945313,-0.0716569423675537,2.93626523017883,1.14744710922241,-0.0753034649285836,2.93341540321397,1.18947352217404,2249.951,2263.772,2271.494,2268.516,357.152893066406,44.9699516296387,1.06973385810852,-0.0968989878892899,-0.0399924740195274,0.136009991168976,-0.104434660908044,-0.0449353170220673,0.0646500300148815,4
0.44000244140625,-0.0737956389784813,2.93537425994873,1.15039253234863,-0.077483988232608,2.93247718495301,1.19082336997196,2237.983,2250.977,2265.034,2256.184,357.058044433594,44.9711303710938,1.10517358779907,-0.106934927403927,-0.0445508100092411,0.147273987531662,-0.113620829717891,-0.048887868829098,0.0703367061060819,4
0.460006713867188,-0.0761410146951675,2.93438935279846,1.15354859828949,-0.0798512213598696,2.93145863067119,1.19228880004469,2233.716,2241.582,2249.008,2245.305,356.976989746094,44.971736907959,1.13905477523804,-0.117268860340118,-0.0492448210716248,0.157804951071739,-0.123099793815011,-0.0529664022684887,0.0762046364278779,4
0.480010986328125,-0.0786980390548706,2.93330860137939,1.15689754486084,-0.0824109101018722,2.93035726811493,1.19387336931088,2228.985,2232.829,2232.968,2237.034,356.904754638672,44.9719314575195,1.17116320133209,-0.127851337194443,-0.0540387593209743,0.167449146509171,-0.132860437136906,-0.0571661344090936,0.082246939608052,4
0.5,-0.0814711079001427,2.93213033676147,1.16042184829712,-0.085166398670376,2.92917165836334,1.1955791479969,2223.314,2225.003,2220.274,2229.229,356.836761474609,44.9720306396484,1.20147264003754,-0.138653606176376,-0.0589140728116035,0.176218137145042,-0.142884000065179,-0.0614789935111996,0.0884520025491718,5
0.520004272460938,-0.0844643041491508,2.93085312843323,1.16410481929779,-0.088127196023106,2.92789770997757,1.19741202260058,2215.043,2217.251,2213.437,2222.052,356.771087646484,44.9724159240723,1.22971630096436,-0.149659961462021,-0.0638645961880684,0.184146001935005,-0.153174893518032,-0.065906877469682,0.0948225558197254,5
0.540008544921875,-0.0876816809177399,2.9294753074646,1.16793358325958,-0.0912963635428427,2.92653410573011,1.19937388826368,2208.69,2211.23,2207.711,2214.26,356.707458496094,44.9730377197266,1.25665378570557,-0.160868808627129,-0.0688939541578293,0.191437646746635,-0.163714777034477,-0.0704418948965508,0.101347245800684,5
0.55999755859375,-0.0911271050572395,2.92799520492554,1.17189598083496,-0.094676112580471,2.92507989413848,1.20146611391775,2200.861,2204.699,2205.355,2208.375,356.646881103516,44.9739875793457,1.28200101852417,-0.172271430492401,-0.0740001574158669,0.198117032647133,-0.17448465888317,-0.0750758741803766,0.108014315705644,5
0.580001831054688,-0.0948043614625931,2.92641162872314,1.17598223686218,-0.0982762614093182,2.92353085067394,1.20369477754168,2194.025,2198.733,2204.02,2203.203,356.591278076172,44.975212097168,1.30542492866516,-0.183862566947937,-0.0791823416948318,0.204314470291138,-0.185490414529404,-0.0798113433697334,0.11482740272751,5
0.600006103515625,-0.0987170487642288,2.92472290992737,1.18018639087677,-0.102098762959148,2.92188613504538,1.20606108809202,2191.793,2195.171,2198.851,2197.779,356.541046142578,44.9763374328613,1.32774066925049,-0.195634365081787,-0.0844371244311333,0.21020981669426,-0.196713446836865,-0.0846403006364086,0.121774994352997,5
0.620010375976563,-0.102868363261223,2.92292785644531,1.18450093269348,-0.106147859919355,2.92014392174208,1.20856767199563,2188.348,2191.247,2195.164,2194.525,356.495422363281,44.9774513244629,1.34865713119507,-0.207565739750862,-0.0897515341639519,0.215729564428329,-0.20814339888717,-0.0895582896877615,0.128850679156259,5
0.639999389648438,-0.107261277735233,2.92102551460266,1.18892014026642,-0.110424235525481,2.91830391678686,1.21121495220784,2186.005,2188.195,2191.806,2191.525,356.453857421875,44.9785499572754,1.36815202236176,-0.219646155834198,-0.0951196998357773,0.220960080623627,-0.219761081350814,-0.0945570538913933,0.136042578028218,5
0.660003662109375,-0.111898526549339,2.91901469230652,1.19343841075897,-0.114938248900541,2.91636166293851,1.21400934151928,2182.902,2185.237,2190.431,2189.367,356.416198730469,44.979736328125,1.38587749004364,-0.23186232149601,-0.100535251200199,0.225913763046265,-0.231574097577923,-0.0996398647564507,0.143355397804799,5
0.680007934570313,-0.116782709956169,2.91689467430115,1.19805335998535,-0.119690355154666,2.91431696437584,1.21695112166479,2183.241,2184.467,2186.608,2186.336,356.381713867188,44.9807777404785,1.4028137922287,-0.244209259748459,-0.105996862053871,0.230746552348137,-0.243563621239988,-0.104798621839723,0.150777484091833,5
0.70001220703125,-0.121916130185127,2.91466474533081,1.20276069641113,-0.124683985757554,2.91216834463331,1.22004241688759,2181.139,2182.553,2185.803,2185.402,356.349639892578,44.9818916320801,1.41852927207947,-0.256671369075775,-0.111496180295944,0.235368549823761,-0.255719729227087,-0.11002905550423,0.158302694011575,5
0.720001220703125,-0.127301037311554,2.91232419013977,1.2075582742691,-0.129918284978346,2.90991617190799,1.22328269744952,2179.879,2181.343,2185.664,2184.286,356.320159912109,44.9830589294434,1.43298387527466,-0.269245654344559,-0.117032893002033,0.239881098270416,-0.268023157655716,-0.11532287703907,0.16591910230247,5
0.740005493164063,-0.132939502596855,2.90987205505371,1.21244418621063,-0.13540428105644,2.90755570105657,1.22667879035609,2177.915,2180.021,2187.13,2183.871,356.294097900391,44.9843215942383,1.44578802585602,-0.28192326426506,-0.122604019939899,0.244297549128532,-0.280482990349159,-0.120683994959631,0.173632332283853,5
0.760009765625,-0.138833537697792,2.90730786323547,1.2174197435379,-0.141140917956636,2.9050873864615,1.23023004187122,2180.089,2181.02,2184.844,2182.353,356.271148681641,44.9854049682617,1.45803415775299,-0.294701814651489,-0.12820965051651,0.248778745532036,-0.293080296154222,-0.126104263719567,0.181430664670081,5
0.779998779296875,-0.144984811544418,2.9046311378479,1.22248363494873,-0.147126184485884,2.90251209348295,1.23393520697061,2179.624,2180.583,2185.147,2183.046,356.25048828125,44.9864845275879,1.46922898292542,-0.30756402015686,-0.133839815855026,0.253196239471436,-0.305795832832518,-0.131575403921268,0.189302187598958,5
0.800003051757813,-0.151394903659821,2.90184116363525,1.22763562202454,-0.153371683173492,2.89982482987671,1.2378014681726,2178.649,2180.078,2187.243,2183.816,356.232696533203,44.9876441955566,1.47882151603699,-0.320504605770111,-0.139492884278297,0.257598668336868,-0.318639638509124,-0.13710173468952,0.197253115148089,5
0.82000732421875,-0.158065348863602,2.89893770217896,1.23287844657898,-0.159875221826383,2.89702653888221,1.24182746840525,2181.728,2182.035,2185.54,2183.079,356.217315673828,44.9886016845703,1.48798096179962,-0.333522617816925,-0.145170032978058,0.262143075466156,-0.331592781842754,-0.14267511039705,0.205271727915392,5
0.840011596679688,-0.164997383952141,2.89592051506042,1.23821210861206,-0.166638895824778,2.89411631891588,1.24601450480873,2181.731,2182.278,2186.756,2184.541,356.203643798828,44.9895668029785,1.49617290496826,-0.346601545810699,-0.150862276554108,0.26668319106102,-0.344646098867604,-0.148291588045382,0.213352352969496,5
0.860000610351563,-0.172192186117172,2.8927891254425,1.24363815784454,-0.173659158941841,2.89109569582005,1.2503603820997,2182.496,2183.056,2188.228,2185.482,356.191802978516,44.9905471801758,1.50332868099213,-0.359740346670151,-0.156570270657539,0.271304428577423,-0.357780475378537,-0.153942943326036,0.221483157706883,5
0.8800048828125,-0.17965079843998,2.88954329490662,1.24915790557861,-0.180948461186242,2.88795931270381,1.25487280742661,2182.024,2183.419,2191.376,2186.897,356.182739257813,44.9915962219238,1.50899338722229,-0.372930437326431,-0.162291347980499,0.275986075401306,-0.371007022483504,-0.159633957038354,0.229671020432672,5
0.900009155273438,-0.187374234199524,2.88618278503418,1.25477576255798,-0.188503099076414,2.88470876307182,1.25954948815793,2186.113,2186.142,2189.878,2186.786,356.175964355469,44.9923973083496,1.51439940929413,-0.38617217540741,-0.168027073144913,0.280891478061676,-0.384306908919572,-0.165356526615982,0.237904283698049,5
0.919998168945313,-0.195363193750381,2.88270735740662,1.26049256324768,-0.196318384305134,2.8813460641717,1.26438752200817,2186.664,2186.926,2191.415,2188.912,356.170623779297,44.9931831359863,1.51895833015442,-0.399447113275528,-0.173767194151878,0.285839945077896,-0.397661187980262,-0.171102499820431,0.246171218589148,5
0.94000244140625,-0.203618228435516,2.87911701202393,1.26630997657776,-0.204407453948074,2.87786556348678,1.26939504145298,2186.372,2187.386,2194.878,2190.839,356.167510986328,44.9940605163574,1.52203524112701,-0.412752270698547,-0.179511472582817,0.290870189666748,-0.411081631631503,-0.176876941799768,0.254479112513653,5
0.960006713867188,-0.212140023708344,2.87541174888611,1.27223289012909,-0.212765478812529,2.87426933888379,1.27456905699201,2190.667,2190.41,2193.605,2190.873,356.166229248047,44.9947090148926,1.5249308347702,-0.426089406013489,-0.185262739658356,0.296148002147675,-0.424549556012544,-0.182671813410681,0.262816399271726,5
0.980010986328125,-0.220928832888603,2.87159156799316,1.27826249599457,-0.221393324468958,2.87055701793193,1.27991010445463,2191.134,2191.288,2195.565,2193.189,356.166046142578,44.9953689575195,1.52701365947723,-0.439440548419952,-0.191011339426041,0.301480114459991,-0.438056556301695,-0.188483498293199,0.271177875878363,5
1,-0.229984939098358,2.86765646934509,1.28440153598785,-0.230284798736574,2.86673126495361,1.28541435058594,2192.372,2192.627,2197.56,2194.687,356.167266845703,44.9960250854492,1.52821600437164,-0.452806621789932,-0.196759015321732,0.306950747966766,-0.451584000205995,-0.194303979492187,0.279552008056641,5
1.02000427246094,-0.239308521151543,2.86360645294189,1.29065191745758,-0.239454009753966,2.86278600961093,1.2910905289958,2192.041,2193.263,2201.277,2196.62,356.170928955078,44.9967575073242,1.52797949314117,-0.466179132461548,-0.202503249049187,0.312518775463104,-0.465144357597929,-0.200138622445408,0.287946515251652,5
1.04000854492188,-0.248899728059769,2.85944151878357,1.29701900482178,-0.248894644448595,2.85872396824263,1.29693473159157,2196.769,2196.49,2199.529,2196.614,356.176574707031,44.9972114562988,1.52770864963531,-0.479559808969498,-0.208246380090714,0.318355828523636,-0.47871923339115,-0.205979512261105,0.296350010028666,5
1.05999755859375,-0.258758276700974,2.8551619052887,1.30350387096405,-0.258599401509697,2.85454828239877,1.30294243851408,2197.28,2197.343,2201.174,2199.017,356.183227539063,44.997673034668,1.52672278881073,-0.492928802967072,-0.213977381587029,0.32424059510231,-0.492290296490434,-0.211818761581115,0.30475114456651,5
1.08000183105469,-0.268883973360062,2.85076808929443,1.31010806560516,-0.268583149539609,2.85025255453512,1.30912285413647,2196.757,2197.694,2204.854,2201.076,356.191802978516,44.998233795166,1.52428495883942,-0.506284177303314,-0.219696432352066,0.330208212137222,-0.50587040849135,-0.217661904390701,0.313157880805523,5
1.10000610351563,-0.279276520013809,2.8462598323822,1.31683671474457,-0.278838480013141,2.84583997233313,1.31547139222872,2201.314,2200.81,2203.068,2200.906,356.201934814453,44.9985389709473,1.52182352542877,-0.519629120826721,-0.225407332181931,0.336435109376907,-0.519441457145546,-0.223501147495394,0.321559006401169,5
1.12001037597656,-0.289935410022736,2.84163784980774,1.323690533638,-0.289365134970699,2.84131064678559,1.32198789310157,2201.35,2201.518,2204.964,2203.08,356.212829589844,44.9988708496094,1.51869308948517,-0.53294426202774,-0.23109969496727,0.342690616846085,-0.532995796775449,-0.22933320117373,0.329949788314817,5
1.13999938964844,-0.300860077142715,2.83690237998962,1.33067190647125,-0.300154365346813,2.83666834237095,1.3286669406667,2202.286,2202.5,2206.718,2204.408,356.224914550781,44.9992218017578,1.51474702358246,-0.546232163906097,-0.23677596449852,0.349067151546478,-0.546515580872639,-0.235150386571708,0.338319178707607,5
1.16000366210938,-0.312049746513367,2.83205366134644,1.33778202533722,-0.311222084148811,2.83190621216671,1.33551838583369,2201.364,2202.706,2210.335,2206.072,356.239349365234,44.9996757507324,1.50935578346252,-0.559484124183655,-0.242433488368988,0.355508923530579,-0.560014026276883,-0.240958390526247,0.34667535943296,6
1.18000793457031,-0.323503792285919,2.82709217071533,1.34502613544464,-0.322559451663168,2.82702805965467,1.34253675639879,2206.082,2205.759,2207.745,2205.479,356.255676269531,44.9998245239258,1.50410437583923,-0.572702646255493,-0.24807533621788,0.362202733755112,-0.573473482003304,-0.246749618311663,0.355007403690405,6
1.20001220703125,-0.335221111774445,2.82201838493347,1.35240399837494,-0.334165615614823,2.82203425154496,1.34972152476313,2206,2206.066,2208.917,2207.571,356.272766113281,44.9999961853027,1.49820792675018,-0.585866808891296,-0.253689289093018,0.368894547224045,-0.586886736182789,-0.252520966862155,0.363310846989412,6
1.22000122070313,-0.347200691699982,2.81683278083801,1.35991740226746,-0.346030421585499,2.81692915700008,1.35706640485806,2206.64,2206.778,2210.171,2208.573,356.290832519531,45.0001754760742,1.49154472351074,-0.598978638648987,-0.259277492761612,0.375671893358231,-0.600236516861372,-0.258265004538453,0.371574997167698,6
1.24000549316406,-0.359441250562668,2.81153607368469,1.36756694316864,-0.358170848086624,2.8117054706409,1.36458190719098,2205.198,2206.576,2213.576,2209.939,356.311096191406,45.0004806518555,1.48343658447266,-0.612029910087585,-0.264837682247162,0.382476449012756,-0.613536214864368,-0.263987493038594,0.379808143784027,6
1.260009765625,-0.371941745281219,2.80612850189209,1.3753570318222,-0.37057666480527,2.80636759428526,1.37226169871082,2209.695,2209.322,2210.502,2208.904,356.333099365234,45.0004959106445,1.47552573680878,-0.625024259090424,-0.270373433828354,0.389507383108139,-0.626768731761373,-0.26968107538565,0.387999702095469,6
1.27999877929688,-0.384700566530228,2.80061101913452,1.38328695297241,-0.383236695417198,2.80092033679326,1.3800988607405,2209.017,2209.222,2211.514,2210.633,356.355743408203,45.0005416870117,1.46701037883759,-0.637940526008606,-0.275872588157654,0.396495223045349,-0.639917282339435,-0.275338529371412,0.396139281255613,6
1.30000305175781,-0.397716134786606,2.79498434066772,1.39135658740997,-0.396168722856641,2.79535604666509,1.38810440176341,2207.216,2208.441,2214.737,2211.949,356.380279541016,45.0007476806641,1.45698714256287,-0.650778234004974,-0.281336337327957,0.403483182191849,-0.652995275331231,-0.280965624398954,0.404235181908735,6
1.32000732421875,-0.410986989736557,2.78924894332886,1.39956998825073,-0.409361504843077,2.78967956113998,1.39627136227237,2211.353,2210.963,2211.498,2210.492,356.406311035156,45.0006713867188,1.44718277454376,-0.663541495800018,-0.286768823862076,0.410671174526215,-0.6659860834168,-0.286555206197011,0.41227711095171,6
1.34001159667969,-0.424511164426804,2.78340578079224,1.40792572498322,-0.422813232584026,2.78389165849082,1.40459862253867,2210.205,2210.507,2212.453,2211.926,356.432891845703,45.000659942627,1.43676829338074,-0.676209926605225,-0.292158663272858,0.41778752207756,-0.678883253871146,-0.292104498338286,0.420261073840379,6
1.36000061035156,-0.438286900520325,2.7774555683136,1.41642439365387,-0.436511415158101,2.77799771321212,1.41307845008695,2210.063,2210.495,2213.251,2212.198,356.460540771484,45.0006866455078,1.42562484741211,-0.68878698348999,-0.29750856757164,0.424935340881348,-0.691670720740693,-0.297606588091785,0.42817712498415,6
1.3800048828125,-0.452312171459198,2.77139925956726,1.42506539821625,-0.450474904562636,2.77198961381608,1.4217225152016,2207.762,2209.5,2216.186,2212.933,356.490600585938,45.0008506774902,1.41300570964813,-0.701264142990112,-0.302816152572632,0.432049751281738,-0.704361775018035,-0.303067194200314,0.436033492140578,6
1.40000915527344,-0.466585040092468,2.76523756980896,1.43385231494904,-0.464691155755482,2.76587275808388,1.43052305190393,2212.013,2211.753,2211.965,2211.031,356.522521972656,45.0006942749023,1.40071368217468,-0.713644742965698,-0.308084517717361,0.439345151185989,-0.716940488958393,-0.308479463400265,0.443820315276901,6
1.41999816894531,-0.481103181838989,2.75897145271301,1.44278287887573,-0.47914673136562,2.75965292774086,1.43947174182117,2210.633,2210.898,2212.15,2212.216,356.554992675781,45.0005798339844,1.38785696029663,-0.72590708732605,-0.313300728797913,0.44652733206749,-0.729391385793766,-0.313836736470737,0.451528013536465,6
1.44000244140625,-0.495864242315292,2.75260210037231,1.45185565948486,-0.493861275572861,2.75332167044526,1.4485807456364,2207.912,2209.368,2214.898,2212.9,356.58935546875,45.0006523132324,1.3734804391861,-0.738050878047943,-0.318465739488602,0.453639805316925,-0.741727567798258,-0.319144650954242,0.459164697851088,6
1.46000671386719,-0.510865867137909,2.74613046646118,1.46107375621796,-0.508821304757097,2.74688478782212,1.45784171634646,2211.706,2211.33,2210.69,2210.62,356.625122070313,45.0004386901855,1.35942339897156,-0.750080823898315,-0.323584347963333,0.460903942584991,-0.753933682518823,-0.324396601119133,0.466720864320996,6
1.48001098632813,-0.526105403900146,2.73955750465393,1.47043430805206,-0.524024159888143,2.74034342397783,1.467253007885,2209.735,2210.142,2211.065,2211.472,356.661315917969,45.0003051757813,1.34479367733002,-0.761976957321167,-0.328644871711731,0.468026995658875,-0.766004036374583,-0.329590137176618,0.474192988348404,6
1.5,-0.541580259799957,2.73288440704346,1.47993671894073,-0.539455198877605,2.73370387899399,1.4768055561018,2208.828,2209.456,2211.362,2211.061,356.698486328125,45.0002288818359,1.32947611808777,-0.773743331432343,-0.333650529384613,0.475121349096298,-0.777924000354858,-0.334718964672088,0.481572013878822,6
1.52000427246094,-0.557287633419037,2.72611236572266,1.48957920074463,-0.555135099954955,2.72695725560613,1.48651216180595,2205.694,2207.729,2213.884,2211.202,356.738128662109,45.0003204345703,1.31266522407532,-0.785372197628021,-0.338599056005478,0.482122927904129,-0.789706299681991,-0.339788558913217,0.48886581843107,6
1.54000854492188,-0.573225021362305,2.71924257278442,1.49936437606812,-0.571049184024557,2.72010986981902,1.49636373793799,2209.67,2209.495,2208.733,2208.499,356.779663085938,45.000072479248,1.29629921913147,-0.796866655349731,-0.34349337220192,0.489261776208878,-0.801336412291853,-0.344792671461508,0.496065412155667,6
1.55999755859375,-0.589389145374298,2.71227622032166,1.50928890705109,-0.587181951496087,2.71316839067337,1.50635068951315,2207.578,2207.921,2208.32,2209.219,356.821685791016,44.9998741149902,1.27937602996826,-0.808205425739288,-0.348320335149765,0.496224075555801,-0.812800388649436,-0.349725300221754,0.503162159625937,6
1.58000183105469,-0.605776846408844,2.70521450042725,1.51935005187988,-0.60355483331529,2.70612359703193,1.51648628330776,2204.102,2205.757,2210.639,2209.329,356.865570068359,44.9998970031738,1.26091659069061,-0.819388806819916,-0.353081315755844,0.503059446811676,-0.824110582941666,-0.354591760855452,0.510163708672098,6
1.60000610351563,-0.622385323047638,2.69805884361267,1.52955007553101,-0.620152298932711,2.69898217125626,1.52676090517188,2207.599,2207.321,2205.639,2206.244,356.910797119141,44.9996109008789,1.24293386936188,-0.830421328544617,-0.357781022787094,0.510003566741943,-0.835253140422976,-0.35938609205264,0.51706148254665,5
1.62001037597656,-0.639210999011993,2.6908106803894,1.5398850440979,-0.636970945360177,2.69174557755711,1.53717244849371,2204.913,2205.437,2205.556,2206.7,356.956359863281,44.9994277954102,1.22440659999847,-0.841284155845642,-0.362407833337784,0.516748189926147,-0.846223126656604,-0.364106170663034,0.523852426598179,5
1.63999938964844,-0.656250655651093,2.68347144126892,1.5503534078598,-0.653994195024907,2.68442094880091,1.54771065096602,2203.483,2204.195,2205.333,2205.741,357.002807617188,44.9993057250977,1.2052161693573,-0.851981937885284,-0.366965144872665,0.523417413234711,-0.857007552155828,-0.368746407673381,0.530528499715628,5
1.66000366210938,-0.673500716686249,2.67604231834412,1.56095230579376,-0.671244443874359,2.67699864863716,1.55838937674714,2199.644,2201.887,2207.518,2205.419,357.0517578125,44.9993782043457,1.18450713157654,-0.862507283687592,-0.371450871229172,0.529942750930786,-0.867618167158098,-0.373311858882592,0.53709697585572,5
1.68000793457031,-0.690957963466644,2.66852498054504,1.57168364524841,-0.688705090349012,2.66948582025311,1.56919834868089,2203.426,2203.321,2201.643,2201.987,357.1025390625,44.9990997314453,1.16438639163971,-0.872863054275513,-0.375868082046509,0.536570012569427,-0.878042061913515,-0.377796969585941,0.543549863268291,5
1.70001220703125,-0.708618581295013,2.66092085838318,1.58254301548004,-0.706372354049449,2.66188409024902,1.58013522651994,2200.748,2201.191,2200.791,2202.343,357.153686523438,44.9988670349121,1.14377152919769,-0.883029401302338,-0.380203664302826,0.542970299720764,-0.888274735793774,-0.382199803288802,0.549884375850026,5
1.72000122070313,-0.726478755474091,2.65323162078857,1.59352827072144,-0.724228658537036,2.6542010212754,1.5911891296115,2199.164,2199.729,2200.084,2201.195,357.20556640625,44.998706817627,1.12252712249756,-0.893010497093201,-0.384460628032684,0.549265086650848,-0.898304216251578,-0.386515208538549,0.556093102023817,5
1.74000549316406,-0.744534730911255,2.64545893669128,1.6046359539032,-0.742297311768984,2.64642658456943,1.60237448669139,2194.966,2197.182,2202.111,2200.665,357.259704589844,44.9987564086914,1.09978485107422,-0.902800023555756,-0.388637334108353,0.555386602878571,-0.908141534469281,-0.390747931744771,0.562182870617028,5
1.760009765625,-0.762782752513885,2.63760423660278,1.61586773395538,-0.760560719141003,2.63856835059778,1.61368040586141,2198.576,2198.352,2196.05,2196.979,357.315368652344,44.9984550476074,1.07764673233032,-0.912400960922241,-0.39273726940155,0.561590731143951,-0.91777478390713,-0.394892849856044,0.568146310914365,4
1.77999877929688,-0.781218588352203,2.62966918945313,1.62721860408783,-0.779000609654483,2.63063418086074,1.62509557650306,2195.492,2196.052,2195.21,2197.057,357.371307373047,44.9982490539551,1.05507528781891,-0.921795308589935,-0.39674836397171,0.567544162273407,-0.927192788821983,-0.398945154262308,0.57397650459845,4
1.80000305175781,-0.799838364124298,2.62165570259094,1.63868474960327,-0.797640935141499,2.62261376955408,1.63663482594136,2191.049,2193.075,2197.244,2196.618,357.429077148438,44.9982681274414,1.03098082542419,-0.930984675884247,-0.400672435760498,0.573307991027832,-0.936405971974637,-0.402909329586356,0.579679903854719,4
1.82000732421875,-0.818637788295746,2.61356544494629,1.65026748180389,-0.816463410111527,2.61451498441355,1.64828683458664,2194.385,2194.072,2191.315,2192.722,357.488098144531,44.9979782104492,1.00747740268707,-0.939972519874573,-0.404513776302338,0.579139471054077,-0.94540321420156,-0.406780591562751,0.585249625391268,3
1.84001159667969,-0.837612688541412,2.6054003238678,1.66196167469025,-0.835463677219795,2.60633970028288,1.66004890503489,2190.998,2191.635,2190.613,2192.62,357.547271728516,44.9977798461914,0.983548939228058,-0.948742687702179,-0.408261686563492,0.58470892906189,-0.954180774018563,-0.410557330335375,0.590683353051152,3
1.86000061035156,-0.856758534908295,2.59716200828552,1.67376470565796,-0.854622615239374,2.59809614449182,1.6719092003358,2188.979,2189.757,2189.86,2191.141,357.607147216797,44.9976654052734,0.959026575088501,-0.957299947738647,-0.411919325590134,0.590148866176605,-0.962728579444532,-0.414235212212131,0.595974851798267,0
1.8800048828125,-0.876071274280548,2.5888524055481,1.68567252159119,-0.873964974649439,2.58977366760063,1.68388304221498,2184.399,2186.909,2191.682,2190.308,357.66943359375,44.9977531433105,0.933044195175171,-0.96563857793808,-0.415485441684723,0.595391750335693,-0.971056158224177,-0.417818336715394,0.601130019760457,0
1.90000915527344,-0.895546436309814,2.58047318458557,1.6976865530014,-0.893471623792247,2.58138050142717,1.69595858726494,2188.084,2187.857,2185.033,2186.22,357.733306884766,44.9974746704102,0.907777070999146,-0.973759949207306,-0.418962270021439,0.600699603557587,-0.979153483542501,-0.421302389586788,0.606142649861596,0
1.91999816894531,-0.915179431438446,2.57202649116516,1.70980107784271,-0.913122862707269,2.57292512231409,1.70812364027167,2184.75,2185.285,2183.769,2186.128,357.797302246094,44.9972610473633,0.882147252559662,-0.981648206710815,-0.422338366508484,0.605726718902588,-0.987011339258123,-0.424683405378145,0.611007036871143,0
1.94000244140625,-0.934965550899506,2.5635142326355,1.72201180458069,-0.932943991899774,2.5643966441608,1.72039386345315,2179.969,2181.985,2185.567,2185.552,357.862976074219,44.9973106384277,0.854984939098358,-0.989305198192596,-0.425615578889847,0.610535681247711,-0.994638524886308,-0.427965170275055,0.615728628108227,0
1.96000671386719,-0.954900205135345,2.55493831634521,1.73431968688965,-0.952915303453826,2.55580354673295,1.73275705667061,2183.298,2182.874,2179.264,2181.198,357.929626464844,44.9970207214355,0.828551411628723,-0.99673330783844,-0.42879793047905,0.615393042564392,-1.00202586176059,-0.431143734953757,0.620301741541062,0
1.98001098632813,-0.974978625774384,2.54630088806152,1.7467188835144,-0.973031969359004,2.54714790738853,1.74521023115561,2179.511,2180.15,2178.468,2180.975,357.996185302734,44.9968528747559,0.801761388778687,-1.00391960144043,-0.431875944137573,0.619960308074951,-1.00917036754089,-0.434217816196637,0.624724530959079,0
2,-0.995195984840393,2.53760385513306,1.75920641422272,-0.993273599084619,2.53843849960327,1.7577407641983,2177.244,2178.047,2177.603,2179.271,358.063293457031,44.9967575073242,0.774445652961731,-1.01086914539337,-0.434853196144104,0.624378979206085,-1.01606400046349,-0.437183953857422,0.628992018127441,0
2.02000427246094,-1.0155473947525,2.52884936332703,1.77177798748016,-1.01366615605493,2.52966415204104,1.77036472839513,2172.315,2174.966,2179.381,2178.308,358.132720947266,44.9968948364258,0.7456955909729,-1.01757740974426,-0.437728732824326,0.628580510616302,-1.02271452148052,-0.440045487257004,0.633109007445237,0
2.04000854492188,-1.03602838516235,2.52003931999207,1.78443467617035,-1.03418924440916,2.52083364047092,1.78306949773667,2176.121,2175.803,2172.375,2173.869,358.203582763672,44.9966239929199,0.717784404754639,-1.02404427528381,-0.440504342317581,0.632837057113647,-1.02911391720548,-0.442798968459032,0.637070538244476,0
2.05999755859375,-1.05663335323334,2.51117587089539,1.7971705198288,-1.05482201812353,2.5119559343546,1.79584216754118,2172.508,2173,2170.975,2173.74,358.274383544922,44.9964408874512,0.689555168151855,-1.03025710582733,-0.44316965341568,0.636790812015533,-1.03525504859546,-0.445441325732794,0.640872191117535,0
2.08000183105469,-1.07735776901245,2.50226140022278,1.80998075008392,-1.07559088172821,2.50301967256038,1.80869908347065,2167.526,2169.632,2172.634,2172.967,358.346710205078,44.9965133666992,0.659894585609436,-1.03621804714203,-0.445726752281189,0.6405109167099,-1.04114485287423,-0.447975543971863,0.644518260536375,0
2.10000610351563,-1.09819626808167,2.49329781532288,1.82286608219147,-1.09647498538954,2.49403382618922,1.82162733848484,2170.881,2170.28,2166.132,2168.468,358.419799804688,44.9962348937988,0.631018042564392,-1.04192805290222,-0.448179006576538,0.644266545772552,-1.04677621342161,-0.450398561093403,0.648004340974112,0
2.12001037597656,-1.11914372444153,2.48428750038147,1.83582043647766,-1.11746913671118,2.48500062938421,1.83462371824305,2166.879,2167.494,2165.239,2168.1,358.492553710938,44.9960975646973,0.601879358291626,-1.04737782478333,-0.450518488883972,0.647715926170349,-1.05214690704168,-0.452709420518306,0.651329056166548,0
2.13999938964844,-1.14019513130188,2.47523260116577,1.8488404750824,-1.138551967509,2.47592927627801,1.8476749948214,2164.483,2165.246,2164.289,2166.29,358.565673828125,44.9960327148438,0.5722935795784,-1.05257213115692,-0.452748566865921,0.651004016399384,-1.05725102347782,-0.454905579228273,0.654488747383304,0
2.16000366210938,-1.16134536266327,2.46613526344299,1.86192166805267,-1.15975039167652,2.46680818657414,1.86079782920208,2159.35,2162.024,2166.018,2165.302,358.640930175781,44.996208190918,0.541302025318146,-1.05750775337219,-0.454869031906128,0.654062628746033,-1.0620943502576,-0.456989527434725,0.657486997379635,0
2.18000793457031,-1.18258893489838,2.45699763298035,1.87506496906281,-1.18104303873349,2.45764655539322,1.87397899203979,2163.201,2162.779,2158.909,2160.629,358.717437744141,44.9959564208984,0.511239349842072,-1.06218302249908,-0.456880986690521,0.65716689825058,-1.06667099276523,-0.458958728849171,0.660320157107579,0
2.19999694824219,-1.20392084121704,2.44782209396362,1.88826417922974,-1.20240821395574,2.44845371736898,1.88720505326679,2159.51,2159.958,2157.357,2160.403,358.793701171875,44.9957962036133,0.48098412156105,-1.06658899784088,-0.458775728940964,0.659959375858307,-1.07097597819164,-0.460811043810786,0.662985148161421,0
2.22000122070313,-1.22533535957336,2.43861103057861,1.90151429176331,-1.22387315175433,2.43921795429519,1.90049287228091,2154.309,2156.393,2159.027,2159.724,358.871276855469,44.9958992004395,0.449300736188889,-1.07072818279266,-0.460555255413055,0.662505149841309,-1.07501419914593,-0.462548577472581,0.665484999299265,0
2.24000549316406,-1.24682724475861,2.42936658859253,1.91481590270996,-1.24541615591711,2.42994860144581,1.91382901809327,2157.818,2157.082,2152.375,2154.925,358.949432373047,44.9956474304199,0.418546438217163,-1.0745997428894,-0.462222337722778,0.665081918239594,-1.07878069424208,-0.464169195088763,0.667816639186824,0
2.260009765625,-1.26839137077332,2.42009115219116,1.92816269397736,-1.26703177594152,2.42064800401982,1.92721011658316,2153.654,2154.179,2151.451,2154.624,359.026977539063,44.9955291748047,0.387599498033524,-1.07819831371307,-0.463770717382431,0.667341649532318,-1.08227399942825,-0.465672266718726,0.669979161506271,0
2.27999877929688,-1.29002165794373,2.4107871055603,1.94155132770538,-1.28869796983554,2.41132564607061,1.9406225227075,2151.147,2151.855,2150.536,2152.773,359.104675292969,44.9955024719238,0.356260061264038,-1.08152830600739,-0.465203642845154,0.669431686401367,-1.08549040888332,-0.467056197851165,0.67197027217779,0
2.30000305175781,-1.31171369552612,2.40145659446716,1.95497715473175,-1.31044231452835,2.40196966201596,1.95408330789913,2146.026,2148.703,2152.131,2151.682,359.184356689453,44.9957008361816,0.323644399642944,-1.08458781242371,-0.466521620750427,0.671290040016174,-1.08843358680109,-0.468322565086307,0.673792239511894,0
2.32000732421875,-1.33346104621887,2.39210200309753,1.96844077110291,-1.33224276726637,2.39258953623693,1.96757882664355,2149.844,2149.276,2145.091,2147.006,359.265045166016,44.9954795837402,0.292004227638245,-1.08737313747406,-0.467724710702896,0.673183381557465,-1.09109983431736,-0.469469776906228,0.675442773735451,0
2.34001159667969,-1.35525858402252,2.38272595405579,1.98193609714508,-1.35409377777295,2.38318765686251,1.9811056430551,2146.172,2146.517,2143.442,2146.705,359.345275878906,44.9953422546387,0.260282307863235,-1.08987987041473,-0.468806117773056,0.674763739109039,-1.09348812118877,-0.470497390025984,0.676921237078733,0
2.36000061035156,-1.37710094451904,2.37333059310913,1.99545931816101,-1.37597305876702,2.37377361348711,1.99464996024512,2143.853,2144.183,2142.115,2144.977,359.42529296875,44.9952735900879,0.228220477700233,-1.09211122989655,-0.46976825594902,0.676162898540497,-1.09559602313537,-0.471404361345641,0.678226128796969,0
2.3800048828125,-1.39898216724396,2.36391830444336,2.00900554656982,-1.39790843013262,2.36433543599182,2.00822900004707,2138.53,2140.999,2143.802,2143.978,359.506927490234,44.9954605102539,0.194883838295937,-1.09406685829163,-0.470612347126007,0.677315950393677,-1.09742594550583,-0.472191725819537,0.679358937915576,0
2.40000915527344,-1.42089700698853,2.35449147224426,2.02257561683655,-1.41987760424917,2.35488271411715,2.02182896536211,2142.392,2141.665,2136.865,2139.087,359.589141845703,44.9952392578125,0.162651807069778,-1.09574270248413,-0.471338957548141,0.678502559661865,-1.09897546783438,-0.472858441988871,0.680318166050934,0
2.41999816894531,-1.44283986091614,2.34505271911621,2.03616309165955,-1.44185817738692,2.34542508756209,2.03543598721428,2138.406,2138.739,2135.569,2138.948,359.670715332031,44.9951324462891,0.130329415202141,-1.09713745117188,-0.471942722797394,0.679369449615479,-1.10024313330221,-0.473403883025206,0.681102911362803,0
2.44000244140625,-1.46480488777161,2.33560419082642,2.04976296424866,-1.46387808506052,2.33595053645515,2.04906735901791,2133.147,2135.208,2137.273,2138.261,359.753326416016,44.9952850341797,0.0967006087303162,-1.09825384616852,-0.472426116466522,0.679990231990814,-1.10123038958312,-0.473828671822132,0.681714070030222,0
2.46000671386719,-1.48678660392761,2.32614827156067,2.06337571144104,-1.48591492338117,2.32646870056377,2.06270921169857,2136.729,2135.842,2130.755,2133.312,359.836181640625,44.9950752258301,0.0641535297036171,-1.0990879535675,-0.472790539264679,0.680635035037994,-1.10193578218388,-0.474132182551855,0.682150741652607,0
2.48001098632813,-1.50877940654755,2.31668758392334,2.07699489593506,-1.5079630509786,2.31698200721197,2.07635805297935,2132.567,2132.967,2129.779,2133.089,359.918273925781,44.9949913024902,0.0315537229180336,-1.09964084625244,-0.473032355308533,0.680963575839996,-1.10235904000526,-0.474314298567936,0.682412758406602,0
2.5,-1.5307776927948,2.30722451210022,2.09061741828918,-1.52999999932945,2.30750012397766,2.08999997377396,2130.203,2130.686,2128.732,2131.252,0.000142736607813276,44.995002746582,-0.00128789281006902,-1.09991538524628,-0.473153978586197,0.681120872497559,-1.10250000050292,-0.474374949932098,0.682500019669533,0
2.52000427246094,-1.55277585983276,2.2977614402771,2.10423827171326,-1.55205376834272,2.29801100328223,2.10365230735988,2125.072,2127.574,2130.259,2130.304,0.0836367830634117,44.9952239990234,359.964691162109,-1.09991192817688,-0.473156750202179,0.681042551994324,-1.10235882472314,-0.474314205938057,0.682412625136718,0
2.54000854492188,-1.57476842403412,2.28830075263977,2.11785817146301,-1.57410188948011,2.28852431271001,2.11730114464159,2129.094,2128.164,2123.283,2125.484,0.16764523088932,44.9950256347656,359.931854248047,-1.09962403774261,-0.473039746284485,0.680994391441345,-1.10193535162022,-0.474131997292339,0.682150475113189,0
2.55999755859375,-1.59674954414368,2.27884483337402,2.13147068023682,-1.59612191359838,2.27904971150017,2.13093258853001,2125.243,2125.364,2121.838,2125.387,0.250792175531387,44.9949226379395,359.898956298828,-1.09905409812927,-0.472799301147461,0.680629312992096,-1.10123038958312,-0.473828671822132,0.681714070030222,0
2.58000183105469,-1.61871361732483,2.26939606666565,2.14507102966309,-1.61814182127198,2.26957516039323,2.14456396033363,2120.099,2122.027,2123.409,2124.693,0.334705770015717,44.9950942993164,359.864959716797,-1.09820485115051,-0.472437739372253,0.680018305778503,-1.10024313330221,-0.473403883025206,0.681102911362804,0
2.60000610351563,-1.64065492153168,2.25995707511902,2.1586594581604,-1.64013916343638,2.26011031859448,2.15818136301212,2123.675,2122.519,2117.104,2119.862,0.418502151966095,44.9948921203613,359.832061767578,-1.09707093238831,-0.471955686807632,0.679424226284027,-1.09897439291323,-0.472857979480329,0.680317500623536,0
2.62001037597656,-1.66256821155548,2.25052976608276,2.1722297668457,-1.66210831390746,2.25065760689379,2.17178131368948,2119.553,2119.727,2116.193,2119.693,0.501222968101501,44.9948425292969,359.799194335938,-1.09565758705139,-0.471351593732834,0.678519487380981,-1.09742465646102,-0.47219117117957,0.679358139935436,0
2.63999938964844,-1.68444764614105,2.24111747741699,2.18577861785889,-1.68402693989188,2.24122663446822,2.18534998730279,2117.104,2117.57,2115.362,2117.846,0.583544433116913,44.9948692321777,359.766235351563,-1.09396708011627,-0.470627993345261,0.677442491054535,-1.09559602313537,-0.471404361345641,0.67822612879697,0
2.66000366210938,-1.70628762245178,2.2317214012146,2.19930148124695,-1.70592290617745,2.23180541187802,2.19890463348308,2112.224,2114.492,2116.753,2117.036,0.667248487472534,44.9951095581055,359.732147216797,-1.09200119972229,-0.469786524772644,0.676141202449799,-1.09348640563071,-0.470496651869278,0.67692017506657,0
2.68000793457031,-1.72808241844177,2.22234511375427,2.21279859542847,-1.72777388024004,2.22240354818443,2.21243142733407,2116.125,2115.187,2110.106,2112.154,0.751227915287018,44.9949417114258,359.699371337891,-1.08975172042847,-0.468825548887253,0.674861788749695,-1.09109790637238,-0.469468947365361,0.675441580245664,0
2.69999694824219,-1.74982702732086,2.21299028396606,2.22626423835754,-1.74955768413056,2.21303058593937,2.22591663964878,2112.559,2112.366,2108.547,2112.235,0.834129154682159,44.9948463439941,359.666656494141,-1.08722519874573,-0.467743039131165,0.673279881477356,-1.08843358680109,-0.468322565086308,0.673792239511893,0
2.72000122070313,-1.77151548862457,2.20365953445435,2.23969316482544,-1.77130202882336,2.20367460188472,2.23937742484041,2107.411,2109.186,2110.164,2111.636,0.917532861232758,44.9950218200684,359.632873535156,-1.08442449569702,-0.46654149889946,0.671451807022095,-1.08549040888332,-0.467056197851165,0.671970272177789,0
2.74000549316406,-1.79314231872559,2.19435501098633,2.25308585166931,-1.79298473688851,2.19434513834902,2.25280005402337,2111.04,2109.655,2104.096,2106.865,1.00054919719696,44.9948501586914,359.600311279297,-1.08134233951569,-0.465220719575882,0.669640481472015,-1.08227143928024,-0.465671165158559,0.669977576652695,0
2.760009765625,-1.81470203399658,2.18507933616638,2.26643633842468,-1.81460030360772,2.18504456385877,2.26618111951479,2106.967,2107.053,2103.293,2106.715,1.08230495452881,44.9948120117188,359.56787109375,-1.0779881477356,-0.463781118392944,0.667526662349701,-1.07877792518082,-0.464168003639063,0.667814925005998,0
2.77999877929688,-1.83618938922882,2.1758348941803,2.27974128723145,-1.83612684690458,2.17578229366013,2.27950707526701,2104.759,2104.918,2102.411,2105.019,1.16341722011566,44.9948577880859,359.535369873047,-1.07436335086823,-0.462224692106247,0.665249407291412,-1.07501419914593,-0.462548577472581,0.665484999299265,0
2.80000305175781,-1.8575986623764,2.16662359237671,2.29299640655518,-1.85759178470316,2.16654653058634,2.29279489428112,2099.922,2102.085,2103.852,2104.241,1.24562907218933,44.9951171875,359.501983642578,-1.07047092914581,-0.460553765296936,0.662751019001007,-1.07097597819164,-0.460811043810786,0.662985148161422,0
2.82000732421875,-1.87892472743988,2.15744853019714,2.30620193481445,-1.87897323600723,2.1573466894188,2.30603103117811,2103.89,2102.652,2097.461,2099.552,1.32782065868378,44.9949493408203,359.469909667969,-1.06630158424377,-0.458765834569931,0.660275459289551,-1.06666760390385,-0.458957270716794,0.660318059240952,0
2.84001159667969,-1.90016198158264,2.14831113815308,2.31935214996338,-1.90026581322863,2.14818508828617,2.31921215078427,2100.352,2099.98,2096.065,2099.721,1.4087427854538,44.9948806762695,359.437927246094,-1.06186556816101,-0.456860929727554,0.657506287097931,-1.06209075728,-0.456987981476842,0.657484773155346,0
2.86000061035156,-1.92130517959595,2.13921451568604,2.33244347572327,-1.9214480311499,2.13907097167731,2.33232495272651,2098.24,2098.166,2095.026,2097.937,1.48870825767517,44.9948883056641,359.406066894531,-1.05716419219971,-0.454840868711472,0.654565870761871,-1.05725102347782,-0.454905579228273,0.654488747383304,0
2.8800048828125,-1.94234919548035,2.13016057014465,2.34547162055969,-1.94254691640495,2.12999271078668,2.34538616777867,2093.563,2095.331,2096.396,2097.317,1.56932079792023,44.9951248168945,359.373352050781,-1.05220139026642,-0.452708512544632,0.651406347751617,-1.0521429102862,-0.45270770082608,0.651326581984514,0
2.90000915527344,-1.9632887840271,2.12115097045898,2.35843682289124,-1.96354098577478,2.12095954924324,2.35838249680481,2097.271,2095.791,2090.465,2092.796,1.64954698085785,44.9949760437012,359.341888427734,-1.04696798324585,-0.450461804866791,0.648261845111847,-1.04677201701582,-0.450396755497224,0.648001743199023,0
2.91999816894531,-1.98411822319031,2.11218881607056,2.371333360672,-1.98440911693069,2.11198057539494,2.37130086407726,2093.556,2093.439,2089.48,2092.743,1.72841465473175,44.9949493408203,359.310760498047,-1.04147636890411,-0.448102325201035,0.64483106136322,-1.04114485287423,-0.447975543971863,0.644518260536375,0
2.94000244140625,-2.00483274459839,2.10327649116516,2.38415718078613,-2.00517798053537,2.10304431360073,2.38415778000673,2089.108,2090.48,2090.807,2092.295,1.80745244026184,44.9951515197754,359.278839111328,-1.03572916984558,-0.445631891489029,0.641187608242035,-1.03525504859546,-0.445441325732794,0.640872191117535,0
2.96000671386719,-2.0254271030426,2.09441542625427,2.39690828323364,-2.02582645724542,2.09415985092405,2.3969401707136,2092.579,2090.765,2085.29,2087.994,1.88570702075958,44.9950103759766,359.248107910156,-1.02971768379211,-0.443049311637878,0.637552678585052,-1.02910913225408,-0.442796909628122,0.637067576131623,0
2.98001098632813,-2.04589653015137,2.08560800552368,2.40958118438721,-2.04634944795115,2.08532938136936,2.40964487960608,2088.781,2088.582,2084.606,2087.836,1.96242737770081,44.995002746582,359.217681884766,-1.02345597743988,-0.440357625484467,0.633639514446259,-1.02270954399162,-0.440043345582586,0.633105926142498,0
3,-2.06623506546021,2.07685708999634,2.4221727848053,-2.06672639957428,2.07656174835205,2.42225918334961,2086.787,2086.65,2083.875,2086.348,2.03818845748901,44.9950752258301,359.187377929688,-1.01694476604462,-0.437558174133301,0.629575908184052,-1.01606400046349,-0.437183953857422,0.628992018127441,0
3.02000427246094,-2.08643913269043,2.06816387176514,2.43467903137207,-2.0869834279768,2.06784571494631,2.43479924890685,2082.656,2084.204,2084.953,2085.662,2.11449098587036,44.9953155517578,359.156463623047,-1.01018857955933,-0.434653729200363,0.625317931175232,-1.00916501115878,-0.434215511495054,0.624721215103391,0
3.04000854492188,-2.10650253295898,2.05953097343445,2.44710040092468,-2.10709998486405,2.05919012250926,2.44725235590455,2086.131,2084.552,2079.466,2081.551,2.19027090072632,44.9951972961426,359.126831054688,-1.00317776203156,-0.431641578674316,0.621067345142365,-1.00202031904361,-0.431141350077486,0.620298310335216,0
3.05999755859375,-2.12642121315002,2.05096054077148,2.45943164825439,-2.12705600675913,2.05060360379452,2.45960608409476,2083.045,2082.442,2078.207,2081.513,2.26447868347168,44.9951515197754,359.097595214844,-0.995926558971405,-0.428524196147919,0.616558909416199,-0.994638524886308,-0.427965170275055,0.615728628108227,0
3.08000183105469,-2.14618992805481,2.04245448112488,2.47166848182678,-2.14687713595163,2.04207512564123,2.47187630727625,2078.705,2079.715,2079.552,2081.254,2.33847188949585,44.9953498840332,359.067687988281,-0.988438367843628,-0.425303876399994,0.611841678619385,-0.987011339258122,-0.424683405378145,0.611007036871143,0
3.10000610351563,-2.16580390930176,2.03401517868042,2.48381114006042,-2.16654331551667,2.03361331798384,2.48405060925705,2082.032,2080.12,2074.549,2077.053,2.41137027740479,44.9952354431152,359.039093017578,-0.980703830718994,-0.421979129314423,0.607133209705353,-0.979147395688901,-0.421299770153459,0.606138881190213,0
3.12001037597656,-2.18525886535645,2.02564382553101,2.49585461616516,-2.18604984110275,2.02522020497339,2.49612607781951,2078.602,2077.968,2073.895,2077.13,2.48248958587646,44.9952392578125,359.010864257813,-0.972739517688751,-0.418554097414017,0.602171123027802,-0.971049893464309,-0.41781564116424,0.601126141575667,0
3.13999938964844,-2.20454931259155,2.01734352111816,2.50779604911804,-2.20537738341953,2.01690410346351,2.50809074721212,2076.643,2076.356,2073.388,2075.68,2.55240345001221,44.9953308105469,358.98291015625,-0.964546263217926,-0.415030300617218,0.597066640853882,-0.962728579444533,-0.414235212212131,0.595974851798267,0
3.16000366210938,-2.22367215156555,2.00911521911621,2.51963186264038,-2.22455088103183,2.00865428308644,2.51996005559448,2072.924,2074.087,2074.386,2075.148,2.62252807617188,44.9955711364746,358.954498291016,-0.956129372119904,-0.411410748958588,0.591788589954376,-0.954174163352092,-0.410554485950274,0.590679260733698,0
3.18000793457031,-2.24262142181396,2.00096130371094,2.53136229515076,-2.24355101420387,2.00047905658478,2.53172204312984,2076.175,2074.403,2069.445,2071.376,2.69186067581177,44.9954872131348,358.927398681641,-0.947479486465454,-0.407692641019821,0.586516499519348,-0.945396434568188,-0.406777674475913,0.585245428475253,0
3.19999694824219,-2.26139354705811,1.99288368225098,2.54298257827759,-2.2623590635174,1.99238647840124,2.54336512160655,2073.421,2072.567,2068.282,2071.353,2.759446144104,44.9954605102539,358.900787353516,-0.938612580299377,-0.403879642486572,0.58101224899292,-0.936405971974636,-0.402909329586355,0.579679903854719,0
3.22000122070313,-2.27998447418213,1.98488426208496,2.55448889732361,-2.28099938900442,1.98436606709459,2.55490437104486,2069.49,2070.144,2069.513,2071.186,2.826504945755,44.9956588745117,358.873748779297,-0.929532468318939,-0.39997386932373,0.575318694114685,-0.927192788821982,-0.398945154262308,0.573976504598449,0
3.24000549316406,-2.29838895797729,1.97696495056152,2.5658814907074,-2.29945328359428,1.9764258717947,2.56632821087688,2072.559,2070.389,2065.085,2067.492,2.89221930503845,44.9955673217773,358.847961425781,-0.920230150222778,-0.395973771810532,0.569632172584534,-0.91776751470058,-0.394889722119544,0.568141810929231,0
3.260009765625,-2.31660342216492,1.96912717819214,2.57715582847595,-2.31771654397337,1.96856770107001,2.57763403905129,2069.546,2068.672,2064.474,2067.437,2.95597219467163,44.9955825805664,358.822662353516,-0.910723209381104,-0.391884475946426,0.563721001148224,-0.908134108040216,-0.390744736359816,0.562178273303667,0
3.27999877929688,-2.33462333679199,1.96137309074402,2.58830952644348,-2.33577134012187,1.96079922667992,2.58881081793642,2067.856,2067.177,2064.02,2066.259,3.01824069023132,44.9956703186035,358.797790527344,-0.901013016700745,-0.387707501649857,0.557682871818542,-0.898304216251578,-0.386515208538549,0.556093102023818,0
3.30000305175781,-2.35244560241699,1.95370388031006,2.59933924674988,-2.35364119854729,1.95311032582551,2.59987311156116,2064.397,2065.241,2065.072,2065.818,3.08034777641296,44.9959182739258,358.772644042969,-0.891105830669403,-0.383446156978607,0.551487565040588,-0.888267004546666,-0.382196476749158,0.549879589839776,0
3.32000732421875,-2.37006521224976,1.94612205028534,2.61024522781372,-2.37130830610839,1.94550866300381,2.61080989274252,2067.512,2065.519,2060.663,2062.425,3.14137721061707,44.9958610534668,358.748809814453,-0.880992770195007,-0.379097729921341,0.545303702354431,-0.878034183119985,-0.377793579561194,0.543544985919778,0
3.34001159667969,-2.38747906684875,1.93862891197205,2.62102341651917,-2.38876879352593,1.93799590305759,2.62161876621234,2065.104,2063.856,2059.632,2062.563,3.2004542350769,44.9958572387695,358.725555419922,-0.870691180229187,-0.374666720628738,0.538915276527405,-0.867610144209785,-0.373308406832067,0.537092009268528,0
3.36000061035156,-2.40468335151672,1.93122553825378,2.63167142868042,-2.406005803634,1.93057929915441,2.6322892965819,2063.642,2062.504,2059.022,2061.557,3.2577691078186,44.995906829834,358.702697753906,-0.860202789306641,-0.370154589414597,0.532402753829956,-0.857007552155826,-0.36874640767338,0.530528499715627,0
3.3800048828125,-2.42167377471924,1.92391431331635,2.64218616485596,-2.42304196557559,1.92324911460621,2.64283549236868,2060.24,2060.851,2060.185,2061.105,3.31455254554749,44.9961433410645,358.679718017578,-0.849534630775452,-0.365565329790115,0.525737106800079,-0.846214826007803,-0.364102599125748,0.523847288101157,0
3.40000915527344,-2.43844723701477,1.91669631004333,2.65256810188293,-2.43986044461333,1.91601259293018,2.6532469320683,2063.453,2061.102,2055.991,2057.895,3.36989259719849,44.9960708618164,358.658111572266,-0.838678061962128,-0.360896378755569,0.519091546535492,-0.835244706287931,-0.359382463079953,0.517056261415284,0
3.41999816894531,-2.45500040054321,1.9095733165741,2.66281294822693,-2.45644516534361,1.90887665092339,2.66351366424015,2060.793,2059.578,2055.442,2058.153,3.42312383651733,44.99609375,358.637084960938,-0.827652335166931,-0.356153398752213,0.512246966362,-0.824110582941664,-0.354591760855451,0.510163708672097,0
3.44000244140625,-2.47132968902588,1.90254652500153,2.67291808128357,-2.47281804716281,1.90183185728196,2.67364925803476,2057.689,2057.704,2056.57,2058.032,3.47536945343018,44.9962844848633,358.615966796875,-0.816460728645325,-0.351338505744934,0.505260348320007,-0.812800388649434,-0.349725300221754,0.503162159625937,0
3.46000671386719,-2.48743152618408,1.89561748504639,2.68288373947144,-2.4889630419904,1.89488511704659,2.68364377892579,2060.406,2058.064,2053.024,2054.926,3.52592182159424,44.9962463378906,358.596160888672,-0.80509626865387,-0.346450507640839,0.498286992311478,-0.801327600455845,-0.344788879974649,0.496059957209413,0
3.48001098632813,-2.50330281257629,1.88878762722015,2.69270658493042,-2.50487694859767,1.88803780761656,2.69349524520019,2057.981,2056.682,2052.621,2055.113,3.57429552078247,44.9962844848633,358.577026367188,-0.793577492237091,-0.341495186090469,0.491137057542801,-0.789697369743255,-0.339784716610052,0.488860290373601,0
3.5,-2.51894092559814,1.88205814361572,2.70238447189331,-2.5205447997813,1.88129636896134,2.70319439144611,2056.852,2055.566,2052.228,2054.239,3.62081050872803,44.9963760375977,358.558441162109,-0.781906187534332,-0.336474001407623,0.483894675970078,-0.777924000354857,-0.334718964672089,0.481572013878822,0
3.52000427246094,-2.53434300422668,1.87543022632599,2.71191501617432,-2.53598752699493,1.87465179486116,2.71275417523047,2054.03,2054.114,2053.241,2054.05,3.66653919219971,44.9966087341309,358.539916992188,-0.770090162754059,-0.331390738487244,0.476529479026794,-0.765994882555673,-0.32958619854407,0.474187321698442,0
3.54000854492188,-2.54950547218323,1.86890554428101,2.7212986946106,-2.55119019794619,1.86811051026429,2.72216535275294,2056.805,2054.432,2049.776,2051.333,3.71069025993347,44.9965744018555,358.522705078125,-0.758122324943542,-0.326243430376053,0.469185084104538,-0.753924423002452,-0.324392617007921,0.466715132239272,0
3.55999755859375,-2.56442594528198,1.86248445510864,2.73053240776062,-2.56613872308604,1.86167857751006,2.73141920191151,2054.923,2053.262,2049.093,2051.564,3.75258159637451,44.9966011047363,358.506195068359,-0.746020674705505,-0.321037471294403,0.461685389280319,-0.741727567798258,-0.319144650954242,0.459164697851087,0
3.58000183105469,-2.5791015625,1.8561692237854,2.7396137714386,-2.58085326729328,1.85534732021446,2.74052820572674,2052.237,2051.9,2050.149,2051.475,3.79309606552124,44.9967803955078,358.489898681641,-0.733790218830109,-0.315775632858276,0.45406448841095,-0.729391385793765,-0.313836736470737,0.451528013536464,0
3.60000610351563,-2.59353017807007,1.84996008872986,2.74854302406311,-2.59531978247425,1.84912278287974,2.74948366775945,2054.82,2052.053,2047.13,2049.079,3.83155012130737,44.9967422485352,358.474853515625,-0.721425414085388,-0.310456663370132,0.44646543264389,-0.716930938559024,-0.308475354130224,0.443814403124743,0
3.62001037597656,-2.6077094078064,1.84385824203491,2.75731730461121,-2.60953584173048,1.8430060097325,2.75828408564387,2052.596,2051.052,2047.081,2049.315,3.86760282516479,44.9968147277832,358.460540771484,-0.708945214748383,-0.305087327957153,0.438718557357788,-0.704352136620513,-0.303063047067126,0.436027525513372,0
3.63999938964844,-2.62163615226746,1.83786487579346,2.76593542098999,-2.6234885835008,1.83700253474321,2.76692149746096,2051.711,2050.208,2046.954,2048.637,3.90161752700806,44.9969253540039,358.446929931641,-0.696351647377014,-0.299669235944748,0.43090608716011,-0.691670720740692,-0.297606588091786,0.428177124984152,0
3.66000366210938,-2.63530945777893,1.83198070526123,2.77439546585083,-2.63719712493647,1.83110413233575,2.77540773763803,2049.676,2049.21,2047.723,2048.44,3.93443918228149,44.9971313476563,358.433624267578,-0.683652460575104,-0.29420605301857,0.423007607460022,-0.678873453515702,-0.29210028151913,0.420255006953505,0
3.68000793457031,-2.64872598648071,1.82620692253113,2.78269815444946,-2.65064865588166,1.82531631436231,2.78373487607838,2051.985,2049.447,2045.017,2046.444,3.96537899971008,44.9971313476563,358.421600341797,-0.670844078063965,-0.288696765899658,0.415130794048309,-0.665976209205203,-0.286550957599616,0.412270998344358,0
3.69999694824219,-2.66188478469849,1.82054400444031,2.79084086418152,-2.66383127580226,1.81964420129024,2.79189554578451,2050.6,2048.672,2044.525,2046.655,3.99386215209961,44.9971771240234,358.410430908203,-0.65794312953949,-0.28314682841301,0.407138973474503,-0.65299527533123,-0.280965624398954,0.404235181908735,0
