t,x_s1,x_s2,x_s3,x_s_d1,x_s_d2,x_s_d3,propellers_rpms1,propellers_rpms2,propellers_rpms3,propellers_rpms4,rollRad,pitchRad,yawRad,v_s1,v_s2,v_s3,v_s_d1,v_s_d2,v_s_d3,insideCount
0,-0.0599999986588955,2.94000005722046,1.17999994754791,-0.0599999986588955,2.94000005722046,1.17999994754791,0,0,0,0,0,0,0,0,0,0,-1.06581410364015E-15,4.44089209850063E-16,4.44089209850063E-16,0
0.0200042724609375,-0.0599999986588955,2.94000005722046,1.17811644077301,-0.0600018701838461,2.93999925195556,1.18000110611101,0,0,0,0,-0.01635288,0.0001297794,-0.01587137,-1.10653664009419E-09,-7.76775763711157E-08,-0.0941759571433067,-0.000280105751305916,-0.000120521679537258,0.00017339880334547,5
0.040008544921875,-0.0599999986588955,2.94000005722046,1.17242503166199,-0.060014880898484,2.93999365380853,1.18000916036316,0,0,0,0,-0.03270202,0.0005238493,-0.03175127,-1.08383135799528E-09,-7.60859677484405E-08,-0.284568399190903,-0.00111143977225461,-0.000478221483967637,0.00068803416424398,5
0.05999755859375,-0.0599058866500854,2.93990302085876,1.16596508026123,-0.0600498857373401,2.93997859220429,1.18003083002592,1868.186,3252.807,3183.866,1722.401,-0.04942188,0.0003295492,-0.01369504,0.00470568425953388,-0.00484921643510461,-0.322996616363525,-0.00247936261166862,-0.00106680046642749,0.00153484356504269,5
0.0800018310546875,-0.0598203726112843,2.93960738182068,1.16000318527222,-0.0601175574246769,2.93994947496775,1.18007272202403,1925.25,2314.279,3252.324,2829.559,-0.07543138,-0.00213692,0.0209488,0.00427576061338186,-0.0147787351161242,-0.298094898462296,-0.00437268608126799,-0.00188144466206175,0.00270690098422899,5
0.100006103515625,-0.0599374435842037,2.93904495239258,1.15498661994934,-0.0602282404704493,2.93990185114529,1.18014124010193,980.3768,1498.938,3914.7,3896.563,-0.1031938,-0.008062987,0.06330799,-0.00585346762090921,-0.0281162895262241,-0.250830471515656,-0.00677739276378709,-0.00291612276782231,0.00419552897277328,4
0.120010375976563,-0.0604638420045376,2.93818354606628,1.15081322193146,-0.0603920338334453,2.93983137543704,1.18024263599618,346.5406,980.3863,4172.788,4613.338,-0.1214316,-0.01542023,0.1040008,-0.0263198912143707,-0.0430676564574242,-0.208671167492867,-0.00968041450003567,-0.00416521191989172,0.00599263771761404,4
0.139999389648438,-0.0615636147558689,2.93704128265381,1.1472829580307,-0.0606185767455666,2.93973390035084,1.18038287685052,352.9358,747.1381,3975.388,4854.884,-0.1254024,-0.02116627,0.1351043,-0.0549885779619217,-0.0571132302284241,-0.176516234874725,-0.0130660253322238,-0.00562194567796536,0.00808849210174802,4
0.160003662109375,-0.0633408725261688,2.93568086624146,1.14427518844604,-0.0609177895434042,2.93960515744296,1.18056810382587,820.6592,814.7478,3463.238,4692.368,-0.118459,-0.02352423,0.1522699,-0.0888630151748657,-0.0680155083537102,-0.15038737654686,-0.0169265510445065,-0.00728302204135792,0.0104783414199936,3
0.180007934570313,-0.0658468902111053,2.9341721534729,1.14182555675507,-0.0612988491946875,2.93944119812059,1.1808039979024,1348.823,1083.536,3006.401,4255.242,-0.1079795,-0.02277961,0.1557791,-0.125300914049149,-0.0754310637712479,-0.122482128441334,-0.0212468478482708,-0.00914192506089775,0.0131528109458008,3
0.199996948242188,-0.0690849348902702,2.93255376815796,1.14006173610687,-0.0617704296168641,2.93923829023936,1.18109592864822,1636.676,1381.278,2918.124,3666.361,-0.09982806,-0.02030074,0.1501567,-0.161902159452438,-0.080914743244648,-0.0881940424442291,-0.0260104776919234,-0.0111915819022102,0.0161017247421801,3
0.220001220703125,-0.0730102807283401,2.93082594871521,1.13903594017029,-0.0623420644491781,2.93899233174064,1.18144979784016,1641.061,1580.365,3148.815,3113.194,-0.09583918,-0.01735529,0.1421901,-0.196267411112785,-0.0863862559199333,-0.051288116723299,-0.03121219533433,-0.0134297356845702,0.019321835755004,3
0.240005493164063,-0.0775500014424324,2.92897343635559,1.13863348960876,-0.0630219993990999,2.93869977472688,1.18187070996396,1524.163,1624.349,3417.488,2777.52,-0.09475474,-0.01467775,0.1377341,-0.226986080408096,-0.0926245748996735,-0.0201252494007349,-0.0368361158647881,-0.0158495515746756,0.0228033104678445,3
0.260009765625,-0.0826388821005821,2.92699241638184,1.13863575458527,-0.0638185570309634,2.93835703823113,1.18236381708338,1439.295,1501.026,3532.899,2744.081,-0.09438989,-0.0125877,0.1393008,-0.254444181919098,-0.0990569442510605,0.000114446505904198,-0.0428699302682246,-0.0184457333472145,0.0265385290140116,3
0.279998779296875,-0.0882447585463524,2.92490077018738,1.13885235786438,-0.0647390625194898,2.93796097043536,1.18293365383054,1400.59,1276.006,3476.638,2977.613,-0.0932149,-0.01110538,0.1456818,-0.28029391169548,-0.104583531618118,0.0108330622315407,-0.0492963837173861,-0.0212108567320638,0.030516809833474,3
0.300003051757813,-0.094370573759079,2.92273259162903,1.13920748233795,-0.0657927507678135,2.93750759781875,1.18358593705038,1349.986,1061.227,3346.082,3324.822,-0.09053469,-0.009935722,0.1533111,-0.3062903881073,-0.108408212661743,0.0177577249705791,-0.0561132031658829,-0.0241439437008635,0.0347367458022363,3
0.32000732421875,-0.101035848259926,2.92052578926086,1.13972544670105,-0.0669865614821475,2.93699393441958,1.18432496275165,1281.047,941.2823,3237.118,3590.589,-0.08597643,-0.008523713,0.1583617,-0.333264291286469,-0.110344089567661,0.0258992724120617,-0.0633036493784043,-0.0272377918282996,0.0391879745362408,3
0.339996337890625,-0.108251392841339,2.91831207275391,1.1404618024826,-0.068326768706371,2.93641728069206,1.18515461486636,1253.748,944.4605,3170.308,3649.687,-0.07944689,-0.006291452,0.158477,-0.360777258872986,-0.110679946839809,0.0368190631270409,-0.0708499516420146,-0.0304847548730522,0.0438594951176439,4
0.360000610351563,-0.116002976894379,2.91611480712891,1.14145302772522,-0.0698225328270578,2.93577369517774,1.1860805641102,1319.168,1046.768,3121.576,3498.256,-0.07154902,-0.002963566,0.1534756,-0.387579143047333,-0.109858825802803,0.0495634600520134,-0.0787518717320621,-0.0338847303337087,0.0487511600740379,4
0.3800048828125,-0.124251335859299,2.91394972801208,1.14270794391632,-0.0714797725314022,2.93506063123087,1.18710647443246,1455.19,1181.678,3090.585,3231.6,-0.06361227,0.001258216,0.1450406,-0.412418156862259,-0.1082573980093,0.0627445727586746,-0.0869921272359981,-0.0374302820709642,0.0538522707687797,4
0.400009155273438,-0.132943123579025,2.91182637214661,1.14421737194061,-0.0733051402689975,2.93427522648826,1.18823646401636,1580.172,1273.976,3104.168,2981.448,-0.05701775,0.005826921,0.135746,-0.434589564800262,-0.106164842844009,0.0754720345139503,-0.0955591682828665,-0.0411164404980124,0.0591556772815509,4
0.419998168945313,-0.142023503780365,2.90975046157837,1.14595794677734,-0.0753034649285836,2.93341540321397,1.18947352217404,1631.414,1288.663,3159.034,2844.61,-0.0524451,0.01017606,0.1278542,-0.454019397497177,-0.103801384568214,0.0870306417346001,-0.104434660908044,-0.0449353170220673,0.0646500300148815,4
0.44000244140625,-0.151445984840393,2.90772461891174,1.14789617061615,-0.077483988232608,2.93247718495301,1.19082336997196,1605.804,1237.665,3220.604,2843.247,-0.04966156,0.01397351,0.1224637,-0.471123844385147,-0.101291887462139,0.0969123020768166,-0.113620829717891,-0.048887868829098,0.0703367061060819,4
0.460006713867188,-0.161176696419716,2.90575170516968,1.14999735355377,-0.0798512213598696,2.93145863067119,1.19228880004469,1541.621,1158.325,3252.261,2938.416,-0.04788364,0.01718543,0.119343,-0.486535429954529,-0.0986415147781372,0.105058498680592,-0.123099793815011,-0.0529664022684887,0.0762046364278779,4
0.479995727539063,-0.171193510293961,2.9038360118866,1.15223920345306,-0.0824088828700873,2.93035814037613,1.19387211435783,1475.564,1086.523,3247.399,3066.317,-0.04628627,0.01998856,0.1173758,-0.50084125995636,-0.095778800547123,0.112092286348343,-0.132852887402757,-0.0571628859694044,0.0822422659629699,5
0.5,-0.18148098886013,2.9019832611084,1.15461623668671,-0.085166398670376,2.92917165836334,1.1955791479969,1430.861,1045.904,3217.472,3169.929,-0.04433471,0.02264287,0.1152261,-0.514374375343323,-0.0926398485898972,0.118848763406277,-0.142884000065179,-0.0614789935111996,0.0884520025491718,5
0.520004272460938,-0.192024201154709,2.90019869804382,1.15713512897491,-0.088127196023106,2.92789770997757,1.19741202260058,1423.233,1045.025,3177.096,3211.013,-0.04191762,0.02537779,0.1118895,-0.527160346508026,-0.0892282947897911,0.125942185521126,-0.153174893518032,-0.065906877469682,0.0948225558197254,5
0.540008544921875,-0.202804490923882,2.89848589897156,1.15981018543243,-0.0912963635428427,2.92653410573011,1.19937388826368,1446.768,1073.759,3148.086,3183.832,-0.03929175,0.02829025,0.1070464,-0.539014577865601,-0.085638515651226,0.133750632405281,-0.163714777034477,-0.0704418948965508,0.101347245800684,5
0.55999755859375,-0.21379779279232,2.89684534072876,1.16265332698822,-0.094676112580471,2.92507989413848,1.20146611391775,1484.241,1113.943,3138.775,3114.032,-0.03689384,0.0313281,0.1010553,-0.549665570259094,-0.0820309445261955,0.14215561747551,-0.17448465888317,-0.0750758741803766,0.108014315705644,5
0.580001831054688,-0.224976137280464,2.89527368545532,1.16566896438599,-0.0982762614093182,2.92353085067394,1.20369477754168,1519.373,1148.366,3147.313,3035.497,-0.03513402,0.03434312,0.0946591,-0.558917701244354,-0.0785779431462288,0.15078204870224,-0.185490414529404,-0.0798113433697334,0.11482740272751,5
0.600006103515625,-0.236310809850693,2.89376521110535,1.16885221004486,-0.102098762959148,2.92188613504538,1.20606108809202,1540.74,1167.059,3162.674,2979.456,-0.03428713,0.03716035,0.08862019,-0.566734611988068,-0.0754219442605972,0.159162506461143,-0.196713446836865,-0.0846403006364086,0.121774994352997,5
0.6199951171875,-0.24777615070343,2.89231181144714,1.17219495773315,-0.106144683970236,2.92014528826426,1.20856570593183,1536.9,1167.651,3181.082,2962.783,-0.03441443,0.03963418,0.08345431,-0.573266506195068,-0.0726662576198578,0.167134925723076,-0.208134604141382,-0.0895545055543457,0.128845234789665,5
0.639999389648438,-0.259351432323456,2.89090418815613,1.17568778991699,-0.110424235525481,2.91830391678686,1.21121495220784,1505.379,1156.07,3195.996,2987.528,-0.03534654,0.04169716,0.07929979,-0.578764975070953,-0.0703803226351738,0.174643397331238,-0.219761081350814,-0.0945570538913933,0.136042578028218,5
0.660003662109375,-0.271021217107773,2.88953232765198,1.17932105064392,-0.114938248900541,2.91636166293851,1.21400934151928,1466.236,1144.245,3197.236,3032.199,-0.03677985,0.04338409,0.07590917,-0.583489835262299,-0.068596176803112,0.181665435433388,-0.231574097577923,-0.0996398647564507,0.143355397804799,5
0.680007934570313,-0.282774209976196,2.88818573951721,1.18309009075165,-0.119690355154666,2.91431696437584,1.21695112166479,1430.917,1139.964,3189.908,3073.949,-0.03844273,0.04477822,0.07287861,-0.587650418281555,-0.0673241838812828,0.188450366258621,-0.243563621239988,-0.104798621839723,0.150777484091833,5
0.699996948242188,-0.294601231813431,2.88685417175293,1.18699288368225,-0.124680083855354,2.91217002351282,1.22004000142426,1404.317,1146.346,3177.468,3101.956,-0.04017645,0.04596751,0.06985389,-0.591351330280304,-0.0665737316012383,0.19514125585556,-0.255710395848158,-0.11002503961202,0.158296916205407,5
0.720001220703125,-0.306493580341339,2.88552689552307,1.1910297870636,-0.129918284978346,2.90991617190799,1.22328269744952,1391.46,1162.564,3165.001,3107.639,-0.04193999,0.04701811,0.06663463,-0.594617426395416,-0.0663617327809334,0.201846793293953,-0.268023157655716,-0.11532287703907,0.16591910230247,5
0.740005493164063,-0.318442046642303,2.88419270515442,1.19520020484924,-0.13540428105644,2.90755570105657,1.22667879035609,1392.587,1185.047,3152.802,3094.373,-0.04382711,0.04795182,0.06322203,-0.59742271900177,-0.0667119398713112,0.208519622683525,-0.280482990349159,-0.120683994959631,0.173632332283853,5
0.760009765625,-0.330437153577805,2.88283944129944,1.19950497150421,-0.141140917956636,2.9050873864615,1.23023004187122,1395.098,1207.892,3148.66,3072.782,-0.04599386,0.04873708,0.05980534,-0.599757492542267,-0.0676620975136757,0.215238407254219,-0.293080296154222,-0.126104263719567,0.181430664670081,5
0.779998779296875,-0.342469990253448,2.88145422935486,1.20394277572632,-0.147126184485884,2.90251209348295,1.23393520697061,1387.393,1226.63,3150.847,3059.231,-0.04855102,0.04931856,0.05664903,-0.601642668247223,-0.0692546889185905,0.221888154745102,-0.305795832832518,-0.131575403921268,0.189302187598958,5
0.800003051757813,-0.354533046483994,2.88002371788025,1.20850992202759,-0.153371683173492,2.89982482987671,1.2378014681726,1370.946,1240.262,3155.922,3055.999,-0.05149009,0.04965605,0.05394584,-0.603153765201569,-0.0715223103761673,0.228359162807465,-0.318639638509124,-0.13710173468952,0.197253115148089,5
0.82000732421875,-0.36662095785141,2.8785343170166,1.21319961547852,-0.159875221826383,2.89702653888221,1.24182746840525,1352.526,1250.719,3155.769,3062.595,-0.05474713,0.04973697,0.0517666,-0.604394912719727,-0.0744719281792641,0.23448583483696,-0.331592781842754,-0.14267511039705,0.205271727915392,4
0.839996337890625,-0.378730833530426,2.87697243690491,1.21800744533539,-0.166633637018892,2.89411858163313,1.24601124935738,1329.77,1259.87,3154.612,3075.984,-0.0582444,0.04956235,0.0500964,-0.605494022369385,-0.0780998691916466,0.240390226244926,-0.344636106234817,-0.148287288494656,0.213346167053785,4
0.860000610351563,-0.390862047672272,2.87532448768616,1.22292959690094,-0.173659158941841,2.89109569582005,1.2503603820997,1298.71,1269.069,3152.795,3098.002,-0.06187375,0.04915038,0.04886614,-0.606560289859772,-0.0823939293622971,0.246108114719391,-0.357780475378537,-0.153942943326036,0.221483157706883,4
0.8800048828125,-0.403015494346619,2.87357807159424,1.22796082496643,-0.180948461186242,2.88795931270381,1.25487280742661,1276.863,1280.806,3144.943,3114.524,-0.06551003,0.04855344,0.04792194,-0.607672870159149,-0.087325781583786,0.251561284065247,-0.371007022483504,-0.159633957038354,0.229671020432672,4
0.900009155273438,-0.415193259716034,2.87172079086304,1.23309922218323,-0.188503099076414,2.88470876307182,1.25954948815793,1261.693,1295.406,3137.942,3122.031,-0.06911062,0.04780874,0.04717157,-0.608888208866119,-0.0928688198328018,0.256919860839844,-0.384306908919572,-0.165356526615982,0.237904283698049,4
0.919998168945313,-0.427397847175598,2.86974096298218,1.23834300041199,-0.196318384305134,2.8813460641717,1.26438752200817,1246.321,1311.094,3132.567,3127.982,-0.07267766,0.04693416,0.04660577,-0.610230147838593,-0.0989952087402344,0.262190163135529,-0.397661187980262,-0.171102499820431,0.246171218589148,4
0.94000244140625,-0.43963223695755,2.86762738227844,1.24369072914124,-0.204407453948074,2.87786556348678,1.26939504145298,1233.495,1326.327,3130.076,3129.792,-0.07619357,0.04594509,0.04624022,-0.611720979213715,-0.105678759515285,0.267385333776474,-0.411081631631503,-0.176876941799768,0.254479112513653,4
0.960006713867188,-0.451899796724319,2.86536979675293,1.24913859367371,-0.212765478812529,2.87426933888379,1.27456905699201,1227.49,1340.844,3125.18,3128.851,-0.07967006,0.04485201,0.04610569,-0.613377511501312,-0.112880483269691,0.272394895553589,-0.424549556012544,-0.182671813410681,0.262816399271726,3
0.979995727539063,-0.464204609394073,2.8629584312439,1.25468564033508,-0.22138664033507,2.87055989392801,1.27990596665734,1220.23,1353.618,3123.893,3128.572,-0.08314069,0.04364778,0.04626523,-0.615239500999451,-0.120572209358215,0.277354717254639,-0.438046240701377,-0.188479059778567,0.271171490030365,3
1,-0.476551532745361,2.86038398742676,1.26033091545105,-0.230284798736574,2.86673126495361,1.28541435058594,1202.598,1363.594,3126.052,3138.191,-0.08659588,0.04232413,0.04678113,-0.617348611354828,-0.128723695874214,0.282261878252029,-0.451584000205995,-0.194303979492187,0.279552008056641,3
1.02000427246094,-0.488946497440338,2.85763835906982,1.26607036590576,-0.239454009753966,2.86278600961093,1.2910905289958,1191.402,1372.107,3123.951,3147.275,-0.08996211,0.04090597,0.04760952,-0.61974823474884,-0.137287065386772,0.286969721317291,-0.465144357597929,-0.200138622445408,0.287946515251652,3
1.04000854492188,-0.501396298408508,2.85471391677856,1.27190291881561,-0.248894644448595,2.85872396824263,1.29693473159157,1182.498,1380.316,3122.831,3154.553,-0.09320798,0.03941004,0.04871539,-0.622489631175995,-0.146221876144409,0.29162922501564,-0.47871923339115,-0.205979512261105,0.296350010028666,3
1.05999755859375,-0.513908326625824,2.85160422325134,1.27782773971558,-0.258599401509697,2.85454828239877,1.30294243851408,1169.601,1387.818,3122.146,3166.693,-0.09631322,0.03785051,0.05007657,-0.62560248374939,-0.155481189489365,0.296243280172348,-0.492290296490434,-0.211818761581115,0.30475114456651,3
1.08000183105469,-0.526490569114685,2.84830379486084,1.28384459018707,-0.268583149539609,2.85025255453512,1.30912285413647,1158.566,1394.499,3122.767,3177.058,-0.09921607,0.03625441,0.05163651,-0.629112780094147,-0.165019229054451,0.300841480493546,-0.50587040849135,-0.217661904390701,0.313157880805523,3
1.10000610351563,-0.539151072502136,2.84480834007263,1.28995132446289,-0.278838480013141,2.84583997233313,1.31547139222872,1157.317,1401.654,3118.942,3182.596,-0.1018941,0.03465391,0.05333087,-0.6330246925354,-0.174774304032326,0.305334806442261,-0.519441457145546,-0.223501147495394,0.321559006401169,3
1.1199951171875,-0.551898121833801,2.84111428260803,1.29614949226379,-0.289357002179081,2.84131414609862,1.32198285851614,1157.97,1408.544,3118.27,3184.929,-0.1043805,0.03305934,0.05514922,-0.637351214885712,-0.184704944491386,0.309905976057053,-0.532985466132485,-0.229328756186667,0.329943393154705,3
1.13999938964844,-0.564739942550659,2.83721876144409,1.30244112014771,-0.300154365346813,2.83666834237095,1.3286669406667,1150.582,1413.615,3122.005,3193.161,-0.1066894,0.03147,0.05712028,-0.642090857028961,-0.194772452116013,0.314583212137222,-0.546515580872639,-0.235150386571708,0.338319178707607,3
1.16000366210938,-0.577684700489044,2.83312034606934,1.3088253736496,-0.311222084148811,2.83190621216671,1.33551838583369,1152.011,1417.681,3122.137,3197.532,-0.108788,0.02991068,0.05920228,-0.647236168384552,-0.204921513795853,0.319210112094879,-0.560014026276883,-0.240958390526247,0.34667535943296,3
1.18000793457031,-0.590740621089935,2.82881808280945,1.31530404090881,-0.322559451663168,2.82702805965467,1.34253675639879,1155.94,1421.088,3124.296,3199.247,-0.1106959,0.02838728,0.06139193,-0.652797877788544,-0.215114071965218,0.323933660984039,-0.573473482003304,-0.246749618311663,0.355007403690405,3
1.19999694824219,-0.603916049003601,2.82431197166443,1.32187902927399,-0.334156660511822,2.8220381046756,1.34971598112778,1154.272,1422.968,3128.008,3206.916,-0.1124333,0.02689774,0.06370717,-0.65877240896225,-0.22530908882618,0.328749924898148,-0.58687652428584,-0.252516572968185,0.36330452533874,3
1.22000122070313,-0.617219388484955,2.81960248947144,1.32855236530304,-0.346030421585499,2.81692915700008,1.35706640485806,1151.913,1423.125,3133.567,3215.236,-0.1139609,0.02545465,0.06612112,-0.665162801742554,-0.235469311475754,0.333668440580368,-0.600236516861372,-0.258265004538453,0.371574997167698,3
1.24000549316406,-0.630658447742462,2.81469178199768,1.33532381057739,-0.358170848086624,2.8117054706409,1.36458190719098,1158.209,1423.641,3133.771,3220.342,-0.1152643,0.02408138,0.06857482,-0.671955525875092,-0.245539367198944,0.338573783636093,-0.613536214864368,-0.263987493038594,0.379808143784027,2
1.260009765625,-0.644241631031036,2.80958199501038,1.34219670295715,-0.37057666480527,2.80636759428526,1.37226169871082,1165.268,1423.964,3136.395,3223.55,-0.1163796,0.02278311,0.07104755,-0.67915403842926,-0.255488485097885,0.343644380569458,-0.626768731761373,-0.26968107538565,0.387999702095469,2
1.27999877929688,-0.657976388931274,2.80427622795105,1.34917449951172,-0.383236695417198,2.80092033679326,1.3800988607405,1166.337,1423.231,3141.671,3231.24,-0.1173282,0.02155807,0.07354224,-0.686741173267365,-0.26528787612915,0.348889887332916,-0.639917282339435,-0.275338529371412,0.396139281255613,2
1.30000305175781,-0.671870410442352,2.79877805709839,1.35626041889191,-0.396168722856641,2.79535604666509,1.38810440176341,1167.413,1421.241,3149.093,3237.781,-0.1180696,0.02041838,0.07603177,-0.694700002670288,-0.274910688400269,0.354294627904892,-0.652995275331231,-0.280965624398954,0.404235181908735,2
1.32000732421875,-0.685930252075195,2.79309177398682,1.36345458030701,-0.409361504843077,2.78967956113998,1.39627136227237,1178.681,1420.107,3150.302,3239.73,-0.1186002,0.01938411,0.07846865,-0.702996015548706,-0.284308820962906,0.359710723161697,-0.6659860834168,-0.286555206197011,0.41227711095171,2
1.33999633789063,-0.700162708759308,2.78722262382507,1.37076103687286,-0.422802873722428,2.78389611561957,1.40459220990988,1190.674,1418.708,3154,3239.703,-0.1189773,0.01845034,0.08085454,-0.711621940135956,-0.293461382389069,0.365320831537247,-0.678873453515705,-0.29210028151913,0.420255006953505,2
1.36000061035156,-0.714573800563812,2.78117561340332,1.37818431854248,-0.436511415158101,2.77799771321212,1.41307845008695,1191.923,1415.398,3162.635,3247.046,-0.1192281,0.01760189,0.08322326,-0.720555603504181,-0.302355766296387,0.371164739131927,-0.691670720740693,-0.297606588091785,0.42817712498415,2
1.3800048828125,-0.729169070720673,2.77495646476746,1.38572537899017,-0.450474904562636,2.77198961381608,1.4217225152016,1200.758,1412.24,3166.407,3250.964,-0.1193256,0.01685692,0.08552498,-0.729760825634003,-0.310959935188293,0.377055466175079,-0.704361775018035,-0.303067194200314,0.436033492140578,2
1.40000915527344,-0.74395364522934,2.76857113838196,1.39338791370392,-0.464691155755482,2.76587275808388,1.43052305190393,1211.989,1409.15,3171.724,3251.305,-0.1192915,0.01621547,0.0877462,-0.739228546619415,-0.319262146949768,0.383127510547638,-0.716940488958393,-0.308479463400265,0.443820315276901,2
1.41999816894531,-0.758932292461395,2.76202607154846,1.40117526054382,-0.47914673136562,2.75965292774086,1.43947174182117,1217.67,1405.284,3178.487,3256.191,-0.1191536,0.0156668,0.08990497,-0.748929679393768,-0.327249795198441,0.389368891716003,-0.729391385793766,-0.313836736470737,0.451528013536465,2
1.44000244140625,-0.774109065532684,2.7553277015686,1.40909063816071,-0.493861275572861,2.75332167044526,1.4485807456364,1222.022,1400.347,3186.856,3261.213,-0.1188835,0.01521309,0.09198693,-0.758840918540955,-0.334914147853851,0.395768254995346,-0.741727567798258,-0.319144650954242,0.459164697851088,2
1.46000671386719,-0.789487481117249,2.74848318099976,1.41713416576385,-0.508821304757097,2.74688478782212,1.45784171634646,1234.961,1396.886,3188.468,3262.694,-0.1184867,0.01486821,0.0939473,-0.768921732902527,-0.342226892709732,0.40217849612236,-0.753933682518823,-0.324396601119133,0.466720864320996,2
1.47999572753906,-0.805070698261261,2.74149942398071,1.42530989646912,-0.524012471663969,2.74034845309416,1.46724577231745,1247.258,1393.402,3192.953,3262.402,-0.118018,0.01462217,0.09578564,-0.779163360595703,-0.349188387393951,0.408783793449402,-0.765994882555672,-0.329586198544069,0.474187321698441,2
1.5,-0.820861458778381,2.73438334465027,1.43362212181091,-0.539455198877605,2.73370387899399,1.4768055561018,1248.767,1388.256,3202.835,3268.27,-0.1174891,0.01445719,0.09753548,-0.789537847042084,-0.355808287858963,0.415613651275635,-0.777924000354858,-0.334718964672088,0.481572013878822,1
1.52000427246094,-0.836861371994019,2.72714185714722,1.44207096099854,-0.555135099954955,2.72695725560613,1.48651216180595,1258.48,1384.198,3206.384,3270.213,-0.1168702,0.01438946,0.09915242,-0.799996197223663,-0.362071454524994,0.422441124916077,-0.789706299681991,-0.339788558913217,0.48886581843107,1
1.54000854492188,-0.853071928024292,2.71978235244751,1.45065891742706,-0.571049184024557,2.72010986981902,1.49636373793799,1271.268,1380.513,3210.997,3267.85,-0.1161895,0.01441421,0.1006314,-0.810526371002197,-0.367981344461441,0.429400652647018,-0.801336412291853,-0.344792671461508,0.496065412155667,1
1.55999755859375,-0.869493901729584,2.71231150627136,1.45938861370087,-0.587181951496087,2.71316839067337,1.50635068951315,1277.317,1376.123,3217.306,3270.639,-0.1154858,0.01451268,0.1020062,-0.821097493171692,-0.373543918132782,0.436487793922424,-0.812800388649436,-0.349725300221754,0.503162159625937,1
1.58000183105469,-0.886127591133118,2.70473599433899,1.46826243400574,-0.60355483331529,2.70612359703193,1.51648628330776,1280.611,1370.661,3225.785,3274.04,-0.114729,0.01468109,0.1032763,-0.831686794757843,-0.378770023584366,0.44369113445282,-0.824110582941666,-0.354591760855452,0.510163708672098,0
1.60000610351563,-0.90297269821167,2.69706296920776,1.47727906703949,-0.620152298932711,2.69898217125626,1.52676090517188,1291.983,1367.074,3226.766,3274.352,-0.1139188,0.01493018,0.1044046,-0.842251300811768,-0.38364765048027,0.450834423303604,-0.835253140422976,-0.35938609205264,0.51706148254665,0
1.6199951171875,-0.920028448104858,2.6892991065979,1.4864410161972,-0.636958033083316,2.69175113334911,1.53716445517924,1303.031,1363.619,3230.264,3272.522,-0.1131039,0.01524807,0.105394,-0.85278731584549,-0.388190269470215,0.458096742630005,-0.846214826007804,-0.364102599125749,0.523847288101157,0
1.63999938964844,-0.937293827533722,2.68145060539246,1.49575126171112,-0.653994195024907,2.68442094880091,1.54771065096602,1302.842,1358.577,3239.201,3276.978,-0.1122906,0.01561382,0.1062843,-0.863271951675415,-0.392421573400497,0.465510040521622,-0.857007552155828,-0.368746407673381,0.530528499715628,0
1.66000366210938,-0.954766988754272,2.67352390289307,1.50520801544189,-0.671244443874359,2.67699864863716,1.55838937674714,1310.479,1355.105,3241.123,3277.889,-0.111449,0.01604213,0.1070355,-0.873658299446106,-0.396339893341064,0.472836375236511,-0.867618167158098,-0.373311858882592,0.53709697585572,0
1.68000793457031,-0.972445845603943,2.66552472114563,1.51481235027313,-0.688705090349012,2.66948582025311,1.56919834868089,1321.037,1352.16,3244.118,3274.353,-0.1106043,0.0165275,0.1076444,-0.883941173553467,-0.399959623813629,0.480214864015579,-0.878042061913515,-0.377796969585941,0.543549863268291,0
1.69999694824219,-0.990327775478363,2.65745878219604,1.52456521987915,-0.706358800111611,2.66188992212981,1.58012683598675,1324.5,1348.604,3249.141,3275.766,-0.1097883,0.01704962,0.1081499,-0.894095659255981,-0.403298795223236,0.487645030021667,-0.888267004546665,-0.382196476749158,0.549879589839776,0
1.72000122070313,-1.00840973854065,2.64933133125305,1.5344672203064,-0.724228658537036,2.6542010212754,1.5911891296115,1324.92,1344.122,3256.147,3277.973,-0.1089654,0.01760421,0.1085581,-0.904103457927704,-0.406377673149109,0.495102554559708,-0.898304216251578,-0.386515208538549,0.556093102023817,0
1.74000549316406,-1.02668821811676,2.64114737510681,1.54451525211334,-0.742297311768984,2.64642658456943,1.60237448669139,1333.99,1341.841,3254.885,3276.926,-0.1081329,0.01820193,0.1088346,-0.913926482200623,-0.409192055463791,0.502399682998657,-0.908141534469281,-0.390747931744771,0.562182870617028,0
1.760009765625,-1.04515969753265,2.63291215896606,1.55470991134644,-0.760560719141003,2.63856835059778,1.61368040586141,1342.623,1339.713,3256.492,3273.508,-0.1073382,0.0188302,0.1089877,-0.923571169376373,-0.411761730909348,0.509734392166138,-0.91777478390713,-0.394892849856044,0.568146310914365,0
1.77999877929688,-1.0638200044632,2.62462997436523,1.56505191326141,-0.779000609654483,2.63063418086074,1.62509557650306,1341.863,1336.705,3261.378,3276.091,-0.1066037,0.01946869,0.1090567,-0.933018326759338,-0.414113193750381,0.517098426818848,-0.927192788821983,-0.398945154262308,0.57397650459845,0
1.80000305175781,-1.08266496658325,2.61630463600159,1.57554066181183,-0.797640935141499,2.62261376955408,1.63663482594136,1339.315,1332.959,3268.053,3278.027,-0.105867,0.02011985,0.1090396,-0.942252218723297,-0.416270583868027,0.524438381195068,-0.936405971974637,-0.402909329586356,0.579679903854719,0
1.82000732421875,-1.10168969631195,2.60794019699097,1.58617150783539,-0.816463410111527,2.61451498441355,1.64828683458664,1347.41,1331.762,3265.244,3275.669,-0.1051176,0.02079827,0.1089001,-0.951235353946686,-0.418227732181549,0.531543254852295,-0.94540321420156,-0.406780591562751,0.585249625391268,0
1.83999633789063,-1.12088942527771,2.59954023361206,1.59694397449493,-0.835449117627072,2.60634596486888,1.66003989195343,1355.79,1330.832,3264.812,3270.855,-0.104414,0.02148948,0.1086512,-0.959978997707367,-0.420001119375229,0.538625538349152,-0.954174163352093,-0.410554485950274,0.590679260733698,0
1.86000061035156,-1.1402587890625,2.5911078453064,1.6078587770462,-0.854622615239374,2.59809614449182,1.6719092003358,1350.505,1328.05,3270.828,3274.087,-0.1037701,0.02216788,0.1083496,-0.968475997447968,-0.421622037887573,0.545742332935333,-0.962728579444532,-0.414235212212131,0.595974851798267,0
1.8800048828125,-1.15979278087616,2.58264589309692,1.61891162395477,-0.873964974649439,2.58977366760063,1.68388304221498,1352.278,1326.827,3269.815,3274.473,-0.1031458,0.02285043,0.1079583,-0.976693034172058,-0.423096925020218,0.55264014005661,-0.971056158224177,-0.417818336715394,0.601130019760457,0
1.90000915527344,-1.1794855594635,2.57415699958801,1.63010084629059,-0.893471623792247,2.58138050142717,1.69595858726494,1357.553,1326.155,3270.096,3269.615,-0.1025493,0.02353474,0.107473,-0.984640300273895,-0.424443155527115,0.55946284532547,-0.979153483542501,-0.421302389586788,0.606142649861596,0
1.91999816894531,-1.1993316411972,2.56564331054688,1.6414247751236,-0.913122862707269,2.57292512231409,1.70812364027167,1355.948,1325.033,3271.861,3269.973,-0.1020039,0.02420365,0.1069353,-0.992305219173431,-0.425678551197052,0.566197156906128,-0.987011339258123,-0.424683405378145,0.611007036871143,0
1.94000244140625,-1.21932530403137,2.5571072101593,1.65288138389587,-0.932943991899774,2.5643966441608,1.72039386345315,1351.786,1323.079,3275.418,3270.94,-0.101468,0.02485564,0.1063515,-0.999684691429138,-0.426821738481522,0.572828888893127,-0.994638524886308,-0.427965170275055,0.615728628108227,0
1.96000671386719,-1.23946034908295,2.54854989051819,1.66446483135223,-0.952915303453826,2.55580354673295,1.73275705667061,1356.346,1323.332,3270.413,3269.081,-0.1009391,0.0255044,0.1056876,-1.00675427913666,-0.427866548299789,0.579171419143677,-1.00202586176059,-0.431143734953757,0.620301741541062,0
1.97999572753906,-1.25973105430603,2.53997325897217,1.67617380619049,-0.973016570682103,2.54715453300902,1.74520069864106,1360.521,1323.698,3269.025,3264.322,-0.1004603,0.02613893,0.1049529,-1.01353561878204,-0.428830415010452,0.585451543331146,-1.00916501115878,-0.434215511495054,0.624721215103391,0
2,-1.28013145923615,2.53137850761414,1.6880077123642,-0.993273599084619,2.53843849960327,1.7577407641983,1351.268,1322.364,3273.645,3267.634,-0.100031,0.0267384,0.1042022,-1.02002537250519,-0.429740399122238,0.591694176197052,-1.01606400046349,-0.437183953857422,0.628992018127441,0
2.02000427246094,-1.30065536499023,2.52276659011841,1.6999603509903,-1.01366615605493,2.52966415204104,1.77036472839513,1351.313,1322.659,3270.247,3266.988,-0.09960116,0.02732499,0.1033914,-1.02619647979736,-0.430595338344574,0.597631394863129,-1.02271452148052,-0.440045487257004,0.633109007445237,0
2.04000854492188,-1.32129681110382,2.5141384601593,1.71202909946442,-1.03418924440916,2.52083364047092,1.78306949773667,1355.511,1323.548,3268.155,3260.745,-0.09918837,0.02789739,0.1025186,-1.03206706047058,-0.43140509724617,0.603435516357422,-1.02911391720548,-0.442798968459032,0.637070538244476,0
2.05999755859375,-1.34204936027527,2.50549459457397,1.72421133518219,-1.05482201812353,2.5119559343546,1.79584216754118,1351.317,1323.791,3268.124,3261.037,-0.09882352,0.02843653,0.1016323,-1.03763198852539,-0.432182461023331,0.609109282493591,-1.03525504859546,-0.445441325732794,0.640872191117535,0
2.08000183105469,-1.36290740966797,2.49683594703674,1.73650419712067,-1.07559088172821,2.50301967256038,1.80869908347065,1344.193,1322.988,3270.402,3262.062,-0.09846026,0.02894361,0.1007375,-1.04289567470551,-0.432941883802414,0.614640891551971,-1.04114485287423,-0.447975543971863,0.644518260536375,0
2.10000610351563,-1.38386416435242,2.48816251754761,1.74890089035034,-1.09647498538954,2.49403382618922,1.82162733848484,1346.372,1324.193,3264.084,3259.99,-0.09808528,0.02943593,0.09979664,-1.04783976078033,-0.433671414852142,0.619832694530487,-1.04677621342161,-0.450398561093403,0.648004340974112,0
2.1199951171875,-1.40491378307343,2.4794750213623,1.76139914989471,-1.11745308225396,2.48500753716864,1.83461377976925,1349.096,1325.569,3261.095,3254.508,-0.09773748,0.02990554,0.09881622,-1.05248987674713,-0.434380680322647,0.624913990497589,-1.0521429102862,-0.45270770082608,0.651326581984514,0
2.13999938964844,-1.42605090141296,2.47077322006226,1.77399742603302,-1.138551967509,2.47592927627801,1.8476749948214,1338.244,1325.314,3263.916,3257.579,-0.09742163,0.03033284,0.09785171,-1.05684769153595,-0.435088396072388,0.629916906356812,-1.05725102347782,-0.454905579228273,0.654488747383304,0
2.16000366210938,-1.44726872444153,2.46205759048462,1.78668904304504,-1.15975039167652,2.46680818657414,1.86079782920208,1336.711,1326.324,3259.179,3256.736,-0.0970866,0.03074178,0.09685691,-1.06089341640472,-0.435786992311478,0.634583592414856,-1.0620943502576,-0.456989527434725,0.657486997379635,0
2.18000793457031,-1.46856164932251,2.45332789421082,1.79947090148926,-1.18104303873349,2.45764655539322,1.87397899203979,1339.412,1327.864,3255.919,3250.234,-0.09674732,0.031133,0.09582758,-1.06464827060699,-0.436479955911636,0.639090597629547,-1.06667099276523,-0.458958728849171,0.660320157107579,0
2.19999694824219,-1.48992371559143,2.44458413124084,1.81233978271484,-1.20240821395574,2.44845371736898,1.88720505326679,1333.81,1328.747,3254.745,3250.281,-0.09643359,0.03148952,0.0948111,-1.06811046600342,-0.437173247337341,0.643441796302795,-1.07097597819164,-0.460811043810786,0.662985148161421,0
2.22000122070313,-1.51134967803955,2.43582677841187,1.8252922296524,-1.22387315175433,2.43921795429519,1.90049287228091,1325.521,1328.489,3255.829,3251.097,-0.09609751,0.03181498,0.09380993,-1.07128715515137,-0.437873870134354,0.647624790668488,-1.07501419914593,-0.462548577472581,0.665484999299265,0
2.24000549316406,-1.53283286094666,2.4270555973053,1.83832108974457,-1.24541615591711,2.42994860144581,1.91382901809327,1327.09,1329.981,3248.435,3248.552,-0.0957236,0.03212805,0.09278355,-1.07416391372681,-0.438562840223312,0.651445329189301,-1.07878069424208,-0.464169195088763,0.667816639186824,0
2.25999450683594,-1.55436825752258,2.41827082633972,1.85142385959625,-1.26701526177039,2.4206551096063,1.92719989352455,1329.337,1331.623,3244.44,3242.568,-0.09535395,0.03242227,0.09173778,-1.0767674446106,-0.439243406057358,0.655140995979309,-1.08227143928024,-0.465671165158559,0.669977576652695,0
2.27999877929688,-1.57595014572144,2.40947222709656,1.8645988702774,-1.28869796983554,2.41132564607061,1.9406225227075,1317.585,1331.643,3246.312,3245.604,-0.09499549,0.03267906,0.09072781,-1.07910096645355,-0.439927726984024,0.658748209476471,-1.08549040888332,-0.467056197851165,0.67197027217779,0
2.30000305175781,-1.59757304191589,2.40066027641296,1.87783896923065,-1.31044231452835,2.40196966201596,1.95408330789913,1315.62,1332.588,3240.841,3244.459,-0.09459335,0.03292406,0.08970338,-1.08114790916443,-0.44060230255127,0.662007331848145,-1.08843358680109,-0.468322565086307,0.673792239511894,0
2.32000732421875,-1.61923158168793,2.39183497428894,1.89114093780518,-1.33224276726637,2.39258953623693,1.96757882664355,1318.151,1334.025,3236.929,3237.466,-0.09416245,0.03315905,0.08865844,-1.08292949199677,-0.441265285015106,0.665100991725922,-1.09109983431736,-0.469469776906228,0.675442773735451,0
2.33999633789063,-1.6409205198288,2.38299655914307,1.90450155735016,-1.35407709248145,2.38319483607731,1.98109531406483,1312.352,1334.818,3234.95,3237.286,-0.09373528,0.03336852,0.08763906,-1.0844441652298,-0.4419164955616,0.668031692504883,-1.09348640563071,-0.470496651869278,0.67692017506657,0
2.36000061035156,-1.66263437271118,2.3741455078125,1.9179173707962,-1.37597305876702,2.37377361348711,1.99464996024512,1304.055,1334.369,3235.3,3237.819,-0.0932639,0.0335569,0.08664459,-1.08569967746735,-0.442557573318481,0.670792043209076,-1.09559602313537,-0.471404361345641,0.678226128796969,0
2.3800048828125,-1.68436813354492,2.3652822971344,1.93138122558594,-1.39790843013262,2.36433543599182,2.00822900004707,1305.907,1335.42,3227.535,3234.666,-0.0927334,0.03374358,0.08563248,-1.08668339252472,-0.443165719509125,0.673193573951721,-1.09742594550583,-0.472191725819537,0.679358937915576,0
2.40000915527344,-1.70611643791199,2.35640740394592,1.94489061832428,-1.41987760424917,2.35488271411715,2.02182896536211,1308.249,1336.596,3223.142,3228.375,-0.09218638,0.03392221,0.08460869,-1.08741939067841,-0.443740040063858,0.675472319126129,-1.09897546783438,-0.472858441988871,0.680318166050934,0
2.41999816894531,-1.7278745174408,2.34752178192139,1.95844304561615,-1.44185817738692,2.34542508756209,2.03543598721428,1300.232,1336.863,3221.976,3229.63,-0.09164789,0.03407883,0.08361565,-1.08790636062622,-0.444284230470657,0.677623391151428,-1.10024313330221,-0.473403883025206,0.681102911362803,0
2.44000244140625,-1.74963748455048,2.33862543106079,1.97203505039215,-1.46387808506052,2.33595053645515,2.04906735901791,1291.082,1335.964,3222.823,3230.28,-0.09104761,0.03422346,0.08264196,-1.08814918994904,-0.444799989461899,0.679603338241577,-1.10123038958312,-0.473828671822132,0.681714070030222,0
2.46000671386719,-1.77140033245087,2.32972049713135,1.98565936088562,-1.48591492338117,2.32646870056377,2.06270921169857,1294.316,1336.656,3214.968,3225.602,-0.09036265,0.0343779,0.08164193,-1.08813238143921,-0.44526132941246,0.681213796138763,-1.10193578218388,-0.474132182551855,0.682150741652607,0
2.47999572753906,-1.79315757751465,2.32080721855164,1.99931311607361,-1.50794623031618,2.31698924467309,2.07634764018804,1298.487,1337.579,3209.585,3218.316,-0.08964946,0.03453389,0.08062666,-1.08787560462952,-0.445662319660187,0.682687044143677,-1.10235882472314,-0.474314205938057,0.682412625136718,0
2.5,-1.81490540504456,2.31188678741455,2.01299500465393,-1.52999999932945,2.30750012397766,2.08999997377396,1288.42,1336.926,3210.312,3220.223,-0.088932,0.03467163,0.07965196,-1.08738327026367,-0.446009606122971,0.684091806411743,-1.10250000050292,-0.474374949932098,0.682500019669533,0
2.52000427246094,-1.83663821220398,2.3029613494873,2.02669858932495,-1.55205376834272,2.29801100328223,2.10365230735988,1286.226,1336.539,3204.937,3219.271,-0.08816022,0.03481327,0.0786704,-1.08664178848267,-0.446288675069809,0.685179471969604,-1.10235882472314,-0.474314205938057,0.682412625136718,0
2.54000854492188,-1.85835158824921,2.29403138160706,2.04042100906372,-1.57410188948011,2.28852431271001,2.11730114464159,1288.916,1336.61,3201.072,3212.068,-0.08733784,0.03496366,0.07766799,-1.08566856384277,-0.446496278047562,0.686116874217987,-1.10193535162022,-0.474131997292339,0.682150475113189,0
2.55999755859375,-1.88004064559937,2.28509879112244,2.05415916442871,-1.59612191359838,2.27904971150017,2.13093258853001,1284.211,1336.247,3198.8,3210.915,-0.08649468,0.03510962,0.07668502,-1.08445966243744,-0.44662880897522,0.686903178691864,-1.10123038958312,-0.473828671822132,0.681714070030222,0
2.58000183105469,-1.90170109272003,2.27616477012634,2.06790971755981,-1.61814182127198,2.26957516039323,2.14456396033363,1277.531,1334.69,3198.36,3210.513,-0.08558813,0.03525526,0.0757187,-1.0830192565918,-0.446683883666992,0.687524914741516,-1.10024313330221,-0.473403883025206,0.681102911362804,0
2.60000610351563,-1.92332768440247,2.26723217964172,2.08166599273682,-1.64013916343638,2.26011031859448,2.15818136301212,1281.064,1334.283,3190.5,3206.121,-0.0846065,0.03541831,0.07472625,-1.08133566379547,-0.446638822555542,0.687814235687256,-1.09897439291323,-0.472857979480329,0.680317500623536,0
2.6199951171875,-1.94491636753082,2.25830245018005,2.0954258441925,-1.66209156852628,2.2506648119635,2.17177094750084,1284.579,1334.1,3185.765,3199.25,-0.08360036,0.03559135,0.07371461,-1.07942652702332,-0.446491450071335,0.687998235225677,-1.09742594550583,-0.472191725819537,0.679358937915576,0
2.63999938964844,-1.96646213531494,2.24937748908997,2.10918831825256,-1.68402693989188,2.24122663446822,2.18534998730279,1274.412,1332.582,3186.611,3201.18,-0.08258196,0.0357577,0.07273261,-1.07729232311249,-0.446248829364777,0.688119292259216,-1.09559602313537,-0.471404361345641,0.67822612879697,0
2.66000366210938,-1.98796057701111,2.24045944213867,2.12294673919678,-1.70592290617745,2.23180541187802,2.19890463348308,1273.891,1331.296,3181.058,3198.867,-0.08149645,0.03594116,0.07172733,-1.07491886615753,-0.445896923542023,0.687924981117249,-1.09348640563071,-0.470496651869278,0.67692017506657,0
2.68000793457031,-2.00940704345703,2.23155069351196,2.13669848442078,-1.72777388024004,2.22240354818443,2.21243142733407,1278.355,1330.592,3176.96,3190.259,-0.08035663,0.03614368,0.07069022,-1.07231938838959,-0.445432186126709,0.687593042850494,-1.09109790637238,-0.469468947365361,0.675441580245664,0
2.69999694824219,-2.03079652786255,2.22265386581421,2.15044093132019,-1.74955768413056,2.21303058593937,2.22591663964878,1274.61,1329.461,3174.203,3188.783,-0.07920348,0.03634959,0.06966589,-1.06948757171631,-0.444851577281952,0.68711793422699,-1.08843358680109,-0.468322565086308,0.673792239511893,0
2.72000122070313,-2.0521252155304,2.21377062797546,2.16417098045349,-1.77130202882336,2.20367460188472,2.23937742484041,1268.802,1327.084,3173.638,3187.839,-0.0779976,0.03656266,0.0686494,-1.06642866134644,-0.444155782461166,0.686498999595642,-1.08549040888332,-0.467056197851165,0.671970272177789,0
2.74000549316406,-2.07338762283325,2.20490407943726,2.17788243293762,-1.79298473688851,2.19434513834902,2.25280005402337,1272.295,1325.671,3166.374,3183.202,-0.0767246,0.03679825,0.06760042,-1.06313169002533,-0.443327456712723,0.685572862625122,-1.08227143928024,-0.465671165158559,0.669977576652695,0
2.75999450683594,-2.09457969665527,2.19605684280396,2.19157338142395,-1.81458384274179,2.18505164650952,2.26617092945464,1276.217,1324.576,3161.939,3175.737,-0.07542711,0.03704994,0.06652468,-1.05960988998413,-0.442366272211075,0.684547185897827,-1.07878069424208,-0.464169195088763,0.667816639186824,0
2.77999877929688,-2.11569690704346,2.18723130226135,2.205242395401,-1.83612684690458,2.17578229366013,2.27950707526701,1267.296,1322.423,3162.172,3176.911,-0.0741211,0.0373016,0.06546882,-1.05586183071136,-0.441278755664825,0.683451890945435,-1.07501419914593,-0.462548577472581,0.665484999299265,0
2.80000305175781,-2.13673448562622,2.17843008041382,2.2188835144043,-1.85759178470316,2.16654653058634,2.29279489428112,1267.877,1320.333,3156.43,3173.823,-0.07275596,0.037575,0.06438091,-1.05187606811523,-0.440054506063461,0.682055592536926,-1.07097597819164,-0.460811043810786,0.662985148161422,0
2.82000732421875,-2.15768766403198,2.16965675354004,2.23249435424805,-1.87897323600723,2.1573466894188,2.30603103117811,1272.676,1318.891,3152.354,3164.897,-0.07134821,0.03786975,0.06325476,-1.04766368865967,-0.438693016767502,0.680538237094879,-1.06666760390385,-0.458957270716794,0.660318059240952,0
2.83999633789063,-2.17855215072632,2.16091251373291,2.2460720539093,-1.90024960698239,2.14819206138118,2.31920211834584,1269.09,1317.13,3149.442,3163.287,-0.06993887,0.03817083,0.06213307,-1.043217420578,-0.437194228172302,0.678884863853455,-1.06209435025759,-0.456989527434725,0.657486997379635,0
2.86000061035156,-2.19932270050049,2.1522011756897,2.25961422920227,-1.9214480311499,2.13907097167731,2.33232495272651,1263.944,1314.201,3149.075,3161.287,-0.06848425,0.03848168,0.06101015,-1.03854286670685,-0.435562521219254,0.677104532718658,-1.05725102347782,-0.454905579228273,0.654488747383304,0
2.8800048828125,-2.21999549865723,2.14352583885193,2.27311444282532,-1.94254691640495,2.12999271078668,2.34538616777867,1267.688,1312.143,3141.652,3156.413,-0.06697264,0.03881609,0.05984969,-1.03362822532654,-0.433783650398254,0.67501300573349,-1.0521429102862,-0.45270770082608,0.651326581984514,0
2.90000915527344,-2.24056529998779,2.13488864898682,2.28657102584839,-1.96354098577478,2.12095954924324,2.35838249680481,1272.57,1310.484,3136.978,3148.049,-0.06544612,0.03916752,0.05865484,-1.02848553657532,-0.431859165430069,0.672827184200287,-1.04677201701582,-0.450396755497224,0.648001743199023,0
2.91999816894531,-2.26102733612061,2.12629270553589,2.29998183250427,-1.98440911693069,2.11198057539494,2.37130086407726,1267.245,1308.374,3134.957,3147.266,-0.06393824,0.03952118,0.05746691,-1.02311098575592,-0.429795533418655,0.670545399188995,-1.04114485287423,-0.447975543971863,0.644518260536375,0
2.94000244140625,-2.2813777923584,2.11774063110352,2.31334447860718,-2.00517798053537,2.10304431360073,2.38415778000673,1260.667,1305.193,3134.815,3146.119,-0.06239041,0.03988381,0.05627359,-1.01750814914703,-0.427599757909775,0.668126702308655,-1.03525504859546,-0.445441325732794,0.640872191117535,0
2.96000671386719,-2.30161094665527,2.1092357635498,2.32665228843689,-2.02582645724542,2.09415985092405,2.3969401707136,1265.288,1302.925,3127.559,3139.873,-0.06077653,0.04027175,0.05503182,-1.01166665554047,-0.425259739160538,0.665394008159637,-1.02910913225408,-0.442796909628122,0.637067576131623,0
2.97999572753906,-2.32172298431396,2.10078001022339,2.33990335464478,-2.04633384260397,2.08533609591429,2.40963521915279,1271.412,1301.289,3122.316,3130.392,-0.05914881,0.04067708,0.05375201,-1.00559413433075,-0.422775208950043,0.662554919719696,-1.02271452148052,-0.440045487257004,0.633109007445237,0
3,-2.34170866012573,2.09237670898438,2.35309648513794,-2.06672639957428,2.07656174835205,2.42225918334961,1263.832,1298.848,3121.692,3130.36,-0.05754026,0.04107981,0.05248954,-0.999289810657501,-0.420155107975006,0.659659087657928,-1.01606400046349,-0.437183953857422,0.628992018127441,0
3.02000427246094,-2.36156368255615,2.08402895927429,2.36622619628906,-2.0869834279768,2.06784571494631,2.43479924890685,1263.726,1295.982,3116.178,3127.433,-0.05590508,0.04149676,0.05119902,-0.99274879693985,-0.417397737503052,0.656486392021179,-1.00916501115878,-0.434215511495054,0.624721215103391,0
3.04000854492188,-2.38128328323364,2.07573890686035,2.37929010391235,-2.10709998486405,2.05919012250926,2.44725235590455,1267.806,1293.855,3112.25,3118.547,-0.05424966,0.04192931,0.04986983,-0.985980927944183,-0.414507269859314,0.653200745582581,-1.00202031904361,-0.431141350077486,0.620298310335216,0
3.05999755859375,-2.4008629322052,2.06750893592834,2.39228582382202,-2.12705600675913,2.05060360379452,2.45960608409476,1264.3,1291.722,3109.279,3116.068,-0.05260595,0.04236397,0.0485415,-0.978981196880341,-0.411487460136414,0.649785041809082,-0.994638524886308,-0.427965170275055,0.615728628108227,0
3.08000183105469,-2.42029809951782,2.05934238433838,2.40521049499512,-2.14687713595163,2.04207512564123,2.47187630727625,1259.709,1288.638,3107.882,3113.552,-0.05093509,0.04280379,0.04720822,-0.971754729747772,-0.408344179391861,0.646228134632111,-0.987011339258122,-0.424683405378145,0.611007036871143,0
3.10000610351563,-2.43958377838135,2.05124092102051,2.41805815696716,-2.16654331551667,2.03361331798384,2.48405060925705,1263.905,1286.181,3100.382,3107.679,-0.04922587,0.04326038,0.04583492,-0.96429580450058,-0.405070126056671,0.642380475997925,-0.979147395688901,-0.421299770153459,0.606138881190213,0
3.1199951171875,-2.45871615409851,2.04320764541626,2.43082714080811,-2.18603502400946,2.02522658035469,2.49611690533293,1268.522,1284.341,3095.785,3098.632,-0.04752251,0.04372594,0.04443112,-0.956612825393677,-0.401669323444366,0.638453423976898,-0.971056158224178,-0.417818336715394,0.601130019760458,0
3.13999938964844,-2.47769021987915,2.03524470329285,2.44351625442505,-2.20537738341953,2.01690410346351,2.50809074721212,1259.886,1281.957,3094.78,3099.233,-0.04584792,0.04418397,0.04304651,-0.948705077171326,-0.398151397705078,0.634454429149628,-0.962728579444533,-0.414235212212131,0.595974851798267,0
3.16000366210938,-2.49650144577026,2.02735424041748,2.45612001419067,-2.22455088103183,2.00865428308644,2.51996005559448,1260.363,1279.055,3089.208,3095.195,-0.04414775,0.04465299,0.04163025,-0.940572500228882,-0.394517689943314,0.630183696746826,-0.954174163352092,-0.410554485950274,0.590679260733698,0
3.18000793457031,-2.51514577865601,2.01953887939453,2.46863603591919,-2.24355101420387,2.00047905658478,2.53172204312984,1264.703,1277.114,3084.99,3085.614,-0.04243481,0.0451316,0.04017911,-0.932222068309784,-0.390771746635437,0.625802218914032,-0.945396434568188,-0.406777674475913,0.585245428475253,0
3.19999694824219,-2.53361892700195,2.01180052757263,2.48106169700623,-2.2623590635174,1.99238647840124,2.54336512160655,1261.224,1275.161,3081.363,3083.106,-0.04074636,0.04560649,0.03873479,-0.923650205135345,-0.38691771030426,0.621286273002625,-0.936405971974636,-0.402909329586355,0.579679903854719,0
3.22000122070313,-2.55191612243652,2.00414133071899,2.49339437484741,-2.28099938900442,1.98436606709459,2.55490437104486,1256.838,1272.274,3079.52,3080.249,-0.0390478,0.04608048,0.03728991,-0.914864957332611,-0.382962822914124,0.616639614105225,-0.927192788821982,-0.398945154262308,0.573976504598449,0
3.24000549316406,-2.57003307342529,1.99656319618225,2.50562882423401,-2.29945328359428,1.9764258717947,2.56632821087688,1260.002,1269.87,3072.544,3074.437,-0.03732527,0.04656303,0.03581487,-0.905864596366882,-0.37890413403511,0.611727952957153,-0.91776751470058,-0.394889722119544,0.568141810929231,0
3.25999450683594,-2.58796644210815,1.9890683889389,2.51776337623596,-2.31770268688992,1.96857366338589,2.57762546085652,1263.604,1268.105,3067.931,3065.859,-0.03561499,0.0470479,0.03431852,-0.896655917167664,-0.374745458364487,0.606730759143829,-0.90814153446928,-0.390747931744771,0.562182870617026,0
3.27999877929688,-2.60571098327637,1.98165845870972,2.52979636192322,-2.33577134012187,1.96079922667992,2.58881081793642,1255.595,1266.019,3066.247,3065.844,-0.03393826,0.04752095,0.03284425,-0.887240469455719,-0.370495408773422,0.601655125617981,-0.898304216251578,-0.386515208538549,0.556093102023818,0
3.30000305175781,-2.6232635974884,1.97433519363403,2.54172277450562,-2.35364119854729,1.95311032582551,2.59987311156116,1256.063,1263.311,3060.577,3061.483,-0.03224555,0.04799861,0.03134621,-0.877622306346893,-0.366156995296478,0.596325039863586,-0.888267004546666,-0.382196476749158,0.549879589839776,0
3.32000732421875,-2.64061975479126,1.9671003818512,2.55354070663452,-2.37130830610839,1.94550866300381,2.61080989274252,1259.575,1261.571,3056.268,3052.381,-0.03055019,0.04847912,0.0298238,-0.867807507514954,-0.361733704805374,0.590893447399139,-0.878034183119985,-0.377793579561194,0.543544985919778,0
3.33999633789063,-2.65777587890625,1.95995569229126,2.56524729728699,-2.38875555478454,1.93800159931817,2.62161057080077,1255.848,1259.876,3052.46,3049.827,-0.02888678,0.04895062,0.02831485,-0.857795178890228,-0.357229828834534,0.585334897041321,-0.867618167158097,-0.373311858882592,0.53709697585572,0
3.36000061035156,-2.67472720146179,1.95290303230286,2.5768404006958,-2.406005803634,1.93057929915441,2.6322892965819,1251.545,1257.351,3050.158,3046.855,-0.0272207,0.04941622,0.02681149,-0.847594559192657,-0.352652430534363,0.579650342464447,-0.857007552155826,-0.36874640767338,0.530528499715627,0
3.3800048828125,-2.69147157669067,1.94594287872314,2.58831477165222,-2.42304196557559,1.92324911460621,2.64283549236868,1254.32,1255.154,3043.334,3041.007,-0.02553971,0.04988476,0.02528662,-0.837207317352295,-0.348000437021255,0.573721766471863,-0.846214826007803,-0.364102599125748,0.523847288101157,0
3.40000915527344,-2.70800399780273,1.93907737731934,2.59966921806335,-2.43986044461333,1.91601259293018,2.6532469320683,1257.125,1253.65,3038.948,3032.668,-0.02387684,0.05034956,0.02375148,-0.826639175415039,-0.343277126550674,0.567721962928772,-0.835244706287931,-0.359382463079953,0.517056261415284,0
3.41999816894531,-2.7243218421936,1.93230772018433,2.61090135574341,-2.45644516534361,1.90887665092339,2.66351366424015,1251.795,1252.01,3035.396,3031.459,-0.0222587,0.05080057,0.0222395,-0.815892457962036,-0.338488847017288,0.561610758304596,-0.824110582941664,-0.354591760855451,0.510163708672097,0
3.44000244140625,-2.74042129516602,1.92563474178314,2.62200903892517,-2.47281804716281,1.90183185728196,2.67364925803476,1246.919,1249.614,3033.342,3028.692,-0.02063843,0.05124412,0.02073458,-0.804978549480438,-0.333643704652786,0.555382907390594,-0.812800388649434,-0.349725300221754,0.503162159625937,0
3.46000671386719,-2.75629925727844,1.91905999183655,2.63298749923706,-2.4889630419904,1.89488511704659,2.68364377892579,1249.37,1247.606,3026.916,3022.628,-0.01899793,0.05168904,0.01921106,-0.793899893760681,-0.328740894794464,0.548922657966614,-0.801327600455845,-0.344788879974649,0.496059957209413,0
3.47999572753906,-2.77195262908936,1.91258406639099,2.64383506774902,-2.50486489870395,1.88804299234919,2.69348778574196,1252.693,1246.281,3022.002,3014.214,-0.0173718,0.05212985,0.0176797,-0.782659828662872,-0.323781311511993,0.542377054691315,-0.789706299681989,-0.339788558913217,0.488865818431069,0
3.5,-2.78737783432007,1.9062088727951,2.65455031394958,-2.5205447997813,1.88129636896134,2.70319439144611,1246.22,1244.841,3019.437,3013.162,-0.01578562,0.05255472,0.01618061,-0.771262228488922,-0.318770676851273,0.535764276981354,-0.777924000354857,-0.334718964672089,0.481572013878822,0
3.52000427246094,-2.80257225036621,1.89993453025818,2.6651291847229,-2.53598752699493,1.87465179486116,2.71275417523047,1245.836,1242.516,3013.91,3009.536,-0.01420317,0.05297488,0.01467836,-0.75971657037735,-0.31371346116066,0.528939604759216,-0.765994882555673,-0.32958619854407,0.474187321698442,0
3.54000854492188,-2.81753253936768,1.8937623500824,2.67557001113892,-2.55119019794619,1.86811051026429,2.72216535275294,1248.115,1241.093,3010.031,3001.268,-0.01263031,0.05339007,0.01317029,-0.748029291629791,-0.308613002300262,0.522046148777008,-0.753924423002452,-0.324392617007921,0.466715132239272,0
3.55999755859375,-2.83225679397583,1.88769268989563,2.685870885849,-2.56613872308604,1.86167857751006,2.73141920191151,1243.799,1239.842,3006.156,2999.299,-0.01109313,0.05379132,0.01168931,-0.736202836036682,-0.303472876548767,0.515042781829834,-0.741727567798258,-0.319144650954242,0.459164697851087,0
3.58000183105469,-2.84674143791199,1.88172698020935,2.69602966308594,-2.58085326729328,1.85534732021446,2.74052820572674,1240.16,1237.84,3003.542,2995.995,-0.009558618,0.05418294,0.01022392,-0.724248170852661,-0.298298478126526,0.507935464382172,-0.729391385793765,-0.313836736470737,0.451528013536464,0
3.60000610351563,-2.86098504066467,1.87586510181427,2.70604228973389,-2.59531978247425,1.84912278287974,2.74948366775945,1242.288,1236.027,2997.216,2990.576,-0.00801718,0.05457122,0.008754001,-0.712170243263245,-0.293089479207993,0.500629067420959,-0.716930938559024,-0.308475354130224,0.443814403124743,0
3.6199951171875,-2.87498426437378,1.87010824680328,2.71590781211853,-2.60952509409627,1.84301063413925,2.75827743234631,1244.603,1234.876,2992.896,2982.964,-0.006498646,0.05495177,0.007289312,-0.699973046779633,-0.287847071886063,0.49327227473259,-0.704361775018033,-0.303067194200314,0.436033492140578,0
3.63999938964844,-2.88873791694641,1.86445665359497,2.72562479972839,-2.6234885835008,1.83700253474321,2.76692149746096,1237.864,1233.693,2990.141,2982.646,-0.005023787,0.05531484,0.005864053,-0.68766188621521,-0.282575964927673,0.485854268074036,-0.691670720740692,-0.297606588091786,0.428177124984152,0
3.66000366210938,-2.90224266052246,1.85891115665436,2.73519015312195,-2.63719712493647,1.83110413233575,2.77540773763803,1237.607,1231.577,2985.271,2978.698,-0.003551592,0.05567206,0.004441841,-0.675248861312866,-0.277281194925308,0.478264570236206,-0.678873453515702,-0.29210028151913,0.420255006953505,0
3.68000793457031,-2.91549706459045,1.85347199440002,2.74460244178772,-2.65064865588166,1.82531631436231,2.78373487607838,1239.63,1230.415,2981.257,2971.218,-0.002090049,0.0560229,0.003022975,-0.662738263607025,-0.27196404337883,0.470613151788712,-0.665976209205203,-0.286550957599616,0.412270998344358,0
3.69999694824219,-2.9284999370575,1.84813904762268,2.75385999679565,-2.66383127580226,1.81964420129024,2.79189554578451,1236.294,1229.39,2977.404,2968.818,-0.0006663229,0.05635979,0.001635675,-0.650134027004242,-0.266627043485641,0.462878406047821,-0.65299527533123,-0.280965624398954,0.404235181908735,0
3.72000122070313,-2.94124889373779,1.84291362762451,2.76296138763428,-2.6767633032417,1.81407991116207,2.79990108680742,1232.909,1227.725,2974.78,2965.814,0.0007455289,0.05668551,0.0002733538,-0.637446880340576,-0.261274784803391,0.455068439245224,-0.639917282339434,-0.275338529371411,0.396139281255611,0
3.74000549316406,-2.95374250411987,1.83779549598694,2.77190327644348,-2.6894328975087,1.80862853869646,2.80774416919516,1234.271,1226.051,2969.172,2961.187,0.002154583,0.05700544,-0.001081776,-0.624684035778046,-0.255908131599426,0.447099924087524,-0.626758665639204,-0.269676744214497,0.387993470686332,0
3.75999450683594,-2.96597957611084,1.83278477191925,2.78068518638611,-2.70182915057228,1.80329477731443,2.81541804035694,1236.332,1225.008,2965.166,2954.241,0.003539011,0.05731653,-0.002424009,-0.611849129199982,-0.250527679920197,0.439098715782166,-0.613536214864365,-0.263987493038594,0.379808143784027,0
3.77999877929688,-2.97795844078064,1.8278820514679,2.78930640220642,-2.7139695770734,1.79807109095524,2.82293354268985,1230.494,1224.066,2962.461,2953.682,0.004878118,0.05761122,-0.003722034,-0.598948359489441,-0.245137065649033,0.431059718132019,-0.60023651686137,-0.258265004538452,0.371574997167698,0
3.80000305175781,-2.98967814445496,1.82308733463287,2.79776406288147,-2.72584333814708,1.79296214327972,2.83028396642013,1230.236,1222.149,2957.969,2950.182,0.006207382,0.05789857,-0.005007275,-0.585994601249695,-0.239741086959839,0.422884553670883,-0.586876524285838,-0.252516572968186,0.363304525338741,0
3.82000732421875,-3.00113821029663,1.8184005022049,2.8060576915741,-2.73744929742843,1.78796842323393,2.8374686080838,1232.042,1221.123,2954.367,2943.397,0.007519449,0.0581785,-0.006280799,-0.572991907596588,-0.234340667724609,0.414677202701569,-0.573463232144022,-0.246745208083563,0.355001058539243,0
3.83999633789063,-3.01233696937561,1.81382203102112,2.81418609619141,-2.74877791451009,1.78309403578861,2.84448156171422,1228.812,1220.255,2950.826,2941.482,0.00879048,0.05844467,-0.007515973,-0.559945344924927,-0.228938087821007,0.406414568424225,-0.560014026276881,-0.240958390526246,0.346675359432959,0
3.86000061035156,-3.02327442169189,1.80935120582581,2.8221480846405,-2.75984563331209,1.77833190558438,2.85133300688122,1226.379,1218.753,2948.091,2938.609,0.01004312,0.05870023,-0.008723451,-0.54686564207077,-0.223537430167198,0.398097395896912,-0.546515580872635,-0.235150386571708,0.338319178707605,0
3.8800048828125,-3.03394937515259,1.80498826503754,2.82994174957275,-2.77064299647982,1.77368610185671,2.85801708903178,1227.636,1217.352,2943.532,2933.99,0.01128336,0.05894875,-0.009914416,-0.53376042842865,-0.218140065670013,0.389682829380035,-0.532985466132484,-0.229328756186666,0.329943393154704,0
3.89999389648438,-3.04436230659485,1.8007333278656,2.83756685256958,-2.78116151864576,1.76916027562219,2.86452855531919,1228.688,1216.425,2939.912,2928.65,0.01249131,0.05918699,-0.01108035,-0.520633578300476,-0.212746769189835,0.381249725818634,-0.519441457145543,-0.223501147495394,0.321559006401168,0
3.91999816894531,-3.05451226234436,1.79658627510071,2.84502291679382,-2.79141684911929,1.7647476934202,2.87087709341145,1224.42,1215.5,2937.246,2927.679,0.01365374,0.05941047,-0.01220207,-0.507492482662201,-0.207360729575157,0.37279862165451,-0.505870408491346,-0.2176619043907,0.313157880805522,0
