t,x_s1,x_s2,x_s3,x_s_d1,x_s_d2,x_s_d3,propellers_rpms1,propellers_rpms2,propellers_rpms3,propellers_rpms4,rollRad,pitchRad,yawRad,v_s1,v_s2,v_s3,v_s_d1,v_s_d2,v_s_d3,insideCount
0,-0.0599999986588955,2.94000005722046,1.17999994754791,-0.0599999986588955,2.94000005722046,1.17999994754791,0,0,0,0,0,0,0,0,0,0,-1.06581410364015E-15,4.44089209850063E-16,4.44089209850063E-16,0
0.02001953125,-0.0599999986588955,2.94000005722046,1.17811644077301,-0.0600018744611685,2.93999925011514,1.18000110875888,0,0,0,0,-0.01635288,0.0001297794,-0.01587137,-1.10653664009419E-09,-7.76775763711157E-08,-0.0941759571433067,-0.000280531511337879,-0.000120704872184653,0.000173662369087018,5
0.040008544921875,-0.0599999986588955,2.94000005722046,1.17242503166199,-0.060014880898484,2.93999365380853,1.18000916036316,0,0,0,0,-0.03270202,0.0005238493,-0.03175127,-1.08383135799528E-09,-7.60859677484405E-08,-0.284568399190903,-0.00111143977225461,-0.000478221483967637,0.00068803416424398,5
0.05999755859375,-0.0599058829247952,2.93990302085876,1.16596519947052,-0.0600498857373401,2.93997859220429,1.18003083002592,1867.736,3252.71,3184.193,1722.621,-0.04941975,0.0003290266,-0.01369397,0.0047058523632586,-0.00484938966110349,-0.32299131155014,-0.00247936261166862,-0.00106680046642749,0.00153484356504269,5
0.08001708984375,-0.0598203651607037,2.93960738182068,1.16000318527222,-0.0601176241590912,2.9399494462538,1.18007276333581,1925.461,2314.329,3252.036,2829.56,-0.07542498,-0.002136388,0.02094826,0.00427588727325201,-0.0147778820246458,-0.29810044169426,-0.00437432711648753,-0.0018821507536715,0.00270791686320324,5
0.100006103515625,-0.0599374249577522,2.93904519081116,1.15498638153076,-0.0602282404704493,2.93990185114529,1.18014124010193,980.8941,1499.05,3914.259,3896.424,-0.1031879,-0.008061389,0.06330394,-0.00585292186588049,-0.0281138196587563,-0.2508385181427,-0.00677739276378709,-0.00291612276782231,0.00419552897277328,4
0.120025634765625,-0.0604638159275055,2.93818378448486,1.15081310272217,-0.0603921815631679,2.93983131187307,1.18024272744792,346.3103,980.2162,4173.258,4613.318,-0.1214268,-0.01541917,0.103996,-0.026319608092308,-0.0430653318762779,-0.208663403987885,-0.00968281574750508,-0.00416624510959472,0.00599412420418488,4
0.1400146484375,-0.0615635365247726,2.93704152107239,1.14728283882141,-0.0606187761383957,2.93973381455767,1.18038300028418,353.2358,747.509,3974.929,4854.67,-0.1254019,-0.02116467,0.1350984,-0.0549859739840031,-0.057110209017992,-0.176516115665436,-0.0130687916036232,-0.00562313592726786,0.00809020455552005,4
0.160003662109375,-0.0633407458662987,2.93568134307861,1.14427518844604,-0.0609177895434042,2.93960515744296,1.18056810382587,820.5985,814.7068,3463.516,4692.228,-0.1184627,-0.02352317,0.1522659,-0.0888604894280434,-0.0680135563015938,-0.150379687547684,-0.0169265510445065,-0.00728302204135792,0.0104783414199936,3
0.180023193359375,-0.065846711397171,2.93417263031006,1.14182579517365,-0.061299173422313,2.9394410586145,1.18080419861474,1348.335,1083.146,3007.173,4255.315,-0.1079805,-0.02278015,0.1557801,-0.125298470258713,-0.0754313617944717,-0.122470378875732,-0.0212503155312517,-0.00914341710800856,0.0131549576067545,3
0.20001220703125,-0.0690846368670464,2.93255424499512,1.14006173610687,-0.0617708265342762,2.93923811945689,1.181096174359,1637.052,1381.636,2917.247,3666.471,-0.09983019,-0.02030021,0.1501593,-0.161896422505379,-0.0809141099452972,-0.0882037729024887,-0.0260142813927851,-0.0111932185284278,0.0161040794142088,3
0.220001220703125,-0.0730099156498909,2.93082642555237,1.13903594017029,-0.0623420644491781,2.93899233174064,1.18144979784016,1641.192,1580.263,3148.796,3113.259,-0.09584397,-0.01735529,0.1421928,-0.196264028549194,-0.0863851234316826,-0.0512894839048386,-0.03121219533433,-0.0134297356845702,0.019321835755004,3
0.240020751953125,-0.0775496289134026,2.92897391319275,1.13863372802734,-0.0630225615075555,2.93869953286731,1.18187105793587,1523.476,1623.851,3418.417,2777.774,-0.09475581,-0.01467934,0.137739,-0.226985767483711,-0.0926249846816063,-0.0201125722378492,-0.0368405636651345,-0.0158514653389075,0.022806063868137,3
0.260009765625,-0.0826384574174881,2.92699289321899,1.13863587379456,-0.0638185570309634,2.93835703823113,1.18236381708338,1439.781,1501.459,3531.915,2744.104,-0.09438989,-0.01258823,0.1393027,-0.254441529512405,-0.0990563333034515,0.000104406848549843,-0.0428699302682246,-0.0184457333472145,0.0265385290140116,3
0.279998779296875,-0.0882443487644196,2.92490124702454,1.13885271549225,-0.0647390625194898,2.93796097043536,1.18293365383054,1400.423,1275.792,3477.162,2977.518,-0.0932133,-0.01110538,0.1456824,-0.28029453754425,-0.104583077132702,0.0108418148010969,-0.0492963837173861,-0.0212108567320638,0.030516809833474,3
0.300018310546875,-0.0943701416254044,2.92273306846619,1.13920795917511,-0.0657936070281142,2.93750722939386,1.1835864671163,1349.873,1061.223,3346.041,3324.935,-0.09053043,-0.009935722,0.1533107,-0.306289792060852,-0.108407497406006,0.017759321257472,-0.0561185469977389,-0.0241462430024218,0.0347400538887172,3
0.32000732421875,-0.101035371422768,2.92052626609802,1.13972568511963,-0.0669865614821475,2.93699393441958,1.18432496275165,1281.897,941.8986,3235.974,3590.302,-0.08597802,-0.008522648,0.1583565,-0.333261519670486,-0.110341578722,0.0258889757096767,-0.0633036493784043,-0.0272377918282996,0.0391879745362408,3
0.34002685546875,-0.108250960707664,2.91831278800964,1.14046251773834,-0.068328931055223,2.93641635029375,1.18515595346331,1253.089,943.9747,3171.68,3649.515,-0.07945061,-0.006291452,0.1584741,-0.360779225826263,-0.110679268836975,0.0368419960141182,-0.0708617428582823,-0.0304898283040037,0.0438667944422071,4
0.360015869140625,-0.116002455353737,2.91611552238464,1.14145350456238,-0.0698237345322385,2.93577317811757,1.18608130802295,1319.757,1047.408,3120.236,3498.326,-0.07156073,-0.002963566,0.1534722,-0.387575149536133,-0.109858840703964,0.0495512261986732,-0.0787580297418618,-0.0338873799532906,0.0487549721754506,4
0.3800048828125,-0.124250873923302,2.91395020484924,1.14270889759064,-0.0714797725314022,2.93506063123087,1.18710647443246,1454.726,1181.292,3092.002,3231.112,-0.06362718,0.001256747,0.1450421,-0.412420630455017,-0.108260594308376,0.0627709031105042,-0.0869921272359981,-0.0374302820709642,0.0538522707687797,4
0.4000244140625,-0.132942706346512,2.91182684898376,1.1442186832428,-0.0733065984369745,2.93427459907931,1.1882373666918,1578.5,1273.072,3105.682,2982.335,-0.05701881,0.005822779,0.1357594,-0.434592187404633,-0.106172606348991,0.0754897743463516,-0.0955658248284375,-0.0411193046236092,0.0591597980003546,4
0.420013427734375,-0.142023026943207,2.90975069999695,1.1459584236145,-0.0753050585276311,2.93341471753282,1.18947450868777,1633.156,1289.384,3156.479,2844.612,-0.05243764,0.01017586,0.1278626,-0.454016178846359,-0.103806890547276,0.0869879052042961,-0.104441553474511,-0.0449382827008623,0.0646542968418633,4
0.44000244140625,-0.151445537805557,2.90772485733032,1.14789640903473,-0.077483988232608,2.93247718495301,1.19082336997196,1607.124,1237.939,3219.909,2842.597,-0.04966369,0.01397395,0.1224651,-0.471125483512878,-0.101292677223682,0.0969004556536674,-0.113620829717891,-0.048887868829098,0.0703367061060819,4
0.46002197265625,-0.161176383495331,2.90575194358826,1.1499981880188,-0.0798530997696509,2.93145782244394,1.19228996286983,1539.3,1157.527,3254.337,2939.505,-0.04788949,0.01718163,0.1193493,-0.486542850732803,-0.0986431315541267,0.105091348290443,-0.123107133063502,-0.0529695601420796,0.0762091797723108,4
0.480010986328125,-0.171193286776543,2.90383625030518,1.15223979949951,-0.0824109101018722,2.93035726811493,1.19387336931088,1475.78,1086.977,3246.374,3066.518,-0.04628734,0.01998703,0.1173756,-0.500845193862915,-0.0957819595932961,0.112083084881306,-0.132860437136906,-0.0571661344090936,0.082246939608052,5
0.5,-0.181480884552002,2.90198349952698,1.15461683273315,-0.085166398670376,2.92917165836334,1.1955791479969,1432.171,1046.364,3217.151,3168.566,-0.0443363,0.02264427,0.1152184,-0.514379739761353,-0.0926427990198135,0.11885242164135,-0.142884000065179,-0.0614789935111996,0.0884520025491718,5
0.52001953125,-0.19202421605587,2.9001989364624,1.15713620185852,-0.0881295333471192,2.92789670429234,1.19741346951549,1421.709,1044.442,3178.719,3211.486,-0.04191762,0.02537652,0.1118904,-0.527167022228241,-0.0892330259084702,0.125968456268311,-0.153182839569029,-0.0659102964334391,0.0948274748038155,5
0.540008544921875,-0.202804520726204,2.89848613739014,1.15981066226959,-0.0912963635428427,2.92653410573011,1.19937388826368,1447.826,1074.147,3146.442,3183.938,-0.03928962,0.02829086,0.1070455,-0.539015412330627,-0.0856432467699051,0.133723571896553,-0.163714777034477,-0.0704418948965508,0.101347245800684,5
0.55999755859375,-0.213797956705093,2.89684534072876,1.16265404224396,-0.094676112580471,2.92507989413848,1.20146611391775,1484.434,1113.817,3139.598,3113.273,-0.03689224,0.03132816,0.1010556,-0.549670517444611,-0.0820344462990761,0.142171785235405,-0.17448465888317,-0.0750758741803766,0.108014315705644,5
0.58001708984375,-0.224976360797882,2.89527368545532,1.16566967964172,-0.0982790918331175,2.92352963282165,1.20369652970884,1518.08,1148.011,3147.528,3036.844,-0.03513135,0.03434097,0.09466558,-0.558920860290527,-0.0785816013813019,0.150781705975533,-0.185498893714783,-0.0798149917263209,0.114832651747179,5
0.600006103515625,-0.236311078071594,2.89376521110535,1.16885244846344,-0.102098762959148,2.92188613504538,1.20606108809202,1542.853,1167.626,3160.927,2978.563,-0.0342866,0.03716192,0.08861627,-0.566736161708832,-0.0754237025976181,0.159136235713959,-0.196713446836865,-0.0846403006364086,0.121774994352997,5
0.620025634765625,-0.247776538133621,2.89231181144714,1.17219591140747,-0.106151036002673,2.92014255516215,1.2085696381425,1535.603,1167.372,3182.9,2962.677,-0.03442083,0.03963301,0.0834551,-0.573272943496704,-0.0726681426167488,0.167172506451607,-0.208152193747382,-0.0895620738704106,0.128856123593688,5
0.6400146484375,-0.259351879358292,2.89090418815613,1.17568814754486,-0.110427588881679,2.91830247393137,1.21121702809507,1506.255,1156.423,3194.055,2988.151,-0.03536145,0.04169683,0.07929742,-0.578766167163849,-0.0703832507133484,0.174611538648605,-0.21977002223474,-0.0945609009039674,0.136048112861281,5
0.660003662109375,-0.271021813154221,2.8895320892334,1.1793224811554,-0.114938248900541,2.91636166293851,1.21400934151928,1465.969,1144.214,3199.258,3030.654,-0.03679956,0.04338197,0.07590973,-0.583498239517212,-0.0686021447181702,0.181714251637459,-0.231574097577923,-0.0996398647564507,0.143355397804799,5
0.680023193359375,-0.282774984836578,2.88818526268005,1.18309211730957,-0.119694071710854,2.91431536524554,1.21695342239012,1426.49,1139.098,3191.807,3077.026,-0.03845019,0.04477088,0.0728994,-0.587658941745758,-0.0673354491591454,0.188480138778687,-0.243572831403349,-0.104802584715715,0.150783185621694,5
0.70001220703125,-0.294602125883102,2.88685369491577,1.18699359893799,-0.124683985757554,2.91216834463331,1.22004241688759,1408.307,1146.765,3174.294,3100.531,-0.04015781,0.04596906,0.06985669,-0.591356635093689,-0.0665830969810486,0.195075824856758,-0.255719729227087,-0.11002905550423,0.158302694011575,5
0.720001220703125,-0.306494623422623,2.88552641868591,1.19103026390076,-0.129918284978346,2.90991617190799,1.22328269744952,1394.601,1163.035,3164.164,3105.287,-0.04193201,0.04702129,0.06662827,-0.594625532627106,-0.0663657933473587,0.201833292841911,-0.268023157655716,-0.11532287703907,0.16591910230247,5
0.740020751953125,-0.318443298339844,2.88419198989868,1.19520163536072,-0.135408560960145,2.90755385953358,1.22668143982036,1387.927,1184.501,3155.137,3097.341,-0.0438383,0.04794643,0.06323417,-0.59743320941925,-0.0667163729667664,0.208565756678581,-0.280492548100696,-0.120688107393104,0.173638248987353,5
0.760009765625,-0.330438584089279,2.8828387260437,1.19950592517853,-0.141140917956636,2.9050873864615,1.23023004187122,1395.478,1207.969,3147.396,3073.346,-0.04599599,0.04873512,0.05980695,-0.59976601600647,-0.0676669850945473,0.215217232704163,-0.293080296154222,-0.126104263719567,0.181430664670081,5
0.779998779296875,-0.342471688985825,2.88145351409912,1.20394432544708,-0.147126184485884,2.90251209348295,1.23393520697061,1388.057,1226.796,3152.061,3057.26,-0.04854197,0.04931917,0.05664331,-0.601655006408691,-0.069260872900486,0.221920743584633,-0.305795832832518,-0.131575403921268,0.189302187598958,5
0.800018310546875,-0.354534924030304,2.88002300262451,1.20851135253906,-0.153376545303595,2.89982273783796,1.23780447806275,1369.863,1240.159,3155.494,3057.472,-0.05147571,0.0496565,0.05394486,-0.603161215782166,-0.0715270414948463,0.22834900021553,-0.318649478366155,-0.137105968505107,0.197259206488328,5
0.82000732421875,-0.366622895002365,2.87853360176086,1.21320021152496,-0.159875221826383,2.89702653888221,1.24182746840525,1356.963,1251.126,3153.633,3060.038,-0.05473382,0.04974313,0.05174985,-0.604399383068085,-0.0744723230600357,0.234445333480835,-0.331592781842754,-0.14267511039705,0.205271727915392,4
0.84002685546875,-0.378732860088348,2.87697148323059,1.21800911426544,-0.166644154783139,2.89411405613301,1.24601776035448,1327.476,1259.808,3156.857,3076.371,-0.05825239,0.04956195,0.05009522,-0.605500519275665,-0.0781017541885376,0.240444257855415,-0.344656091553402,-0.148295887618918,0.213358538918022,4
0.860015869140625,-0.390864074230194,2.87532353401184,1.22293055057526,-0.173664618315387,2.89109334680413,1.25036376171199,1299.242,1269.091,3150.724,3099.383,-0.06189719,0.04914957,0.04886642,-0.606561303138733,-0.0823945701122284,0.246070101857185,-0.357790534090669,-0.153947271308859,0.221489384528856,4
0.8800048828125,-0.40301775932312,2.87357687950134,1.22796308994293,-0.180948461186242,2.88795931270381,1.25487280742661,1276.267,1280.76,3147.657,3112.637,-0.06553879,0.04855002,0.04792765,-0.607682466506958,-0.0873343497514725,0.251628965139389,-0.371007022483504,-0.159633957038354,0.229671020432672,4
0.9000244140625,-0.41519570350647,2.87171912193298,1.23310220241547,-0.188508963212068,2.88470623989808,1.25955311833725,1255.177,1294.717,3139.841,3126.866,-0.06912554,0.04779812,0.04720349,-0.608897745609283,-0.0928829237818718,0.256956517696381,-0.384317079523421,-0.165360902742685,0.237910579786325,4
0.920013427734375,-0.427400469779968,2.86973905563354,1.23834431171417,-0.196324452211266,2.88134345332121,1.26439127833112,1252.286,1311.111,3129.017,3125.269,-0.07264891,0.04693622,0.04660783,-0.61023873090744,-0.0990033075213432,0.262105911970139,-0.397671404529394,-0.171106895716105,0.246177543119742,4
0.94000244140625,-0.439635097980499,2.86762547492981,1.24369168281555,-0.204407453948074,2.87786556348678,1.26939504145298,1237.805,1327.002,3128.91,3126.533,-0.07617652,0.04594989,0.04623079,-0.611733317375183,-0.10568193346262,0.267366588115692,-0.411081631631503,-0.176876941799768,0.254479112513653,4
0.96002197265625,-0.45190292596817,2.86536765098572,1.24914062023163,-0.21277195700315,2.87426655149935,1.27457306730061,1221.224,1340.577,3127.545,3133.17,-0.07968284,0.04484593,0.04612118,-0.613391160964966,-0.112885400652885,0.272449195384979,-0.424559845004915,-0.182676240476657,0.262822768648136,3
0.980010986328125,-0.464208006858826,2.86295604705811,1.25468719005585,-0.221393324468958,2.87055701793193,1.27991010445463,1220.978,1353.443,3122.67,3128.934,-0.08314122,0.04364695,0.04626479,-0.615250825881958,-0.120574593544006,0.277330845594406,-0.438056556301695,-0.188483498293199,0.271177875878363,3
1,-0.476555228233337,2.86038160324097,1.26033282279968,-0.230284798736574,2.86673126495361,1.28541435058594,1205.574,1364.054,3126.254,3134.739,-0.08659162,0.04232794,0.04676558,-0.61736273765564,-0.128727957606316,0.282279133796692,-0.451584000205995,-0.194303979492187,0.279552008056641,3
1.02001953125,-0.488950431346893,2.85763573646545,1.26607322692871,-0.239461107372567,2.86278295570393,1.29109492275982,1186.984,1371.954,3125.971,3149.767,-0.08996371,0.04090329,0.04761543,-0.619760274887085,-0.137295052409172,0.287018775939941,-0.465154707681581,-0.200143075797255,0.287952922446475,3
1.04000854492188,-0.501400291919708,2.85471129417419,1.27190470695496,-0.248894644448595,2.85872396824263,1.29693473159157,1185.559,1380.203,3120.475,3153.755,-0.09319413,0.03941335,0.04870999,-0.622495293617249,-0.146223410964012,0.291576504707336,-0.47871923339115,-0.205979512261105,0.296350010028666,3
1.05999755859375,-0.513912618160248,2.85160160064697,1.27783012390137,-0.258599401509697,2.85454828239877,1.30294243851408,1170.36,1387.88,3123.332,3164.969,-0.09630097,0.03785277,0.05007308,-0.625612914562225,-0.155484795570374,0.296272397041321,-0.492290296490434,-0.211818761581115,0.30475114456651,3
1.08001708984375,-0.526494920253754,2.84830117225647,1.28384697437286,-0.268590868588476,2.85024923324404,1.30912763259543,1155.538,1394.272,3122.635,3180.308,-0.09921074,0.0362524,0.05164616,-0.629118680953979,-0.165019512176514,0.300839990377426,-0.505880764601332,-0.21766636033551,0.313164291730931,3
1.10000610351563,-0.539155542850494,2.84480571746826,1.28995287418365,-0.278838480013141,2.84583997233313,1.31547139222872,1161.818,1401.853,3116.853,3180.051,-0.1018851,0.03465903,0.0533184,-0.633029818534851,-0.174768850207329,0.305295139551163,-0.519441457145546,-0.223501147495394,0.321559006401169,3
1.12002563476563,-0.551902711391449,2.84111166000366,1.29615235328674,-0.28937326791995,2.84130714740473,1.32199292778458,1155.108,1408.606,3120.851,3185.377,-0.1043879,0.03305861,0.05514887,-0.637361943721771,-0.184706315398216,0.309972673654556,-0.533006127404302,-0.22933764615472,0.329956183466192,3
1.1400146484375,-0.564744532108307,2.8372163772583,1.30244302749634,-0.300162704591434,2.83666475422696,1.32867210305637,1152.417,1413.885,3119.213,3193.689,-0.1067086,0.03147174,0.05711453,-0.642092168331146,-0.194767534732819,0.314535558223724,-0.54652589017629,-0.235154822377061,0.338325560657667,3
1.16000366210938,-0.577689468860626,2.83311772346497,1.3088287115097,-0.311222084148811,2.83190621216671,1.33551838583369,1151.557,1417.567,3125.144,3195.368,-0.1088162,0.02990871,0.05920308,-0.647248327732086,-0.204929068684578,0.319283276796341,-0.560014026276883,-0.240958390526247,0.34667535943296,3
1.18002319335938,-0.590745627880096,2.8288152217865,1.31530845165253,-0.322568202252263,2.82702429452064,1.34254217343029,1148.338,1420.28,3126.899,3204.543,-0.1107108,0.02837604,0.06142537,-0.652807354927063,-0.21512870490551,0.32398584485054,-0.573483731835696,-0.246754028528194,0.355013748824923,3
1.20001220703125,-0.603921175003052,2.82430911064148,1.32188153266907,-0.334165615614823,2.82203425154496,1.34972152476313,1160.876,1423.024,3123.756,3204.148,-0.1124008,0.02690079,0.06370909,-0.658775687217712,-0.225311487913132,0.328651636838913,-0.586886736182789,-0.252520966862155,0.363310846989412,3
1.22000122070313,-0.617224633693695,2.81959986686707,1.32855427265167,-0.346030421585499,2.81692915700008,1.35706640485806,1156.919,1423.96,3131.812,3211.806,-0.1139455,0.02546089,0.06610863,-0.665173590183258,-0.235466212034225,0.333639442920685,-0.600236516861372,-0.258265004538453,0.371574997167698,3
1.24002075195313,-0.630664050579071,2.81468892097473,1.3353271484375,-0.358180209983518,2.8117014424782,1.36458770265112,1150.789,1423.193,3137.031,3225.138,-0.1152829,0.02407463,0.06859019,-0.671971917152405,-0.245542779564857,0.338646173477173,-0.613546334788502,-0.263991847359231,0.379814408499145,2
1.260009765625,-0.644247353076935,2.80957913398743,1.34219968318939,-0.37057666480527,2.80636759428526,1.37226169871082,1165.741,1423.852,3135.257,3223.933,-0.1163817,0.02278221,0.07104626,-0.679164111614227,-0.255488902330399,0.343626201152802,-0.626768731761373,-0.26968107538565,0.387999702095469,2
1.27999877929688,-0.657982468605042,2.8042733669281,1.34917831420898,-0.383236695417198,2.80092033679326,1.3800988607405,1167.291,1423.294,3143.267,3228.653,-0.1173101,0.02156116,0.07353037,-0.686756432056427,-0.265293747186661,0.348929464817047,-0.639917282339435,-0.275338529371412,0.396139281255613,2
1.30001831054688,-0.671876549720764,2.79877519607544,1.3562638759613,-0.396178686849666,2.79535175943725,1.38811056994974,1166.779,1421.331,3148.237,3239.016,-0.118043,0.02042188,0.07602499,-0.694705069065094,-0.274911105632782,0.354279309511185,-0.653005218467598,-0.280969902652754,0.404241337183804,2
1.32000732421875,-0.685936450958252,2.79308915138245,1.36345684528351,-0.409361504843077,2.78967956113998,1.39627136227237,1184.731,1420.781,3146.992,3236.58,-0.118581,0.0193952,0.07844307,-0.7029949426651,-0.284298300743103,0.359649986028671,-0.6659860834168,-0.286555206197011,0.41227711095171,2
1.34002685546875,-0.700168967247009,2.7872200012207,1.37076473236084,-0.422823591595166,2.78388720129772,1.40460503526004,1187.035,1418.371,3157.26,3240.818,-0.1189922,0.0184507,0.08085123,-0.711629927158356,-0.2934590280056,0.365395039319992,-0.67889305416841,-0.29210871513241,0.420267140691238,2
1.36001586914063,-0.714580059051514,2.78117299079895,1.37818741798401,-0.4365219692899,2.77799317206405,1.4130849835973,1192.564,1415.72,3160.263,3248.275,-0.1192643,0.01760185,0.08322184,-0.72055184841156,-0.302349478006363,0.371132850646973,-0.691680442442074,-0.297610771068296,0.428183143180414,2
1.3800048828125,-0.729175508022308,2.77495360374451,1.38573026657104,-0.450474904562636,2.77198961381608,1.4217225152016,1199.249,1411.687,3170.238,3249.322,-0.119365,0.01685184,0.0855341,-0.729772210121155,-0.31097012758255,0.377140790224075,-0.704361775018035,-0.303067194200314,0.436033492140578,2
1.4000244140625,-0.74396026134491,2.76856803894043,1.39339375495911,-0.464702095472036,2.76586805102946,1.43052982410961,1204.786,1407.95,3174.633,3256.135,-0.1193,0.01620159,0.08778749,-0.739237070083618,-0.319281458854675,0.383177131414413,-0.716950039288891,-0.308483572640673,0.443826227386424,2
1.42001342773438,-0.758938789367676,2.76202297210693,1.40117859840393,-0.479157861067077,2.75964813894125,1.43947863163655,1225.31,1405.932,3172.567,3253.463,-0.1191125,0.0156702,0.08991155,-0.748926818370819,-0.327252060174942,0.389242380857468,-0.729400843645231,-0.313840805920001,0.451533868397062,2
1.44000244140625,-0.774115800857544,2.75532484054565,1.40909314155579,-0.493861275572861,2.75332167044526,1.4485807456364,1227.484,1401.406,3184.408,3257.959,-0.1188691,0.0152204,0.09197333,-0.758850038051605,-0.334906905889511,0.395725429058075,-0.741727567798258,-0.319144650954242,0.459164697851088,2
1.46002197265625,-0.789494574069977,2.74848031997681,1.41713857650757,-0.50883280894277,2.74687983789241,1.45784883798541,1226.443,1396.046,3193.093,3267.673,-0.1185107,0.01485977,0.0939602,-0.768942952156067,-0.342229217290878,0.402273684740067,-0.753942941956197,-0.324400585196357,0.466726596353819,2
1.48001098632813,-0.805078089237213,2.74149656295776,1.42531406879425,-0.524024159888143,2.74034342397783,1.467253007885,1247.009,1393.501,3192.03,3262.953,-0.1180217,0.01462083,0.0957809,-0.779174089431763,-0.349190711975098,0.40877690911293,-0.766004036374583,-0.329590137176618,0.474192988348404,2
1.5,-0.820869088172913,2.73438024520874,1.43362641334534,-0.539455198877605,2.73370387899399,1.4768055561018,1253.358,1388.938,3202.247,3263.694,-0.1174779,0.01446519,0.09750915,-0.789549052715302,-0.355811983346939,0.415615916252136,-0.777924000354858,-0.334718964672088,0.481572013878822,1
1.52001953125,-0.836869180202484,2.72713875770569,1.44207620620728,-0.555147149984933,2.72695207081487,1.48651962134853,1255.006,1383.627,3209.018,3271.656,-0.1168606,0.01438973,0.0991516,-0.800006568431854,-0.362080425024033,0.422491520643234,-0.789715229532175,-0.33979240117828,0.488871346433721,1
1.54000854492188,-0.853079676628113,2.71977925300598,1.45066285133362,-0.571049184024557,2.72010986981902,1.49636373793799,1274.209,1380.905,3207.473,3267.895,-0.1161772,0.01441872,0.1006273,-0.810521304607391,-0.367979794740677,0.429332733154297,-0.801336412291853,-0.344792671461508,0.496065412155667,1
1.55999755859375,-0.869501709938049,2.71230840682983,1.45939326286316,-0.587181951496087,2.71316839067337,1.50635068951315,1277.287,1375.724,3219.056,3269.635,-0.1154805,0.01451393,0.1020066,-0.82110458612442,-0.373544484376907,0.436520397663116,-0.812800388649436,-0.349725300221754,0.503162159625937,1
1.58001708984375,-0.886135518550873,2.70473313331604,1.46826732158661,-0.603567408310176,2.70611818636293,1.51649406782863,1276.884,1370.214,3226.324,3277.448,-0.1147258,0.01467709,0.1032893,-0.831690013408661,-0.378769606351852,0.443701714277267,-0.824119146742882,-0.35459544561987,0.510169010073001,0
1.60000610351563,-0.902980506420135,2.69706034660339,1.47728300094604,-0.620152298932711,2.69898217125626,1.52676090517188,1296.698,1367.955,3223.439,3272.073,-0.113913,0.01493591,0.1043903,-0.842249393463135,-0.383639425039291,0.450781613588333,-0.835253140422976,-0.35938609205264,0.51706148254665,0
1.62002563476563,-0.920036554336548,2.68929648399353,1.48644638061523,-0.636983857763694,2.69174002171061,1.53718044188659,1300.665,1363.227,3233.633,3272.166,-0.1131098,0.01524836,0.1053867,-0.852798402309418,-0.388189971446991,0.458168685436249,-0.846231427202183,-0.364109742155907,0.523857565031302,0
1.6400146484375,-0.937301933765411,2.68144822120667,1.49575555324554,-0.654007271984653,2.68441532215046,1.54771874622704,1305.12,1359.602,3235.453,3277.31,-0.1123162,0.01561681,0.1062713,-0.863265573978424,-0.392415761947632,0.465456634759903,-0.857015715678588,-0.368749920209162,0.530533553325099,0
1.66000366210938,-0.954775273799896,2.6735212802887,1.50521397590637,-0.671244443874359,2.67699864863716,1.55838937674714,1309.504,1354.492,3245.213,3275.692,-0.1114858,0.01603974,0.1070336,-0.873669624328613,-0.396348536014557,0.4729223549366,-0.867618167158098,-0.373311858882592,0.53709697585572,0
1.68002319335938,-0.972454249858856,2.6655216217041,1.51481962203979,-0.688718488267733,2.66948005550297,1.56920664263081,1312.801,1350.493,3248.205,3279.525,-0.1106144,0.01651351,0.1076836,-0.883949518203735,-0.399980902671814,0.480281233787537,-0.87804994059578,-0.377800359562815,0.543554740547927,0
1.70001220703125,-0.990336000919342,2.65745544433594,1.52456986904144,-0.706372354049449,2.66188409024902,1.58013522651994,1331.789,1349.495,3242.71,3273.568,-0.1097494,0.01705276,0.1081591,-0.894086599349976,-0.403304994106293,0.487513065338135,-0.888274735793774,-0.382199803288802,0.549884375850026,0
1.72000122070313,-1.00841808319092,2.64932799339294,1.53447091579437,-0.724228658537036,2.6542010212754,1.5911891296115,1331.036,1345.224,3253.34,3274.396,-0.1089526,0.01761116,0.108546,-0.904106914997101,-0.406371623277664,0.495051026344299,-0.898304216251578,-0.386515208538549,0.556093102023817,0
1.74002075195313,-1.02669703960419,2.6411440372467,1.54452085494995,-0.742311168965756,2.64642062220478,1.6023830649563,1325.146,1340.676,3260.105,3281.979,-0.1081579,0.01819127,0.1088517,-0.913946092128754,-0.409194439649582,0.502499938011169,-0.908148960779607,-0.390751127078638,0.562187467856884,0
1.760009765625,-1.04516875743866,2.63290882110596,1.55471527576447,-0.760560719141003,2.63856835059778,1.61368040586141,1341.929,1339.933,3255.18,3274.721,-0.107344,0.01882671,0.108988,-0.923579156398773,-0.411765158176422,0.50972044467926,-0.91777478390713,-0.394892849856044,0.568146310914365,0
1.77999877929688,-1.06382942199707,2.62462639808655,1.56505799293518,-0.779000609654483,2.63063418086074,1.62509557650306,1343.847,1336.688,3263.058,3272.392,-0.1065749,0.01947345,0.1090398,-0.933032631874084,-0.41412153840065,0.517134308815002,-0.927192788821983,-0.398945154262308,0.57397650459845,0
1.80001831054688,-1.08267450332642,2.6163010597229,1.57554614543915,-0.797655223615693,2.62260762162281,1.63664367118754,1339.526,1333.173,3266.713,3278.817,-0.1058271,0.02012613,0.1090277,-0.942252159118652,-0.416272431612015,0.524409890174866,-0.936412917636689,-0.402912318110697,0.579684203550397,0
1.82000732421875,-1.10169899463654,2.60793685913086,1.58617544174194,-0.816463410111527,2.61451498441355,1.64828683458664,1353.975,1332.982,3260.736,3272.79,-0.1050995,0.02081163,0.1088693,-0.951225340366364,-0.418215423822403,0.531464397907257,-0.94540321420156,-0.406780591562751,0.585249625391268,0
1.83999633789063,-1.12089860439301,2.59953689575195,1.59694981575012,-0.835449117627072,2.60634596486888,1.66003989195343,1351.435,1330.003,3269.455,3271.884,-0.1044364,0.02148887,0.1086455,-0.959984958171844,-0.419996410608292,0.5387202501297,-0.954174163352093,-0.410554485950274,0.590679260733698,0
1.86001586914063,-1.14026808738708,2.59110450744629,1.60786557197571,-0.854637305360818,2.59808982374295,1.67191829422076,1344.21,1327.023,3273.105,3278.513,-0.1037829,0.02216,0.1083673,-0.968474209308624,-0.421625286340714,0.545787453651428,-0.962735018414262,-0.414237982720922,0.595978837827261,0
1.8800048828125,-1.15980172157288,2.58264255523682,1.61891686916351,-0.873964974649439,2.58977366760063,1.68388304221498,1359.124,1327.794,3265.42,3270.791,-0.1031314,0.0228574,0.1079459,-0.976680159568787,-0.423093616962433,0.552563071250916,-0.971056158224177,-0.417818336715394,0.601130019760457,0
1.9000244140625,-1.17949461936951,2.57415342330933,1.63010692596436,-0.893486564535158,2.58137407284289,1.69596783629653,1357.24,1325.884,3272.311,3268.371,-0.102545,0.02353673,0.1074702,-0.984640181064606,-0.424442082643509,0.559504270553589,-0.979159571260204,-0.421305008961645,0.606146418448853,0
1.92001342773438,-1.19934034347534,2.56564021110535,1.64143013954163,-0.913137923350175,2.5729186421402,1.70813296352707,1354.799,1325.26,3269.866,3272.788,-0.1020193,0.02420162,0.1069419,-0.992294490337372,-0.425673127174377,0.566162168979645,-0.987017247723777,-0.424685947625853,0.611010694492843,0
1.94000244140625,-1.2193341255188,2.55710387229919,1.65288698673248,-0.932943991899774,2.5643966441608,1.72039386345315,1353.327,1323.153,3275.934,3268.99,-0.1014925,0.02485491,0.1063491,-0.999683618545532,-0.426819682121277,0.57284551858902,-0.994638524886308,-0.427965170275055,0.615728628108227,0
1.96002197265625,-1.23946940898895,2.5485463142395,1.6644721031189,-0.952930593197372,2.55579696798345,1.73276652175022,1349.975,1322.205,3274.852,3271.887,-0.100954,0.02549448,0.1057096,-1.00676155090332,-0.427876532077789,0.579253435134888,-1.00203140433628,-0.431146119769234,0.620305172659443,0
1.98001098632813,-1.25973987579346,2.53996968269348,1.6761794090271,-0.973031969359004,2.54714790738853,1.74521023115561,1363.954,1324.297,3264.808,3264.034,-0.1004438,0.02613983,0.1049569,-1.01352679729462,-0.428833723068237,0.585367321968079,-1.00917036754089,-0.434217816196637,0.624724530959079,0
2,-1.28014051914215,2.53137493133545,1.68801259994507,-0.993273599084619,2.53843849960327,1.7577407641983,1357.132,1323.194,3271.837,3263.285,-0.100023,0.02674555,0.1041856,-1.02002418041229,-0.429737627506256,0.591661214828491,-1.01606400046349,-0.437183953857422,0.628992018127441,0
2.02001953125,-1.30066466331482,2.52276301383972,1.69996678829193,-1.01368176147806,2.52965743746343,1.77037438889544,1344.122,1321.689,3274.622,3270.936,-0.09961714,0.02731697,0.103407,-1.0262051820755,-0.430599689483643,0.597711741924286,-1.0227194988233,-0.440047628868552,0.633112088657522,0
2.04000854492188,-1.32130587100983,2.51413488388062,1.71203446388245,-1.03418924440916,2.52083364047092,1.78306949773667,1356.326,1323.812,3265.506,3261.881,-0.09918943,0.02789543,0.1025221,-1.03206300735474,-0.431406289339066,0.603385210037231,-1.02911391720548,-0.442798968459032,0.637070538244476,0
2.05999755859375,-1.34205865859985,2.50549125671387,1.72421729564667,-1.05482201812353,2.5119559343546,1.79584216754118,1352.821,1323.639,3270.005,3257.94,-0.09880594,0.028439,0.1016247,-1.03763937950134,-0.432187080383301,0.609143853187561,-1.03525504859546,-0.445441325732794,0.640872191117535,0
2.08001708984375,-1.36291646957397,2.49683237075806,1.73650979995728,-1.07560676837143,2.50301283698163,1.80870891805959,1342.177,1322.958,3269.741,3264.589,-0.09843789,0.02894454,0.1007388,-1.042893409729,-0.432942509651184,0.614623188972473,-1.0411492471255,-0.447977434695423,0.644520980787238,0
2.10000610351563,-1.38387298583984,2.4881591796875,1.74890494346619,-1.09647498538954,2.49403382618922,1.82162733848484,1352.96,1325.24,3260.012,3256.671,-0.09807038,0.02944645,0.09977064,-1.04783034324646,-0.433661222457886,0.619758427143097,-1.04677621342161,-0.450398561093403,0.648004340974112,0
2.12002563476563,-1.40492296218872,2.4794716835022,1.7614049911499,-1.11748519122939,2.48499372157354,1.8346336567546,1345.339,1325.065,3265.415,3254.885,-0.09775399,0.02990497,0.09881008,-1.05249452590942,-0.434377819299698,0.625003635883331,-1.05215090364426,-0.452711140144745,0.65133153025393,0
2.1400146484375,-1.4260596036911,2.47077012062073,1.77400231361389,-1.13856809990831,2.47592233495728,1.84768498154507,1338.994,1325.99,3260.467,3259.383,-0.09746318,0.03033232,0.09784666,-1.05683517456055,-0.435083419084549,0.629864096641541,-1.05725481901126,-0.454907212340279,0.654491096999312,0
2.16000366210938,-1.44727766513824,2.46205425262451,1.78669595718384,-1.15975039167652,2.46680818657414,1.86079782920208,1335.963,1325.658,3263.83,3253.721,-0.09713081,0.03073696,0.0968611,-1.06090080738068,-0.435798168182373,0.634680271148682,-1.0620943502576,-0.456989527434725,0.657486997379635,0
2.18002319335938,-1.46857059001923,2.45332407951355,1.79947900772095,-1.18105931486702,2.45763955222766,1.87398906774178,1330.224,1326.338,3259.719,3256.391,-0.09675957,0.03111659,0.0958764,-1.06465315818787,-0.436503797769547,0.639150381088257,-1.0666743814704,-0.458960186914335,0.660322254877504,0
2.20001220703125,-1.48993277549744,2.44458055496216,1.81234467029572,-1.20242455577657,2.44844668594002,1.88721516963236,1342.653,1329.421,3247.658,3247.388,-0.09638726,0.03149312,0.09482142,-1.06810069084167,-0.437181681394577,0.643283605575562,-1.07097916161324,-0.460812413548163,0.662987118851036,0
2.22000122070313,-1.51135849952698,2.43582320213318,1.82529604434967,-1.22387315175433,2.43921795429519,1.90049287228091,1332.607,1329.661,3252.927,3246.731,-0.09607993,0.03182279,0.09379569,-1.0712902545929,-0.437868773937225,0.647566735744476,-1.07501419914593,-0.462548577472581,0.665484999299265,0
2.24002075195313,-1.53284204006195,2.42705178260803,1.83832716941833,-1.24543261682529,2.42994151877688,1.91383920817958,1316.779,1329.135,3253.843,3254.624,-0.09575502,0.03211606,0.09280393,-1.07418167591095,-0.438565373420715,0.651555299758911,-1.07878346314438,-0.464170386470068,0.667818353269249,0
2.260009765625,-1.55437779426575,2.41826677322388,1.85142970085144,-1.26703177594152,2.42064800401982,1.92721011658316,1328.246,1331.641,3243.289,3244.14,-0.09536301,0.03241782,0.09173886,-1.07677531242371,-0.439247846603394,0.655125021934509,-1.08227399942825,-0.465672266718726,0.669979161506271,0
2.27999877929688,-1.57595992088318,2.40946817398071,1.86460471153259,-1.28869796983554,2.41132564607061,1.9406225227075,1323.423,1332.358,3245.823,3239.651,-0.09498058,0.0326873,0.09069853,-1.07911145687103,-0.439934134483337,0.658748507499695,-1.08549040888332,-0.467056197851165,0.67197027217779,0
2.30001831054688,-1.59758305549622,2.40065598487854,1.87784588336945,-1.31045892272318,2.4019625159737,1.95409358916289,1311.474,1332.181,3243.655,3246.25,-0.0945811,0.03292392,0.08970285,-1.08115673065186,-0.440613210201263,0.662060737609863,-1.08843572622736,-0.468323485621664,0.673793563918671,0
2.32000732421875,-1.61924147605896,2.39183044433594,1.89114618301392,-1.33224276726637,2.39258953623693,1.96757882664355,1321.746,1334.302,3232.907,3237.459,-0.09414434,0.03316432,0.08865209,-1.08292210102081,-0.441266030073166,0.665014207363129,-1.09109983431736,-0.469469776906228,0.675442773735451,0
2.33999633789063,-1.64093041419983,2.38299226760864,1.90450763702393,-1.35407709248145,2.38319483607731,1.98109531406483,1312.89,1334.5,3237.058,3235.379,-0.0937257,0.03337047,0.08763731,-1.08444881439209,-0.441918075084686,0.668070018291473,-1.09348640563071,-0.470496651869278,0.67692017506657,0
2.36001586914063,-1.6626443862915,2.37414121627808,1.91792356967926,-1.3759897762471,2.37376642042246,1.99466030916165,1299.074,1333.962,3235.659,3242.599,-0.0932623,0.03355164,0.08666179,-1.0856990814209,-0.442557394504547,0.670797407627106,-1.09559752564474,-0.471405007833448,0.678227058921845,0
2.3800048828125,-1.68437790870667,2.36527824401855,1.9313862323761,-1.39790843013262,2.36433543599182,2.00822900004707,1311.681,1336.018,3224.193,3231.623,-0.09272381,0.03374955,0.0856167,-1.08667933940887,-0.44315829873085,0.673131227493286,-1.09742594550583,-0.472191725819537,0.679358937915576,0
2.4000244140625,-1.7061265707016,2.3564031124115,1.94489729404449,-1.41989437329222,2.3548754988664,2.02183934619858,1305.472,1336.474,3226.767,3227.956,-0.09219225,0.03392206,0.0846028,-1.08742702007294,-0.443739414215088,0.675554156303406,-1.09897654259203,-0.472858904427064,0.68031883137712,0
2.42001342773438,-1.72788441181183,2.34751749038696,1.95844924449921,-1.44187496577138,2.34541786398928,2.035446380024,1299,1337.005,3220.331,3232.026,-0.09165748,0.03407837,0.08361427,-1.08790111541748,-0.444281965494156,0.677596092224121,-1.1002439936861,-0.473404253224357,0.681103443981416,0
2.44000244140625,-1.74964725971222,2.33862137794495,1.9720413684845,-1.46387808506052,2.33595053645515,2.04906735901791,1295.05,1336.12,3222.866,3226.284,-0.09105294,0.0342279,0.08262774,-1.08814823627472,-0.444800049066544,0.679607629776001,-1.10123038958312,-0.473828671822132,0.681714070030222,0
2.46002197265625,-1.77140998840332,2.32971596717834,1.98566687107086,-1.48593173759011,2.32646146587939,2.06271962049488,1288.398,1336.006,3218.256,3228.789,-0.09037171,0.03437177,0.08166011,-1.08813452720642,-0.445268630981445,0.681277871131897,-1.10193621258339,-0.474132367740737,0.682151008090402,0
2.48001098632813,-1.79316735267639,2.32080268859863,1.9993189573288,-1.5079630509786,2.31698200721197,2.07635805297935,1301.622,1337.653,3205.895,3218.438,-0.08963827,0.03453479,0.08063272,-1.08786690235138,-0.445662289857864,0.682604193687439,-1.10235904000526,-0.474314298567936,0.682412758406602,0
2.5,-1.8149151802063,2.31188249588013,2.01300048828125,-1.52999999932945,2.30750012397766,2.08999997377396,1293.078,1337.404,3209.414,3216.478,-0.08893147,0.03467574,0.07964314,-1.08738315105438,-0.44600635766983,0.684075534343719,-1.10250000050292,-0.474374949932098,0.682500019669533,0
2.52001953125,-1.83664810657501,2.30295658111572,2.02670574188232,-1.55207058900185,2.29800376582252,2.10366272014916,1278.062,1335.927,3208.913,3224.09,-0.08818099,0.03480363,0.07869402,-1.08664906024933,-0.446292698383331,0.68526154756546,-1.10235860927677,-0.474314113237503,0.682412491765153,0
2.54000854492188,-1.85836160182953,2.29402661323547,2.0404269695282,-1.57410188948011,2.28852431271001,2.11730114464159,1290.601,1336.603,3198.434,3212.521,-0.08733251,0.03496245,0.07767206,-1.08566737174988,-0.44649675488472,0.686059474945068,-1.10193535162022,-0.474131997292339,0.682150475113189,0
2.55999755859375,-1.88005065917969,2.28509378433228,2.05416560173035,-1.59612191359838,2.27904971150017,2.13093258853001,1286.377,1336.334,3200.275,3207.372,-0.08646858,0.03511325,0.0766748,-1.08446729183197,-0.446631103754044,0.686931610107422,-1.10123038958312,-0.473828671822132,0.681714070030222,0
2.58001708984375,-1.90171098709106,2.27616047859192,2.06791567802429,-1.6181586096433,2.26956793682606,2.14457435313522,1275.464,1334.809,3197.564,3213.138,-0.08556204,0.03525706,0.07571755,-1.08301794528961,-0.446680933237076,0.687506377696991,-1.10024227275454,-0.473403512755585,0.681102378642802,0
2.60000610351563,-1.92333769798279,2.2672278881073,2.08167052268982,-1.64013916343638,2.26011031859448,2.15818136301212,1287.654,1334.907,3186.835,3202.821,-0.08458839,0.03542897,0.07469756,-1.08132815361023,-0.446625739336014,0.687739670276642,-1.09897439291323,-0.472857979480329,0.680317500623536,0
2.62002563476563,-1.94492626190186,2.25829839706421,2.09543228149414,-1.66212505926897,2.25065040183254,2.17179167986595,1280.722,1333.984,3189.935,3199.503,-0.08361633,0.03559154,0.07370609,-1.07942855358124,-0.446485340595245,0.688094079494476,-1.09742336725307,-0.472190616469403,0.679357341854299,0
2.6400146484375,-1.96647191047668,2.24937343597412,2.1091935634613,-1.68404365734903,2.24121944141343,2.18536033620513,1274.73,1332.901,3183.553,3203.321,-0.08262137,0.0357576,0.07272692,-1.07728004455566,-0.446240961551666,0.68806791305542,-1.09559452046326,-0.471403714787811,0.678225198571351,0
2.66000366210938,-1.98797035217285,2.24045515060425,2.12295389175415,-1.70592290617745,2.23180541187802,2.19890463348308,1273.643,1330.835,3185.401,3195.439,-0.08153587,0.0359379,0.07172935,-1.07492196559906,-0.445903778076172,0.688019335269928,-1.09348640563071,-0.470496651869278,0.67692017506657,0
2.68002319335938,-2.00941681861877,2.23154640197754,2.13670682907104,-1.72779052905813,2.22239638466312,2.21244173374556,1268.914,1329.553,3180.048,3196.935,-0.08037207,0.03612906,0.070737,-1.07232022285461,-0.445449143648148,0.687647581100464,-1.09109597826566,-0.469468117754907,0.675440386655758,0
2.70001220703125,-2.03080630302429,2.22264933586121,2.15044617652893,-1.74957429229274,2.21302343991116,2.22592692089233,1283.533,1329.444,3168.046,3185.578,-0.07915661,0.03635373,0.06967261,-1.06948029994965,-0.4448561668396,0.686965644359589,-1.08843144721369,-0.468321644481621,0.673790915005369,0
2.72000122070313,-2.05213499069214,2.21376633644104,2.16417527198792,-1.77130202882336,2.20367460188472,2.23937742484041,1276.031,1328.152,3171.237,3182.887,-0.07797469,0.03657035,0.06863397,-1.06643068790436,-0.444149613380432,0.686450898647308,-1.08549040888332,-0.467056197851165,0.671970272177789,0
2.74002075195313,-2.07339763641357,2.20489954948425,2.17788863182068,-1.79300125102058,2.19433803277934,2.25281027705779,1261.759,1325.388,3170.704,3189.982,-0.07675496,0.03678713,0.06762303,-1.06314134597778,-0.443325698375702,0.685671210289001,-1.08226887897249,-0.465670063529659,0.669975991700231,0
2.760009765625,-2.09459018707275,2.19605255126953,2.19157910346985,-1.81460030360772,2.18504456385877,2.26618111951479,1275.441,1324.271,3160.962,3177.181,-0.07543564,0.03704646,0.06652595,-1.05961465835571,-0.442365735769272,0.684527337551117,-1.07877792518082,-0.464168003639063,0.667814925005998,0
2.77999877929688,-2.11570739746094,2.18722701072693,2.2052481174469,-1.83612684690458,2.17578229366013,2.27950707526701,1272.838,1323.017,3161.894,3171.168,-0.07410565,0.03730955,0.06543931,-1.05586934089661,-0.441280156373978,0.683454811573029,-1.07501419914593,-0.462548577472581,0.665484999299265,0
2.80001831054688,-2.13674521446228,2.17842555046082,2.21889042854309,-1.85760812647542,2.16653949917827,2.29280501061661,1263.623,1320.342,3158.835,3175.705,-0.07274584,0.03757562,0.06437757,-1.05188059806824,-0.440059512853622,0.682109892368317,-1.07097279461286,-0.460809674005774,0.6629831773745,0
2.82000732421875,-2.15769815444946,2.16965198516846,2.23249959945679,-1.87897323600723,2.1573466894188,2.30603103117811,1276.127,1318.797,3149.066,3164.643,-0.07132851,0.03787555,0.06324471,-1.04765617847443,-0.438690900802612,0.680459678173065,-1.06666760390385,-0.458957270716794,0.660318059240952,0
2.83999633789063,-2.1785626411438,2.16090822219849,2.24607801437378,-1.90024960698239,2.14819206138118,2.31920211834584,1270.159,1317.01,3151.205,3160.973,-0.06992555,0.03817423,0.06212748,-1.0432163476944,-0.437192142009735,0.67891925573349,-1.06209435025759,-0.456989527434725,0.657486997379635,0
2.86001586914063,-2.19933342933655,2.15219688415527,2.25962018966675,-1.9214641634913,2.13906403038149,2.33233493941432,1259.15,1313.943,3149.079,3166.138,-0.06848425,0.03847802,0.06102528,-1.03853690624237,-0.435558050870895,0.677104115486145,-1.05724722779031,-0.454903946049977,0.654486397671922,0
2.8800048828125,-2.22000575065613,2.14352130889893,2.27311944961548,-1.94254691640495,2.12999271078668,2.34538616777867,1273.112,1312.251,3139.101,3153.43,-0.06696359,0.03882148,0.05983535,-1.03362154960632,-0.433774381875992,0.674957633018494,-1.0521429102862,-0.45270770082608,0.651326581984514,0
2.9000244140625,-2.24057555198669,2.13488435745239,2.28657746315002,-1.96355695821617,2.12095267674793,2.3583923845069,1269.675,1310.687,3140.129,3147.858,-0.06545305,0.03916688,0.05865199,-1.0284857749939,-0.431854605674744,0.672906219959259,-1.04676782045836,-0.450394949835786,0.647999145330045,0
2.92001342773438,-2.26103758811951,2.12628865242004,2.29998779296875,-1.98442500350686,2.11197373984504,2.37131069862469,1265.76,1308.344,3133.356,3150.019,-0.06394783,0.03952039,0.05746793,-1.02310276031494,-0.429790019989014,0.670514583587646,-1.04114045847258,-0.4479736531836,0.644515540192422,0
2.94000244140625,-2.28138756752014,2.11773681640625,2.31335043907166,-2.00517798053537,2.10304431360073,2.38415778000673,1264.889,1305.253,3134.9,3141.907,-0.06239147,0.0398883,0.05625835,-1.01750373840332,-0.427596181631088,0.668128788471222,-1.03525504859546,-0.445441325732794,0.640872191117535,0
2.96002197265625,-2.3016209602356,2.10923147201538,2.32665944099426,-2.02584216016808,2.09415309439512,2.39694989157076,1259.692,1302.791,3130.126,3142.981,-0.06078665,0.04026718,0.05504549,-1.01166319847107,-0.425260961055756,0.665452301502228,-1.02910434715508,-0.442794850733705,0.637064613927399,0
2.98001098632813,-2.32173252105713,2.10077619552612,2.33990907669067,-2.04634944795115,2.08532938136936,2.40964487960608,1274,1301.003,3119.541,3130.524,-0.05913869,0.04067823,0.05375432,-1.00558507442474,-0.422773003578186,0.662484347820282,-1.02270954399162,-0.440043345582586,0.633105926142498,0
3,-2.3417181968689,2.09237313270569,2.35310196876526,-2.06672639957428,2.07656174835205,2.42225918334961,1268.495,1299.221,3120.946,3126.479,-0.057536,0.0410842,0.05247765,-0.999285101890564,-0.420150578022003,0.659643948078156,-1.01606400046349,-0.437183953857422,0.628992018127441,0
3.02001953125,-2.36157298088074,2.08402538299561,2.36623311042786,-2.08699882657197,2.06783908936099,2.4348087813708,1256.458,1295.885,3119.135,3131.883,-0.05592532,0.04148942,0.05121787,-0.992746829986572,-0.417397081851959,0.656555414199829,-1.0091596546337,-0.434213206731958,0.624717899159203,0
3.04000854492188,-2.38129281997681,2.07573509216309,2.37929606437683,-2.10709998486405,2.05919012250926,2.44725235590455,1269.089,1293.501,3110.196,3119.228,-0.05424859,0.04192832,0.04987251,-0.985975801944733,-0.414505571126938,0.653147876262665,-1.00202031904361,-0.431141350077486,0.620298310335216,0
3.05999755859375,-2.40087223052979,2.06750535964966,2.39229249954224,-2.12705600675913,2.05060360379452,2.45960608409476,1266.267,1291.893,3110.746,3112.624,-0.05258625,0.04236685,0.04853174,-0.978981852531433,-0.411487311124802,0.649816036224365,-0.994638524886308,-0.427965170275055,0.615728628108227,0
3.08001708984375,-2.42030715942383,2.05933856964111,2.40521669387817,-2.14689219650438,2.04206864550612,2.47188563047583,1257.341,1288.788,3107.032,3116.466,-0.05091644,0.04280464,0.04720826,-0.971748888492584,-0.408340632915497,0.646208822727203,-0.987005430654711,-0.424680863071165,0.611003379164165,0
3.10000610351563,-2.43959307670593,2.05123734474182,2.41806316375732,-2.16654331551667,2.03361331798384,2.48405060925705,1270.297,1286.312,3097.807,3103.912,-0.04920563,0.04326903,0.04580958,-0.964286744594574,-0.405060768127441,0.64231812953949,-0.979147395688901,-0.421299770153459,0.606138881190213,0
3.12002563476563,-2.45872497558594,2.04320406913757,2.43083357810974,-2.18606465810045,2.02521382963322,2.49613525024692,1265.071,1284.658,3098.664,3099.265,-0.04753476,0.04372572,0.04442623,-0.956605672836304,-0.401662081480026,0.638526558876038,-0.971043628570469,-0.417812945555442,0.601122263307942,0
3.1400146484375,-2.47769904136658,2.03524112701416,2.44352173805237,-2.20539207344272,2.01689778275692,2.50809984103626,1260.16,1281.882,3092.328,3101.24,-0.04587987,0.04418335,0.04304352,-0.948691308498383,-0.39814418554306,0.634403109550476,-0.962722140342815,-0.41423244164655,0.595970865687568,0
3.16000366210938,-2.49651050567627,2.02735042572021,2.45612692832947,-2.22455088103183,2.00865428308644,2.51996005559448,1260.139,1278.919,3092.738,3092.21,-0.04418184,0.04464951,0.04163221,-0.940567851066589,-0.394519656896591,0.63026362657547,-0.954174163352092,-0.410554485950274,0.590679260733698,0
3.18002319335938,-2.51515483856201,2.01953482627869,2.4686439037323,-2.24356543975693,2.00047284967231,2.53173097323436,1255.892,1276.656,3087.188,3092.077,-0.04245451,0.04511979,0.04021775,-0.93221777677536,-0.390781074762344,0.625846445560455,-0.945389654806993,-0.406774757334075,0.585241231480108,0
3.20001220703125,-2.5336275100708,2.01179671287537,2.48106718063354,-2.26237335188561,1.99238033051557,2.54337396678712,1269.094,1274.551,3077.122,3079.675,-0.04070535,0.04561001,0.03873526,-0.923646152019501,-0.386922717094421,0.621163487434387,-0.93639902618694,-0.402906341007952,0.579675604081262,0
3.22000122070313,-2.55192494392395,2.00413751602173,2.49339914321899,-2.28099938900442,1.98436606709459,2.55490437104486,1263.576,1273.172,3077.569,3075.318,-0.0390201,0.0460871,0.03727274,-0.91486257314682,-0.38295966386795,0.616597533226013,-0.927192788821982,-0.398945154262308,0.573976504598449,0
3.24002075195313,-2.57004237174988,1.99655938148499,2.50563502311707,-2.29946728755973,1.97641984627959,2.5663368799986,1251.406,1270.13,3075.302,3080.292,-0.03734924,0.04655507,0.03583349,-0.905862271785736,-0.3789002597332,0.611798107624054,-0.917760245372928,-0.394886594330938,0.568137310869129,0
3.260009765625,-2.58797526359558,1.98906457424164,2.51776909828186,-2.31771654397337,1.96856770107001,2.57763403905129,1262.581,1267.499,3067.284,3067.667,-0.03562564,0.04704451,0.03432194,-0.896654188632965,-0.374743342399597,0.606707274913788,-0.908134108040216,-0.390744736359816,0.562178273303667,0
3.27999877929688,-2.60572004318237,1.98165440559387,2.5298023223877,-2.33577134012187,1.96079922667992,2.58881081793642,1260.088,1266.385,3066.464,3060.852,-0.03392814,0.04752595,0.03282193,-0.88724148273468,-0.37049525976181,0.601663529872894,-0.898304216251578,-0.386515208538549,0.556093102023818,0
3.30001831054688,-2.62327218055725,1.97433161735535,2.54172968864441,-2.35365475236716,1.95310449399547,2.59988150202132,1251.838,1263.673,3062.241,3063.657,-0.03224183,0.047998,0.03134648,-0.877619802951813,-0.366158425807953,0.596368610858917,-0.88825927318574,-0.382193150160541,0.549874803759067,0
3.32000732421875,-2.64062833786011,1.9670969247818,2.55354619026184,-2.37130830610839,1.94550866300381,2.61080989274252,1262.817,1261.106,3053.724,3051.942,-0.03053208,0.04848364,0.02981426,-0.867800414562225,-0.361732393503189,0.590819716453552,-0.878034183119985,-0.377793579561194,0.543544985919778,0
3.33999633789063,-2.65778398513794,1.95995235443115,2.56525325775146,-2.38875555478454,1.93800159931817,2.62161057080077,1257.551,1260.02,3053.687,3047.122,-0.02887293,0.04895421,0.02830618,-0.857788920402527,-0.357227057218552,0.585358917713165,-0.867618167158097,-0.373311858882592,0.53709697585572,0
3.36001586914063,-2.67473602294922,1.95289945602417,2.5768461227417,-2.40601888046917,1.93057367255756,2.63229739176581,1247.159,1257.302,3050.084,3051.233,-0.0272239,0.04941352,0.02682337,-0.847584903240204,-0.352648079395294,0.579648077487946,-0.856999388527103,-0.368742895092007,0.53052344604056,0
3.3800048828125,-2.69147968292236,1.94593930244446,2.58831977844238,-2.42304196557559,1.92324911460621,2.64283549236868,1258.427,1254.8,3041.986,3038.571,-0.02553279,0.04988777,0.02527711,-0.837198972702026,-0.347994804382324,0.573680102825165,-0.846214826007803,-0.364102599125748,0.523847288101157,0
3.4000244140625,-2.70801258087158,1.93907368183136,2.59967517852783,-2.43987318937177,1.91600710921667,2.65325482168089,1254.975,1254.121,3040.887,3032.59,-0.02388216,0.05034866,0.02375169,-0.826631724834442,-0.343272417783737,0.567775249481201,-0.835236272052476,-0.359378834064062,0.51705104022176,0
3.42001342773438,-2.72432994842529,1.93230414390564,2.61090683937073,-2.45645774020782,1.90887124031063,2.66352144868012,1250.518,1251.824,3034.198,3033.843,-0.02226562,0.0507995,0.02224259,-0.815883159637451,-0.338484555482864,0.561579823493958,-0.824102019042908,-0.354588076049064,0.510158407210813,0
3.44000244140625,-2.74042940139771,1.92563140392303,2.62201452255249,-2.47281804716281,1.90183185728196,2.67364925803476,1250.449,1249.572,3033.567,3025.102,-0.0206363,0.05124688,0.02072366,-0.804971396923065,-0.333640515804291,0.555382311344147,-0.812800388649434,-0.349725300221754,0.503162159625937,0
3.46002197265625,-2.75630736351013,1.91905665397644,2.63299369812012,-2.48897526921199,1.89487985601472,2.68365134815842,1244.757,1247.89,3028.362,3025.477,-0.01900751,0.05168574,0.01922221,-0.793891668319702,-0.328739017248154,0.548960506916046,-0.801318788528228,-0.344785088448372,0.496054502206447,0
3.48001098632813,-2.77196025848389,1.91258096694946,2.64384007453918,-2.50487694859767,1.88803780761656,2.69349524520019,1254.722,1245.742,3020.237,3014.233,-0.01736328,0.05213094,0.01767934,-0.782652139663696,-0.323779255151749,0.542320430278778,-0.789697369743255,-0.339784716610052,0.488860290373601,0
3.5,-2.7873854637146,1.90620589256287,2.65455532073975,-2.5205447997813,1.88129636896134,2.70319439144611,1250.027,1245.117,3019.209,3009.614,-0.01577816,0.05255821,0.01616887,-0.771255195140839,-0.31876727938652,0.535757064819336,-0.777924000354857,-0.334718964672089,0.481572013878822,0
3.52001953125,-2.80257987976074,1.89993131160736,2.6651349067688,-2.53599921507943,1.87464676580493,2.71276141071155,1240.129,1242.832,3015.536,3013.325,-0.01421862,0.05297032,0.01469209,-0.759708046913147,-0.313710510730743,0.528983354568481,-0.765985728654519,-0.329582259876133,0.474181654997567,0
3.54000854492188,-2.81754040718079,1.89375925064087,2.67557501792908,-2.55119019794619,1.86811051026429,2.72216535275294,1249.263,1240.476,3008.867,3001.589,-0.01262818,0.05338966,0.01317168,-0.748022854328156,-0.30861109495163,0.522003710269928,-0.753924423002452,-0.324392617007921,0.466715132239272,0
3.55999755859375,-2.83226442337036,1.88768994808197,2.68587636947632,-2.56613872308604,1.86167857751006,2.73141920191151,1245.343,1240.099,3007.096,2996.696,-0.01107875,0.0537933,0.01168231,-0.736197590827942,-0.30347090959549,0.515062570571899,-0.741727567798258,-0.319144650954242,0.459164697851087,0
3.58001708984375,-2.8467493057251,1.88172388076782,2.6960346698761,-2.58086439685043,1.85534253147694,2.74053509545279,1238.161,1237.98,3002.804,2998.485,-0.009547433,0.05418347,0.01022481,-0.724240183830261,-0.298294574022293,0.507916688919067,-0.729381927869994,-0.313832666990361,0.451522158631107,0
3.60000610351563,-2.86099219322205,1.8758624792099,2.70604634284973,-2.59531978247425,1.84912278287974,2.74948366775945,1246.905,1235.781,2995.994,2987.545,-0.008000135,0.05457685,0.008736387,-0.712161540985107,-0.29308345913887,0.500588119029999,-0.716930938559024,-0.308475354130224,0.443814403124743,0
3.62002563476563,-2.87499189376831,1.87010526657104,2.71591258049011,-2.60954658921762,1.84300138538903,2.75829073885038,1242.312,1235.422,2994.345,2983.509,-0.00650557,0.05495211,0.007286379,-0.699961125850677,-0.287840038537979,0.493314683437347,-0.704342498157626,-0.303058899905815,0.436021558845703,0
3.6400146484375,-2.88874483108521,1.86445391178131,2.72562885284424,-2.62349913748426,1.83699799365897,2.76692803087948,1237.866,1233.369,2988.782,2984.166,-0.005042962,0.05531444,0.005862779,-0.687649607658386,-0.282570332288742,0.485816806554794,-0.691660998977508,-0.297602405088683,0.428171106749629,0
3.66000366210938,-2.90224933624268,1.8589084148407,2.73519515991211,-2.63719712493647,1.83110413233575,2.77540773763803,1237.684,1231.674,2987.396,2976.529,-0.003571832,0.05567034,0.004442617,-0.675238728523254,-0.277279138565063,0.478314071893692,-0.678873453515702,-0.29210028151913,0.420255006953505,0
3.68002319335938,-2.91550397872925,1.85346913337708,2.74460792541504,-2.65065881779682,1.8253119419741,2.78374116678794,1233.533,1230.435,2982.2,2975.976,-0.002107626,0.05601595,0.00304706,-0.662729918956757,-0.27196541428566,0.470635622739792,-0.665966334939126,-0.286546708978778,0.41226488570328,0
3.70001220703125,-2.92850637435913,1.84813666343689,2.7538640499115,-2.66384123964357,1.81963991412768,2.79190171387692,1241.476,1228.576,2975.409,2966.189,-0.0006402239,0.0563619,0.001632747,-0.650130808353424,-0.266629338264465,0.462804913520813,-0.65298533214413,-0.280961346123326,0.404229026602262,0
3.72000122070313,-2.94125509262085,1.84291112422943,2.76296496391296,-2.6767633032417,1.81407991116207,2.79990108680742,1237.222,1228.314,2973.742,2962.392,0.0007663556,0.05668932,0.0002606635,-0.637441277503967,-0.261273056268692,0.455044895410538,-0.639917282339434,-0.275338529371411,0.396139281255611,0
3.74002075195313,-2.95374870300293,1.83779311180115,2.77190756797791,-2.68944246101018,1.80862442378895,2.80775008945815,1229.117,1226.492,2970.321,2964.917,0.002141047,0.05700153,-0.001070591,-0.624674916267395,-0.255903989076614,0.447133958339691,-0.626748599474004,-0.269672413024826,0.387987239250554,0
3.760009765625,-2.9659857749939,1.83278250694275,2.78068900108337,-2.70183851231475,1.80329074921818,2.81542383572149,1235.927,1224.395,2964.803,2955.374,0.003532073,0.05731459,-0.002421346,-0.611843228340149,-0.250524938106537,0.439076721668243,-0.613526094901139,-0.263983138701136,0.379801879044709,0
3.77999877929688,-2.97796440124512,1.8278796672821,2.78931045532227,-2.7139695770734,1.79807109095524,2.82293354268985,1232.932,1224.272,2962.823,2950.748,0.004881743,0.05761304,-0.003733219,-0.598943471908569,-0.245135188102722,0.431068032979965,-0.60023651686137,-0.258265004538452,0.371574997167698,0
3.80001831054688,-2.98968410491943,1.82308506965637,2.79776859283447,-2.72585229309426,1.79295829021612,2.83028950995902,1227.139,1222.58,2958.727,2952.039,0.006204648,0.05789744,-0.005005145,-0.585987627506256,-0.239739447832108,0.422908693552017,-0.586866312357872,-0.25251217906087,0.363298203668867,0
3.82000732421875,-3.00114393234253,1.81839823722839,2.80606126785278,-2.73744929742843,1.78796842323393,2.8374686080838,1234.109,1220.594,2953.224,2942.852,0.007530824,0.05818072,-0.006287191,-0.5729860663414,-0.234339609742165,0.41463378071785,-0.573463232144022,-0.246745208083563,0.355001058539243,0
3.83999633789063,-3.01234292984009,1.81381940841675,2.81418967247009,-2.74877791451009,1.78309403578861,2.84448156171422,1230.258,1220.486,2951.411,2939.434,0.008801965,0.05844687,-0.007522897,-0.559937238693237,-0.22893562912941,0.406425833702087,-0.560014026276881,-0.240958390526246,0.346675359432959,0
3.86001586914063,-3.02328014373779,1.80934882164001,2.82215142250061,-2.7598539723994,1.77832831750807,2.85133816917351,1223.782,1218.806,2947.878,2941.317,0.01004217,0.05869903,-0.008716526,-0.546855926513672,-0.223533749580383,0.398090869188309,-0.546505271550556,-0.235145950758426,0.338312796746137,0
3.8800048828125,-3.03395509719849,1.80498623847961,2.8299446105957,-2.77064299647982,1.77368610185671,2.85801708903178,1230.172,1216.897,2942.908,2932.535,0.01128903,0.05895026,-0.009919209,-0.533752381801605,-0.218136310577393,0.389654189348221,-0.532985466132484,-0.229328756186666,0.329943393154704,0
3.9000244140625,-3.04436731338501,1.80073142051697,2.83757019042969,-2.78117737042527,1.76915345504432,2.86453836832583,1227.369,1216.866,2940.78,2928.79,0.01248644,0.05918643,-0.01107875,-0.520623803138733,-0.212742283940315,0.381276667118073,-0.51942076458699,-0.223492244065531,0.321546196721701,0
3.92001342773438,-3.05451726913452,1.7965841293335,2.84502553939819,-2.79142456801014,1.76474437219711,2.87088187177258,1224.6,1215.275,2936.188,2928.658,0.01364398,0.05941041,-0.0122026,-0.507484316825867,-0.207357361912727,0.372768312692642,-0.505860052376089,-0.217657448443621,0.313151469876846,0
