t,x_s1,x_s2,x_s3,x_s_d1,x_s_d2,x_s_d3,propellers_rpms1,propellers_rpms2,propellers_rpms3,propellers_rpms4,rollRad,pitchRad,yawRad,v_s1,v_s2,v_s3,v_s_d1,v_s_d2,v_s_d3,insideCount
0,-0.0599999986588955,2.94000005722046,1.17999994754791,-0.0599999986588955,2.94000005722046,1.17999994754791,0,0,0,0,0,45.0048027038574,0,0,0,0,-1.06581410364015E-15,4.44089209850063E-16,4.44089209850063E-16,0
0.019989013671875,-0.0599999986588955,2.94000005722046,1.17705690860748,-0.0600018659130177,2.93999925379318,1.18000110346716,0,0,0,0,0.937003672122955,44.8630027770996,-0.00115976633969694,3.71994488546079E-08,3.50004931704007E-08,-0.147149950265884,-0.000279680311988734,-0.000120338624884473,0.000173135436141649,5
0.0399932861328125,-0.0599999986588955,2.94000005722046,1.17018985748291,-0.060014863945674,2.93999366110285,1.18000914986856,0,0,0,0,1.87400352954865,44.7211418151855,-0.00311126722954214,3.70364325874561E-08,3.5142885934647E-08,-0.343349903821945,-0.00111059898697896,-0.000477859717552347,0.000687513678106196,6
0.05999755859375,-0.059906218200922,2.94009447097778,1.16346526145935,-0.0600498857373401,2.93997859220429,1.18003083002592,3197.644,2848.919,1517.13,2782.356,1.40351831912994,44.7413482666016,0.0289556141942739,0.00468893302604556,0.00471910694614053,-0.336227416992188,-0.00247936261166862,-0.00106680046642749,0.00153484356504269,6
0.0800018310546875,-0.0597377754747868,2.94026732444763,1.1572380065918,-0.0601175574246769,2.93994947496775,1.18007272202403,2865.682,2651.841,2344.822,2562.446,0.339377909898758,44.8158340454102,0.0998737812042236,0.00842207204550505,0.008644824847579,-0.311362445354462,-0.00437268608126799,-0.00188144466206175,0.00270690098422899,6
0.0999908447265625,-0.0595563054084778,2.94046425819397,1.15152072906494,-0.0602281370710988,2.93990189563514,1.18014117609281,2239.991,2528.281,3138.372,2508.787,359.321258544922,44.919132232666,0.178605988621712,0.00907352101057768,0.00984873250126839,-0.285864382982254,-0.00677536694902951,-0.00291525111632684,0.0041942748969354,5
0.1199951171875,-0.0594244375824928,2.94063210487366,1.14657115936279,-0.0603918861403606,2.93983143898525,1.18024254456713,2123.75,2454.886,3352.473,2464.793,358.749816894531,44.999942779541,0.253288894891739,0.00659333355724812,0.00839728768914938,-0.247478276491165,-0.00967801353495435,-0.00416417885169243,0.00599115140585487,5
0.139999389648438,-0.0593830794095993,2.94074010848999,1.1425746679306,-0.0606185767455666,2.93973390035084,1.18038287685052,2312.777,2457.027,3069.331,2463.492,358.636169433594,45.0327033996582,0.32636770606041,0.0020679016597569,0.00539667345583439,-0.199826955795288,-0.0130660253322238,-0.00562194567796536,0.00808849210174802,5
0.160003662109375,-0.0594435036182404,2.9407856464386,1.1395308971405,-0.0609177895434042,2.93960515744296,1.18056810382587,2537.053,2487.104,2635.635,2492.279,358.757110595703,45.025032043457,0.398201525211334,-0.00302117830142379,0.00227708765305579,-0.152188390493393,-0.0169265510445065,-0.00728302204135792,0.0104783414199936,5
0.17999267578125,-0.0596002861857414,2.94078159332275,1.1373188495636,-0.0612985250199726,2.93944133760391,1.18080379722281,2666.96,2506.44,2302.829,2513.637,358.864379882813,44.9985809326172,0.467347741127014,-0.00783915258944035,-0.000200041569769382,-0.110600486397743,-0.0212433804254414,-0.00914043312572283,0.0131506644458931,5
0.199996948242188,-0.0598479174077511,2.94073963165283,1.13577437400818,-0.0617704296168641,2.93923829023936,1.18109592864822,2653.575,2500.394,2184.131,2509.138,358.817230224609,44.9744606018066,0.532731771469116,-0.0123815108090639,-0.0020937779918313,-0.0772233828902245,-0.0260104776919234,-0.0111915819022102,0.0161017247421801,5
0.220001220703125,-0.060189925134182,2.94066190719604,1.13476359844208,-0.0623420644491781,2.93899233174064,1.18144979784016,2541.132,2471.143,2245.958,2479.173,358.612854003906,44.9637260437012,0.594425559043884,-0.0171003006398678,-0.00388412410393357,-0.0505409091711044,-0.03121219533433,-0.0134297356845702,0.019321835755004,5
0.239990234375,-0.0606392547488213,2.94054126739502,1.13421726226807,-0.0630214373585105,2.93870001655724,1.18187036203406,2412.381,2430.247,2374.497,2437.849,358.335052490234,44.9659538269043,0.652551352977753,-0.0224664341658354,-0.00603453442454338,-0.027313930913806,-0.0368316683029241,-0.015847637913056,0.022800557215184,5
0.259994506835938,-0.0612136907875538,2.9403657913208,1.13412082195282,-0.0638179029240226,2.93835731967507,1.18236341216003,2329.761,2392.297,2463.524,2399.304,358.076873779297,44.9739570617676,0.707509934902191,-0.0287217237055302,-0.0087711364030838,-0.00482188165187836,-0.0428651747123285,-0.0184436871643672,0.0265355850983733,4
0.279998779296875,-0.0619303025305271,2.94012451171875,1.13447868824005,-0.0647390625194898,2.93796097043536,1.18293365383054,2306.699,2365.85,2470.367,2371.019,357.887756347656,44.9803733825684,0.760318458080292,-0.0358306244015694,-0.0120594780892134,0.0178954806178808,-0.0492963837173861,-0.0212108567320638,0.030516809833474,4
0.300003051757813,-0.0628019124269485,2.93981027603149,1.13528323173523,-0.0657927507678135,2.93750759781875,1.18358593705038,2318.152,2348.924,2416.177,2354.065,357.765686035156,44.9818305969238,0.811120748519897,-0.0435806624591351,-0.0157093890011311,0.0402260199189186,-0.0561132031658829,-0.0241439437008635,0.0347367458022363,4
0.319992065429688,-0.0638368055224419,2.93941974639893,1.13650619983673,-0.0669855955880233,2.93699435001684,1.18432436481717,2335.479,2337.107,2343.285,2342.339,357.679229736328,44.9789009094238,0.85986465215683,-0.0517446435987949,-0.0195266790688038,0.0611455775797367,-0.0632980253096114,-0.0272353719486164,0.0391844929697465,4
0.339996337890625,-0.0650405213236809,2.93895173072815,1.13810396194458,-0.068326768706371,2.93641728069206,1.18515461486636,2337.929,2325.11,2288.087,2330.941,357.595153808594,44.9742431640625,0.906191527843475,-0.0601858794689178,-0.0234064348042011,0.0798892378807068,-0.0708499516420146,-0.0304847548730522,0.0438594951176439,4
0.360000610351563,-0.0664181336760521,2.93840479850769,1.14003121852875,-0.0698225328270578,2.93577369517774,1.1860805641102,2323.436,2311.55,2262.062,2316.327,357.495513916016,44.9703559875488,0.950449407100677,-0.0688805878162384,-0.0273453406989574,0.0963645502924919,-0.0787518717320621,-0.0338847303337087,0.0487511600740379,4
0.379989624023438,-0.0679755061864853,2.93777704238892,1.14224827289581,-0.0714784451857985,2.93506120235061,1.1871056527423,2296.341,2295.168,2261.432,2300.285,357.380737304688,44.9686050415039,0.992431402206421,-0.0778686851263046,-0.0313922986388206,0.110852427780628,-0.0869857157641562,-0.0374275233937465,0.0538483017622888,4
0.399993896484375,-0.069719523191452,2.93706512451172,1.14472627639771,-0.0733036822025899,2.9342758538535,1.18823556140379,2268.751,2278.225,2269.902,2283.903,357.2626953125,44.9688491821289,1.03189945220947,-0.0872009918093681,-0.0356004126369953,0.123902387917042,-0.0955525119207663,-0.0411135764513579,0.0591515566763244,4
0.419998168945313,-0.0716574639081955,2.93626523017883,1.14744651317596,-0.0753034649285836,2.93341540321397,1.18947352217404,2250.356,2264.007,2271.325,2268.142,357.153259277344,44.9699668884277,1.06956100463867,-0.0968972221016884,-0.0399919971823692,0.136011406779289,-0.104434660908044,-0.0449353170220673,0.0646500300148815,4
0.44000244140625,-0.0737961158156395,2.93537425994873,1.15039241313934,-0.077483988232608,2.93247718495301,1.19082336997196,2238.807,2251.413,2264.06,2255.898,357.05810546875,44.9710807800293,1.10530877113342,-0.10693272203207,-0.0445502698421478,0.147294014692307,-0.113620829717891,-0.048887868829098,0.0703367061060819,4
0.459991455078125,-0.0761414170265198,2.93438935279846,1.15354824066162,-0.0798493430620752,2.93145943885026,1.19228763728888,2233.064,2241.231,2249.502,2245.719,356.976623535156,44.971736907959,1.13916516304016,-0.11726501584053,-0.0492429956793785,0.157789051532745,-0.123092454730403,-0.0529632444654124,0.0762000931848968,4
0.479995727539063,-0.0786983668804169,2.93330860137939,1.15689647197723,-0.0824088828700873,2.93035814037613,1.19387211435783,2227.934,2232.323,2234.309,2237.285,356.904663085938,44.9720115661621,1.17092442512512,-0.12784768640995,-0.0540371239185333,0.167414546012878,-0.132852887402757,-0.0571628859694044,0.0822422659629699,4
0.5,-0.0814714059233665,2.93213033676147,1.16042101383209,-0.085166398670376,2.92917165836334,1.1955791479969,2223.983,2225.382,2219.85,2228.739,356.837219238281,44.9720611572266,1.2012619972229,-0.138651937246323,-0.0589144006371498,0.176227286458015,-0.142884000065179,-0.0614789935111996,0.0884520025491718,5
0.519989013671875,-0.0844645649194717,2.93085312843323,1.16410458087921,-0.0881248588203387,2.92789871561062,1.19741057576073,2216.219,2217.807,2211.951,2221.773,356.771392822266,44.972354888916,1.22989416122437,-0.149657905101776,-0.0638648793101311,0.184178963303566,-0.153166947611899,-0.0659034585682559,0.0948176369253132,5
0.539993286132813,-0.0876818150281906,2.9294753074646,1.16793262958527,-0.091293865515634,2.92653518056143,1.19937234186584,2207.154,2210.365,2209.047,2215.114,356.707672119141,44.973072052002,1.25647366046906,-0.160862490534782,-0.068891279399395,0.191400870680809,-0.163706645289342,-0.0704383960337938,0.101342211863077,5
0.55999755859375,-0.0911271423101425,2.92799544334412,1.17189502716064,-0.094676112580471,2.92507989413848,1.20146611391775,2201.427,2205.031,2205.082,2207.886,356.647277832031,44.9740028381348,1.28182196617126,-0.172266453504562,-0.0739984214305878,0.198120445013046,-0.17448465888317,-0.0750758741803766,0.108014315705644,5
0.580001831054688,-0.0948042869567871,2.92641186714172,1.17598187923431,-0.0982762614093182,2.92353085067394,1.20369477754168,2195.121,2199.291,2202.695,2202.874,356.591278076172,44.9751358032227,1.30562889575958,-0.183857470750809,-0.0791806504130363,0.204342171549797,-0.185490414529404,-0.0798113433697334,0.11482740272751,5
0.599990844726563,-0.0987168252468109,2.92472314834595,1.18018567562103,-0.102095761416081,2.92188742652551,1.20605922999388,2190.902,2194.735,2199.545,2198.283,356.540466308594,44.9763259887695,1.32791745662689,-0.195626854896545,-0.0844335332512856,0.210188060998917,-0.19670480600515,-0.0846365827279185,0.121769645266545,5
0.6199951171875,-0.102868005633354,2.92292809486389,1.18449938297272,-0.106144683970236,2.92014528826426,1.20856570593183,2186.986,2190.574,2196.938,2194.843,356.495208740234,44.9775543212891,1.34838092327118,-0.207558676600456,-0.0897483080625534,0.215684160590172,-0.208134604141382,-0.0895545055543457,0.128845234789665,5
0.639999389648438,-0.107260845601559,2.92102575302124,1.18891882896423,-0.110424235525481,2.91830391678686,1.21121495220784,2186.854,2188.696,2191.269,2190.893,356.454376220703,44.978588104248,1.36791801452637,-0.2196424305439,-0.0951192826032639,0.220971941947937,-0.219761081350814,-0.0945570538913933,0.136042578028218,5
0.660003662109375,-0.111898019909859,2.91901516914368,1.19343793392181,-0.114938248900541,2.91636166293851,1.21400934151928,2184.401,2185.948,2188.521,2189.027,356.416534423828,44.9796333312988,1.38613927364349,-0.231858655810356,-0.100534975528717,0.22595639526844,-0.231574097577923,-0.0996398647564507,0.143355397804799,5
0.67999267578125,-0.116782054305077,2.91689538955688,1.19805252552032,-0.119686638739014,2.91431856344567,1.21694882102647,2182.467,2183.917,2187.009,2187.061,356.381408691406,44.9807434082031,1.40301430225372,-0.244201794266701,-0.10599359869957,0.230731531977654,-0.243554411173546,-0.104794659005432,0.150771782621969,5
0.699996948242188,-0.121915310621262,2.91466546058655,1.20275890827179,-0.124680083855354,2.91217002351282,1.22004000142426,2179.637,2181.831,2187.675,2185.77,356.349487304688,44.9819717407227,1.41819930076599,-0.256663084030151,-0.11149238049984,0.235320046544075,-0.255710395848158,-0.11002503961202,0.158296916205407,5
0.720001220703125,-0.127300128340721,2.91232490539551,1.20755672454834,-0.129918284978346,2.90991617190799,1.22328269744952,2180.72,2181.944,2185.168,2183.53,356.320648193359,44.983081817627,1.43271493911743,-0.269240647554398,-0.117031991481781,0.239891469478607,-0.268023157655716,-0.11532287703907,0.16591910230247,5
0.739990234375,-0.132938519120216,2.90987277030945,1.21244359016418,-0.135400001298574,2.90755754251682,1.2266761409821,2179.464,2180.791,2185.18,2183.476,356.294311523438,44.9842224121094,1.44608092308044,-0.281918525695801,-0.122603558003902,0.244340881705284,-0.280473432677602,-0.12067988256057,0.173626415629864,5
0.759994506835938,-0.138832345604897,2.90730857849121,1.21741807460785,-0.14113644597991,2.90508931062815,1.2302272735046,2177.879,2179.747,2186.871,2183.532,356.271209716797,44.9854621887207,1.45782423019409,-0.294691115617752,-0.128205254673958,0.248724311590195,-0.293070637251543,-0.126100107763583,0.181424685349205,5
0.779998779296875,-0.14498345553875,2.90463185310364,1.22248208522797,-0.147126184485884,2.90251209348295,1.23393520697061,2180.435,2181.054,2184.76,2182.366,356.250915527344,44.9865036010742,1.46901988983154,-0.307556599378586,-0.13383761048317,0.253202319145203,-0.305795832832518,-0.131575403921268,0.189302187598958,5
0.800003051757813,-0.151393413543701,2.90184211730957,1.22763478755951,-0.153371683173492,2.89982482987671,1.2378014681726,2180.136,2180.906,2185.414,2183.326,356.232666015625,44.9875411987305,1.47918128967285,-0.320497751235962,-0.139490991830826,0.25763788819313,-0.318639638509124,-0.13710173468952,0.197253115148089,5
0.819992065429688,-0.158063665032387,2.89893889427185,1.23287713527679,-0.159870162197751,2.89702871589906,1.2418243362541,2180.613,2181.328,2186.395,2183.872,356.216552734375,44.9885864257813,1.4882560968399,-0.333512485027313,-0.145165473222733,0.262116611003876,-0.33158286215529,-0.142670842232658,0.205265587156312,5
0.839996337890625,-0.16499550640583,2.89592170715332,1.23820960521698,-0.166633637018892,2.89411858163313,1.24601124935738,2179.931,2181.393,2189.099,2184.95,356.203247070313,44.9897003173828,1.49580764770508,-0.346591919660568,-0.150858074426651,0.266623884439468,-0.344636106234817,-0.148287288494656,0.213346167053785,5
0.860000610351563,-0.172190234065056,2.8927903175354,1.24363601207733,-0.173659158941841,2.89109569582005,1.2503603820997,2183.608,2183.791,2187.509,2184.594,356.1923828125,44.9905853271484,1.50303053855896,-0.359735727310181,-0.156570062041283,0.271320998668671,-0.357780475378537,-0.153942943326036,0.221483157706883,5
0.879989624023438,-0.179648756980896,2.88954448699951,1.24915683269501,-0.18094280014554,2.88796174849148,1.25486930297274,2183.974,2184.357,2188.878,2186.459,356.183074951172,44.9914703369141,1.50935554504395,-0.372926324605942,-0.162291571497917,0.276042610406876,-0.370996904517929,-0.159629603560431,0.229664756929996,5
0.899993896484375,-0.187371954321861,2.88618397712708,1.25477349758148,-0.18849723509595,2.8847112861788,1.25954585807468,2183.58,2184.661,2192.141,2188.19,356.176116943359,44.992431640625,1.51416790485382,-0.386160284280777,-0.168022200465202,0.280830651521683,-0.384296738353309,-0.165352150505452,0.237897987633041,5
0.919998168945313,-0.195360720157623,2.88270878791809,1.26049041748047,-0.196318384305134,2.8813460641717,1.26438752200817,2187.626,2187.507,2190.907,2188.117,356.171112060547,44.9931831359863,1.51873338222504,-0.399438887834549,-0.173764586448669,0.285848408937454,-0.397661187980262,-0.171102499820431,0.246171218589148,5
0.94000244140625,-0.203615605831146,2.87911868095398,1.26630866527557,-0.204407453948074,2.87786556348678,1.26939504145298,2188.077,2188.314,2192.772,2190.307,356.167388916016,44.9939346313477,1.52244699001312,-0.412744671106339,-0.179509237408638,0.29091539978981,-0.411081631631503,-0.176876941799768,0.254479112513653,5
0.959991455078125,-0.212137177586555,2.87541341781616,1.27223098278046,-0.212759000778906,2.87427212620069,1.27456504678061,2189.276,2189.617,2194.726,2191.742,356.165191650391,44.9946784973145,1.5252537727356,-0.426077902317047,-0.185257568955421,0.296114534139633,-0.424539267042903,-0.182667386354485,0.262810029909387,5
0.979995727539063,-0.220925778150558,2.87159323692322,1.27825915813446,-0.22138664033507,2.87055989392801,1.27990596665734,2189.002,2190.282,2198.372,2193.617,356.165496826172,44.9955062866211,1.52663016319275,-0.43943002820015,-0.191006943583488,0.301409870386124,-0.438046240701377,-0.188479059778567,0.271171490030365,5
1,-0.229981824755669,2.86765813827515,1.28439855575562,-0.230284798736574,2.86673126495361,1.28541435058594,2193.694,2193.429,2196.707,2193.711,356.167907714844,44.9960632324219,1.52790439128876,-0.452802538871765,-0.196759432554245,0.306971222162247,-0.451584000205995,-0.194303979492187,0.279552008056641,5
1.01998901367188,-0.239305317401886,2.86360812187195,1.29065024852753,-0.239446912293295,2.86278906344998,1.29108613532954,2194.311,2194.339,2198.363,2196.137,356.171325683594,44.9966087341309,1.52841114997864,-0.466175734996796,-0.202504217624664,0.31258562207222,-0.46513400752272,-0.200134169097193,0.287940108062054,5
1.03999328613281,-0.248896270990372,2.85944318771362,1.29701602458954,-0.248887339851819,2.85872711120656,1.2969302096982,2193.901,2194.818,2202.071,2198.21,356.1767578125,44.9972534179688,1.52746200561523,-0.479547530412674,-0.208241522312164,0.318288087844849,-0.478708875293167,-0.205975055460915,0.29634359787259,5
1.05999755859375,-0.258754670619965,2.85516357421875,1.3035010099411,-0.258599401509697,2.85454828239877,1.30294243851408,2198.387,2198.01,2200.572,2198.118,356.183776855469,44.9976577758789,1.5264835357666,-0.492920696735382,-0.213974922895432,0.324251472949982,-0.492290296490434,-0.211818761581115,0.30475114456651,5
1.08000183105469,-0.268880188465118,2.85076975822449,1.31010615825653,-0.268583149539609,2.85025255453512,1.30912285413647,2198.647,2198.765,2202.514,2200.448,356.191650390625,44.9980850219727,1.5247848033905,-0.506276726722717,-0.219694346189499,0.330259025096893,-0.50587040849135,-0.217661904390701,0.313157880805523,5
1.09999084472656,-0.279272526502609,2.84626173973083,1.3168340921402,-0.278830554044452,2.84584338265603,1.31546648567654,2199.724,2199.911,2204.373,2201.878,356.200775146484,44.9985122680664,1.52224624156952,-0.5196173787117,-0.225401878356934,0.336397171020508,-0.519431110871131,-0.223496695782555,0.321552601564445,5
1.1199951171875,-0.289931237697601,2.84163975715637,1.32368636131287,-0.289357002179081,2.84131414609862,1.32198285851614,2199.006,2200.31,2208.072,2203.642,356.212249755859,44.9990463256836,1.51827657222748,-0.532933950424194,-0.231095045804977,0.342613637447357,-0.532985466132485,-0.229328756186667,0.329943393154705,5
1.13999938964844,-0.300855785608292,2.83690428733826,1.33066821098328,-0.300154365346813,2.83666834237095,1.3286669406667,2203.766,2203.444,2205.762,2203.268,356.225616455078,44.9992866516113,1.51440262794495,-0.54622894525528,-0.236776635050774,0.349091023206711,-0.546515580872639,-0.235150386571708,0.338319178707607,5
1.15998840332031,-0.312045454978943,2.83205556869507,1.33777987957001,-0.31121353909136,2.83190988886621,1.33551309603608,2203.915,2203.932,2207.068,2205.502,356.239807128906,44.9995231628418,1.50985729694366,-0.559481680393219,-0.242434740066528,0.355584710836411,-0.560003743914979,-0.240953966313175,0.346668994161124,6
1.17999267578125,-0.323499262332916,2.82709407806396,1.34502243995667,-0.322550701230474,2.8270318247214,1.34253133946411,2202.844,2203.86,2210.617,2207.295,356.255828857422,44.9999008178711,1.50383639335632,-0.572690486907959,-0.248070001602173,0.362127155065536,-0.573463232144024,-0.246745208083563,0.355001058539242,6
1.19999694824219,-0.335216403007507,2.8220202922821,1.35240054130554,-0.334156660511822,2.8220381046756,1.34971598112778,2207.257,2206.811,2208.238,2206.558,356.273376464844,45.0000076293945,1.49794089794159,-0.585859298706055,-0.253686636686325,0.368907749652863,-0.58687652428584,-0.252516572968185,0.36330452533874,6
1.22000122070313,-0.34719580411911,2.81683492660522,1.35991406440735,-0.346030421585499,2.81692915700008,1.35706640485806,2206.82,2206.979,2209.731,2208.504,356.291534423828,45.0001564025879,1.4913911819458,-0.598968327045441,-0.259273737668991,0.375676840543747,-0.600236516861372,-0.258265004538453,0.371574997167698,6
1.239990234375,-0.359436213970184,2.8115382194519,1.36756467819214,-0.358161486344149,2.81170949873715,1.36457611182642,2207.27,2207.545,2211.116,2209.39,356.310760498047,45.0003280639648,1.48405206203461,-0.612020552158356,-0.264833956956863,0.382528752088547,-0.613526094901141,-0.263983138701136,0.379801879044709,6
1.25999450683594,-0.371936351060867,2.80613088607788,1.37535274028778,-0.3705671011502,2.80637170925886,1.37225577835275,2205.717,2207.275,2214.487,2210.609,356.332366943359,45.0006294250488,1.47528052330017,-0.625007331371307,-0.270364820957184,0.389403641223907,-0.626758665639206,-0.269676744214496,0.387993470686331,6
1.27999877929688,-0.384694993495941,2.80061340332031,1.38328278064728,-0.383236695417198,2.80092033679326,1.3800988607405,2210.255,2209.954,2211.155,2209.471,356.355834960938,45.0006217956543,1.46673452854156,-0.637931764125824,-0.275869429111481,0.396501541137695,-0.639917282339435,-0.275338529371412,0.396139281255613,6
1.30000305175781,-0.397710412740707,2.79498672485352,1.39135372638702,-0.396168722856641,2.79535604666509,1.38810440176341,2209.586,2209.75,2211.887,2211.156,356.380004882813,45.0006294250488,1.4575868844986,-0.650772213935852,-0.281335175037384,0.403547644615173,-0.652995275331231,-0.280965624398954,0.404235181908735,6
1.31999206542969,-0.410981059074402,2.78925132751465,1.39956641197205,-0.409351342777246,2.78968393359302,1.39626507146953,2209.744,2209.947,2212.652,2211.698,356.405120849609,45.0006675720215,1.44769024848938,-0.663531422615051,-0.286764234304428,0.410637438297272,-0.665976209205206,-0.286550957599616,0.412270998344359,6
1.33999633789063,-0.424505054950714,2.78340816497803,1.40792047977448,-0.422802873722428,2.78389611561957,1.40459220990988,2207.632,2209.199,2215.751,2212.602,356.432464599609,45.0008544921875,1.4363306760788,-0.676201045513153,-0.292154461145401,0.417706370353699,-0.678873453515705,-0.29210028151913,0.420255006953505,6
1.36000061035156,-0.438280791044235,2.77745795249939,1.41641986370087,-0.436511415158101,2.77799771321212,1.41307845008695,2211.885,2211.58,2211.952,2210.935,356.461486816406,45.0007362365723,1.42526566982269,-0.688785135746002,-0.297509580850601,0.424967765808105,-0.691670720740693,-0.297606588091785,0.42817712498415,6
1.37998962402344,-0.452306002378464,2.77140164375305,1.4250625371933,-0.450464156928423,2.77199423822282,1.42171586190405,2210.643,2210.894,2212.471,2212.283,356.491088867188,45.0006713867188,1.41360425949097,-0.701262354850769,-0.302817106246948,0.432135909795761,-0.704352136620515,-0.303063047067127,0.436027525513373,6
1.39999389648438,-0.466578662395477,2.76524019241333,1.43384766578674,-0.464680216184654,2.76587746507559,1.43051627978847,2208.174,2209.587,2215.385,2213.111,356.522583007813,45.0007743835449,1.40042734146118,-0.713632583618164,-0.308078229427338,0.439255744218826,-0.716930938559026,-0.308475354130225,0.443814403124744,6
1.41999816894531,-0.481096684932709,2.75897431373596,1.44277846813202,-0.47914673136562,2.75965292774086,1.43947174182117,2212.046,2211.701,2211.464,2211.06,356.555572509766,45.000602722168,1.38754093647003,-0.725900232791901,-0.313297539949417,0.446540981531143,-0.729391385793766,-0.313836736470737,0.451528013536465,6
1.44000244140625,-0.495857566595078,2.75260496139526,1.45185256004333,-0.493861275572861,2.75332167044526,1.4485807456364,2210.307,2210.725,2211.991,2212.058,356.589050292969,45.0005035400391,1.37408137321472,-0.738044917583466,-0.318463265895844,0.453704833984375,-0.741727567798258,-0.319144650954242,0.459164697851088,6
1.45999145507813,-0.510858952999115,2.74613332748413,1.46106970310211,-0.508809800712713,2.74688973769103,1.45783459479497,2209.645,2210.232,2212.376,2211.831,356.623565673828,45.0004463195801,1.35993671417236,-0.750070571899414,-0.323578387498856,0.460857212543488,-0.753924423002454,-0.324392617007921,0.466715132239272,6
1.47999572753906,-0.526098310947418,2.73956060409546,1.47042834758759,-0.524012471663969,2.74034845309416,1.46724577231745,2206.761,2208.682,2214.961,2212.164,356.660522460938,45.0005531311035,1.34429538249969,-0.761969089508057,-0.32864037156105,0.467932611703873,-0.765994882555672,-0.329586198544069,0.474187321698441,6
1.5,-0.541573166847229,2.73288750648499,1.47993147373199,-0.539455198877605,2.73370387899399,1.4768055561018,2210.815,2210.563,2210.043,2209.697,356.699340820313,45.0003280639648,1.32904362678528,-0.773743689060211,-0.333652406930923,0.475156247615814,-0.777924000354858,-0.334718964672088,0.481572013878822,6
1.51998901367188,-0.557280659675598,2.72611546516418,1.48957586288452,-0.555123050061237,2.72696244033876,1.48650470234772,2208.867,2209.25,2209.836,2210.465,356.738677978516,45.0001564025879,1.31327021121979,-0.785372734069824,-0.338601231575012,0.482218652963638,-0.789697369743256,-0.339784716610053,0.488860290373601,6
1.53999328613281,-0.573217749595642,2.71924567222595,1.49935925006866,-0.571036956668503,2.72011513090874,1.49635616862212,2205.606,2207.181,2212.265,2210.792,356.779876708984,45.000171661377,1.29594302177429,-0.796856760978699,-0.343488276004791,0.489170581102371,-0.801327600455846,-0.344788879974649,0.496059957209413,6
1.55999755859375,-0.589381754398346,2.71227931976318,1.5092841386795,-0.587181951496087,2.71316839067337,1.50635068951315,2209.177,2208.864,2207.471,2207.908,356.822418212891,44.9999084472656,1.27903985977173,-0.808200240135193,-0.348318189382553,0.496242523193359,-0.812800388649436,-0.349725300221754,0.503162159625937,6
1.58000183105469,-0.605769395828247,2.70521783828735,1.51934671401978,-0.60355483331529,2.70612359703193,1.51648628330776,2206.676,2207.178,2207.509,2208.449,356.865325927734,44.9997291564941,1.26158916950226,-0.819383800029755,-0.353079468011856,0.503130197525024,-0.824110582941666,-0.354591760855452,0.510163708672098,6
1.59999084472656,-0.622377634048462,2.69806241989136,1.52954578399658,-0.620139554045575,2.69898765502515,1.52675301547962,2205.388,2206.069,2207.414,2207.643,356.909149169922,44.9996109008789,1.24346351623535,-0.830412149429321,-0.357775330543518,0.509954750537872,-0.835244706287931,-0.359382463079953,0.517056261415284,5
1.6199951171875,-0.639203250408173,2.69081425666809,1.53987872600555,-0.636958033083316,2.69175113334911,1.53716445517924,2201.712,2203.918,2209.706,2207.432,356.955505371094,44.999683380127,1.22382616996765,-0.841277658939362,-0.36240366101265,0.516648054122925,-0.846214826007804,-0.364102599125749,0.523847288101157,5
1.63999938964844,-0.656242907047272,2.68347501754761,1.55034780502319,-0.653994195024907,2.68442094880091,1.54771065096602,2205.523,2205.419,2204.044,2204.203,357.003692626953,44.9994125366211,1.20472681522369,-0.851983249187469,-0.366967558860779,0.523452341556549,-0.857007552155828,-0.368746407673381,0.530528499715628,5
1.65998840332031,-0.673493087291718,2.6760458946228,1.56094872951508,-0.67123120513297,2.67700434489773,1.55838118133557,2203.053,2203.466,2203.241,2204.622,357.052307128906,44.9991836547852,1.18513178825378,-0.862508654594421,-0.371453821659088,0.530044674873352,-0.867610144209785,-0.373308406832068,0.537092009268528,5
1.67999267578125,-0.690950155258179,2.66852855682373,1.57167816162109,-0.688691692550512,2.66949158495151,1.56919005480539,2199.077,2200.887,2205.367,2204.46,357.102783203125,44.9991912841797,1.16399872303009,-0.872854471206665,-0.37586385011673,0.536474466323853,-0.878034183119987,-0.377793579561193,0.543544985919778,5
1.69999694824219,-0.708610594272614,2.66092443466187,1.58253800868988,-0.706358800111611,2.66188992212981,1.58012683598675,2202.48,2202.16,2199.869,2200.964,357.154510498047,44.9988784790039,1.14339351654053,-0.883025109767914,-0.380202203989029,0.542990863323212,-0.888267004546665,-0.382196476749158,0.549879589839776,5
1.72000122070313,-0.726470708847046,2.65323519706726,1.59352350234985,-0.724228658537036,2.6542010212754,1.5911891296115,2199.399,2199.987,2199.5,2201.115,357.206451416016,44.9986801147461,1.1223007440567,-0.89300274848938,-0.384457767009735,0.549274086952209,-0.898304216251578,-0.386515208538549,0.556093102023817,5
1.739990234375,-0.744526565074921,2.64546251296997,1.60463261604309,-0.74228345468553,2.64643254688532,1.60236590849663,2197.612,2198.387,2199.067,2199.889,357.259216308594,44.9985542297363,1.10056328773499,-0.902792274951935,-0.388634115457535,0.555453181266785,-0.908134108040217,-0.390744736359816,0.562178273303667,5
1.75999450683594,-0.762774229049683,2.63760781288147,1.6158618927002,-0.760546715064628,2.63857437616062,1.61367173667103,2193.393,2195.791,2201.069,2199.285,357.314453125,44.9986343383789,1.07732462882996,-0.912387073040009,-0.39272940158844,0.561461985111237,-0.917767514700581,-0.394889722119545,0.568141810929231,4
1.77999877929688,-0.781210064888,2.62967300415039,1.62721300125122,-0.779000609654483,2.63063418086074,1.62509557650306,2197.124,2196.997,2194.765,2195.491,357.371459960938,44.9983406066895,1.05474603176117,-0.921789348125458,-0.396746307611465,0.567553997039795,-0.927192788821983,-0.398945154262308,0.57397650459845,4
1.80000305175781,-0.799829661846161,2.62165951728821,1.63868081569672,-0.797640935141499,2.62261376955408,1.63663482594136,2194.127,2194.573,2193.66,2195.665,357.428741455078,44.9981079101563,1.03169882297516,-0.930980801582336,-0.400672227144241,0.573391020298004,-0.936405971974637,-0.402909329586356,0.579679903854719,4
1.81999206542969,-0.81862884759903,2.61356925964355,1.6502628326416,-0.816448984455027,2.61452119137054,1.64827790441807,2192.283,2192.902,2192.744,2194.224,357.486633300781,44.9979591369629,1.0080840587616,-0.939965784549713,-0.404510289430618,0.579099237918854,-0.945396434568188,-0.406777674475912,0.585245428475252,3
1.83999633789063,-0.837603747844696,2.60540413856506,1.66195499897003,-0.835449117627072,2.60634596486888,1.66003989195343,2187.74,2190.074,2194.651,2193.519,357.546722412109,44.9980278015137,0.982988476753235,-0.948738574981689,-0.408259242773056,0.584610998630524,-0.954174163352093,-0.410554485950274,0.590679260733698,3
1.86000061035156,-0.856749713420868,2.59716558456421,1.67375874519348,-0.854622615239374,2.59809614449182,1.6719092003358,2191.303,2191.04,2188.281,2189.536,357.608306884766,44.9977340698242,0.958550870418549,-0.957301676273346,-0.41192215681076,0.5901899933815,-0.962728579444532,-0.414235212212131,0.595974851798267,0
1.87998962402344,-0.876062452793121,2.5888557434082,1.68566870689392,-0.873950157556149,2.58978004298193,1.6838738697284,2187.974,2188.588,2187.23,2189.395,357.670013427734,44.9975395202637,0.93376487493515,-0.965638935565948,-0.415487706661224,0.595496654510498,-0.971049893464309,-0.417815641164241,0.601126141575667,0
1.89999389648438,-0.895537614822388,2.58047652244568,1.69768059253693,-0.893456683142228,2.58138692997148,1.69594933829086,2183.244,2185.306,2189.149,2188.89,357.733459472656,44.9975814819336,0.907438457012177,-0.973752200603485,-0.418957740068436,0.600593447685242,-0.979147395688901,-0.421299770153459,0.606138881190213,0
1.91999816894531,-0.91517049074173,2.57202982902527,1.7097954750061,-0.913122862707269,2.57292512231409,1.70812364027167,2186.57,2186.202,2182.947,2184.665,357.798034667969,44.9972953796387,0.881782174110413,-0.981644093990326,-0.422336399555206,0.605744779109955,-0.987011339258123,-0.424683405378145,0.611007036871143,0
1.94000244140625,-0.934956431388855,2.56351757049561,1.72200775146484,-0.932943991899774,2.5643966441608,1.72039386345315,2182.944,2183.581,2182.098,2184.446,357.862640380859,44.9971160888672,0.85575270652771,-0.989300668239594,-0.425613671541214,0.610614717006683,-0.994638524886308,-0.427965170275055,0.615728628108227,0
1.95999145507813,-0.95489102602005,2.55494165420532,1.7343145608902,-0.952900013794853,2.55581012544606,1.73274759164336,2180.747,2181.558,2181.224,2182.784,357.927825927734,44.9970207214355,0.829196870326996,-0.99672657251358,-0.428792834281921,0.615339636802673,-1.00202031904361,-0.431141350077486,0.620298310335216,0
1.97999572753906,-0.974969327449799,2.54630422592163,1.74671161174774,-0.973016570682103,2.54715453300902,1.74520069864106,2175.887,2178.481,2183.021,2181.899,357.995361328125,44.9971389770508,0.801173985004425,-1.00391697883606,-0.431872844696045,0.619851112365723,-1.00916501115878,-0.434215511495054,0.624721215103391,0
2,-0.995186746120453,2.53760719299316,1.75919997692108,-0.993273599084619,2.53843849960327,1.7577407641983,2179.686,2179.374,2176.074,2177.515,358.064361572266,44.9968681335449,0.773959338665009,-1.01087236404419,-0.434855818748474,0.624420940876007,-1.01606400046349,-0.437183953857422,0.628992018127441,0
2.01998901367188,-1.01553821563721,2.52885246276855,1.77177381515503,-1.01365055070775,2.52967086658596,1.77035506794184,2176.149,2176.638,2174.687,2177.385,358.133361816406,44.9966697692871,0.746423065662384,-1.01757895946503,-0.437730938196182,0.628692984580994,-1.02270954399163,-0.440043345582587,0.633105926142498,0
2.03999328613281,-1.03601896762848,2.52004241943359,1.78442847728729,-1.03417354141348,2.52084039703127,1.78305977683431,2171.153,2173.271,2176.445,2176.663,358.203887939453,44.9967422485352,0.717430412769318,-1.02403903007507,-0.440500289201736,0.632733166217804,-1.02910913225408,-0.442796909628122,0.637067576131623,0
2.05999755859375,-1.05662405490875,2.51117897033691,1.7971647977829,-1.05482201812353,2.5119559343546,1.79584216754118,2174.513,2173.977,2169.986,2172.191,358.275268554688,44.9964599609375,0.689211487770081,-1.03025412559509,-0.443167388439178,0.636813640594482,-1.03525504859546,-0.445441325732794,0.640872191117535,0
2.08000183105469,-1.07734835147858,2.50226449966431,1.80997657775879,-1.07559088172821,2.50301967256038,1.80869908347065,2170.547,2171.167,2169.128,2171.891,358.346405029297,44.9963035583496,0.660680174827576,-1.03621363639832,-0.445723950862885,0.640591263771057,-1.04114485287423,-0.447975543971863,0.644518260536375,0
2.09999084472656,-1.09818696975708,2.49330115318298,1.82286083698273,-1.09645901288412,2.49404069871208,1.82161745074311,2168.203,2168.977,2168.173,2170.081,358.417938232422,44.9962348937988,0.631675124168396,-1.04192245006561,-0.448173373937607,0.644211530685425,-1.04677201701582,-0.450396755497224,0.648001743199023,0
2.1199951171875,-1.11913442611694,2.48429083824158,1.83581292629242,-1.11745308225396,2.48500753716864,1.83461377976925,2163.125,2165.769,2169.896,2169.114,358.49169921875,44.996395111084,0.601235508918762,-1.0473769903183,-0.450515121221542,0.647604882717133,-1.0521429102862,-0.45270770082608,0.651326581984514,0
2.13999938964844,-1.14018607139587,2.47523593902588,1.84883379936218,-1.138551967509,2.47592927627801,1.8476749948214,2166.983,2166.625,2162.777,2164.421,358.566741943359,44.9961357116699,0.571748197078705,-1.0525758266449,-0.452750593423843,0.651046454906464,-1.05725102347782,-0.454905579228273,0.654488747383304,0
2.15998840332031,-1.16133630275726,2.4661386013031,1.86191737651825,-1.15973418543027,2.46681515966915,1.86078779676364,2163.277,2163.693,2161.287,2164.326,358.641571044922,44.9959678649902,0.541987717151642,-1.05750918388367,-0.454870492219925,0.654176712036133,-1.06209075728,-0.456987981476842,0.657484773155346,0
2.17999267578125,-1.18257975578308,2.45700097084045,1.87505865097046,-1.18102676265167,2.45765355853653,1.8739689163698,2158.14,2160.245,2162.948,2163.541,358.717803955078,44.9960517883301,0.510813176631927,-1.0621794462204,-0.456877052783966,0.657064199447632,-1.06666760390386,-0.458957270716794,0.660318059240953,0
2.19999694824219,-1.20391154289246,2.44782543182373,1.88825833797455,-1.20240821395574,2.44845371736898,1.88720505326679,2161.567,2160.95,2156.365,2158.786,358.794616699219,44.9958000183105,0.480570942163467,-1.06658637523651,-0.458773195743561,0.659982740879059,-1.07097597819164,-0.460811043810786,0.662985148161421,0
2.22000122070313,-1.22532606124878,2.43861436843872,1.90151011943817,-1.22387315175433,2.43921795429519,1.90049287228091,2157.427,2157.964,2155.472,2158.562,358.870971679688,44.9956703186035,0.450071305036545,-1.07072353363037,-0.460552036762238,0.662586987018585,-1.07501419914593,-0.462548577472581,0.665484999299265,0
2.239990234375,-1.24681782722473,2.42936992645264,1.91481065750122,-1.24539969505118,2.42995568409656,1.91381882803312,2155.011,2155.723,2154.476,2156.653,358.947540283203,44.9956359863281,0.4191734790802,-1.07459509372711,-0.462216913700104,0.665025651454926,-1.07877792518082,-0.464168003639063,0.667814925005999,0
2.25999450683594,-1.26838195323944,2.42009449005127,1.9281553030014,-1.26701526177039,2.4206551096063,1.92719989352455,2149.843,2152.548,2156.124,2155.593,359.026123046875,44.9958343505859,0.386970788240433,-1.07819890975952,-0.463768035173416,0.667230665683746,-1.08227143928024,-0.465671165158559,0.669977576652695,0
2.27999877929688,-1.29001259803772,2.41079044342041,1.94154477119446,-1.28869796983554,2.41132564607061,1.9406225227075,2153.72,2153.158,2149.008,2150.92,359.105773925781,44.9955978393555,0.35573136806488,-1.08153200149536,-0.465205699205399,0.669474899768829,-1.08549040888332,-0.467056197851165,0.67197027217779,0
2.30000305175781,-1.31170427799225,2.40145993232727,1.95497286319733,-1.31044231452835,2.40196966201596,1.95408330789913,2149.999,2150.322,2147.409,2150.696,359.184997558594,44.9954452514648,0.324330538511276,-1.08458852767944,-0.466522753238678,0.671404242515564,-1.08843358680109,-0.468322565086307,0.673792239511894,0
2.31999206542969,-1.33345174789429,2.39210557937622,1.96843588352203,-1.33222611841886,2.3925966997709,1.96756852021384,2147.658,2148.122,2146.12,2148.824,359.264129638672,44.9953842163086,0.292629331350327,-1.08737206459045,-0.46772164106369,0.673153698444366,-1.09109790637238,-0.469468947365361,0.675441580245663,0
2.33999633789063,-1.35524952411652,2.38272953033447,1.981929063797,-1.35407709248145,2.38319483607731,1.98109531406483,2142.389,2144.819,2147.78,2147.917,359.344879150391,44.9955673217773,0.259602218866348,-1.08988165855408,-0.468803405761719,0.674659311771393,-1.09348640563071,-0.470496651869278,0.67692017506657,0
2.36000061035156,-1.37709164619446,2.37333393096924,1.99545300006866,-1.37597305876702,2.37377361348711,1.99464996024512,2146.168,2145.496,2140.872,2143.051,359.426330566406,44.9953384399414,0.22762405872345,-1.09211397171021,-0.469768851995468,0.676197707653046,-1.09559602313537,-0.471404361345641,0.678226128796969,0
2.37998962402344,-1.39897310733795,2.36392188072205,2.0090012550354,-1.39789168475144,2.36434264106153,2.00821863385843,2142.244,2142.68,2139.529,2142.776,359.507202148438,44.9952125549316,0.195603147149086,-1.09406626224518,-0.470612108707428,0.677418768405914,-1.09742465646102,-0.47219117117957,0.679358139935436,0
2.39999389648438,-1.42088782787323,2.35449528694153,2.02256917953491,-1.41986083522252,2.35488992936084,2.02181858453579,2136.985,2138.99,2141.224,2142.227,359.589172363281,44.9953727722168,0.162197604775429,-1.09574139118195,-0.471335470676422,0.678393065929413,-1.09897439291323,-0.472857979480329,0.680317500623536,0
2.41999816894531,-1.44283068180084,2.3450562953949,2.03615713119507,-1.44185817738692,2.34542508756209,2.03543598721428,2140.553,2139.707,2134.665,2137.218,359.671447753906,44.9951515197754,0.129857271909714,-1.09713590145111,-0.471940755844116,0.679392337799072,-1.10024313330221,-0.473403883025206,0.681102911362803,0
2.44000244140625,-1.46479570865631,2.33560800552368,2.04975867271423,-1.46387808506052,2.33595053645515,2.04906735901791,2136.309,2136.806,2133.761,2136.986,359.753021240234,44.9950714111328,0.0974390208721161,-1.09824967384338,-0.472423613071442,0.680072546005249,-1.10123038958312,-0.473828671822132,0.681714070030222,0
2.45999145507813,-1.48677742481232,2.32615232467651,2.0633704662323,-1.48589810917879,2.32647593524532,2.06269880290633,2134.041,2134.483,2132.619,2135.156,359.834442138672,44.9950675964355,0.0647333264350891,-1.09908580780029,-0.472786724567413,0.680585622787476,-1.10193535162022,-0.474131997292339,0.68215047511319,0
2.47999572753906,-1.50877022743225,2.31669163703918,2.07698774337769,-1.50794623031618,2.31698924467309,2.07634764018804,2128.819,2131.41,2134.202,2134.142,359.917541503906,44.995288848877,0.0308599192649126,-1.09964418411255,-0.473031252622604,0.680859088897705,-1.10235882472314,-0.474314205938057,0.682412625136718,0
2.5,-1.53076863288879,2.30722856521606,2.09061098098755,-1.52999999932945,2.30750012397766,2.08999997377396,2132.828,2132.005,2127.191,2129.317,0.00125988270156085,44.9950790405273,-0.00186574331019074,-1.09991896152496,-0.473156422376633,0.681164622306824,-1.10250000050292,-0.474374949932098,0.682500019669533,0
2.51998901367188,-1.55276679992676,2.29776549339294,2.10423398017883,-1.5520369476803,2.29801824074336,2.10364189456856,2129.001,2129.137,2125.702,2129.247,0.0841746926307678,44.9949722290039,359.965362548828,-1.09991133213043,-0.473157912492752,0.681152999401093,-1.10235904000526,-0.474314298567936,0.682412758406603,0
2.53999328613281,-1.57475936412811,2.28830456733704,2.11785173416138,-1.57408507527774,2.28853154739156,2.11729073584934,2123.832,2125.768,2127.273,2128.537,0.167915165424347,44.9951324462891,359.931396484375,-1.09962403774261,-0.473038166761398,0.68089371919632,-1.10193578218388,-0.474132182551855,0.682150741652607,0
2.55999755859375,-1.59674024581909,2.27884888648987,2.13146471977234,-1.59612191359838,2.27904971150017,2.13093258853001,2127.336,2126.285,2120.97,2123.684,0.251629620790482,44.9949264526367,359.898559570313,-1.09905207157135,-0.472797989845276,0.680650770664215,-1.10123038958312,-0.473828671822132,0.681714070030222,0
2.58000183105469,-1.61870431900024,2.26940011978149,2.14506673812866,-1.61814182127198,2.26957516039323,2.14456396033363,2123.306,2123.444,2119.953,2123.502,0.334316790103912,44.9948616027832,359.865692138672,-1.09819960594177,-0.472435355186462,0.68009889125824,-1.10024313330221,-0.473403883025206,0.681102911362804,0
2.59999084472656,-1.64064574241638,2.25996112823486,2.15865421295166,-1.64012239440973,2.26011753383818,2.15817098218581,2120.781,2121.286,2119.131,2121.629,0.416641503572464,44.9948844909668,359.832672119141,-1.09706914424896,-0.471952795982361,0.679370820522308,-1.09897546783438,-0.47285844198887,0.680318166050934,0
2.6199951171875,-1.66255879402161,2.25053405761719,2.17222261428833,-1.66209156852628,2.2506648119635,2.17177094750084,2115.784,2118.217,2120.619,2120.744,0.500440657138824,44.9951324462891,359.798583984375,-1.0956619977951,-0.471351981163025,0.678415417671204,-1.09742594550583,-0.472191725819537,0.679358937915576,0
2.63999938964844,-1.68443834781647,2.24112153053284,2.18577241897583,-1.68402693989188,2.24122663446822,2.18534998730279,2119.823,2118.811,2113.79,2115.929,0.584590792655945,44.9949493408203,359.765686035156,-1.09397053718567,-0.470631271600723,0.67748749256134,-1.09559602313537,-0.471404361345641,0.67822612879697,0
2.65998840332031,-1.7062783241272,2.23172569274902,2.1992974281311,-1.70590622088595,2.23181259109281,2.19889430449282,2116.033,2116.005,2112.365,2115.968,0.667753994464874,44.9948577880859,359.732849121094,-1.09200024604797,-0.469788253307343,0.676247954368591,-1.09348812118877,-0.470497390025984,0.676921237078733,0
2.67999267578125,-1.72807335853577,2.22234916687012,2.21279287338257,-1.72775723139253,2.2224107117184,2.21242112090437,2111.015,2112.843,2113.868,2115.252,0.751513361930847,44.9950294494629,359.698974609375,-1.08975350856781,-0.468825370073318,0.674767076969147,-1.09109983431736,-0.469469776906228,0.675442773735451,0
2.69999694824219,-1.74981784820557,2.21299433708191,2.22625875473022,-1.74955768413056,2.21303058593937,2.22591663964878,2114.603,2113.256,2107.722,2110.536,0.834949195384979,44.9948425292969,359.666229248047,-1.08722388744354,-0.467742532491684,0.673300266265869,-1.08843358680109,-0.468322565086308,0.673792239511893,0
2.72000122070313,-1.7715060710907,2.20366358757019,2.23968935012817,-1.77130202882336,2.20367460188472,2.23937742484041,2110.516,2110.578,2106.882,2110.396,0.917156755924225,44.9947929382324,359.633605957031,-1.08441948890686,-0.466539651155472,0.671528220176697,-1.08549040888332,-0.467056197851165,0.671970272177789,0
2.739990234375,-1.793133020401,2.19435930252075,2.25308108329773,-1.79296822271738,2.1943522439355,2.25278983096475,2108.261,2108.492,2105.987,2108.595,0.998760104179382,44.9948387145996,359.600891113281,-1.08134198188782,-0.465218931436539,0.669590353965759,-1.08227399942825,-0.465672266718727,0.669979161506271,0
2.75999450683594,-1.81469285488129,2.18508362770081,2.26642966270447,-1.81458384274179,2.18505164650952,2.26617092945464,2103.308,2105.564,2107.505,2107.833,1.08154451847076,44.9950942993164,359.567260742188,-1.07799434661865,-0.463782548904419,0.667427361011505,-1.07878069424208,-0.464169195088763,0.667816639186824,0
2.77999877929688,-1.83618021011353,2.17583894729614,2.27973556518555,-1.83612684690458,2.17578229366013,2.27950707526701,2107.317,2106.109,2101.008,2103.122,1.16440999507904,44.994930267334,359.534851074219,-1.07436728477478,-0.462228268384933,0.66528981924057,-1.07501419914593,-0.462548577472581,0.665484999299265,0
2.79998779296875,-1.85758972167969,2.16662788391113,2.29299259185791,-1.85757544288233,2.1665535620153,2.29278477791556,2103.677,2103.538,2099.635,2103.131,1.2461029291153,44.9948577880859,359.502655029297,-1.07047009468079,-0.460555672645569,0.662853419780731,-1.07097916161324,-0.460812413548163,0.662987118851036,0
2.81999206542969,-1.87891554832458,2.15745258331299,2.30619621276855,-1.87895695992541,2.1573536925621,2.30602095550813,2098.882,2100.414,2101.049,2102.642,1.32812976837158,44.9950408935547,359.469482421875,-1.06630539894104,-0.45876681804657,0.660184979438782,-1.06667099276523,-0.458958728849171,0.660320157107579,0
2.83999633789063,-1.90015292167664,2.14831519126892,2.31934666633606,-1.90024960698239,2.14819206138118,2.31920211834584,2102.456,2100.907,2095.192,2097.96,1.40953493118286,44.9948654174805,359.437561035156,-1.06186509132385,-0.456861108541489,0.657527685165405,-1.06209435025759,-0.456989527434725,0.657486997379635,0
2.86000061035156,-1.92129611968994,2.13921856880188,2.33243823051453,-1.9214480311499,2.13907097167731,2.33232495272651,2098.419,2098.346,2094.514,2097.941,1.48952269554138,44.9948501586914,359.405853271484,-1.05716109275818,-0.454840183258057,0.654575526714325,-1.05725102347782,-0.454905579228273,0.654488747383304,0
2.87998962402344,-1.94233989715576,2.13016438484192,2.34546756744385,-1.94253086194772,2.12999961857111,2.34537622930486,2096.387,2096.318,2093.637,2096.287,1.56868994235992,44.9949035644531,359.374114990234,-1.05219447612762,-0.452705860137939,0.651468276977539,-1.05214690704168,-0.452709420518306,0.651329056166547,0
2.89999389648438,-1.96327924728394,2.12115526199341,2.3584303855896,-1.96352501326936,2.1209664217661,2.35837260906308,2091.663,2093.743,2095.073,2095.48,1.64872872829437,44.9951667785645,359.341644287109,-1.04696917533875,-0.450460880994797,0.648145794868469,-1.04677621342161,-0.450398561093403,0.648004340974112,0
2.91999816894531,-1.98410880565643,2.11219310760498,2.37132740020752,-1.98440911693069,2.11198057539494,2.37130086407726,2095.585,2094.077,2088.968,2091.125,1.72853803634644,44.9950256347656,359.310455322266,-1.04147529602051,-0.448102295398712,0.644845306873322,-1.04114485287423,-0.447975543971863,0.644518260536375,0
2.94000244140625,-2.0048234462738,2.10328054428101,2.38415265083313,-2.00517798053537,2.10304431360073,2.38415778000673,2092.085,2091.763,2087.73,2091.121,1.80697655677795,44.9949760437012,359.279510498047,-1.03572535514832,-0.445631623268127,0.641261100769043,-1.03525504859546,-0.445441325732794,0.640872191117535,0
2.95999145507813,-2.02541780471802,2.09441924095154,2.3969030380249,-2.02581075424974,2.0941666074844,2.39693044981124,2090.223,2089.827,2086.655,2089.623,1.88432025909424,44.9949951171875,359.248657226563,-1.02972006797791,-0.44305008649826,0.637517035007477,-1.02911391720548,-0.442798968459032,0.637070538244476,0
2.97999572753906,-2.0458869934082,2.08561229705811,2.40957427024841,-2.04633384260397,2.08533609591429,2.40963521915279,2085.667,2087.402,2088.016,2088.854,1.96210360527039,44.995231628418,359.217193603516,-1.02346444129944,-0.440361022949219,0.633560061454773,-1.02271452148052,-0.440045487257004,0.633109007445237,0
3,-2.0662260055542,2.07686114311218,2.42216658592224,-2.06672639957428,2.07656174835205,2.42225918334961,2089.431,2087.615,2082.279,2084.706,2.03926110267639,44.9950942993164,359.186950683594,-1.01694869995117,-0.437561720609665,0.629620254039764,-1.01606400046349,-0.437183953857422,0.628992018127441,0
3.01998901367188,-2.08642959594727,2.06816816329956,2.43467473983765,-2.0869680292999,2.06785234056679,2.43478971639231,2085.862,2085.449,2081.347,2084.683,2.11484599113464,44.995059967041,359.157043457031,-1.01018750667572,-0.434655129909515,0.625405311584473,-1.00917036754089,-0.434217816196637,0.624724530959079,0
3.03999328613281,-2.1064932346344,2.05953550338745,2.44709444046021,-2.10708469520508,2.05919670122237,2.4472428908773,2081.511,2082.742,2082.743,2084.229,2.19036293029785,44.9952697753906,359.126525878906,-1.00318336486816,-0.431643396615982,0.620985388755798,-1.00202586176059,-0.431143734953757,0.620301741541063,0
3.05999755859375,-2.12641191482544,2.05096483230591,2.4594259262085,-2.12705600675913,2.05060360379452,2.45960608409476,2084.843,2083.022,2077.628,2080.088,2.26495313644409,44.9951515197754,359.097229003906,-0.995927512645721,-0.428524971008301,0.61657440662384,-0.994638524886308,-0.427965170275055,0.615728628108227,0
3.08000183105469,-2.14618062973022,2.0424587726593,2.47166395187378,-2.14687713595163,2.04207512564123,2.47187630727625,2081.282,2080.917,2076.981,2080.045,2.33793663978577,44.9951553344727,359.068328857422,-0.988435566425323,-0.425303637981415,0.611903011798859,-0.987011339258122,-0.424683405378145,0.611007036871143,0
3.09999084472656,-2.16579484939575,2.03401923179626,2.48380589485168,-2.16652837486666,2.03361974652815,2.48404136028297,2079.579,2079.139,2076.157,2078.638,2.40977907180786,44.9952201843262,359.039611816406,-0.980707883834839,-0.421980410814285,0.60709285736084,-0.979153483542501,-0.421302389586788,0.606142649861596,0
3.1199951171875,-2.18524956703186,2.02564811706543,2.49584770202637,-2.18603502400946,2.02522658035469,2.49611690533293,2075.47,2076.855,2077.346,2078.09,2.48192834854126,44.9954795837402,359.010375976563,-0.972750186920166,-0.418558567762375,0.602092385292053,-0.971056158224178,-0.417818336715394,0.601130019760458,0
3.13999938964844,-2.20454049110413,2.01734733581543,2.50778985023499,-2.20537738341953,2.01690410346351,2.50809074721212,2079.119,2077.271,2072.003,2074.054,2.55329012870789,44.995361328125,358.982513427734,-0.964552044868469,-0.415035039186478,0.597108006477356,-0.962728579444533,-0.414235212212131,0.595974851798267,0
3.15998840332031,-2.22366333007813,2.00911903381348,2.51962733268738,-2.22453632143911,2.00866054767245,2.51995104251302,2075.952,2075.213,2071.029,2074.233,2.62291765213013,44.9953384399414,358.955078125,-0.956130266189575,-0.411413490772247,0.591872453689575,-0.954180774018563,-0.410557330335374,0.590683353051152,0
3.17999267578125,-2.24261283874512,2.0009651184082,2.53135633468628,-2.24353658854737,2.00048526354177,2.53171311296128,2071.952,2072.731,2072.315,2073.957,2.692143201828,44.9955368041992,358.927124023438,-0.947487831115723,-0.407696098089218,0.586446821689606,-0.945403214201559,-0.406780591562751,0.585249625391267,0
3.19999694824219,-2.26138544082642,1.99288725852966,2.54297685623169,-2.2623590635174,1.99238647840124,2.54336512160655,2075.212,2073.142,2067.613,2069.983,2.76008868217468,44.9954376220703,358.900482177734,-0.938615441322327,-0.403881251811981,0.581031322479248,-0.936405971974636,-0.402909329586355,0.579679903854719,0
3.22000122070313,-2.27997589111328,1.98488783836365,2.55448436737061,-2.28099938900442,1.98436606709459,2.55490437104486,2071.844,2071.147,2067.166,2070.158,2.82617592811584,44.9954566955566,358.874267578125,-0.929531276226044,-0.399973928928375,0.575375854969025,-0.927192788821982,-0.398945154262308,0.573976504598449,0
3.239990234375,-2.29838085174561,1.97696828842163,2.56587624549866,-2.2994392795179,1.97643189735754,2.5663195416865,2070.391,2069.643,2066.458,2068.812,2.89084601402283,44.9955406188965,358.848419189453,-0.920235455036163,-0.395975232124329,0.56959867477417,-0.917774783907129,-0.394892849856044,0.568146310914365,0
3.25999450683594,-2.31659555435181,1.96913075447083,2.57714915275574,-2.31770268688992,1.96857366338589,2.57762546085652,2066.556,2067.594,2067.69,2068.434,2.95548009872437,44.9958000183105,358.822235107422,-0.910734832286835,-0.391888827085495,0.563648700714111,-0.90814153446928,-0.390747931744771,0.562182870617026,0
3.27999877929688,-2.33461594581604,1.96137666702271,2.588303565979,-2.33577134012187,1.96079922667992,2.58881081793642,2070.062,2067.944,2062.875,2064.786,3.01906156539917,44.9957122802734,358.79736328125,-0.901019275188446,-0.387711673974991,0.557719171047211,-0.898304216251578,-0.386515208538549,0.556093102023818,0
3.29998779296875,-2.35243797302246,1.95370769500732,2.59933495521545,-2.35362764460945,1.95311615770631,2.59986472102797,2067.233,2066.236,2062.01,2064.952,3.08072853088379,44.9957084655762,358.773040771484,-0.891107022762299,-0.383448392152786,0.551565527915955,-0.888274735793772,-0.382199803288803,0.549884375850026,0
3.31999206542969,-2.37005805969238,1.94612550735474,2.6102397441864,-2.37129490830989,1.94551442770222,2.61080159886703,2063.72,2064.136,2063.152,2064.706,3.14164972305298,44.9958992004395,358.748504638672,-0.881001353263855,-0.37910121679306,0.545244574546814,-0.878042061913513,-0.37779696958594,0.54354986326829,0
3.33999633789063,-2.3874716758728,1.93863213062286,2.621018409729,-2.38875555478454,1.93800159931817,2.62161057080077,2066.594,2064.374,2059.145,2061.322,3.20105123519897,44.9958229064941,358.725250244141,-0.870694279670715,-0.374668538570404,0.538930952548981,-0.867618167158097,-0.373311858882592,0.53709697585572,0
3.36000061035156,-2.40467596054077,1.93122899532318,2.63166666030884,-2.406005803634,1.93057929915441,2.6322892965819,2063.863,2062.745,2058.611,2061.417,3.258380651474,44.9958610534668,358.702545166016,-0.860204041004181,-0.370155781507492,0.532414436340332,-0.857007552155826,-0.36874640767338,0.530528499715627,0
3.37998962402344,-2.42166662216187,1.92391753196716,2.64218235015869,-2.42302905329872,1.92325467039821,2.6428274990542,2062.34,2061.358,2058.247,2060.439,3.31407070159912,44.9959487915039,358.680236816406,-0.849532127380371,-0.365564584732056,0.525783896446228,-0.846223126656603,-0.364106170663035,0.523852426598178,0
3.39999389648438,-2.4384400844574,1.91669952869415,2.65256261825562,-2.43984769972619,1.91601807669906,2.65323904237604,2059.197,2059.778,2059.26,2059.953,3.36934852600098,44.9961891174316,358.657897949219,-0.838685095310211,-0.360898554325104,0.519012868404388,-0.835253140422974,-0.35938609205264,0.51706148254665,0
3.41999816894531,-2.45499324798584,1.90957641601563,2.66280770301819,-2.45644516534361,1.90887665092339,2.66351366424015,2062.335,2060.052,2055.11,2056.849,3.42326784133911,44.9961280822754,358.636871337891,-0.827654778957367,-0.356155037879944,0.512259840965271,-0.824110582941664,-0.354591760855451,0.510163708672097,0
3.44000244140625,-2.47132253646851,1.90254962444305,2.67291402816772,-2.47281804716281,1.90183185728196,2.67364925803476,2059.878,2058.535,2054.429,2057.159,3.47509050369263,44.9961471557617,358.616455078125,-0.816459894180298,-0.351339250802994,0.505314946174622,-0.812800388649434,-0.349725300221754,0.503162159625937,0
3.45999145507813,-2.48742485046387,1.89562058448792,2.68287944793701,-2.48895081463434,1.8948903781363,2.68363620960993,2058.736,2057.406,2053.88,2056.184,3.52502107620239,44.9962120056152,358.596557617188,-0.805101633071899,-0.346452683210373,0.49826779961586,-0.80133641229185,-0.344792671461508,0.496065412155666,0
3.47999572753906,-2.50329637527466,1.88879060745239,2.6927011013031,-2.50486489870395,1.88804299234919,2.69348778574196,2055.759,2055.886,2054.911,2055.922,3.57413053512573,44.9964256286621,358.576629638672,-0.793587803840637,-0.341499328613281,0.491086959838867,-0.789706299681989,-0.339788558913217,0.488865818431069,0
3.5,-2.51893472671509,1.88206112384796,2.70237970352173,-2.5205447997813,1.88129636896134,2.70319439144611,2058.652,2056.275,2051.255,2052.954,3.62158608436584,44.9963836669922,358.558135986328,-0.781911075115204,-0.336477249860764,0.483925372362137,-0.777924000354857,-0.334718964672089,0.481572013878822,0
3.51998901367188,-2.53433656692505,1.87543332576752,2.71191143989563,-2.53597583877076,1.87465682397749,2.71274693966292,2056.32,2054.851,2050.819,2053.357,3.66681790351868,44.9964256286621,358.540252685547,-0.770090520381927,-0.331392109394073,0.476591259241104,-0.766004036374581,-0.329590137176618,0.474192988348404,0
3.53999328613281,-2.54949903488159,1.86890840530396,2.72129416465759,-2.55117869390181,1.86811546013321,2.72215823120146,2053.634,2053.352,2051.851,2053.192,3.7108154296875,44.9966125488281,358.5224609375,-0.758129835128784,-0.326246321201324,0.4691361784935,-0.753933682518821,-0.324396601119134,0.466720864320997,0
3.55999755859375,-2.56441950798035,1.86248803138733,2.7305281162262,-2.56613872308604,1.86167857751006,2.73141920191151,2056.145,2053.666,2048.75,2050.517,3.75291705131531,44.99658203125,358.506011962891,-0.74602347612381,-0.3210389316082,0.461697399616241,-0.741727567798258,-0.319144650954242,0.459164697851087,0
3.58000183105469,-2.57909560203552,1.85617220401764,2.73961019515991,-2.58085326729328,1.85534732021446,2.74052820572674,2054.033,2052.399,2048.46,2050.864,3.79269814491272,44.996639251709,358.490234375,-0.733789801597595,-0.315775841474533,0.454107195138931,-0.729391385793765,-0.313836736470737,0.451528013536464,0
3.59999084472656,-2.59352397918701,1.84996318817139,2.74853897094727,-2.59530884290342,1.84912748987145,2.74947689564398,2052.91,2051.646,2048.351,2050.011,3.83052253723145,44.9967460632324,358.475128173828,-0.721431314945221,-0.310459017753601,0.446437627077103,-0.716940488958392,-0.308479463400265,0.4438203152769,0
3.6199951171875,-2.60770297050476,1.84386146068573,2.75731253623962,-2.60952509409627,1.84301063413925,2.75827743234631,2050.84,2050.392,2049.052,2049.891,3.86725449562073,44.9969635009766,358.460235595703,-0.708955049514771,-0.305091828107834,0.438676774501801,-0.704361775018033,-0.303067194200314,0.436033492140578,0
3.63999938964844,-2.62163043022156,1.8378678560257,2.76593112945557,-2.6234885835008,1.83700253474321,2.76692149746096,2053.256,2050.741,2046.11,2047.616,3.90212941169739,44.9969444274902,358.446685791016,-0.696356952190399,-0.299673199653625,0.430933892726898,-0.691670720740692,-0.297606588091786,0.428177124984152,0
3.65998840332031,-2.63530349731445,1.83198356628418,2.7743923664093,-2.63718676607487,1.8311085894645,2.77540132500924,2051.462,2049.755,2045.793,2047.96,3.93465304374695,44.9970016479492,358.433898925781,-0.683654546737671,-0.29420867562294,0.423058390617371,-0.678883253871145,-0.292104498338286,0.420261073840379,0
3.67999267578125,-2.64872026443481,1.8262095451355,2.7826943397522,-2.65063849381582,1.82532068681534,2.78372858527554,2049.462,2048.633,2046.627,2047.912,3.9655647277832,44.9971771240234,358.421417236328,-0.670852243900299,-0.288700789213181,0.415094316005707,-0.665986083416798,-0.286555206197011,0.41227711095171,0
3.69999694824219,-2.66187930107117,1.8205463886261,2.79083728790283,-2.66383127580226,1.81964420129024,2.79189554578451,2051.672,2048.96,2044.162,2045.836,3.99425411224365,44.9971733093262,358.410278320313,-0.657947063446045,-0.283149361610413,0.407151877880096,-0.65299527533123,-0.280965624398954,0.404235181908735,0
