t,x_s1,x_s2,x_s3,x_s_d1,x_s_d2,x_s_d3,propellers_rpms1,propellers_rpms2,propellers_rpms3,propellers_rpms4,rollRad,pitchRad,yawRad,v_s1,v_s2,v_s3,v_s_d1,v_s_d2,v_s_d3,insideCount
0,-0.0599999986588955,2.94000005722046,1.17999994754791,-0.0599999986588955,2.94000005722046,1.17999994754791,0,0,0,0,0,0,0,0,0,0,-1.06581410364015E-15,4.44089209850063E-16,4.44089209850063E-16,0
0.02001953125,-0.0599999986588955,2.94000005722046,1.17811644077301,-0.0600018744611685,2.93999925011514,1.18000110875888,0,0,0,0,-0.01635288,0.0001297794,-0.01587137,-1.10653664009419E-09,-7.76775763711157E-08,-0.0941759571433067,-0.000280531511337879,-0.000120704872184653,0.000173662369087018,9
0.040008544921875,-0.0599999986588955,2.94000005722046,1.17242503166199,-0.060014880898484,2.93999365380853,1.18000916036316,0,0,0,0,-0.03270202,0.0005238493,-0.03175127,-1.08383135799528E-09,-7.60859677484405E-08,-0.284568399190903,-0.00111143977225461,-0.000478221483967637,0.00068803416424398,9
0.05999755859375,-0.0599058829247952,2.93990302085876,1.16596519947052,-0.0600498857373401,2.93997859220429,1.18003083002592,1867.736,3252.71,3184.193,1722.621,-0.04941975,0.0003290266,-0.01369397,0.0047058523632586,-0.00484938966110349,-0.32299131155014,-0.00247936261166862,-0.00106680046642749,0.00153484356504269,9
0.08001708984375,-0.0598203651607037,2.93960738182068,1.16000318527222,-0.0601176241590912,2.9399494462538,1.18007276333581,1925.461,2314.329,3252.036,2829.56,-0.07542498,-0.002136388,0.02094826,0.00427588727325201,-0.0147778820246458,-0.29810044169426,-0.00437432711648753,-0.0018821507536715,0.00270791686320324,9
0.100006103515625,-0.0599374249577522,2.93904519081116,1.15498638153076,-0.0602282404704493,2.93990185114529,1.18014124010193,980.8941,1499.05,3914.259,3896.424,-0.1031879,-0.008061389,0.06330394,-0.00585292186588049,-0.0281138196587563,-0.2508385181427,-0.00677739276378709,-0.00291612276782231,0.00419552897277328,8
0.1199951171875,-0.0604638159275055,2.93818378448486,1.15081310272217,-0.0603918861403606,2.93983143898525,1.18024254456713,346.3103,980.2162,4173.258,4613.318,-0.1214268,-0.01541917,0.103996,-0.026319608092308,-0.0430653318762779,-0.208663403987885,-0.00967801353495435,-0.00416417885169243,0.00599115140585487,8
0.1400146484375,-0.0615635514259338,2.93704152107239,1.1472829580307,-0.0606187761383957,2.93973381455767,1.18038300028418,352.7106,747.0981,3975.694,4854.795,-0.1253955,-0.02116521,0.1351004,-0.0549868047237396,-0.057111207395792,-0.176508039236069,-0.0130687916036232,-0.00562313592726786,0.00809020455552005,7
0.160003662109375,-0.0633406862616539,2.93568134307861,1.14427495002747,-0.0609177895434042,2.93960515744296,1.18056810382587,821.4221,815.4136,3461.944,4692.236,-0.1184585,-0.0235221,0.152264,-0.0888567939400673,-0.0680107250809669,-0.150400415062904,-0.0169265510445065,-0.00728302204135792,0.0104783414199936,7
0.17999267578125,-0.0658466517925262,2.93417286872864,1.14182555675507,-0.0612985250199726,2.93944133760391,1.18080379722281,1348.469,1083.057,3007.374,4255.184,-0.1079827,-0.02277855,0.155775,-0.125298202037811,-0.075427733361721,-0.122469238936901,-0.0212433804254414,-0.00914043312572283,0.0131506644458931,7
0.20001220703125,-0.0690846294164658,2.9325544834137,1.14006197452545,-0.0617708265342762,2.93923811945689,1.181096174359,1636.001,1380.852,2919.01,3666.489,-0.09982646,-0.02030128,0.1501576,-0.161898881196976,-0.0809138715267181,-0.0881803780794144,-0.0260142813927851,-0.0111932185284278,0.0161040794142088,7
0.220001220703125,-0.0730098038911819,2.93082690238953,1.139035820961,-0.0623420644491781,2.93899233174064,1.18144979784016,1642.03,1581.17,3147.054,3113.147,-0.09584025,-0.01735422,0.1421894,-0.196258738636971,-0.0863831117749214,-0.0513086915016174,-0.03121219533433,-0.0134297356845702,0.019321835755004,7
0.239990234375,-0.0775494426488876,2.92897439002991,1.13863348960876,-0.0630214373585105,2.93870001655724,1.18187036203406,1523.904,1623.886,3418.304,2777.532,-0.09475953,-0.01467775,0.1377345,-0.226982206106186,-0.0926218181848526,-0.0201164800673723,-0.0368316683029241,-0.015847637913056,0.022800557215184,7
0.260009765625,-0.0826382711529732,2.92699337005615,1.13863611221313,-0.0638185570309634,2.93835703823113,1.18236381708338,1438.325,1500.504,3533.943,2744.448,-0.09438828,-0.0125893,0.1393051,-0.254441499710083,-0.0990563780069351,0.000129202380776405,-0.0428699302682246,-0.0184457333472145,0.0265385290140116,7
0.279998779296875,-0.0882440060377121,2.92490172386169,1.13885235786438,-0.0647390625194898,2.93796097043536,1.18293365383054,1401.396,1276.6,3475.213,2977.563,-0.0932101,-0.01110432,0.1456822,-0.280286937952042,-0.104580998420715,0.0108148790895939,-0.0492963837173861,-0.0212108567320638,0.030516809833474,7
0.300018310546875,-0.0943697243928909,2.92273354530334,1.13920748233795,-0.0657936070281142,2.93750722939386,1.1835864671163,1350.51,1061.377,3345.767,3324.567,-0.09053522,-0.009934124,0.1533072,-0.30628564953804,-0.108403876423836,0.0177534185349941,-0.0561185469977389,-0.0241462430024218,0.0347400538887172,7
0.32000732421875,-0.101034924387932,2.92052674293518,1.13972556591034,-0.0669865614821475,2.93699393441958,1.18432496275165,1281.087,941.4404,3237.088,3590.491,-0.08598708,-0.008523181,0.1583563,-0.333260536193848,-0.110340148210526,0.0259041413664818,-0.0633036493784043,-0.0272377918282996,0.0391879745362408,7
0.339996337890625,-0.108250476419926,2.91831302642822,1.14046251773834,-0.068326768706371,2.93641728069206,1.18515461486636,1252.61,943.8666,3172.097,3649.597,-0.07945541,-0.006292517,0.1584775,-0.360777586698532,-0.110680736601353,0.03684963285923,-0.0708499516420146,-0.0304847548730522,0.0438594951176439,7
0.360015869140625,-0.116001978516579,2.91611576080322,1.14145374298096,-0.0698237345322385,2.93577317811757,1.18608130802295,1318.922,1046.706,3121.467,3498.499,-0.07154689,-0.002965163,0.1534815,-0.387574851512909,-0.109862305223942,0.0495615005493164,-0.0787580297418618,-0.0338873799532906,0.0487549721754506,8
0.3800048828125,-0.124250173568726,2.9139506816864,1.14270794391632,-0.0714797725314022,2.93506063123087,1.18710647443246,1456.869,1182.443,3088.506,3231.273,-0.06361333,0.001259333,0.1450427,-0.412410259246826,-0.108257904648781,0.0627126023173332,-0.0869921272359981,-0.0374302820709642,0.0538522707687797,8
0.399993896484375,-0.132941946387291,2.91182732582092,1.14421761035919,-0.0733036822025899,2.9342758538535,1.18823556140379,1579.58,1273.411,3105.351,2981.577,-0.05702467,0.005825539,0.1357504,-0.434588879346848,-0.106164388358593,0.075485423207283,-0.0955525119207663,-0.0411135764513579,0.0591515566763244,8
0.420013427734375,-0.142022356390953,2.90975117683411,1.14595854282379,-0.0753050585276311,2.93341471753282,1.18947450868777,1629.452,1287.906,3160.486,2845.738,-0.0524419,0.01017213,0.127864,-0.454020768404007,-0.103803396224976,0.0870488360524178,-0.104441553474511,-0.0449382827008623,0.0646542968418633,8
0.44000244140625,-0.151444733142853,2.90772533416748,1.14789593219757,-0.077483988232608,2.93247718495301,1.19082336997196,1608.183,1238.869,3217.588,2842.615,-0.04965623,0.01397517,0.1224601,-0.471118986606598,-0.10129164904356,0.0968695357441902,-0.113620829717891,-0.048887868829098,0.0703367061060819,8
0.459991455078125,-0.161175474524498,2.90575265884399,1.14999759197235,-0.0798493430620752,2.93145943885026,1.19228763728888,1541.82,1158.236,3253.382,2937.42,-0.0478879,0.01718635,0.1193365,-0.486537426710129,-0.0986396297812462,0.105080232024193,-0.123092454730403,-0.0529632444654124,0.0762000931848968,8
0.480010986328125,-0.171192333102226,2.90383696556091,1.15224003791809,-0.0824109101018722,2.93035726811493,1.19387336931088,1472.759,1085.629,3249.421,3067.841,-0.04628521,0.01998512,0.1173803,-0.500843405723572,-0.0957802906632423,0.112121269106865,-0.132860437136906,-0.0571661344090936,0.082246939608052,8
0.5,-0.181479707360268,2.90198421478271,1.15461611747742,-0.085166398670376,2.92917165836334,1.1955791479969,1433.596,1047.058,3214.306,3169.097,-0.04433098,0.02264551,0.1152186,-0.5143683552742,-0.0926403626799583,0.118801765143871,-0.142884000065179,-0.0614789935111996,0.0884520025491718,8
0.519989013671875,-0.192022919654846,2.90019965171814,1.15713548660278,-0.0881248588203387,2.92789871561062,1.19741057576073,1423.676,1044.936,3178.342,3209.676,-0.04192455,0.02537927,0.1118828,-0.527160823345184,-0.0892274975776672,0.125966280698776,-0.153166947611899,-0.0659034585682559,0.0948176369253132,9
0.540008544921875,-0.20280322432518,2.89848685264587,1.15981113910675,-0.0912963635428427,2.92653410573011,1.19937388826368,1443.236,1072.671,3150.321,3186.041,-0.03929441,0.02828549,0.1070571,-0.539015233516693,-0.085641585290432,0.133780106902122,-0.163714777034477,-0.0704418948965508,0.101347245800684,9
0.55999755859375,-0.213796436786652,2.89684629440308,1.16265332698822,-0.094676112580471,2.92507989413848,1.20146611391775,1486.252,1114.566,3136.321,3113.659,-0.03688212,0.0313287,0.1010564,-0.549660563468933,-0.0820336490869522,0.142112076282501,-0.17448465888317,-0.0750758741803766,0.108014315705644,9
0.58001708984375,-0.224974721670151,2.89527487754822,1.16566872596741,-0.0982790918331175,2.92352963282165,1.20369652970884,1521.533,1148.777,3146.631,3033.848,-0.03512976,0.03434588,0.0946521,-0.558915019035339,-0.0785765424370766,0.150770768523216,-0.185498893714783,-0.0798149917263209,0.114832651747179,9
0.600006103515625,-0.236309349536896,2.89376640319824,1.16885197162628,-0.102098762959148,2.92188613504538,1.20606108809202,1540.195,1167.077,3162.583,2980.225,-0.03430684,0.03715942,0.08861715,-0.56673139333725,-0.0754197537899017,0.159161627292633,-0.196713446836865,-0.0846403006364086,0.121774994352997,9
0.6199951171875,-0.247774749994278,2.89231300354004,1.17219579219818,-0.106144683970236,2.92014528826426,1.20856570593183,1534.096,1167.173,3183.702,2963.411,-0.03443734,0.03962918,0.08346102,-0.573269307613373,-0.0726690664887428,0.167188227176666,-0.208134604141382,-0.0895545055543457,0.128845234789665,9
0.6400146484375,-0.259350061416626,2.89090514183044,1.17568862438202,-0.110427588881679,2.91830247393137,1.21121702809507,1504.068,1155.793,3196.053,2988.707,-0.0353492,0.04169305,0.07931032,-0.578766167163849,-0.0703882798552513,0.174640372395515,-0.21977002223474,-0.0945609009039674,0.136048112861281,9
0.660003662109375,-0.271019846200943,2.88953304290771,1.17932093143463,-0.114938248900541,2.91636166293851,1.21400934151928,1470.605,1144.923,3194.628,3029.791,-0.0367708,0.04338715,0.07590406,-0.583489179611206,-0.0686023682355881,0.181614935398102,-0.231574097577923,-0.0996398647564507,0.143355397804799,9
0.67999267578125,-0.282772958278656,2.88818645477295,1.18309044837952,-0.119686638739014,2.91431856344567,1.21694882102647,1430.211,1139.761,3191.299,3073.757,-0.03844593,0.04477713,0.07288264,-0.587653875350952,-0.0673285946249962,0.188473299145699,-0.243554411173546,-0.104794659005432,0.150771782621969,9
0.70001220703125,-0.294600069522858,2.88685488700867,1.18699359893799,-0.124683985757554,2.91216834463331,1.22004241688759,1400.136,1145.587,3178.927,3105.23,-0.04017432,0.045961,0.06987236,-0.591355264186859,-0.0665794163942337,0.195159077644348,-0.255719729227087,-0.11002905550423,0.158302694011575,9
0.720001220703125,-0.306492418050766,2.88552761077881,1.19102907180786,-0.129918284978346,2.90991617190799,1.22328269744952,1396.414,1163.335,3161.079,3105.762,-0.04192721,0.04702146,0.06662564,-0.594617486000061,-0.0663634985685349,0.201770812273026,-0.268023157655716,-0.11532287703907,0.16591910230247,9
0.739990234375,-0.31844100356102,2.88419342041016,1.19520044326782,-0.135400001298574,2.90755754251682,1.2266761409821,1392.987,1185.331,3154.725,3092.209,-0.04383137,0.04795326,0.06321182,-0.597429096698761,-0.0667126923799515,0.208566769957542,-0.280473432677602,-0.12067988256057,0.173626415629864,9
0.760009765625,-0.330436229705811,2.88284015655518,1.19950604438782,-0.141140917956636,2.9050873864615,1.23023004187122,1388.579,1207.104,3151.112,3077.345,-0.04600132,0.04873028,0.05981923,-0.599761843681335,-0.0676666498184204,0.215282425284386,-0.293080296154222,-0.126104263719567,0.181430664670081,9
0.779998779296875,-0.342469096183777,2.8814549446106,1.20394265651703,-0.147126184485884,2.90251209348295,1.23393520697061,1391.443,1226.91,3148.162,3057.292,-0.04852812,0.04932192,0.05663931,-0.601643085479736,-0.0692576095461845,0.221830874681473,-0.305795832832518,-0.131575403921268,0.189302187598958,9
0.800018310546875,-0.354532152414322,2.88002443313599,1.20850968360901,-0.153376545303595,2.89982273783796,1.23780447806275,1374.708,1240.829,3155.285,3052.683,-0.05147411,0.04966274,0.05392697,-0.603154242038727,-0.0715214982628822,0.228350222110748,-0.318649478366155,-0.137105968505107,0.197259206488328,9
0.82000732421875,-0.366620004177094,2.87853503227234,1.21319925785065,-0.159875221826383,2.89702653888221,1.24182746840525,1351.59,1250.807,3155.386,3064.062,-0.05476897,0.04973732,0.05176217,-0.60439133644104,-0.0744694918394089,0.234480947256088,-0.331592781842754,-0.14267511039705,0.205271727915392,9
0.839996337890625,-0.378729909658432,2.87697291374207,1.2180083990097,-0.166633637018892,2.89411858163313,1.24601124935738,1325.772,1259.392,3157.729,3077.323,-0.05827742,0.04955581,0.05010954,-0.605495750904083,-0.0781046375632286,0.240458130836487,-0.344636106234817,-0.148287288494656,0.213346167053785,8
0.860015869140625,-0.390861123800278,2.87532496452332,1.22293055057526,-0.173664618315387,2.89109334680413,1.25036376171199,1296.298,1268.626,3153.01,3100.162,-0.06188387,0.04914371,0.04888524,-0.606561839580536,-0.0824028179049492,0.246107801795006,-0.357790534090669,-0.153947271308859,0.221489384528856,8
0.8800048828125,-0.403014659881592,2.87357831001282,1.22796046733856,-0.180948461186242,2.88795931270381,1.25487280742661,1282.784,1281.182,3142.095,3111.06,-0.06549779,0.04855633,0.04791724,-0.607675075531006,-0.0873314663767815,0.251498073339462,-0.371007022483504,-0.159633957038354,0.229671020432672,8
0.899993896484375,-0.415192514657974,2.87172079086304,1.23309946060181,-0.18849723509595,2.8847112861788,1.25954585807468,1260.704,1295.548,3139.329,3121.855,-0.06911276,0.0478068,0.04717792,-0.608894944190979,-0.092875212430954,0.256949663162231,-0.384296738353309,-0.165352150505452,0.237897987633041,8
0.920013427734375,-0.42739725112915,2.8697407245636,1.23834371566772,-0.196324452211266,2.88134345332121,1.26439127833112,1240.699,1310.451,3134.065,3132.477,-0.07267553,0.04692663,0.04662909,-0.610236763954163,-0.0990023389458656,0.262212187051773,-0.397671404529394,-0.171106895716105,0.246177543119742,8
0.94000244140625,-0.439631760120392,2.86762714385986,1.24368953704834,-0.204407453948074,2.87786556348678,1.26939504145298,1240.621,1326.724,3125.75,3126.505,-0.07617013,0.04595084,0.04622484,-0.611724436283112,-0.105676859617233,0.267290681600571,-0.411081631631503,-0.176876941799768,0.254479112513653,8
0.959991455078125,-0.451899468898773,2.86536955833435,1.24913859367371,-0.212759000778906,2.87427212620069,1.27456504678061,1227.941,1341.429,3127.271,3126.32,-0.07967113,0.04485494,0.04609145,-0.613387227058411,-0.112881869077682,0.272452175617218,-0.424539267042903,-0.182667386354485,0.262810029909387,8
0.980010986328125,-0.464204370975494,2.86295795440674,1.25468683242798,-0.221393324468958,2.87055701793193,1.27991010445463,1211.671,1352.999,3126.594,3134.709,-0.08315188,0.04364044,0.04628257,-0.615244805812836,-0.120577558875084,0.277411043643951,-0.438056556301695,-0.188483498293199,0.271177875878363,8
1,-0.476551353931427,2.8603835105896,1.26033020019531,-0.230284798736574,2.86673126495361,1.28541435058594,1210.244,1363.724,3121.945,3134.243,-0.08657457,0.04233143,0.04676123,-0.617347776889801,-0.12872089445591,0.282169938087463,-0.451584000205995,-0.194303979492187,0.279552008056641,8
1.01998901367188,-0.488946408033371,2.85763764381409,1.26607048511505,-0.239446912293295,2.86278906344998,1.29108613532954,1192.934,1372.661,3125.667,3144.057,-0.08996052,0.04091034,0.0475953,-0.619753241539001,-0.137288734316826,0.287017077207565,-0.46513400752272,-0.200134169097193,0.287940108062054,8
1.04000854492188,-0.501396179199219,2.85471320152283,1.27190399169922,-0.248894644448595,2.85872396824263,1.29693473159157,1173.876,1379.588,3125.331,3161.11,-0.09322076,0.03940181,0.04874104,-0.622490346431732,-0.146226912736893,0.291677802801132,-0.47871923339115,-0.205979512261105,0.296350010028666,8
1.05999755859375,-0.51390814781189,2.85160374641418,1.27782738208771,-0.258599401509697,2.85454828239877,1.30294243851408,1174.461,1387.532,3119.237,3164.655,-0.09628872,0.03785332,0.05007412,-0.62559974193573,-0.155478447675705,0.296169817447662,-0.492290296490434,-0.211818761581115,0.30475114456651,8
1.08001708984375,-0.52649050951004,2.84830355644226,1.28384399414063,-0.268590868588476,2.85024923324404,1.30912763259543,1162.712,1395.18,3121.844,3173.601,-0.09919956,0.03626086,0.0516206,-0.629114329814911,-0.165013790130615,0.300829082727432,-0.505880764601332,-0.21766636033551,0.313164291730931,8
1.10000610351563,-0.539150893688202,2.84480810165405,1.28995072841644,-0.278838480013141,2.84583997233313,1.31547139222872,1156.005,1402,3118.405,3184.386,-0.1019218,0.03465416,0.05332729,-0.633023798465729,-0.174767345190048,0.305334627628326,-0.519441457145546,-0.223501147495394,0.321559006401169,7
1.1199951171875,-0.551898121833801,2.84111380577087,1.2961505651474,-0.289357002179081,2.84131414609862,1.32198285851614,1152.887,1407.949,3122.292,3186.518,-0.1044177,0.0330519,0.05516278,-0.637357592582703,-0.184711337089539,0.309994637966156,-0.532985466132485,-0.229328756186667,0.329943393154705,7
1.1400146484375,-0.564739942550659,2.83721828460693,1.3024423122406,-0.300162704591434,2.83666475422696,1.32867210305637,1148.276,1413.173,3122.311,3194.992,-0.1066942,0.03146389,0.05713737,-0.642092823982239,-0.194781437516212,0.314586102962494,-0.54652589017629,-0.235154822377061,0.338325560657667,7
1.16000366210938,-0.577684700489044,2.83311986923218,1.30882489681244,-0.311222084148811,2.83190621216671,1.33551838583369,1159.857,1418.223,3118.319,3192.982,-0.1087656,0.02991678,0.05919084,-0.647235512733459,-0.204921662807465,0.319126784801483,-0.560014026276883,-0.240958390526247,0.34667535943296,7
1.17999267578125,-0.590740740299225,2.82881760597229,1.3153041601181,-0.322550701230474,2.8270318247214,1.34253133946411,1154.711,1421.269,3125.708,3199.401,-0.1106991,0.02838645,0.06139639,-0.652805030345917,-0.215117380023003,0.323964357376099,-0.573463232144024,-0.246745208083563,0.355001058539242,7
1.20001220703125,-0.603916347026825,2.82431125640869,1.3218799829483,-0.334165615614823,2.82203425154496,1.34972152476313,1147.004,1422.067,3130.407,3212.377,-0.112436,0.02688832,0.06373448,-0.658779680728912,-0.225315555930138,0.328789472579956,-0.586886736182789,-0.252520966862155,0.363310846989412,7
1.22000122070313,-0.617219626903534,2.81960201263428,1.32855129241943,-0.346030421585499,2.81692915700008,1.35706640485806,1159.815,1423.743,3128.488,3211.618,-0.113938,0.02546161,0.06610424,-0.665162682533264,-0.235461488366127,0.333563536405563,-0.600236516861372,-0.258265004538453,0.371574997167698,7
1.239990234375,-0.63065892457962,2.81469130516052,1.33532392978668,-0.358161486344149,2.81170949873715,1.36457611182642,1158.859,1424.175,3135.911,3217.669,-0.1152669,0.02408596,0.06855699,-0.671967744827271,-0.245538756251335,0.338630676269531,-0.613526094901141,-0.263983138701136,0.379801879044709,7
1.260009765625,-0.644242227077484,2.80958127975464,1.34219825267792,-0.37057666480527,2.80636759428526,1.37226169871082,1156.02,1423.082,3140.075,3229.63,-0.1163881,0.02277531,0.07106455,-0.679161727428436,-0.255495518445969,0.3437180519104,-0.626768731761373,-0.26968107538565,0.387999702095469,7
1.27999877929688,-0.657976925373077,2.80427551269531,1.34917449951172,-0.383236695417198,2.80092033679326,1.3800988607405,1172.016,1423.347,3138.232,3228.418,-0.1172925,0.02156504,0.07352808,-0.686736881732941,-0.265284270048141,0.348813444375992,-0.639917282339435,-0.275338529371412,0.396139281255613,8
1.30001831054688,-0.67187088727951,2.79877758026123,1.35625982284546,-0.396178686849666,2.79535175943725,1.38811056994974,1172.923,1422.099,3147.439,3233.603,-0.1180451,0.02042974,0.07600453,-0.6946981549263,-0.274901628494263,0.35426789522171,-0.653005218467598,-0.280969902652754,0.404241337183804,8
1.32000732421875,-0.685930788516998,2.79309153556824,1.36345410346985,-0.409361504843077,2.78967956113998,1.39627136227237,1177.665,1420.497,3149.742,3241.366,-0.1186332,0.01938649,0.07846013,-0.702991604804993,-0.284297913312912,0.359712034463882,-0.6659860834168,-0.286555206197011,0.41227711095171,8
1.33999633789063,-0.700163424015045,2.78722214698792,1.37076270580292,-0.422802873722428,2.78389611561957,1.40459220990988,1183.935,1417.559,3159.196,3242.313,-0.1190273,0.01844024,0.08087433,-0.711628198623657,-0.293468356132507,0.365427911281586,-0.678873453515705,-0.29210028151913,0.420255006953505,8
1.36001586914063,-0.71457439661026,2.78117489814758,1.37818622589111,-0.4365219692899,2.77799317206405,1.4130849835973,1189.023,1414.69,3163.347,3249.162,-0.1192361,0.01759265,0.0832503,-0.720555365085602,-0.302367776632309,0.37117412686348,-0.691680442442074,-0.297610771068296,0.428183143180414,8
1.3800048828125,-0.729169547557831,2.77495574951172,1.38572525978088,-0.450474904562636,2.77198961381608,1.4217225152016,1209.3,1413.181,3161.393,3246.449,-0.1193022,0.01686249,0.08552026,-0.729755222797394,-0.310959964990616,0.376953303813934,-0.704361775018035,-0.303067194200314,0.436033492140578,8
1.39999389648438,-0.743954300880432,2.76857042312622,1.39338827133179,-0.464680216184654,2.76587746507559,1.43051627978847,1211.169,1409.196,3173.007,3251.388,-0.1192942,0.01621418,0.08775305,-0.739236652851105,-0.319263756275177,0.383150070905685,-0.716930938559026,-0.308475354130225,0.443814403124744,8
1.42001342773438,-0.758933126926422,2.76202535629272,1.4011766910553,-0.479157861067077,2.75964813894125,1.43947863163655,1209.827,1404.134,3181.607,3261.763,-0.119153,0.01565569,0.08993357,-0.748940587043762,-0.327256262302399,0.389418959617615,-0.729400843645231,-0.313840805920001,0.451533868397062,8
1.44000244140625,-0.774109840393066,2.75532722473145,1.40908980369568,-0.493861275572861,2.75332167044526,1.4485807456364,1229.905,1401.631,3180.796,3257.894,-0.1188601,0.01522118,0.09196702,-0.758838653564453,-0.33490464091301,0.395656228065491,-0.741727567798258,-0.319144650954242,0.459164697851088,8
1.45999145507813,-0.789488613605499,2.7484827041626,1.41713464260101,-0.508809800712713,2.74688973769103,1.45783459479497,1236.064,1397.288,3190.943,3259.412,-0.1184888,0.01487455,0.09392129,-0.768936157226563,-0.34222424030304,0.402239173650742,-0.753924423002454,-0.324392617007921,0.466715132239272,8
1.48001098632813,-0.805072069168091,2.74149870872498,1.42531204223633,-0.524024159888143,2.74034342397783,1.467253007885,1237.809,1392.137,3197.652,3268.032,-0.1180217,0.01461501,0.09579765,-0.779173195362091,-0.349196553230286,0.408872336149216,-0.766004036374583,-0.329590137176618,0.474192988348404,8
1.5,-0.820862472057343,2.73438262939453,1.43362188339233,-0.539455198877605,2.73370387899399,1.4768055561018,1257.354,1389.428,3196.468,3264.515,-0.117464,0.01446812,0.0975122,-0.789524853229523,-0.355801165103912,0.41549476981163,-0.777924000354858,-0.334718964672088,0.481572013878822,8
1.51998901367188,-0.836862504482269,2.72714138031006,1.44207143783569,-0.555123050061237,2.72696244033876,1.48650470234772,1260.845,1384.397,3208.061,3266.719,-0.1168728,0.01439677,0.09913443,-0.799998760223389,-0.362067848443985,0.422478467226028,-0.789697369743256,-0.339784716610053,0.488860290373601,8
1.54000854492188,-0.853073060512543,2.71978163719177,1.45066094398499,-0.571049184024557,2.72010986981902,1.49636373793799,1261.144,1378.906,3215.512,3274.769,-0.1162049,0.01440314,0.1006619,-0.810528814792633,-0.367986857891083,0.429478019475937,-0.801336412291853,-0.344792671461508,0.496065412155667,8
1.55999755859375,-0.869494736194611,2.71231079101563,1.45938909053802,-0.587181951496087,2.71316839067337,1.50635068951315,1281.532,1376.458,3213.297,3269.536,-0.1154613,0.01451481,0.1020105,-0.821086347103119,-0.373539626598358,0.436405956745148,-0.812800388649436,-0.349725300221754,0.503162159625937,8
1.58001708984375,-0.886128485202789,2.70473551750183,1.46826231479645,-0.603567408310176,2.70611818636293,1.51649406782863,1285.971,1371.586,3223.829,3270.174,-0.1147114,0.01468991,0.1032578,-0.831683337688446,-0.378758788108826,0.443658828735352,-0.824119146742882,-0.35459544561987,0.510169010073001,8
1.60000610351563,-0.902973473072052,2.69706273078918,1.47727906703949,-0.620152298932711,2.69898217125626,1.52676090517188,1291.256,1367.677,3226.127,3275.558,-0.1139556,0.01493179,0.1043936,-0.842248678207397,-0.383634895086288,0.450836837291718,-0.835253140422976,-0.35938609205264,0.51706148254665,8
1.6199951171875,-0.920029520988464,2.68929886817932,1.486443400383,-0.636958033083316,2.69175113334911,1.53716445517924,1296.373,1362.289,3236.284,3274.388,-0.1131492,0.01523858,0.1054068,-0.852798759937286,-0.388197183609009,0.458216190338135,-0.846214826007804,-0.364102599125749,0.523847288101157,8
1.6400146484375,-0.937294900417328,2.6814501285553,1.49575364589691,-0.654007271984653,2.68441532215046,1.54771874622704,1300.34,1357.943,3239.77,3278.722,-0.112289,0.01560653,0.1063052,-0.863271653652191,-0.392435193061829,0.46551513671875,-0.857015715678588,-0.368749920209162,0.530533553325099,8
1.66000366210938,-0.954767823219299,2.67352342605591,1.50520801544189,-0.671244443874359,2.67699864863716,1.55838937674714,1320.026,1356.53,3234.969,3273.11,-0.1114224,0.0160514,0.1070245,-0.873647093772888,-0.396339565515518,0.47271603345871,-0.867618167158098,-0.373311858882592,0.53709697585572,8
1.67999267578125,-0.972446739673615,2.66552424430847,1.51481294631958,-0.688691692550512,2.66949158495151,1.56919005480539,1320.08,1351.919,3246.001,3274.385,-0.1106117,0.01652713,0.1076489,-0.883947253227234,-0.399959236383438,0.480243802070618,-0.878034183119987,-0.377793579561193,0.543544985919778,8
1.70001220703125,-0.990328788757324,2.65745806694031,1.52456712722778,-0.706372354049449,2.66188409024902,1.58013522651994,1315.334,1346.997,3253.321,3281.995,-0.1097925,0.01703629,0.108184,-0.894106149673462,-0.403305917978287,0.487710744142532,-0.888274735793774,-0.382199803288802,0.549884375850026,8
1.72000122070313,-1.00841069221497,2.64933061599731,1.53446662425995,-0.724228658537036,2.6542010212754,1.5911891296115,1332.937,1345.816,3249.082,3275.01,-0.1089446,0.0176111,0.1085429,-0.904096007347107,-0.406369924545288,0.494976878166199,-0.898304216251578,-0.386515208538549,0.556093102023817,8
1.739990234375,-1.02668952941895,2.64114689826965,1.5445157289505,-0.74228345468553,2.64643254688532,1.60236590849663,1335.807,1342.146,3257.463,3272.968,-0.108135,0.01820815,0.1088098,-0.913940131664276,-0.409188538789749,0.502458095550537,-0.908134108040217,-0.390744736359816,0.562178273303667,8
1.760009765625,-1.04516112804413,2.63291144371033,1.55471229553223,-0.760560719141003,2.63856835059778,1.61368040586141,1332.499,1338.177,3261.67,3279.6,-0.1073408,0.01882149,0.1090038,-0.923582136631012,-0.411769509315491,0.509826362133026,-0.91777478390713,-0.394892849856044,0.568146310914365,8
1.77999877929688,-1.06382131576538,2.6246292591095,1.56505239009857,-0.779000609654483,2.63063418086074,1.62509557650306,1347.742,1337.494,3256.466,3273.785,-0.1065611,0.01947702,0.109043,-0.9330073595047,-0.414110660552979,0.517002403736115,-0.927192788821983,-0.398945154262308,0.57397650459845,8
1.80001831054688,-1.08266615867615,2.61630415916443,1.57554030418396,-0.797655223615693,2.62260762162281,1.63664367118754,1345.998,1334.029,3265.705,3273.282,-0.105842,0.02013416,0.1090075,-0.942245066165924,-0.416257947683334,0.524397850036621,-0.936412917636689,-0.402912318110697,0.579684203550397,7
1.82000732421875,-1.10169088840485,2.60793995857239,1.5861713886261,-0.816463410111527,2.61451498441355,1.64828683458664,1345.979,1332.193,3264.945,3277.545,-0.105164,0.02080019,0.1088875,-0.951227962970734,-0.418213188648224,0.531551957130432,-0.94540321420156,-0.406780591562751,0.585249625391268,7
1.83999633789063,-1.12089049816132,2.5995397567749,1.59694671630859,-0.835449117627072,2.60634596486888,1.66003989195343,1347.593,1329.083,3271.847,3273.606,-0.1044737,0.02147642,0.1086727,-0.959988176822662,-0.420008450746536,0.538763821125031,-0.954174163352093,-0.410554485950274,0.590679260733698,7
1.86001586914063,-1.1402599811554,2.59110689163208,1.60786163806915,-0.854637305360818,2.59808982374295,1.67191829422076,1347.349,1327.196,3271.531,3276.391,-0.1037738,0.02215746,0.1083821,-0.968474209308624,-0.421638935804367,0.54574853181839,-0.962735018414262,-0.414237982720922,0.595978837827261,7
1.8800048828125,-1.15979373455048,2.58264493942261,1.61891174316406,-0.873964974649439,2.58977366760063,1.68388304221498,1362.778,1328.312,3262.923,3269.355,-0.1031149,0.02285874,0.1079541,-0.97668045759201,-0.423099398612976,0.552502751350403,-0.971056158224177,-0.417818336715394,0.601130019760457,7
1.89999389648438,-1.17948663234711,2.5741560459137,1.63010144233704,-0.893456683142228,2.58138692997148,1.69594933829086,1357.098,1326.015,3271.686,3269.413,-0.102553,0.02353385,0.1074808,-0.98464697599411,-0.424442678689957,0.559484601020813,-0.979147395688901,-0.421299770153459,0.606138881190213,7
1.92001342773438,-1.19933295249939,2.56564235687256,1.64142668247223,-0.913137923350175,2.5729186421402,1.70813296352707,1346.079,1323.475,3276.136,3276.79,-0.1020071,0.02418921,0.1069717,-0.992318093776703,-0.425684452056885,0.566265165805817,-0.987017247723777,-0.424685947625853,0.611010694492843,7
1.94000244140625,-1.21932649612427,2.55710601806641,1.65288066864014,-0.932943991899774,2.5643966441608,1.72039386345315,1359.949,1324.822,3268.136,3267.983,-0.1014462,0.02486307,0.1063326,-0.999679625034332,-0.426813423633575,0.572698831558228,-0.994638524886308,-0.427965170275055,0.615728628108227,7
1.95999145507813,-1.23946189880371,2.54854869842529,1.66446554660797,-0.952900013794853,2.55581012544606,1.73274759164336,1358.565,1323.736,3273.461,3264.193,-0.1009386,0.02551206,0.1056558,-1.00677037239075,-0.427862673997879,0.57924222946167,-1.00202031904361,-0.431141350077486,0.620298310335216,7
1.98001098632813,-1.25973272323608,2.53997182846069,1.67617654800415,-0.973031969359004,2.54714790738853,1.74521023115561,1349.734,1322.218,3274.377,3270.813,-0.1004608,0.02613086,0.1049671,-1.01354646682739,-0.428837954998016,0.585548996925354,-1.00917036754089,-0.434217816196637,0.624724530959079,7
2,-1.28013300895691,2.53137707710266,1.68800747394562,-0.993273599084619,2.53843849960327,1.7577407641983,1361.018,1323.843,3265.837,3263.819,-0.1000017,0.02675116,0.1041764,-1.02000844478607,-0.429733455181122,0.591547071933746,-1.01606400046349,-0.437183953857422,0.628992018127441,6
2.01998901367188,-1.300656914711,2.52276539802551,1.69996106624603,-1.01365055070775,2.52967086658596,1.77035506794184,1354.462,1322.839,3272.45,3262.372,-0.09960435,0.02733356,0.1033693,-1.02619862556458,-0.430589407682419,0.597678065299988,-1.02270954399163,-0.440043345582587,0.633105926142498,6
2.04000854492188,-1.3212982416153,2.51413726806641,1.7120316028595,-1.03418924440916,2.52083364047092,1.78306949773667,1343.211,1321.719,3273.519,3269.165,-0.09920861,0.0278837,0.1025552,-1.03206944465637,-0.431409478187561,0.603528738021851,-1.02911391720548,-0.442798968459032,0.637070538244476,6
2.05999755859375,-1.34205055236816,2.50549364089966,1.72421181201935,-1.05482201812353,2.5119559343546,1.79584216754118,1356.017,1324.105,3263.451,3260.003,-0.09879635,0.02843854,0.1016381,-1.03761911392212,-0.432178676128387,0.60901153087616,-1.03525504859546,-0.445441325732794,0.640872191117535,6
2.08001708984375,-1.36290836334229,2.49683499336243,1.7365038394928,-1.07560676837143,2.50301283698163,1.80870891805959,1351.003,1324.027,3268.188,3256.975,-0.09843789,0.02895445,0.1007145,-1.04289102554321,-0.432929664850235,0.614602386951447,-1.0411492471255,-0.447977434695423,0.644520980787238,6
2.10000610351563,-1.38386511802673,2.48816180229187,1.74890053272247,-1.09647498538954,2.49403382618922,1.82162733848484,1345.374,1324.885,3263.395,3261.515,-0.09812523,0.02943746,0.09978438,-1.04783499240875,-0.43365678191185,0.619835257530212,-1.04677621342161,-0.450398561093403,0.648004340974112,5
2.1199951171875,-1.40491509437561,2.47947406768799,1.76140153408051,-1.11745308225396,2.48500753716864,1.83461377976925,1341.398,1324.221,3267.738,3256.804,-0.09779074,0.0298943,0.09883197,-1.0525004863739,-0.434385865926743,0.625048696994781,-1.0521429102862,-0.45270770082608,0.651326581984514,5
2.1400146484375,-1.42605197429657,2.47077202796936,1.7739999294281,-1.13856809990831,2.47592233495728,1.84768498154507,1335.07,1324.59,3264.551,3259.905,-0.0974227,0.03032443,0.09787635,-1.05684757232666,-0.43510228395462,0.629922151565552,-1.05725481901126,-0.454907212340279,0.654491096999312,4
2.16000366210938,-1.44726967811584,2.46205615997314,1.78668892383575,-1.15975039167652,2.46680818657414,1.86079782920208,1347.76,1327.614,3252.655,3250.942,-0.09705358,0.0307523,0.09684356,-1.06088280677795,-0.435787737369537,0.634449362754822,-1.0620943502576,-0.456989527434725,0.657486997379635,4
2.17999267578125,-1.46856272220612,2.45332646369934,1.79947137832642,-1.18102676265167,2.45765355853653,1.8739689163698,1338.705,1327.79,3257.922,3249.831,-0.09675158,0.03113284,0.09583265,-1.06465399265289,-0.436479359865189,0.639123976230621,-1.06666760390386,-0.458957270716794,0.660318059240953,3
2.20001220703125,-1.48992538452148,2.44458293914795,1.81234157085419,-1.20242455577657,2.44844668594002,1.88721516963236,1323.229,1327.249,3258.834,3257.888,-0.09644052,0.03147454,0.09485191,-1.068119764328,-0.437178760766983,0.643508195877075,-1.07097916161324,-0.460812413548163,0.662987118851036,1
2.22000122070313,-1.51135087013245,2.43582534790039,1.8252911567688,-1.22387315175433,2.43921795429519,1.90049287228091,1334.432,1329.818,3248.407,3247.929,-0.0960746,0.03182212,0.09379369,-1.07128095626831,-0.437864691019058,0.647481858730316,-1.07501419914593,-0.462548577472581,0.665484999299265,0
2.239990234375,-1.53283441066742,2.4270544052124,1.83832156658173,-1.24539969505118,2.42995568409656,1.91381882803312,1329.483,1330.509,3251.491,3243.421,-0.09572413,0.03213476,0.09275513,-1.074178814888,-0.43855819106102,0.651519000530243,-1.07877792518082,-0.464168003639063,0.667814925005999,0
2.260009765625,-1.55436992645264,2.41826939582825,1.85142636299133,-1.26703177594152,2.42064800401982,1.92721011658316,1317.253,1330.38,3249.578,3250.31,-0.0953614,0.03241218,0.0917577,-1.07677733898163,-0.43924954533577,0.655240118503571,-1.08227399942825,-0.465672266718726,0.669979161506271,0
2.27999877929688,-1.57595157623291,2.40947103500366,1.86459839344025,-1.28869796983554,2.41132564607061,1.9406225227075,1327.905,1332.697,3238.867,3241.23,-0.09496459,0.03269132,0.09070067,-1.07908749580383,-0.439920336008072,0.658599615097046,-1.08549040888332,-0.467056197851165,0.67197027217779,0
2.30001831054688,-1.59757471084595,2.40065908432007,1.8778395652771,-1.31045892272318,2.4019625159737,1.95409358916289,1319.192,1332.992,3243.01,3239.25,-0.09459229,0.03293313,0.08967778,-1.08115100860596,-0.440596729516983,0.662057399749756,-1.08843572622736,-0.468323485621664,0.673793563918671,0
2.32000732421875,-1.61923313140869,2.39183378219604,1.8911417722702,-1.33224276726637,2.39258953623693,1.96757882664355,1312.023,1333.865,3237.005,3243.69,-0.09421625,0.0331518,0.08867393,-1.08292305469513,-0.441261351108551,0.665111124515533,-1.09109983431736,-0.469469776906228,0.675442773735451,0
2.33999633789063,-1.64092230796814,2.38299512863159,1.90450406074524,-1.35407709248145,2.38319483607731,1.98109531406483,1308.858,1333.528,3239.385,3237.328,-0.09376831,0.0333578,0.08766478,-1.08445167541504,-0.441927582025528,0.668114304542542,-1.09348640563071,-0.470496651869278,0.67692017506657,0
2.36001586914063,-1.66263604164124,2.37414383888245,1.91791927814484,-1.3759897762471,2.37376642042246,1.99466030916165,1302.685,1334.059,3234.334,3239.816,-0.09325272,0.03354951,0.08667279,-1.08570122718811,-0.442569702863693,0.670763850212097,-1.09559752564474,-0.471405007833448,0.678227058921845,0
2.3800048828125,-1.68436980247498,2.36528062820435,1.93138074874878,-1.39790843013262,2.36433543599182,2.00822900004707,1315.556,1336.511,3221.709,3229.967,-0.09270517,0.0337511,0.08562203,-1.08668088912964,-0.443163752555847,0.673071801662445,-1.09742594550583,-0.472191725819537,0.679358937915576,0
2.39999389648438,-1.70611834526062,2.35640573501587,1.94489145278931,-1.41986083522252,2.35488992936084,2.02181858453579,1305.629,1336.628,3226.057,3228.778,-0.0921981,0.03391939,0.08461268,-1.08743333816528,-0.443739950656891,0.675534248352051,-1.09897439291323,-0.472857979480329,0.680317500623536,0
2.42001342773438,-1.72787690162659,2.34751963615417,1.95844542980194,-1.44187496577138,2.34541786398928,2.035446380024,1289.624,1335.639,3226.185,3236.707,-0.09165056,0.03406548,0.08364706,-1.08792126178741,-0.444291919469833,0.67770129442215,-1.1002439936861,-0.473404253224357,0.681103443981416,0
2.44000244140625,-1.74963974952698,2.33862400054932,1.97203457355499,-1.46387808506052,2.33595053645515,2.04906735901791,1301.839,1337.132,3215.49,3225.316,-0.09100714,0.0342351,0.082612,-1.08814692497253,-0.444793105125427,0.679457426071167,-1.10123038958312,-0.473828671822132,0.681714070030222,0
2.45999145507813,-1.77140259742737,2.32971858978271,1.98565995693207,-1.48589810917879,2.32647593524532,2.06269880290633,1297.661,1337.409,3217.144,3220.285,-0.090352,0.03438841,0.08160551,-1.0881439447403,-0.445255845785141,0.681271553039551,-1.10193535162022,-0.474131997292339,0.68215047511319,0
2.48001098632813,-1.7931604385376,2.32080554962158,1.99931573867798,-1.5079630509786,2.31698200721197,2.07635805297935,1286.236,1336.481,3214.621,3226.331,-0.08966117,0.03452517,0.080646,-1.08788204193115,-0.445665657520294,0.682789444923401,-1.10235904000526,-0.474314298567936,0.682412758406602,0
2.5,-1.81490767002106,2.31188535690308,2.01299476623535,-1.52999999932945,2.30750012397766,2.08999997377396,1297.17,1337.36,3203.802,3217.067,-0.08891123,0.03468133,0.07963164,-1.0873703956604,-0.446001201868057,0.683955669403076,-1.10250000050292,-0.474374949932098,0.682500019669533,0
2.51998901367188,-1.83664059638977,2.30295991897583,2.02669954299927,-1.5520369476803,2.29801824074336,2.10364189456856,1289.557,1336.907,3207.265,3214.051,-0.08816235,0.03482052,0.07865016,-1.08664453029633,-0.446283906698227,0.68523645401001,-1.10235904000526,-0.474314298567936,0.682412758406603,0
2.54000854492188,-1.858353972435,2.29402995109558,2.04042363166809,-1.57410188948011,2.28852431271001,2.11730114464159,1276.322,1335.447,3205.48,3221.022,-0.08735754,0.03495096,0.07770549,-1.08566892147064,-0.446499675512314,0.686204075813293,-1.10193535162022,-0.474131997292339,0.682150475113189,0
2.55999755859375,-1.88004279136658,2.28509759902954,2.05415964126587,-1.59612191359838,2.27904971150017,2.13093258853001,1289.951,1336.061,3194.364,3209.135,-0.08646059,0.03511338,0.07668579,-1.08444952964783,-0.446623653173447,0.686798632144928,-1.10123038958312,-0.473828671822132,0.681714070030222,0
2.58001708984375,-1.90170335769653,2.27616429328918,2.06790947914124,-1.6181586096433,2.26956793682606,2.14457435313522,1284.816,1335.697,3196.355,3204.843,-0.08555938,0.03526685,0.07569148,-1.08301544189453,-0.44667112827301,0.687490820884705,-1.10024227275454,-0.473403512755585,0.681102378642802,0
2.60000610351563,-1.92332983016968,2.26723194122314,2.08166575431824,-1.64013916343638,2.26011031859448,2.15818136301212,1279.37,1335.02,3189.683,3208.42,-0.08464644,0.03541988,0.0747143,-1.08132922649384,-0.446623206138611,0.687816858291626,-1.09897439291323,-0.472857979480329,0.680317500623536,0
2.6199951171875,-1.94491851329803,2.2583019733429,2.09542846679688,-1.66209156852628,2.2506648119635,2.17177094750084,1276.791,1333.102,3192.013,3201.682,-0.08365681,0.03558119,0.07372881,-1.07943212985992,-0.446493864059448,0.688134372234344,-1.09742594550583,-0.472191725819537,0.679358937915576,0
2.6400146484375,-1.96646428108215,2.24937677383423,2.10919117927551,-1.68404365734903,2.24121944141343,2.18536033620513,1270.82,1331.876,3187.39,3203.752,-0.08258889,0.03575025,0.072754,-1.0772910118103,-0.446259796619415,0.688130557537079,-1.09559452046326,-0.471403714787811,0.678225198571351,0
2.66000366210938,-1.98796260356903,2.24045848846436,2.12294721603394,-1.70592290617745,2.23180541187802,2.19890463348308,1285.165,1332.009,3175.463,3192.437,-0.08146024,0.0359518,0.07170955,-1.07491064071655,-0.445898175239563,0.687800407409668,-1.09348640563071,-0.470496651869278,0.67692017506657,0
2.67999267578125,-2.00940895080566,2.23154997825623,2.13669967651367,-1.72775723139253,2.2224107117184,2.21242112090437,1278.071,1330.895,3178.4,3189.584,-0.08035609,0.03614468,0.07069265,-1.07232058048248,-0.445431798696518,0.687622666358948,-1.09109983431736,-0.469469776906228,0.675442773735451,0
2.70001220703125,-2.03079867362976,2.22265267372131,2.1504430770874,-1.74957429229274,2.21302343991116,2.22592692089233,1264.236,1328.386,3177.378,3196.734,-0.07921413,0.0363366,0.06970511,-1.06949031352997,-0.444854527711868,0.687173068523407,-1.08843144721369,-0.468321644481621,0.673790915005369,0
2.72000122070313,-2.05212712287903,2.21376991271973,2.16417050361633,-1.77130202882336,2.20367460188472,2.23937742484041,1277.59,1327.569,3167.605,3184.278,-0.07797576,0.036569,0.06863406,-1.06642365455627,-0.444147676229477,0.686369717121124,-1.08549040888332,-0.467056197851165,0.671970272177789,0
2.739990234375,-2.07338976860046,2.20490336418152,2.17788338661194,-1.79296822271738,2.1943522439355,2.25278983096475,1274.019,1326.43,3169.024,3178.829,-0.07672673,0.0368032,0.06757673,-1.06314051151276,-0.443323135375977,0.685644686222076,-1.08227399942825,-0.465672266718727,0.669979161506271,0
2.760009765625,-2.09458208084106,2.19605588912964,2.1915762424469,-1.81460030360772,2.18504456385877,2.26618111951479,1264.393,1323.899,3166.166,3183.567,-0.07543989,0.03704048,0.06654509,-1.05961418151855,-0.442370057106018,0.684638500213623,-1.07877792518082,-0.464168003639063,0.667814925005998,0
2.77999877929688,-2.11569929122925,2.18723011016846,2.205242395401,-1.83612684690458,2.17578229366013,2.27950707526701,1277.415,1322.651,3156.006,3172.278,-0.07408914,0.03731313,0.06544083,-1.05585169792175,-0.441273003816605,0.683313250541687,-1.07501419914593,-0.462548577472581,0.665484999299265,0
2.80001831054688,-2.13673686981201,2.17842936515808,2.21888446807861,-1.85760812647542,2.16653949917827,2.29280501061661,1271.667,1321.01,3158.352,3168.311,-0.07274904,0.03758386,0.06435452,-1.05187547206879,-0.440050005912781,0.682106018066406,-1.07097279461286,-0.460809674005774,0.6629831773745,0
2.82000732421875,-2.15768980979919,2.16965556144714,2.23249530792236,-1.87897323600723,2.1573466894188,2.30603103117811,1266.58,1318.879,3151.911,3171.447,-0.07139722,0.03786377,0.06326947,-1.04765343666077,-0.438688606023788,0.680538177490234,-1.06666760390385,-0.458957270716794,0.660318059240952,0
2.83999633789063,-2.17855453491211,2.16091156005859,2.24607443809509,-1.90024960698239,2.14819206138118,2.31920211834584,1266.316,1316.028,3153.508,3162.866,-0.06997029,0.03816213,0.06215497,-1.04321920871735,-0.437201946973801,0.678962290287018,-1.06209435025759,-0.456989527434725,0.657486997379635,0
2.86001586914063,-2.19932508468628,2.15220022201538,2.2596161365509,-1.9214641634913,2.13906403038149,2.33233493941432,1261.828,1313.927,3148.262,3163.897,-0.06848052,0.03847478,0.06103634,-1.03854238986969,-0.435572057962418,0.677081406116486,-1.05724722779031,-0.454903946049977,0.654486397671922,0
2.8800048828125,-2.21999788284302,2.14352440834045,2.27311420440674,-1.94254691640495,2.12999271078668,2.34538616777867,1276.875,1312.652,3136.999,3151.517,-0.06694494,0.03882266,0.05983799,-1.03362691402435,-0.43378409743309,0.674906313419342,-1.0521429102862,-0.45270770082608,0.651326581984514,0
2.89999389648438,-2.24056768417358,2.13488721847534,2.28657197952271,-1.96352501326936,2.1209664217661,2.35837260906308,1270.407,1310.905,3139.334,3148.086,-0.06545357,0.0391656,0.05865795,-1.02849304676056,-0.431859910488129,0.672885417938232,-1.04677621342161,-0.450398561093403,0.648004340974112,0
2.92001342773438,-2.2610297203064,2.12629175186157,2.29998421669006,-1.98442500350686,2.11197373984504,2.37131069862469,1257.372,1307.586,3138.068,3154.344,-0.06394356,0.03951001,0.05749694,-1.02311849594116,-0.429800599813461,0.670606851577759,-1.04114045847258,-0.4479736531836,0.644515540192422,0
2.94000244140625,-2.28138017654419,2.11773943901062,2.31334400177002,-2.00517798053537,2.10304431360073,2.38415778000673,1270.852,1305.502,3128.767,3141.352,-0.06235312,0.03989405,0.05624546,-1.01750755310059,-0.427595138549805,0.667990565299988,-1.03525504859546,-0.445441325732794,0.640872191117535,0
2.95999145507813,-2.30161333084106,2.10923457145691,2.32665324211121,-2.02581075424974,2.0941666074844,2.39693044981124,1268.361,1303.892,3129.771,3134.504,-0.06076694,0.04028049,0.05499926,-1.01167321205139,-0.425255477428436,0.665458798408508,-1.02911391720548,-0.442798968459032,0.637070538244476,0
2.98001098632813,-2.32172513008118,2.10077929496765,2.33990597724915,-2.04634944795115,2.08532938136936,2.40964487960608,1259.147,1300.772,3126.094,3139.074,-0.05916692,0.04066881,0.05377327,-1.00559437274933,-0.422776192426682,0.662641048431396,-1.02270954399162,-0.440043345582586,0.633105926142498,0
3,-2.34171104431152,2.09237599372864,2.35309672355652,-2.06672639957428,2.07656174835205,2.42225918334961,1272.639,1298.461,3116.569,3126.603,-0.05751895,0.04108863,0.05246872,-0.999281406402588,-0.420150339603424,0.659534156322479,-1.01606400046349,-0.437183953857422,0.628992018127441,0
3.01998901367188,-2.36156606674194,2.0840277671814,2.36622762680054,-2.0869680292999,2.06785234056679,2.43478971639231,1266.921,1296.644,3118.194,3122.303,-0.05590401,0.04150335,0.05117942,-0.992747843265533,-0.417394489049911,0.65654194355011,-1.00917036754089,-0.434217816196637,0.624724530959079,0
3.04000854492188,-2.38128566741943,2.07573795318604,2.37929320335388,-2.10709998486405,2.05919012250926,2.44725235590455,1255.91,1293.302,3115.52,3127.379,-0.05427203,0.04191841,0.04990492,-0.985976576805115,-0.414508670568466,0.653273344039917,-1.00202031904361,-0.431141350077486,0.620298310335216,0
3.05999755859375,-2.40086507797241,2.06750822067261,2.39228701591492,-2.12705600675913,2.05060360379452,2.45960608409476,1269.692,1290.952,3105.868,3114.27,-0.05257612,0.04236719,0.04854165,-0.978974342346191,-0.411484986543655,0.649689137935638,-0.994638524886308,-0.427965170275055,0.615728628108227,0
3.08001708984375,-2.42030000686646,2.05934119224548,2.40521097183228,-2.14689219650438,2.04206864550612,2.47188563047583,1266.531,1289.476,3106.381,3107.94,-0.05090632,0.04281318,0.04718367,-0.971750855445862,-0.408335864543915,0.646201848983765,-0.987005430654711,-0.424680863071165,0.611003379164165,0
3.10000610351563,-2.43958568572998,2.05124020576477,2.41805863380432,-2.16654331551667,2.03361331798384,2.48405060925705,1262.039,1286.87,3099.76,3109.893,-0.04925729,0.04326056,0.04582858,-0.964287638664246,-0.405059039592743,0.642384648323059,-0.979147395688901,-0.421299770153459,0.606138881190213,0
3.1199951171875,-2.45871782302856,2.04320693016052,2.43082976341248,-2.18603502400946,2.02522658035469,2.49611690533293,1261.702,1283.785,3100.345,3101.34,-0.04757151,0.04371697,0.04444769,-0.956611096858978,-0.401668459177017,0.638557195663452,-0.971056158224178,-0.417818336715394,0.601130019760458,0
3.1400146484375,-2.47769165039063,2.03524398803711,2.44351887702942,-2.20539207344272,2.01689778275692,2.50809984103626,1256.874,1281.377,3095.259,3101.589,-0.0458575,0.04417779,0.04306469,-0.948703706264496,-0.398157626390457,0.634458661079407,-0.962722140342815,-0.41423244164655,0.595970865687568,0
3.16000366210938,-2.4965033531189,2.02735304832458,2.45612072944641,-2.22455088103183,2.00865428308644,2.51996005559448,1269.811,1279.241,3085.37,3089.361,-0.04411739,0.04466079,0.04161264,-0.94057023525238,-0.394520431756973,0.63008850812912,-0.954174163352092,-0.410554485950274,0.590679260733698,0
3.17999267578125,-2.51514744758606,2.01953768730164,2.46863746643066,-2.24353658854737,2.00048526354177,2.53171311296128,1264.293,1277.698,3086.203,3084.835,-0.04243214,0.04513229,0.04017963,-0.932221412658691,-0.390772253274918,0.625833809375763,-0.945403214201559,-0.406780591562751,0.585249625391267,0
3.20001220703125,-2.53362059593201,2.01179933547974,2.48106384277344,-2.26237335188561,1.99238033051557,2.54337396678712,1252.725,1274.56,3083.336,3089.957,-0.04075489,0.04559711,0.03876666,-0.923649191856384,-0.386918991804123,0.621321439743042,-0.93639902618694,-0.402906341007952,0.579675604081262,0
3.22000122070313,-2.551917552948,2.00414037704468,2.49339437484741,-2.28099938900442,1.98436606709459,2.55490437104486,1264.872,1271.978,3075.035,3076.771,-0.0390249,0.0460857,0.03727583,-0.914863288402557,-0.382958799600601,0.616525888442993,-0.927192788821982,-0.398945154262308,0.573976504598449,0
3.239990234375,-2.57003498077393,1.99656224250793,2.50563025474548,-2.2994392795179,1.97643189735754,2.5663195416865,1261.468,1270.81,3074.638,3070.608,-0.03732633,0.04656626,0.03579745,-0.905867278575897,-0.378899842500687,0.611791431903839,-0.917774783907129,-0.394892849856044,0.568146310914365,0
3.260009765625,-2.58796834945679,1.9890673160553,2.51776623725891,-2.31771654397337,1.96856770107001,2.57763403905129,1252.614,1267.947,3070.781,3073.777,-0.03563523,0.04703937,0.03434087,-0.896655261516571,-0.374745070934296,0.606800675392151,-0.908134108040216,-0.390744736359816,0.562178273303667,0
3.27999877929688,-2.60571312904358,1.98165774345398,2.52979707717896,-2.33577134012187,1.96079922667992,2.58881081793642,1264.166,1265.378,3062.209,3061.535,-0.03391163,0.04752909,0.03282163,-0.887237668037415,-0.370493084192276,0.601544976234436,-0.898304216251578,-0.386515208538549,0.556093102023818,0
3.30001831054688,-2.62326550483704,1.9743344783783,2.54172444343567,-2.35365475236716,1.95310449399547,2.59988150202132,1259.51,1264.209,3061.899,3056.498,-0.03223543,0.04800574,0.03132301,-0.877620100975037,-0.366153538227081,0.59636664390564,-0.88825927318574,-0.382193150160541,0.549874803759067,0
3.32000732421875,-2.64062142372131,1.96710014343262,2.553542137146,-2.37130830610839,1.94550866300381,2.61080989274252,1254.509,1261.662,3055.641,3057.96,-0.0305864,0.04847538,0.02983459,-0.867798686027527,-0.36173003911972,0.590886652469635,-0.878034183119985,-0.377793579561194,0.543544985919778,0
3.33999633789063,-2.65777730941772,1.9599552154541,2.56524991989136,-2.38875555478454,1.93800159931817,2.62161057080077,1254.152,1259.125,3055.249,3049.348,-0.02891181,0.04894549,0.02832856,-0.857793152332306,-0.357232809066772,0.585386693477631,-0.867618167158097,-0.373311858882592,0.53709697585572,0
3.36001586914063,-2.67472910881042,1.95290207862854,2.57684278488159,-2.40601888046917,1.93057367255756,2.63229739176581,1249.594,1257.211,3049.788,3048.903,-0.02722283,0.04941184,0.02682897,-0.847594380378723,-0.352658271789551,0.579639077186584,-0.856999388527103,-0.368742895092007,0.53052344604056,0
3.3800048828125,-2.69147324562073,1.94594216346741,2.58831572532654,-2.42304196557559,1.92324911460621,2.64283549236868,1260.894,1255.104,3040.661,3037.204,-0.02551841,0.04988858,0.02527801,-0.837208569049835,-0.348003566265106,0.573650181293488,-0.846214826007803,-0.364102599125748,0.523847288101157,0
3.39999389648438,-2.70800590515137,1.93907642364502,2.59967088699341,-2.43984769972619,1.91601807669906,2.65323904237604,1255.858,1254.228,3040.112,3032.621,-0.02387843,0.05034812,0.02375467,-0.826640725135803,-0.34327819943428,0.567755997180939,-0.835253140422974,-0.35938609205264,0.51706148254665,0
3.42001342773438,-2.72432422637939,1.93230676651001,2.6109037399292,-2.45645774020782,1.90887124031063,2.66352144868012,1244.78,1251.7,3037.073,3036.817,-0.02226349,0.05079347,0.02226211,-0.815894484519958,-0.338490754365921,0.561645328998566,-0.824102019042908,-0.354588076049064,0.510158407210813,0
3.44000244140625,-2.74042344093323,1.92563390731812,2.62200951576233,-2.47281804716281,1.90183185728196,2.67364925803476,1254.302,1249.189,3029.74,3025.13,-0.0206102,0.05125032,0.02071499,-0.804981291294098,-0.333642780780792,0.555285751819611,-0.812800388649434,-0.349725300221754,0.503162159625937,0
3.45999145507813,-2.75630164146423,1.91905903816223,2.63298892974854,-2.48895081463434,1.8948903781363,2.68363620960993,1251.437,1248.585,3028.448,3018.666,-0.01898994,0.05169415,0.01918935,-0.793900966644287,-0.328737825155258,0.548973441123962,-0.80133641229185,-0.344792671461508,0.496065412155666,0
3.48001098632813,-2.77195477485657,1.91258335113525,2.64383745193481,-2.50487694859767,1.88803780761656,2.69349524520019,1243.304,1246.322,3024.024,3021.287,-0.01738831,0.05212438,0.01769644,-0.782656490802765,-0.32377952337265,0.542430818080902,-0.789697369743255,-0.339784716610052,0.488860290373601,0
3.5,-2.78737998008728,1.90620803833008,2.65455102920532,-2.5205447997813,1.88129636896134,2.70319439144611,1253.218,1243.892,3016.502,3009.725,-0.01576645,0.05256085,0.01616221,-0.771260023117065,-0.318768918514252,0.535673916339874,-0.777924000354857,-0.334718964672089,0.481572013878822,0
3.51998901367188,-2.80257415771484,1.89993381500244,2.66513061523438,-2.53597583877076,1.87465682397749,2.71274693966292,1248.294,1243.348,3015.314,3005.387,-0.01419838,0.05297944,0.01466237,-0.759712636470795,-0.313710659742355,0.528984785079956,-0.766004036374581,-0.329590137176618,0.474192988348404,0
3.54000854492188,-2.81753444671631,1.89376187324524,2.67557239532471,-2.55119019794619,1.86811051026429,2.72216535275294,1239.096,1241.08,3011.5,3008.584,-0.01265055,0.05338335,0.0131954,-0.748022139072418,-0.308611214160919,0.522085070610046,-0.753924423002452,-0.324392617007921,0.466715132239272,0
3.55999755859375,-2.83225870132446,1.88769221305847,2.68587183952332,-2.56613872308604,1.86167857751006,2.73141920191151,1248.256,1238.768,3004.443,2997.267,-0.01107342,0.05379402,0.01168605,-0.736199915409088,-0.303471803665161,0.514977335929871,-0.741727567798258,-0.319144650954242,0.459164697851087,0
3.58001708984375,-2.8467435836792,1.88172626495361,2.69603037834167,-2.58086439685043,1.85534253147694,2.74053509545279,1244.492,1238.48,3002.937,2992.006,-0.00953891,0.05418848,0.0102077,-0.724244117736816,-0.298294395208359,0.507928013801575,-0.729381927869994,-0.313832666990361,0.451522158631107,0
3.60000610351563,-2.86098647117615,1.87586486339569,2.70604276657104,-2.59531978247425,1.84912278287974,2.74948366775945,1240.474,1236.448,2996.603,2992.784,-0.00803742,0.05457089,0.008753577,-0.7121621966362,-0.293083518743515,0.500625252723694,-0.716930938559024,-0.308475354130224,0.443814403124743,0
3.6199951171875,-2.87498617172241,1.87010788917542,2.71590924263,-2.60952509409627,1.84301063413925,2.75827743234631,1240.956,1234.674,2995.364,2984.298,-0.006529538,0.05494698,0.00730016,-0.699967205524445,-0.287844896316528,0.493329793214798,-0.704361775018033,-0.303067194200314,0.436033492140578,0
3.6400146484375,-2.88873910903931,1.86445641517639,2.72562646865845,-2.62349913748426,1.83699799365897,2.76692803087948,1235.44,1233.415,2990.412,2984.65,-0.00503444,0.05531103,0.005876151,-0.687659859657288,-0.282578110694885,0.485857158899307,-0.691660998977508,-0.297602405088683,0.428171106749629,0
3.66000366210938,-2.90224409103394,1.85891079902649,2.73519062995911,-2.63719712493647,1.83110413233575,2.77540773763803,1243.513,1231.366,2983.423,2974.803,-0.003532417,0.05567623,0.004429387,-0.67524927854538,-0.277283906936646,0.478210240602493,-0.678873453515702,-0.29210028151913,0.420255006953505,0
3.67999267578125,-2.91549873352051,1.85347151756287,2.74460339546204,-2.65063849381582,1.82532068681534,2.78372858527554,1239.445,1231.057,2981.865,2970.504,-0.002087386,0.05602357,0.003021634,-0.66273558139801,-0.2719646692276,0.470635056495667,-0.665986083416798,-0.286555206197011,0.41227711095171,0
3.70001220703125,-2.92850160598755,1.8481388092041,2.75386118888855,-2.66384123964357,1.81963991412768,2.79190171387692,1231.004,1229.195,2978.236,2973.308,-0.0006721818,0.056355,0.001654111,-0.650130987167358,-0.266627430915833,0.462893903255463,-0.65298533214413,-0.280961346123326,0.404229026602262,0
3.72000122070313,-2.94125032424927,1.84291338920593,2.7629611492157,-2.6767633032417,1.81407991116207,2.79990108680742,1238.372,1227.042,2972.489,2963.214,0.000762381,0.05668879,0.0002624298,-0.6374471783638,-0.261274725198746,0.454996675252914,-0.639917282339434,-0.275338529371411,0.396139281255611,0
3.739990234375,-2.95374393463135,1.83779525756836,2.77190399169922,-2.68942333385363,1.80863265367006,2.80773824883709,1235.155,1226.901,2970.401,2958.659,0.002154475,0.05700698,-0.001091896,-0.624681234359741,-0.255906134843826,0.44714343547821,-0.62676873176137,-0.26968107538565,0.387999702095468,0
3.760009765625,-2.96598076820374,1.83278489112854,2.78068661689758,-2.70183851231475,1.80329074921818,2.81542383572149,1228.989,1225.149,2966.342,2960.026,0.003520799,0.05731145,-0.002406965,-0.611844897270203,-0.250526458024979,0.439133793115616,-0.613526094901139,-0.263983138701136,0.379801879044709,0
3.77999877929688,-2.97795987129211,1.8278820514679,2.78930640220642,-2.7139695770734,1.79807109095524,2.82293354268985,1236.077,1223.131,2960.628,2950.619,0.004893311,0.05761515,-0.003735882,-0.598948657512665,-0.245137751102448,0.430994480848312,-0.60023651686137,-0.258265004538452,0.371574997167698,0
3.79998779296875,-2.98967933654785,1.82308709621429,2.79776477813721,-2.72583438304408,1.79296599641037,2.83027842278479,1232.173,1222.989,2958.847,2946.932,0.006213293,0.05790191,-0.005020591,-0.585990965366364,-0.23974022269249,0.422918260097504,-0.586886736182787,-0.252520966862155,0.36331084698941,0
3.82000732421875,-3.00113916397095,1.81840014457703,2.80605888366699,-2.73744929742843,1.78796842323393,2.8374686080838,1225.611,1221.257,2955.134,2948.765,0.007504621,0.05817449,-0.006264288,-0.572985887527466,-0.234339833259583,0.41470068693161,-0.573463232144022,-0.246745208083563,0.355001058539243,0
3.83999633789063,-3.01233768463135,1.81382131576538,2.81418633460999,-2.74877791451009,1.78309403578861,2.84448156171422,1232.246,1219.302,2949.931,2939.673,0.008804672,0.05844675,-0.007519169,-0.559943735599518,-0.228938654065132,0.406370550394058,-0.560014026276881,-0.240958390526246,0.346675359432959,0
3.86001586914063,-3.02327489852905,1.80935096740723,2.82214832305908,-2.7598539723994,1.77832831750807,2.85133816917351,1229.188,1219.229,2947.782,2935.895,0.01005567,0.05870318,-0.008731972,-0.546862006187439,-0.223535880446434,0.398095488548279,-0.546505271550556,-0.235145950758426,0.338312796746137,0
3.8800048828125,-3.0339503288269,1.80498802661896,2.82994174957275,-2.77064299647982,1.77368610185671,2.85801708903178,1226.179,1217.556,2942.874,2936.009,0.01126796,0.05894753,-0.009910688,-0.533754587173462,-0.218137323856354,0.389672666788101,-0.532985466132484,-0.229328756186666,0.329943393154704,0
3.89999389648438,-3.04436326026917,1.80073285102844,2.83756756782532,-2.78116151864576,1.76916027562219,2.86452855531919,1226.397,1216.326,2941.649,2929.296,0.01246915,0.05918353,-0.01107076,-0.520628988742828,-0.212745845317841,0.381290435791016,-0.519441457145543,-0.223501147495394,0.321559006401168,0
3.92001342773438,-3.05451250076294,1.79658603668213,2.84502363204956,-2.79142456801014,1.76474437219711,2.87088187177258,1222.289,1215.374,2937.397,2929.484,0.0136439,0.05940744,-0.01219142,-0.507491827011108,-0.20736263692379,0.372801303863525,-0.505860052376089,-0.217657448443621,0.313151469876846,0
