t,x_s1,x_s2,x_s3,x_s_d1,x_s_d2,x_s_d3,propellers_rpms1,propellers_rpms2,propellers_rpms3,propellers_rpms4,rollRad,pitchRad,yawRad,v_s1,v_s2,v_s3,v_s_d1,v_s_d2,v_s_d3,insideCount
0,-0.0599999986588955,2.94000005722046,1.17999994754791,-0.0599999986588955,2.94000005722046,1.17999994754791,0,0,0,0,0,0,0,0,0,0,-1.06581410364015E-15,4.44089209850063E-16,4.44089209850063E-16,0
0.019989013671875,-0.0599999986588955,2.94000005722046,1.1771354675293,-0.0600018659130177,2.93999925379318,1.18000110346716,0,0,0,0,0.0163538,-0.002474609,-2.024222E-05,3.71994488546079E-08,3.50004931704007E-08,-0.143225952982903,-0.000279680311988734,-0.000120338624884473,0.000173135436141649,5
0.03997802734375,-0.0599999986588955,2.94000005722046,1.17048275470734,-0.060014847005691,2.93999366839165,1.1800091393819,0,0,0,0,0.03270752,-0.004950816,-5.430172E-05,3.62924410524101E-08,3.44428769949445E-08,-0.332637369632721,-0.00110975851463131,-0.000477498085781228,0.000686993385685745,6
0.05999755859375,-0.0600004345178604,2.94013261795044,1.16416549682617,-0.0600498857373401,2.93997859220429,1.18003083002592,3185.316,2835.736,1501.19,2767.685,0.03128079,-0.00494336,-0.01646952,-2.17781544051832E-05,0.00662216590717435,-0.315863490104675,-0.00247936261166862,-0.00106680046642749,0.00153484356504269,6
0.079986572265625,-0.0599162168800831,2.94038772583008,1.1585773229599,-0.0601174907153006,2.93994950367094,1.18007268072775,3066.254,3067.415,2154.564,2023.858,0.01897243,-0.004311658,-0.04351499,0.00421092426404357,0.0127503918483853,-0.279410123825073,-0.00437104534358026,-0.00188073869847162,0.00270588528944111,6
0.100006103515625,-0.0596375688910484,2.94068765640259,1.15374839305878,-0.0602282404704493,2.93990185114529,1.18014124010193,2639.7,3831.725,2620.663,1134.984,-0.005857889,-0.002887932,-0.07014393,0.0139324627816677,0.014997560530901,-0.241444140672684,-0.00677739276378709,-0.00291612276782231,0.00419552897277328,6
0.1199951171875,-0.0590849183499813,2.94089889526367,1.14957022666931,-0.0603918861403606,2.93983143898525,1.18024254456713,2092.622,4101.94,3169.271,755.7048,-0.04012638,-0.0004506069,-0.08993442,0.027632512152195,0.0105598699301481,-0.208909034729004,-0.00967801353495435,-0.00416417885169243,0.00599115140585487,5
0.139984130859375,-0.0582315325737,2.94085621833801,1.14596652984619,-0.0606183773949454,2.93973398612584,1.18038275344299,1509.612,4074.846,3736.19,702.2275,-0.07649823,0.002388953,-0.09949463,0.0426693111658096,-0.00213269237428904,-0.180182844400406,-0.0130632593357409,-0.00562075554695178,0.00808677981816243,4
0.160003662109375,-0.0570995584130287,2.94039487838745,1.14297783374786,-0.0609177895434042,2.93960515744296,1.18056810382587,1134.981,3846.751,4070.012,880.2283,-0.1062766,0.00433572,-0.09869568,0.0565987043082714,-0.0230725929141045,-0.149436935782433,-0.0169265510445065,-0.00728302204135792,0.0104783414199936,4
0.17999267578125,-0.0557378828525543,2.93938803672791,1.14071130752563,-0.0612985250199726,2.93944133760391,1.18080379722281,1102.094,3565.251,4009.382,1148.464,-0.1236261,0.004491533,-0.08999886,0.068083867430687,-0.0503455922007561,-0.113327711820602,-0.0212433804254414,-0.00914043312572283,0.0131506644458931,3
0.199981689453125,-0.0541966818273067,2.9377772808075,1.13924860954285,-0.0617700327574899,2.93923846099686,1.18109568297336,1372.609,3339.941,3595.004,1386.494,-0.1278728,0.003022777,-0.07724658,0.0770601183176041,-0.0805379673838615,-0.0731371641159058,-0.0260066742439309,-0.011189945384795,0.0160993702266893,3
0.220001220703125,-0.0525145009160042,2.93557620048523,1.13858389854431,-0.0623420644491781,2.93899233174064,1.18144979784016,1790.7,3212.51,3017.013,1527.519,-0.1229672,0.0008614266,-0.06425995,0.0841090977191925,-0.110052712261677,-0.0332335457205772,-0.03121219533433,-0.0134297356845702,0.019321835755004,3
0.239990234375,-0.0507198721170425,2.93284702301025,1.13860726356506,-0.0630214373585105,2.93870001655724,1.18187036203406,2160.425,3168.745,2516.617,1557.806,-0.1149623,-0.0009885654,-0.05362541,0.0897314250469208,-0.136454910039902,0.00116699561476707,-0.0368316683029241,-0.015847637913056,0.022800557215184,3
0.259979248046875,-0.0488375686109066,2.92966485023499,1.13913774490356,-0.0638172488896441,2.93835760108779,1.18236300728159,2350.884,3159.44,2274.466,1495.827,-0.1090538,-0.001903628,-0.04623727,0.0941151678562164,-0.159105032682419,0.0265245847404003,-0.0428604193878216,-0.0184416410810803,0.0265326413259761,3
0.279998779296875,-0.0468920804560184,2.92608761787415,1.13999581336975,-0.0647390625194898,2.93796097043536,1.18293365383054,2352.295,3151.544,2324.618,1364.327,-0.1078106,-0.001743838,-0.04152507,0.0972745046019554,-0.178860485553741,0.0429025739431381,-0.0492963837173861,-0.0212108567320638,0.030516809833474,3
0.29998779296875,-0.0449090749025345,2.92214369773865,1.14106214046478,-0.0657918945890516,2.93750796620855,1.18358540703494,2230.566,3144.438,2571.943,1193.599,-0.1110868,-0.000737163,-0.03799106,0.0991502404212952,-0.197192072868347,0.0533160716295242,-0.0561078595514081,-0.0241416444928383,0.0347334378503248,3
0.32000732421875,-0.0429172329604626,2.91783571243286,1.14229369163513,-0.0669865614821475,2.93699393441958,1.18432496275165,2072.869,3133.042,2873.931,1032.446,-0.1169362,0.0006867026,-0.03397927,0.0995921269059181,-0.215403288602829,0.0615791752934456,-0.0633036493784043,-0.0272377918282996,0.0391879745362408,3
0.339996337890625,-0.0409492403268814,2.91315126419067,1.14370739459991,-0.068326768706371,2.93641728069206,1.18515461486636,1956.291,3106.493,3108.503,922.3207,-0.1228458,0.002069147,-0.02838131,0.0983997136354446,-0.234226211905479,0.0706857666373253,-0.0708499516420146,-0.0304847548730522,0.0438594951176439,3
0.3599853515625,-0.0390404462814331,2.90807747840881,1.14534294605255,-0.0698213312158394,2.93577421219747,1.18607982025561,1903.444,3066.717,3223.325,879.83,-0.1267196,0.003093368,-0.02086747,0.0954398438334465,-0.253690481185913,0.0817748755216599,-0.0787457139191101,-0.0338820807988248,0.0487473480944833,3
0.3800048828125,-0.0372259914875031,2.90261054039001,1.14724290370941,-0.0714797725314022,2.93506063123087,1.18710647443246,1923.443,3019.922,3207.34,897.6321,-0.1274131,0.003642768,-0.01188515,0.0907223299145699,-0.273344427347183,0.0949989780783653,-0.0869921272359981,-0.0374302820709642,0.0538522707687797,3
0.399993896484375,-0.0355375818908215,2.89676141738892,1.14943158626556,-0.0733036822025899,2.9342758538535,1.18823556140379,1993.059,2990.014,3097.565,937.8207,-0.1250365,0.003789631,-0.002210424,0.0844204947352409,-0.29245588183403,0.109431304037571,-0.0955525119207663,-0.0411135764513579,0.0591515566763244,3
0.41998291015625,-0.0340022519230843,2.89055490493774,1.15190541744232,-0.075301871434707,2.93341608884986,1.18947253572543,2071.038,2974.869,2954.322,986.5058,-0.120508,0.003707336,0.007344046,0.0767665728926659,-0.310323446989059,0.123691968619823,-0.104427768518458,-0.0449323514193797,0.064645763297398,3
0.44000244140625,-0.0326428562402725,2.88402462005615,1.15464127063751,-0.077483988232608,2.93247718495301,1.19082336997196,2135.993,2971.441,2825.25,1025.052,-0.1150624,0.003564341,0.01614878,0.0679701492190361,-0.32650887966156,0.136791497468948,-0.113620829717891,-0.048887868829098,0.0703367061060819,4
0.459991455078125,-0.0314787179231644,2.8772075176239,1.15760183334351,-0.0798493430620752,2.93145943885026,1.19228763728888,2170.308,2978.896,2747.439,1037.424,-0.1098607,0.003473296,0.02394099,0.0582066252827644,-0.340852826833725,0.148026660084724,-0.123092454730403,-0.0529632444654124,0.0762000931848968,4
0.47998046875,-0.0305270031094551,2.87013840675354,1.16074728965759,-0.082406855753501,2.93035901258777,1.1938708594761,2166.761,2984.408,2733.886,1032.456,-0.105548,0.003481492,0.03075248,0.0475858524441719,-0.353454440832138,0.157275795936584,-0.132845337826091,-0.057159637597476,0.0822375924153778,4
0.5,-0.0298038721084595,2.86284685134888,1.16405153274536,-0.085166398670376,2.92917165836334,1.1955791479969,2146.059,2987.804,2763.034,1011.566,-0.1022526,0.003569758,0.03679183,0.0361565612256527,-0.364580154418945,0.165212035179138,-0.142884000065179,-0.0614789935111996,0.0884520025491718,4
0.519989013671875,-0.029324609786272,2.8553569316864,1.16749930381775,-0.0881248588203387,2.92789871561062,1.19741057576073,2119.006,2994.125,2815.412,975.6638,-0.09983286,0.003684996,0.04240492,0.0239632241427898,-0.374494105577469,0.172388359904289,-0.153166947611899,-0.0659034585682559,0.0948176369253132,4
0.53997802734375,-0.0291041880846024,2.84768867492676,1.17108488082886,-0.0912913676125048,2.92653625533937,1.19937079554481,2087.383,2992.123,2872.799,950.5129,-0.09783761,0.003776492,0.04786441,0.0110209072008729,-0.383416444063187,0.179279237985611,-0.16369851368286,-0.0704348972306956,0.101337178011302,4
0.55999755859375,-0.0291576720774174,2.83985877037048,1.17481541633606,-0.094676112580471,2.92507989413848,1.20146611391775,2069.942,2986.984,2908.498,937.729,-0.09576834,0.003796665,0.05328802,-0.00267437007278204,-0.391501069068909,0.186526834964752,-0.17448465888317,-0.0750758741803766,0.108014315705644,5
0.579986572265625,-0.0294990688562393,2.83188319206238,1.1786984205246,-0.0982734311149,2.92353206847056,1.2036930254546,2066.54,2987.774,2920.45,928.0485,-0.09338588,0.003715618,0.05873338,-0.0170692652463913,-0.398778676986694,0.194150671362877,-0.185481935470438,-0.0798076950675377,0.114822153786096,5
0.600006103515625,-0.0301410965621471,2.82377862930298,1.18273830413818,-0.102098762959148,2.92188613504538,1.20606108809202,2064.689,2984.355,2914.434,938.2252,-0.09051392,0.003537172,0.06411865,-0.0321021191775799,-0.405224055051804,0.201991960406303,-0.196713446836865,-0.0846403006364086,0.121774994352997,5
0.6199951171875,-0.0310954600572586,2.81556248664856,1.18694221973419,-0.106144683970236,2.92014528826426,1.20856570593183,2075.702,2985.114,2884.025,955.8634,-0.08716846,0.003271722,0.06927586,-0.0477174147963524,-0.41080766916275,0.210198596119881,-0.208134604141382,-0.0895545055543457,0.128845234789665,5
0.639984130859375,-0.0323708578944206,2.80725359916687,1.19130301475525,-0.110420882305709,2.91830535958365,1.21121287640506,2081.983,2994.229,2859.489,962.475,-0.08363497,0.002939257,0.07416344,-0.0637701526284218,-0.415447920560837,0.218039244413376,-0.219752140575416,-0.0945532069255159,0.136037043262338,5
0.660003662109375,-0.0339754745364189,2.79887008666992,1.19582152366638,-0.114938248900541,2.91636166293851,1.21400934151928,2086.158,2994.78,2824.831,991.6528,-0.07997473,0.002569873,0.07858527,-0.0802310407161713,-0.419172048568726,0.225927650928497,-0.231574097577923,-0.0996398647564507,0.143355397804799,5
0.67999267578125,-0.0359144620597363,2.79043078422546,1.20048642158508,-0.119686638739014,2.91431856344567,1.21694882102647,2091.943,3011.96,2806.375,985.527,-0.07661914,0.002166106,0.08261591,-0.0969487503170967,-0.421968013048172,0.233242407441139,-0.243554411173546,-0.104794659005432,0.150771782621969,6
0.699981689453125,-0.0381922014057636,2.78195238113403,1.20528960227966,-0.124676182095571,2.91217170233105,1.22003758604909,2080.077,3012.578,2798.329,1004.915,-0.07354799,0.001758778,0.08619823,-0.113887526094913,-0.423919439315796,0.24016198515892,-0.25570106256044,-0.110021023759057,0.158291138455704,6
0.720001220703125,-0.040811937302351,2.77345037460327,1.21022486686707,-0.129918284978346,2.90991617190799,1.22328269744952,2075.118,3021.204,2798.312,1002.2,-0.07086246,0.001346024,0.08940364,-0.130987137556076,-0.425106257200241,0.246766060590744,-0.268023157655716,-0.11532287703907,0.16591910230247,6
0.739990234375,-0.0437761433422565,2.76493787765503,1.21528887748718,-0.135400001298574,2.90755754251682,1.2266761409821,2068.616,3027.72,2800.683,1001.467,-0.06857,0.0009268539,0.09229162,-0.148210033774376,-0.425629615783691,0.253203302621841,-0.280473432677602,-0.12067988256057,0.173626415629864,6
0.759979248046875,-0.0470859669148922,2.75642657279968,1.22047340869904,-0.141131974150567,2.90509123473139,1.23022450522921,2055.45,3030.991,2816.204,997.3295,-0.06662323,0.0005050178,0.09495871,-0.165491133928299,-0.425569176673889,0.259223908185959,-0.293060978423328,-0.126095951839638,0.181418706074426,6
0.779998779296875,-0.0507434271275997,2.7479259967804,1.22578358650208,-0.147126184485884,2.90251209348295,1.23393520697061,2048.438,3029.02,2816.962,1008.662,-0.06479365,8.72291E-05,0.09736048,-0.182873025536537,-0.425030916929245,0.2655089199543,-0.305795832832518,-0.131575403921268,0.189302187598958,6
0.79998779296875,-0.0547485686838627,2.73944497108459,1.23121500015259,-0.153366821193532,2.89982692185086,1.2377984583754,2050.18,3039.821,2822.521,992.1169,-0.06323516,-0.0003494067,0.0996261,-0.200257778167725,-0.424055010080338,0.27157136797905,-0.318629798715703,-0.137097500901303,0.197247023847227,6
0.819976806640625,-0.0591017119586468,2.73099064826965,1.23676788806915,-0.159865102720482,2.89703089285078,1.24182120419666,2039.159,3034.904,2823.476,1009.416,-0.06172568,-0.0007787083,0.101685,-0.217657253146172,-0.422712504863739,0.277645707130432,-0.331572942526109,-0.142666574093344,0.205259446433311,6
0.839996337890625,-0.0638023912906647,2.72256994247437,1.24244248867035,-0.166633637018892,2.89411858163313,1.24601124935738,2041.707,3040.044,2819.782,1007.504,-0.06031208,-0.001209608,0.1035547,-0.23503378033638,-0.421038240194321,0.283729434013367,-0.344636106234817,-0.148287288494656,0.213346167053785,6
0.8599853515625,-0.0688495934009552,2.71418833732605,1.2482396364212,-0.173653699721778,2.89109804476993,1.25035700258242,2044.14,3045.154,2809.896,1011.856,-0.05904228,-0.00164104,0.1052197,-0.252360194921494,-0.419076979160309,0.289857387542725,-0.357770416714212,-0.153938615363784,0.221476930914505,6
0.8800048828125,-0.0742406845092773,2.70585131645203,1.25415062904358,-0.180948461186242,2.88795931270381,1.25487280742661,2038.693,3048.134,2813.994,1011.489,-0.05798234,-0.002064483,0.1067194,-0.269555032253265,-0.416855245828629,0.295551687479019,-0.371007022483504,-0.159633957038354,0.229671020432672,6
0.899993896484375,-0.0799745470285416,2.69756245613098,1.26018381118774,-0.18849723509595,2.8847112861788,1.25954585807468,2039.822,3047.796,2797.554,1030.506,-0.05700336,-0.002463424,0.1079383,-0.28669261932373,-0.414445012807846,0.30165907740593,-0.384296738353309,-0.165352150505452,0.237897987633041,7
0.91998291015625,-0.0860461294651031,2.68932557106018,1.26632082462311,-0.196312316554895,2.88134867495511,1.26438376578173,2039.106,3059.165,2815.641,1002.365,-0.0564441,-0.002861833,0.1090879,-0.303579777479172,-0.411844581365585,0.306853085756302,-0.397650971463704,-0.171098103938772,0.246164894078718,7
0.94000244140625,-0.0924545973539352,2.68114233016968,1.27257859706879,-0.204407453948074,2.87786556348678,1.26939504145298,2030.838,3047.518,2796.535,1046.426,-0.05581879,-0.003206446,0.1099069,-0.320423603057861,-0.40916496515274,0.312889933586121,-0.411081631631503,-0.176876941799768,0.254479112513653,7
0.959991455078125,-0.0991935729980469,2.67301464080811,1.2789363861084,-0.212759000778906,2.87427212620069,1.27456504678061,2044.171,3070.237,2817.616,989.8441,-0.05577671,-0.003570234,0.1107508,-0.336949408054352,-0.406383156776428,0.317888468503952,-0.424539267042903,-0.182667386354485,0.262810029909387,7
0.97998046875,-0.106261536478996,2.66494226455688,1.28540921211243,-0.221379956358585,2.87056276985637,1.27990182895749,2023.561,3050.036,2806.042,1047.788,-0.05561905,-0.003864779,0.111302,-0.353397518396378,-0.403622180223465,0.323642253875732,-0.438035925118965,-0.188474621271639,0.271165104193453,7
1,-0.113651886582375,2.65692520141602,1.29197824001312,-0.230284798736574,2.86673126495361,1.28541435058594,2038.003,3069.509,2831.735,989.7292,-0.05593331,-0.00416838,0.1119033,-0.36951732635498,-0.400848090648651,0.328453540802002,-0.451584000205995,-0.194303979492187,0.279552008056641,7
1.01998901367188,-0.121363669633865,2.64896154403687,1.2986673116684,-0.239446912293295,2.86278906344998,1.29108613532954,2028.804,3054.538,2807.315,1045.067,-0.05608884,-0.004409662,0.1122215,-0.385588496923447,-0.398184150457382,0.334451228380203,-0.46513400752272,-0.200134169097193,0.287940108062054,7
1.03997802734375,-0.129388123750687,2.64105033874512,1.30544257164001,-0.248880035413094,2.85873025410248,1.29692568790267,2038.436,3075.322,2851.456,970.9316,-0.05683878,-0.004672782,0.1127191,-0.40122377872467,-0.395558804273605,0.338762164115906,-0.478698517198992,-0.205970598662363,0.296337185718871,7
1.05999755859375,-0.13772651553154,2.63318777084351,1.31234467029572,-0.258599401509697,2.85454828239877,1.30294243851408,2021.757,3046.297,2811.39,1066.163,-0.05707633,-0.004834703,0.1128111,-0.41691991686821,-0.393133074045181,0.345107942819595,-0.492290296490434,-0.211818761581115,0.30475114456651,7
1.07998657226563,-0.146368205547333,2.62537240982056,1.31932926177979,-0.268575430648764,2.85025587575821,1.30911807577533,2054.109,3087.103,2862.14,941.5765,-0.05817995,-0.005063202,0.1132247,-0.432085454463959,-0.390767812728882,0.349230498075485,-0.50586005237609,-0.217657448443621,0.313151469876847,7
1.10000610351563,-0.155315443873405,2.61759901046753,1.32644355297089,-0.278838480013141,2.84583997233313,1.31547139222872,2018.489,3042.862,2815.885,1078.636,-0.05858049,-0.005159608,0.1131641,-0.447361916303635,-0.388672232627869,0.355715364217758,-0.519441457145546,-0.223501147495394,0.321559006401169,7
1.1199951171875,-0.164556413888931,2.60986590385437,1.3336353302002,-0.289357002179081,2.84131414609862,1.32198285851614,2061.181,3091.417,2877.088,925.3402,-0.05995788,-0.005338573,0.1135018,-0.462048977613449,-0.386655122041702,0.359591841697693,-0.532985466132485,-0.229328756186667,0.329943393154705,8
1.13998413085938,-0.174094811081886,2.60216665267944,1.34096252918243,-0.300146026259498,2.83667193044725,1.3286617783744,2020.488,3040.478,2820.003,1086.879,-0.06046334,-0.005365737,0.1132995,-0.476919382810593,-0.384965538978577,0.366362482309341,-0.546505271550557,-0.235145950758426,0.338312796746137,8
1.16000366210938,-0.18391677737236,2.59449982643127,1.34835815429688,-0.311222084148811,2.83190621216671,1.33551838583369,2067.84,3096.224,2901.669,900.1932,-0.06210545,-0.005498362,0.1136266,-0.491098970174789,-0.383346199989319,0.369781494140625,-0.560014026276883,-0.240958390526247,0.34667535943296,8
1.17999267578125,-0.19402964413166,2.58685708045959,1.35590708255768,-0.322550701230474,2.8270318247214,1.34253133946411,2027.115,3036.805,2809.551,1108.651,-0.06257736,-0.005452023,0.113245,-0.505643010139465,-0.382138013839722,0.377444982528687,-0.573463232144024,-0.246745208083563,0.355001058539242,8
1.19998168945313,-0.204414263367653,2.5792384147644,1.36350226402283,-0.334147705564643,2.8220419577392,1.34971043758889,2081.163,3110.899,2939.126,845.0553,-0.06471109,-0.005568137,0.1137056,-0.51923143863678,-0.380938798189163,0.379758238792419,-0.586866312357874,-0.25251217906087,0.363298203668868,8
1.22000122070313,-0.215084746479988,2.57163286209106,1.3712751865387,-0.346030421585499,2.81692915700008,1.35706640485806,2014.289,3015.702,2799.573,1169.141,-0.06486555,-0.005410478,0.1130862,-0.533524513244629,-0.380277305841446,0.388648509979248,-0.600236516861372,-0.258265004538453,0.371574997167698,8
1.239990234375,-0.226015388965607,2.56404256820679,1.37907302379608,-0.358161486344149,2.81170949873715,1.36457611182642,2113.655,3136.763,2976.233,760.8825,-0.06752392,-0.005532451,0.1137425,-0.546532273292542,-0.37951073050499,0.389894127845764,-0.613526094901141,-0.263983138701136,0.379801879044709,8
1.25997924804688,-0.237227693200111,2.55645394325256,1.38707625865936,-0.370557537648727,2.80637582416637,1.37224985808977,1999.882,2994.121,2783.4,1238.959,-0.06733377,-0.00526933,0.1129018,-0.56061464548111,-0.379432886838913,0.400162100791931,-0.626748599474006,-0.269672413024826,0.387987239250554,8
1.27999877929688,-0.248687446117401,2.54887247085571,1.39507055282593,-0.383236695417198,2.80092033679326,1.3800988607405,2137.585,3159.138,3033.964,667.8747,-0.07052051,-0.00539876,0.1138447,-0.572988867759705,-0.379078656435013,0.399712473154068,-0.639917282339435,-0.275338529371412,0.396139281255613,8
1.29998779296875,-0.26042839884758,2.54127955436707,1.40332198143005,-0.396158759015336,2.79536033382764,1.388098233671,1990.474,2967.095,2738.193,1341.626,-0.06964965,-0.005008341,0.1126408,-0.587049305438995,-0.379640251398087,0.412568807601929,-0.652985332144132,-0.280961346123326,0.404229026602261,8
1.31997680664063,-0.272400975227356,2.53368711471558,1.41150426864624,-0.409341180862083,2.78968830598122,1.39625878075997,2176.928,3203.048,3116.615,510.2674,-0.07380365,-0.00520648,0.1141153,-0.598625481128693,-0.379619508981705,0.409114420413971,-0.665966334939128,-0.286546708978778,0.412264885703281,8
1.33999633789063,-0.284658342599869,2.5260694026947,1.42001748085022,-0.422802873722428,2.78389611561957,1.40459220990988,1948.888,2911.416,2673.054,1528.499,-0.07170934,-0.004618987,0.1123461,-0.612871050834656,-0.380884796380997,0.425658106803894,-0.678873453515705,-0.29210028151913,0.420255006953505,8
1.3599853515625,-0.29712900519371,2.5184473991394,1.42838299274445,-0.436500861174643,2.77800225429635,1.41307191666844,2247.013,3273.518,3217.39,275.2383,-0.07717361,-0.004939631,0.1145565,-0.623532354831696,-0.381098300218582,0.418274611234665,-0.69166099897751,-0.297602405088682,0.428171106749628,9
1.3800048828125,-0.309892684221268,2.51078486442566,1.43717849254608,-0.450474904562636,2.77198961381608,1.4217225152016,1889.543,2839.53,2573.071,1787.194,-0.07348461,-0.004109257,0.1120373,-0.63818347454071,-0.383132427930832,0.439777731895447,-0.704361775018035,-0.303067194200314,0.436033492140578,9
1.39999389648438,-0.32284814119339,2.50311517715454,1.44572329521179,-0.464680216184654,2.76587746507559,1.43051627978847,2295.91,3387.387,3332.861,0,-0.08049351,-0.00447411,0.115347,-0.647773385047913,-0.383486568927765,0.427242159843445,-0.716930938559026,-0.308475354130225,0.443814403124744,9
1.41998291015625,-0.33610999584198,2.49538850784302,1.45482385158539,-0.479135601808478,2.75965771647838,1.43946485209513,1824.657,2732.283,2432.244,2130.522,-0.07465,-0.003244795,0.1118217,-0.663092076778412,-0.386337578296661,0.455027520656586,-0.729381927869995,-0.313832666990362,0.451522158631107,9
1.44000244140625,-0.349552392959595,2.48764586448669,1.46366512775421,-0.493861275572861,2.75332167044526,1.4485807456364,2081.124,3738.038,3202.932,0,-0.08129779,-0.002442119,0.1169865,-0.672123789787292,-0.387135088443756,0.442061901092529,-0.741727567798258,-0.319144650954242,0.459164697851088,9
1.45999145507813,-0.363294422626495,2.4798436164856,1.47302305698395,-0.508809800712713,2.74688973769103,1.45783459479497,1943.712,2541.995,2379.684,2261.634,-0.07502231,-0.0002189118,0.1130269,-0.687101066112518,-0.390117794275284,0.467894464731216,-0.753924423002454,-0.324392617007921,0.466715132239272,9
1.47998046875,-0.377209722995758,2.47202682495117,1.48209595680237,-0.524000783579472,2.74035348215039,1.46723853683636,2166.926,3661.281,3210.025,0,-0.08170205,0.001370927,0.1169314,-0.695763647556305,-0.390835344791412,0.453647136688232,-0.76598572865452,-0.329582259876133,0.474181654997567,9
1.5,-0.391413450241089,2.4641547203064,1.49165773391724,-0.539455198877605,2.73370387899399,1.4768055561018,2037.338,2505.36,2454.477,2147.089,-0.07633845,0.004036512,0.1116895,-0.71018660068512,-0.39361035823822,0.478091061115265,-0.777924000354858,-0.334718964672088,0.481572013878822,9
1.51998901367188,-0.40578505396843,2.45626521110535,1.50098395347595,-0.555123050061237,2.72696244033876,1.48650470234772,2157.389,3712.633,3188.448,0,-0.08357159,0.00613739,0.1146232,-0.718581318855286,-0.39447084069252,0.466311722993851,-0.789697369743256,-0.339784716610053,0.488860290373601,9
1.53997802734375,-0.420418739318848,2.4483208656311,1.51070284843445,-0.571024729446907,2.7201203919406,1.49634859938949,2106.996,2510.674,2635.962,1892.772,-0.08071189,0.008874677,0.1094942,-0.731681764125824,-0.397218406200409,0.485944956541061,-0.801318788528229,-0.344785088448372,0.496054502206448,9
1.55999755859375,-0.435214072465897,2.44035172462463,1.52021503448486,-0.587181951496087,2.71316839067337,1.50635068951315,2242.204,3517.384,3319.006,0,-0.08845264,0.01071796,0.1111351,-0.739767253398895,-0.398456394672394,0.475611448287964,-0.812800388649436,-0.349725300221754,0.503162159625937,9
1.57998657226563,-0.450255930423737,2.43231534957886,1.53010749816895,-0.603542258451077,2.7061290076447,1.51647849886779,2108.831,2600.191,2796.646,1652.111,-0.08687125,0.0129513,0.106499,-0.752095103263855,-0.401814162731171,0.494625300168991,-0.82410201904291,-0.354588076049064,0.510158407210813,9
1.60000610351563,-0.465454757213593,2.42423701286316,1.53983891010284,-0.620152298932711,2.69898217125626,1.52676090517188,2216.507,3491.517,3384.713,0,-0.09435367,0.01433322,0.1086525,-0.759941220283508,-0.403915494680405,0.486571907997131,-0.835253140422976,-0.35938609205264,0.51706148254665,9
1.6199951171875,-0.480890274047852,2.41607284545898,1.54994130134583,-0.636958033083316,2.69175113334911,1.53716445517924,2091.31,2635.7,2876.106,1560.224,-0.09258213,0.0160562,0.105317,-0.771776437759399,-0.408202975988388,0.505120813846588,-0.846214826007804,-0.364102599125749,0.523847288101157,9
1.63998413085938,-0.496479958295822,2.4078516960144,1.55989503860474,-0.653981118189727,2.68442657539777,1.54770255578211,2268.751,3399.516,3434.961,0,-0.09904083,0.01678767,0.1080603,-0.779484510421753,-0.411057710647583,0.497688055038452,-0.856999388527105,-0.368742895092007,0.53052344604056,9
1.66000366210938,-0.512307345867157,2.39952850341797,1.57025194168091,-0.671244443874359,2.67699864863716,1.55838937674714,2064.802,2672.545,2854.23,1583.636,-0.09576621,0.0179866,0.1055129,-0.791367411613464,-0.416159212589264,0.517843306064606,-0.867618167158098,-0.373311858882592,0.53709697585572,9
1.67999267578125,-0.528286397457123,2.39113903045654,1.58046865463257,-0.688691692550512,2.66949158495151,1.56919005480539,2286.664,3436.028,3388.422,0,-0.101174,0.01824828,0.1091504,-0.798959851264954,-0.419478535652161,0.510835766792297,-0.878034183119987,-0.377793579561193,0.543544985919778,9
1.69998168945313,-0.544503808021545,2.38264060020447,1.59109830856323,-0.706345246291743,2.66189575395985,1.5801184455266,2053.74,2678.74,2780.353,1671.477,-0.09669725,0.01915656,0.1070956,-0.810868263244629,-0.424925178289413,0.531484186649323,-0.88825927318574,-0.382193150160541,0.549874803759068,9
1.72000122070313,-0.560868501663208,2.37407660484314,1.60155975818634,-0.724228658537036,2.6542010212754,1.5911891296115,2314.594,3434.572,3369.48,0,-0.101615,0.01911612,0.1110791,-0.818231105804443,-0.428198933601379,0.523072421550751,-0.898304216251578,-0.386515208538549,0.556093102023817,9
1.739990234375,-0.577476263046265,2.365403175354,1.61246848106384,-0.74228345468553,2.64643254688532,1.60236590849663,2044.983,2681.212,2688.4,1785.383,-0.09613851,0.01991292,0.1087914,-0.830391526222229,-0.433666288852692,0.545438766479492,-0.908134108040217,-0.390744736359816,0.562178273303667,9
1.75997924804688,-0.594225883483887,2.3566689491272,1.62318670749664,-0.760532711099173,2.63858040167573,1.61366306754931,2263.619,3541.804,3320.721,0,-0.1010563,0.01997488,0.1133386,-0.837481081485748,-0.436710864305496,0.535908758640289,-0.917760245372929,-0.394886594330938,0.568137310869129,9
1.77999877929688,-0.611218929290771,2.34783172607422,1.63434588909149,-0.779000609654483,2.63063418086074,1.62509557650306,2045.834,2631.538,2651.425,1882.388,-0.09517285,0.02097509,0.1108136,-0.84965056180954,-0.441855609416962,0.557960748672485,-0.927192788821983,-0.398945154262308,0.57397650459845,9
1.79998779296875,-0.628351390361786,2.33894157409668,1.64530444145203,-0.797626646773287,2.62261991743975,1.63662598076079,2277.183,3555.305,3305.126,0,-0.1001162,0.02122776,0.1151195,-0.856622815132141,-0.444513022899628,0.547929227352142,-0.936399026186941,-0.402906341007953,0.579675604081262,9
1.81997680664063,-0.645724415779114,2.32995843887329,1.65668785572052,-0.816434558901977,2.61452739828301,1.64826897431355,2065.066,2615.552,2670.246,1870.917,-0.09446499,0.02237106,0.1122327,-0.868655800819397,-0.44915497303009,0.569173693656921,-0.945389654806995,-0.406774757334075,0.585241231480109,9
1.83999633789063,-0.663234889507294,2.32093024253845,1.66787052154541,-0.835449117627072,2.60634596486888,1.66003989195343,2275.743,3548.127,3324.712,0,-0.09944776,0.02274421,0.116145,-0.875519573688507,-0.451415061950684,0.559132754802704,-0.954174163352093,-0.410554485950274,0.590679260733698,9
1.8599853515625,-0.680982530117035,2.31181764602661,1.67947471141815,-0.854607925216182,2.59810246519841,1.67190010651166,2089.767,2620.717,2694.6,1824.468,-0.09410173,0.02391339,0.1130209,-0.887386322021484,-0.455634593963623,0.580209791660309,-0.962722140342816,-0.41423244164655,0.595970865687568,9
1.8800048828125,-0.698863863945007,2.30266571044922,1.69087970256805,-0.873964974649439,2.58977366760063,1.68388304221498,2258.895,3554.288,3341.146,0,-0.0991399,0.02433314,0.1168103,-0.89406681060791,-0.457593321800232,0.570249021053314,-0.971056158224177,-0.417818336715394,0.601130019760457,9
1.89999389648438,-0.716977596282959,2.29343605041504,1.70269763469696,-0.893456683142228,2.58138692997148,1.69594933829086,2097.08,2615.186,2722.264,1797.51,-0.09387963,0.02549643,0.1136459,-0.905687987804413,-0.461478412151337,0.590894103050232,-0.979147395688901,-0.421299770153459,0.606138881190213,9
1.91998291015625,-0.735221207141876,2.28417253494263,1.71431946754456,-0.91310780215452,2.5729316024492,1.70811431707208,2262.168,3540.061,3354.409,0,-0.0987303,0.02587902,0.1173059,-0.912182331085205,-0.46317720413208,0.581090748310089,-0.98700543065471,-0.424680863071164,0.611003379164165,9
1.94000244140625,-0.753691613674164,2.27483773231506,1.72634530067444,-0.932943991899774,2.5643966441608,1.72039386345315,2100.031,2617.479,2744.176,1769.234,-0.0933635,0.02696453,0.1141633,-0.923519551753998,-0.466736674308777,0.601292490959167,-0.994638524886308,-0.427965170275055,0.615728628108227,9
1.95999145507813,-0.772288203239441,2.26547408103943,1.73818325996399,-0.952900013794853,2.55581012544606,1.73274759164336,2282.427,3525.179,3348.19,0,-0.09797024,0.02720777,0.1176679,-0.929826676845551,-0.468179255723953,0.591901063919067,-1.00202031904361,-0.431141350077486,0.620298310335216,9
1.97998046875,-0.791103959083557,2.25604629516602,1.75041043758392,-0.973001172086935,2.54716115859433,1.74519116617712,2097.892,2633.024,2756.305,1738.558,-0.09264711,0.02813413,0.1146264,-0.940786004066467,-0.471389919519424,0.611359000205994,-1.0091596546337,-0.434213206731958,0.624717899159203,9
2,-0.810039579868317,2.24659609794617,1.76244103908539,-0.993273599084619,2.53843849960327,1.7577407641983,2294.098,3491.01,3366.171,0,-0.09708607,0.02815131,0.1179988,-0.946786403656006,-0.472509473562241,0.601532459259033,-1.01606400046349,-0.437183953857422,0.628992018127441,9
2.01998901367188,-0.829190850257874,2.23708701133728,1.77487623691559,-1.01365055070775,2.52967086658596,1.77035506794184,2089.098,2653.694,2728.686,1750.466,-0.09145562,0.02889464,0.1149063,-0.957560300827026,-0.475451409816742,0.621759533882141,-1.02270954399163,-0.440043345582587,0.633105926142498,9
2.03997802734375,-0.848453879356384,2.22756147384644,1.78710150718689,-1.03415783849082,2.52084715356021,1.78305005597715,2256.233,3535.656,3350.26,0,-0.09583332,0.02882956,0.1186408,-0.963149547576904,-0.476275116205215,0.611265182495117,-1.02910434715509,-0.442794850733705,0.637064613927399,9
2.05999755859375,-0.867926836013794,2.21798396110535,1.79972898960114,-1.05482201812353,2.5119559343546,1.79584216754118,2071.589,2630.205,2701.918,1810.403,-0.0897219,0.02957235,0.1155439,-0.973655939102173,-0.478877931833267,0.631376564502716,-1.03525504859546,-0.445441325732794,0.640872191117535,9
2.07998657226563,-0.887505114078522,2.20839738845825,1.81213784217834,-1.07557499515204,2.50302650811029,1.80868924892322,2266.2,3540.914,3326.484,0,-0.09391318,0.02948031,0.1192465,-0.978909194469452,-0.479325145483017,0.620443046092987,-1.04114045847258,-0.4479736531836,0.644515540192423,9
2.10000610351563,-0.90728622674942,2.1987681388855,1.82493841648102,-1.09647498538954,2.49403382618922,1.82162733848484,2069.464,2623.195,2685.272,1827.263,-0.08766594,0.03021054,0.1159959,-0.98905473947525,-0.481453150510788,0.640030145645142,-1.04677621342161,-0.450398561093403,0.648004340974112,9
2.1199951171875,-0.927164614200592,2.1891393661499,1.83750855922699,-1.11745308225396,2.48500753716864,1.83461377976925,2269.826,3534.582,3319.889,0,-0.09184071,0.03007163,0.1194893,-0.993922829627991,-0.481455355882645,0.628507554531097,-1.0521429102862,-0.45270770082608,0.651326581984514,9
2.13998413085938,-0.947238385677338,2.17947721481323,1.85046637058258,-1.13853583516761,2.47593621757383,1.84766500813359,2063.818,2624.968,2672.66,1834.238,-0.08557429,0.03076242,0.1160258,-1.00368642807007,-0.483102560043335,0.647890448570251,-1.05724722779031,-0.454903946049977,0.654486397671922,9
2.16000366210938,-0.967400431632996,2.16982364654541,1.86318123340607,-1.15975039167652,2.46680818657414,1.86079782920208,2248.843,3546.056,3317.64,0,-0.08978102,0.03060844,0.1194644,-1.00810360908508,-0.482682198286057,0.635740756988525,-1.0620943502576,-0.456989527434725,0.657486997379635,8
2.17999267578125,-0.98775041103363,2.16014528274536,1.87628769874573,-1.18102676265167,2.45765355853653,1.8739689163698,2063.934,2619.796,2645.904,1854.856,-0.08343098,0.03128866,0.1158045,-1.01749777793884,-0.483909785747528,0.65532511472702,-1.06666760390386,-0.458957270716794,0.660318059240953,8
2.19998168945313,-1.00817823410034,2.15048336982727,1.88913428783417,-1.20239187218348,2.44846074877705,1.8871949369313,2219.277,3569.996,3308.671,0,-0.08773358,0.03117923,0.1193107,-1.02139973640442,-0.483105689287186,0.642328262329102,-1.07097279461286,-0.460809674005774,0.6629831773745,7
2.22000122070313,-1.02878510951996,2.1408052444458,1.90236568450928,-1.22387315175433,2.43921795429519,1.90049287228091,2053.394,2594.414,2634.664,1888.457,-0.08118007,0.03192258,0.1154563,-1.03034460544586,-0.48390781879425,0.661568641662598,-1.07501419914593,-0.462548577472581,0.665484999299265,7
2.239990234375,-1.04946148395538,2.13115048408508,1.91533470153809,-1.24539969505118,2.42995568409656,1.91381882803312,2222.05,3576.868,3285.043,0,-0.08542568,0.03185463,0.1187842,-1.03381681442261,-0.482740342617035,0.648454010486603,-1.07877792518082,-0.464168003639063,0.667814925005999,5
2.25997924804688,-1.07030439376831,2.12148904800415,1.92866659164429,-1.26699874763832,2.42066221517598,1.92718967049012,2055.694,2587.928,2639.753,1870.886,-0.07907937,0.03258826,0.1148037,-1.04213833808899,-0.483074903488159,0.666596412658691,-1.08226887897249,-0.465670063529659,0.669975991700231,5
2.27999877929688,-1.09120655059814,2.1118586063385,1.94172465801239,-1.28869796983554,2.41132564607061,1.9406225227075,2230.261,3540.556,3298.001,0,-0.08335055,0.03243456,0.1177754,-1.04510605335236,-0.481524646282196,0.652903139591217,-1.08549040888332,-0.467056197851165,0.67197027217779,2
2.29998779296875,-1.11226499080658,2.10222840309143,1.95515155792236,-1.31042570636616,2.40197680804417,1.95407302665558,2052.761,2602.114,2623.57,1860.904,-0.07704951,0.03305889,0.1135823,-1.05292820930481,-0.481508195400238,0.671346962451935,-1.08843144721369,-0.468321644481621,0.673790915005368,2
2.31997680664063,-1.13337123394012,2.09263467788696,1.96829342842102,-1.33220946960077,2.39260386329221,1.96755821380235,2190.507,3573.745,3285.72,0,-0.08146024,0.03287882,0.1167054,-1.05530750751495,-0.479688823223114,0.657096743583679,-1.09109597826566,-0.469468117754907,0.675440386655758,0
2.33999633789063,-1.15462172031403,2.08304715156555,1.98179304599762,-1.35407709248145,2.38319483607731,1.98109531406483,2034.144,2580.93,2616.037,1889.463,-0.07502924,0.03350062,0.1124939,-1.06253278255463,-0.479373097419739,0.674983382225037,-1.09348640563071,-0.470496651869278,0.67692017506657,0
2.3599853515625,-1.17590987682343,2.0735011100769,1.99500298500061,-1.37595634130987,2.37378080654189,1.99463961134278,2201.91,3560.37,3269.878,0,-0.07936753,0.03326534,0.1154697,-1.06441044807434,-0.477294117212296,0.660496592521667,-1.09559452046326,-0.471403714787811,0.678225198571351,0
2.3800048828125,-1.19732975959778,2.06396818161011,2.00855588912964,-1.39790843013262,2.36433543599182,2.00822900004707,2025.499,2581.125,2613.797,1881.085,-0.07299352,0.03381113,0.1112032,-1.07099032402039,-0.476656228303909,0.677639603614807,-1.09742594550583,-0.472191725819537,0.679358937915576,0
2.39999389648438,-1.21877634525299,2.05448198318481,2.02181053161621,-1.41986083522252,2.35488992936084,2.02181858453579,2207.438,3538.336,3268.189,0,-0.07732648,0.03344706,0.1139807,-1.07233095169067,-0.474313259124756,0.662728190422058,-1.09897439291323,-0.472857979480329,0.680317500623536,0
2.41998291015625,-1.24034249782562,2.04501390457153,2.03540444374084,-1.4418413890156,2.34543231112926,2.03542559441269,2009.755,2590.301,2602.444,1880.632,-0.07093223,0.03386927,0.1096469,-1.07831239700317,-0.473404735326767,0.679701685905457,-1.10024227275454,-0.473403512755585,0.681102378642803,0
2.44000244140625,-1.26192390918732,2.03559732437134,2.04868793487549,-1.46387808506052,2.33595053645515,2.04906735901791,2187.524,3541.983,3264.373,0,-0.07525294,0.03340064,0.1124721,-1.07906532287598,-0.470831543207169,0.664179384708405,-1.10123038958312,-0.473828671822132,0.681714070030222,0
2.45999145507813,-1.28361451625824,2.02620315551758,2.06231904029846,-1.48589810917879,2.32647593524532,2.06269880290633,1998.91,2588.62,2564.242,1912.924,-0.06863925,0.03374618,0.1080579,-1.08452916145325,-0.469709247350693,0.681561410427094,-1.10193535162022,-0.474131997292339,0.68215047511319,0
2.47998046875,-1.30530738830566,2.01686477661133,2.07562041282654,-1.50792940965705,2.3169964821328,2.07633722739875,2156.898,3567.054,3247.944,0,-0.07301429,0.03326522,0.1110801,-1.08465194702148,-0.466918051242828,0.665065467357635,-1.10235860927677,-0.474314113237503,0.682412491765153,0
2.5,-1.32709884643555,2.00755381584167,2.08926749229431,-1.52999999932945,2.30750012397766,2.08999997377396,1979.137,2562.12,2535.194,1969.009,-0.06603467,0.03364934,0.1065225,-1.08956933021545,-0.465544074773788,0.682350635528564,-1.10250000050292,-0.474374949932098,0.682500019669533,0
2.51998901367188,-1.34888195991516,1.9983035326004,2.10257840156555,-1.5520369476803,2.29801824074336,2.10364189456856,2156.627,3580.612,3214.549,0,-0.07035166,0.03320293,0.1094672,-1.08915793895721,-0.462509036064148,0.66554319858551,-1.10235904000526,-0.474314298567936,0.682412758406603,0
2.53997802734375,-1.37074947357178,1.98908758163452,2.11621642112732,-1.57406826106879,2.28853878207593,2.11728032705303,1975.588,2550.683,2524.648,1973.469,-0.06347698,0.03359515,0.1047704,-1.09338212013245,-0.460801035165787,0.681897759437561,-1.10193621258339,-0.474132367740737,0.682151008090402,0
2.55999755859375,-1.39259731769562,1.97993803024292,2.12950396537781,-1.59612191359838,2.27904971150017,2.13093258853001,2161.933,3551.248,3218.786,0,-0.06786373,0.0330958,0.1073949,-1.0923877954483,-0.457484722137451,0.664374589920044,-1.10123038958312,-0.473828671822132,0.681714070030222,0
2.57998657226563,-1.41451740264893,1.97082769870758,2.1431245803833,-1.61812503288753,2.26958238396605,2.14455356752391,1970.536,2559.445,2502.126,1973.802,-0.06105084,0.03341119,0.1024514,-1.09601128101349,-0.455513298511505,0.681030035018921,-1.1002439936861,-0.473404253224357,0.681103443981416,0
2.60000610351563,-1.43640506267548,1.9617874622345,2.15638327598572,-1.64013916343638,2.26011031859448,2.15818136301212,2121.638,3584.876,3203.289,0,-0.06564639,0.03292111,0.1052008,-1.09438061714172,-0.452013164758682,0.662930309772491,-1.09897439291323,-0.472857979480329,0.680317500623536,0
2.6199951171875,-1.45835185050964,1.95279037952423,2.16996645927429,-1.66209156852628,2.2506648119635,2.17177094750084,1954.851,2538.755,2488.775,2002.132,-0.05882071,0.0332532,0.1002065,-1.09733414649963,-0.449846684932709,0.679161369800568,-1.09742594550583,-0.472191725819537,0.679358937915576,0
2.63998413085938,-1.48025417327881,1.94386684894562,2.18317627906799,-1.6840102224118,2.24123382753286,2.18533963838626,2116.423,3574.06,3198.14,0,-0.06343117,0.03276191,0.102873,-1.09512054920197,-0.446180760860443,0.66049462556839,-1.09559752564474,-0.471405007833448,0.678227058921845,0
2.66000366210938,-1.50220251083374,1.93499040603638,2.19670367240906,-1.70592290617745,2.23180541187802,2.19890463348308,1941.999,2528.46,2484.616,2008.875,-0.05650535,0.03307298,0.09777752,-1.09741342067719,-0.443815499544144,0.676367104053497,-1.09348640563071,-0.470496651869278,0.67692017506657,0
2.67999267578125,-1.52409601211548,1.92619049549103,2.20985960960388,-1.72775723139253,2.2224107117184,2.21242112090437,2121.591,3572.02,3174.583,0,-0.06107747,0.03253069,0.1003041,-1.09467709064484,-0.440003156661987,0.657802820205688,-1.09109983431736,-0.469469776906228,0.675442773735451,0
2.69998168945313,-1.54602026939392,1.91744160652161,2.22331380844116,-1.74954107593572,2.21303773198162,2.22590635838503,1931.223,2531.681,2486.732,1991.37,-0.05435778,0.03275479,0.0952411,-1.09621095657349,-0.43743759393692,0.672707080841064,-1.08843572622736,-0.468323485621663,0.673793563918671,0
2.72000122070313,-1.56787824630737,1.9087723493576,2.23638510704041,-1.77130202882336,2.20367460188472,2.23937742484041,2131.408,3528.925,3186.776,0,-0.05895226,0.03204694,0.09752785,-1.09290039539337,-0.433473587036133,0.653570532798767,-1.08549040888332,-0.467056197851165,0.671970272177789,0
2.739990234375,-1.58975505828857,1.90015637874603,2.24976658821106,-1.79296822271738,2.1943522439355,2.25278983096475,1914.957,2549.552,2461.004,1996.116,-0.05215002,0.03210748,0.0923806,-1.0938413143158,-0.430793851613998,0.669072806835175,-1.08227399942825,-0.465672266718727,0.669979161506271,0
2.75997924804688,-1.61155343055725,1.89162123203278,2.26275396347046,-1.81456738183361,2.18505872917844,2.26616073936833,2090.767,3564.11,3168.582,0,-0.05684144,0.03133084,0.09496755,-1.0899201631546,-0.426748692989349,0.649366617202759,-1.07878346314437,-0.464170386470068,0.667818353269249,0
2.77999877929688,-1.63335835933685,1.88314199447632,2.27604675292969,-1.83612684690458,2.17578229366013,2.27950707526701,1887.233,2528.241,2438.05,2046.005,-0.04974838,0.03137429,0.08988685,-1.0902453660965,-0.423967182636261,0.664637506008148,-1.07501419914593,-0.462548577472581,0.665484999299265,0
2.79998779296875,-1.65507471561432,1.87474584579468,2.28893804550171,-1.85757544288233,2.1665535620153,2.29278477791556,2101.001,3554.229,3146.43,0,-0.05434127,0.03054283,0.09243521,-1.0858142375946,-0.4197998046875,0.6445671916008,-1.07097916161324,-0.460812413548163,0.662987118851036,0
2.81997680664063,-1.67678475379944,1.86640906333923,2.30212688446045,-1.87894068379188,2.15736069572766,2.30601087980613,1872.76,2525.001,2419.62,2060.826,-0.04715446,0.03053555,0.0872985,-1.08551430702209,-0.416840732097626,0.659443497657776,-1.0666743814704,-0.458960186914335,0.660322254877504,0
2.83999633789063,-1.69839572906494,1.85815894603729,2.31490182876587,-1.90024960698239,2.14819206138118,2.31920211834584,2098.04,3540.856,3141.131,0,-0.05172019,0.0296306,0.08973455,-1.08055055141449,-0.412509232759476,0.638746023178101,-1.06209435025759,-0.456989527434725,0.657486997379635,0
2.8599853515625,-1.71998953819275,1.84997141361237,2.32798337936401,-1.92143189875059,2.13907791299805,2.33231496600284,1863.917,2528.761,2383.735,2082.117,-0.04441354,0.02955014,0.08444148,-1.07969081401825,-0.409376412630081,0.654073715209961,-1.05725481901126,-0.454907212340279,0.654491096999312,0
2.8800048828125,-1.74147284030914,1.84187340736389,2.34063601493835,-1.94254691640495,2.12999271078668,2.34538616777867,2066.009,3568.894,3121.642,0,-0.04912787,0.028646,0.08702544,-1.07415807247162,-0.404902279376984,0.632637619972229,-1.0521429102862,-0.45270770082608,0.651326581984514,0
2.89999389648438,-1.7629269361496,1.83384108543396,2.35359311103821,-1.96352501326936,2.1209664217661,2.35837260906308,1845.733,2508.227,2356.722,2126.552,-0.0416806,0.02859242,0.08163382,-1.07270741462708,-0.401604652404785,0.647853493690491,-1.04677621342161,-0.450398561093403,0.648004340974112,0
2.91998291015625,-1.78426003456116,1.82590174674988,2.3661093711853,-1.98439323028747,2.1119874109737,2.37129102948832,2055.757,3571.484,3107.021,0,-0.04643434,0.02772504,0.08418225,-1.06665551662445,-0.396981567144394,0.62581080198288,-1.0411492471255,-0.447977434695422,0.644520980787238,0
2.94000244140625,-1.80555176734924,1.8180319070816,2.37892293930054,-2.00517798053537,2.10304431360073,2.38415778000673,1832.743,2493.862,2345.465,2143.972,-0.03890772,0.02769394,0.07866137,-1.06458687782288,-0.393490076065063,0.640682101249695,-1.03525504859546,-0.445441325732794,0.640872191117535,0
2.95999145507813,-1.82671296596527,1.81025767326355,2.39129543304443,-2.02581075424974,2.0941666074844,2.39693044981124,2061.358,3567.52,3084.296,0,-0.04369182,0.02682011,0.08102947,-1.05806303024292,-0.388720512390137,0.618626296520233,-1.02911391720548,-0.442798968459032,0.637070538244476,0
2.97998046875,-1.84781885147095,1.80255675315857,2.40394854545593,-2.04631823718085,2.08534281049189,2.40962555865248,1820.98,2496.121,2346.492,2129.54,-0.03640861,0.02674544,0.07548711,-1.05529606342316,-0.385040700435638,0.632655203342438,-1.0227194988233,-0.440047628868552,0.633112088657521,0
3,-1.86878418922424,1.79495370388031,2.41615104675293,-2.06672639957428,2.07656174835205,2.42225918334961,2066.732,3530.819,3094.145,0,-0.04127207,0.025764,0.07761613,-1.04826784133911,-0.380149960517883,0.610126376152039,-1.01606400046349,-0.437183953857422,0.628992018127441,0
3.01998901367188,-1.88968229293823,1.78742647171021,2.42864298820496,-2.0869680292999,2.06785234056679,2.43478971639231,1805.717,2511.204,2327.743,2128.315,-0.0340075,0.02556119,0.0720074,-1.04490423202515,-0.376368254423141,0.624600887298584,-1.00917036754089,-0.434217816196637,0.624724530959079,0
3.03997802734375,-1.91042923927307,1.77999782562256,2.44067549705505,-2.10706940546153,2.05920327997188,2.4472334257977,2033.282,3553.736,3080.996,0,-0.03899028,0.02452253,0.07435935,-1.03735291957855,-0.371423631906509,0.601622879505157,-1.00203140433628,-0.431146119769234,0.620305172659443,0
3.05999755859375,-1.93109726905823,1.77264618873596,2.45299386978149,-2.12705600675913,2.05060360379452,2.45960608409476,1777.972,2495.669,2310.306,2166.569,-0.03151372,0.02429412,0.0688387,-1.03340327739716,-0.367574334144592,0.615924537181854,-0.994638524886308,-0.427965170275055,0.615728628108227,0
3.07998657226563,-1.95160555839539,1.76539516448975,2.46484780311584,-2.14686207530873,2.04208160581513,2.47186698402085,2042.089,3541.327,3062.248,0,-0.03641287,0.02319616,0.07116876,-1.02541697025299,-0.362553209066391,0.592692136764526,-0.987017247723776,-0.424685947625853,0.611010694492843,0
3.10000610351563,-1.97202360630035,1.75822365283966,2.4769823551178,-2.16654331551667,2.03361331798384,2.48405060925705,1761.023,2495.113,2292.269,2180.158,-0.02884044,0.02291064,0.06564637,-1.02089381217957,-0.358581036329269,0.606723964214325,-0.979147395688901,-0.421299770153459,0.606138881190213,0
3.1199951171875,-1.9922730922699,1.75115418434143,2.48864316940308,-2.18603502400946,2.02522658035469,2.49611690533293,2045.048,3526.645,3051.734,0,-0.0337332,0.02172844,0.06788255,-1.01247215270996,-0.353453665971756,0.583045303821564,-0.971056158224178,-0.417818336715394,0.601130019760458,0
3.13998413085938,-2.01242113113403,1.74416744709015,2.50058627128601,-2.20536269329809,2.01691042421237,2.50808165332716,1741.875,2499.547,2268.649,2197.486,-0.02607288,0.02136723,0.06230405,-1.00739967823029,-0.349347800016403,0.597159028053284,-0.962735018414262,-0.414237982720922,0.59597883782726,0
3.16000366210938,-2.03239178657532,1.7372852563858,2.51204419136047,-2.22455088103183,2.00865428308644,2.51996005559448,2029.211,3530.304,3040.82,0,-0.03100772,0.02013373,0.06458374,-0.998530805110931,-0.344113379716873,0.572901129722595,-0.954174163352092,-0.410554485950274,0.590679260733698,0
3.17999267578125,-2.052250623703,1.73048770427704,2.52379202842712,-2.24353658854737,2.00048526354177,2.53171311296128,1729.089,2495.281,2232.449,2229.895,-0.02321797,0.01972887,0.05892828,-0.992944419384003,-0.339877963066101,0.587386786937714,-0.945403214201559,-0.406780591562751,0.585249625391267,0
3.19998168945313,-2.07192301750183,1.72379684448242,2.53503918647766,-2.26234477504321,1.99239262633251,2.54335627636037,2006.466,3545.157,3024.827,0,-0.02827372,0.01850671,0.0613244,-0.983635008335114,-0.334537774324417,0.562359988689423,-0.936412917636688,-0.402912318110697,0.579684203550396,0
3.22000122070313,-2.09147381782532,1.71719372272491,2.54657506942749,-2.28099938900442,1.98436606709459,2.55490437104486,1707.833,2476.219,2209.32,2272.089,-0.02029382,0.01813413,0.05557986,-0.977535128593445,-0.33016362786293,0.576794445514679,-0.927192788821982,-0.398945154262308,0.573976504598449,0
3.239990234375,-2.11083102226257,1.71069955825806,2.55760645866394,-2.2994392795179,1.97643189735754,2.5663195416865,2006.487,3548.227,2999.756,0,-0.02536821,0.01694375,0.05790213,-0.967845618724823,-0.324704438447952,0.551564335823059,-0.917774783907129,-0.394892849856044,0.568146310914365,0
3.25997924804688,-2.13005447387695,1.70429635047913,2.56891489028931,-2.31768882969315,1.96857962575054,2.57761688259161,1696.713,2470.924,2199.249,2276.285,-0.01750283,0.01658086,0.05210205,-0.96118175983429,-0.3201644718647,0.565418720245361,-0.908148960779607,-0.390751127078637,0.562187467856884,0
3.27999877929688,-2.14907646179199,1.69800424575806,2.57970857620239,-2.33577134012187,1.96079922667992,2.58881081793642,2010.105,3521.087,3001.688,0,-0.02265498,0.01535764,0.0542092,-0.951102733612061,-0.314597249031067,0.53968620300293,-0.898304216251578,-0.386515208538549,0.556093102023818,0
3.29998779296875,-2.16795492172241,1.69180536270142,2.59078598022461,-2.35362764460945,1.95311615770631,2.59986472102797,1686.209,2479.352,2179.723,2277.924,-0.01484499,0.01492899,0.04829544,-0.943907380104065,-0.309938222169876,0.553871750831604,-0.888274735793772,-0.382199803288803,0.549884375850026,0
3.31997680664063,-2.18662309646606,1.68571925163269,2.60134053230286,-2.37128151039117,1.94552019245235,2.61079330491711,1983.612,3537.547,2988.784,0,-0.02016279,0.01369663,0.05051279,-0.933421313762665,-0.304312437772751,0.527731597423553,-0.878049940595779,-0.377800359562814,0.543554740547926,0
3.33999633789063,-2.20513701438904,1.67972755432129,2.61217451095581,-2.38875555478454,1.93800159931817,2.62161057080077,1662.651,2467.555,2167.13,2303.985,-0.01229741,0.01326594,0.04464285,-0.925697028636932,-0.299583196640015,0.541699230670929,-0.867618167158097,-0.373311858882592,0.53709697585572,0
3.3599853515625,-2.22343468666077,1.67384910583496,2.62248206138611,-2.40599272667425,1.93058492580486,2.63228120132087,1990.162,3523.478,2974.641,0,-0.01762853,0.0120047,0.04679819,-0.914867103099823,-0.29390823841095,0.515375852584839,-0.857015715678588,-0.368749920209162,0.530533553325099,0
3.3800048828125,-2.24156713485718,1.66806745529175,2.63306331634521,-2.42304196557559,1.92324911460621,2.64283549236868,1645.015,2469.607,2156.432,2308.846,-0.009788715,0.01153238,0.04095469,-0.906627714633942,-0.289101511240005,0.529067933559418,-0.846214826007803,-0.364102599125748,0.523847288101157,0
3.39999389648438,-2.25947642326355,1.66239964962006,2.64311170578003,-2.43984769972619,1.91601807669906,2.65323904237604,1993.292,3504.729,2968.866,0,-0.01515498,0.01020289,0.04302427,-0.89546525478363,-0.283383101224899,0.50242418050766,-0.835253140422974,-0.35938609205264,0.51706148254665,0
3.41998291015625,-2.27721118927002,1.65682935714722,2.65343618392944,-2.45643259034873,1.90888206159239,2.66350587971929,1625.383,2476.406,2138.763,2319.061,-0.00728268,0.009657728,0.03719051,-0.886740565299988,-0.278513431549072,0.516227543354034,-0.824119146742881,-0.354595445619869,0.510169010073001,0
3.44000244140625,-2.29471611976624,1.65137410163879,2.66321897506714,-2.47281804716281,1.90183185728196,2.67364925803476,1981.534,3502.332,2960.981,0,-0.0126889,0.008273123,0.03932052,-0.875251710414886,-0.27276024222374,0.489137470722198,-0.812800388649434,-0.349725300221754,0.503162159625937,0
3.45999145507813,-2.31203770637512,1.64601731300354,2.67328548431396,-2.48895081463434,1.8948903781363,2.68363620960993,1611.381,2474.915,2107.543,2345.885,-0.004701545,0.00767328,0.03348177,-0.866085290908813,-0.267830163240433,0.503326296806335,-0.80133641229185,-0.344792671461508,0.496065412155666,0
3.47998046875,-2.3291232585907,1.64077687263489,2.68279767036438,-2.50485284867397,1.88804817714046,2.69348032619939,1965.579,3509.729,2946.971,0,-0.01019937,0.00627962,0.03573065,-0.854294419288635,-0.262035727500916,0.475603997707367,-0.789715229532172,-0.33979240117828,0.488871346433721,0
3.5,-2.34601759910583,1.63563632965088,2.69259524345398,-2.5205447997813,1.88129636896134,2.70319439144611,1590.554,2461.793,2083.41,2384.067,-0.00203359,0.005687678,0.02985992,-0.844712555408478,-0.25703352689743,0.489873707294464,-0.777924000354857,-0.334718964672089,0.481572013878822,0
3.51998901367188,-2.3626708984375,1.63061261177063,2.70183372497559,-2.53597583877076,1.87465682397749,2.71274693966292,1966.064,3510.788,2924.55,0,-0.007559649,0.004311888,0.03208176,-0.832664310932159,-0.251177340745926,0.461921840906143,-0.766004036374581,-0.329590137176618,0.474192988348404,0
3.53997802734375,-2.3791241645813,1.62569117546082,2.71135091781616,-2.55116718971613,1.86812041006291,2.72215110956251,1577.665,2458.254,2068.42,2395.138,0.000538645,0.003728373,0.02618661,-0.822652161121368,-0.246076241135597,0.475857257843018,-0.753942941956194,-0.324400585196356,0.466726596353819,0
3.55999755859375,-2.39533114433289,1.62088751792908,2.72029948234558,-2.56613872308604,1.86167857751006,2.73141920191151,1968.514,3489.77,2922.956,0,-0.005080246,0.002338979,0.02826364,-0.810352742671967,-0.240170910954475,0.447430968284607,-0.741727567798258,-0.319144650954242,0.459164697851087,0
3.57998657226563,-2.41132950782776,1.61618757247925,2.72953295707703,-2.58084213759183,1.85535210901407,2.74052131591136,1566.728,2464.198,2049.097,2401.327,0.002958633,0.001714354,0.02229256,-0.799920737743378,-0.235002562403679,0.46167528629303,-0.72940084364523,-0.31384080592,0.451533868397061,0
3.60000610351563,-2.42707681655884,1.61160588264465,2.73819088935852,-2.59531978247425,1.84912278287974,2.74948366775945,1949.139,3500.179,2911.365,0,-0.002832005,0.0003327455,0.02445312,-0.787364482879639,-0.229082256555557,0.432896643877029,-0.716930938559024,-0.308475354130224,0.443814403124743,0
3.6199951171875,-2.44260716438293,1.60712814331055,2.74713253974915,-2.60952509409627,1.84301063413925,2.75827743234631,1548.492,2456.993,2034.478,2422.272,0.005184232,-0.000288154,0.01852605,-0.776532232761383,-0.223892629146576,0.447084605693817,-0.704361775018033,-0.303067194200314,0.436033492140578,0
3.63998413085938,-2.45788264274597,1.60276865959167,2.75549149513245,-2.623478029369,1.83700707589127,2.76691496395061,1947.176,3488.232,2905.745,0,-0.0006769755,-0.001667139,0.02068192,-0.763764262199402,-0.217980518937111,0.417952239513397,-0.691680442442073,-0.297610771068296,0.428183143180413,0
3.66000366210938,-2.47293376922607,1.59851264953613,2.76413512229919,-2.63719712493647,1.83110413233575,2.77540773763803,1530.929,2455.303,2022.906,2435.132,0.007385971,-0.002298841,0.01477906,-0.752561151981354,-0.212780669331551,0.432181537151337,-0.678873453515702,-0.29210028151913,0.420255006953505,0
3.67999267578125,-2.48772573471069,1.59437561035156,2.77220129966736,-2.65063849381582,1.82532068681534,2.78372858527554,1936.888,3491.959,2877.813,16.2488,0.001595462,-0.003644802,0.01695065,-0.739611566066742,-0.206872835755348,0.403312236070633,-0.665986083416798,-0.286555206197011,0.41227711095171,0
3.69998168945313,-2.50228691101074,1.59034252166748,2.78053951263428,-2.66382131180924,1.81964848851807,2.79188937759817,1523.433,2456.417,2015.717,2428.927,0.00950026,-0.004265851,0.01115541,-0.728046119213104,-0.201641917228699,0.416915625333786,-0.653005218467595,-0.280969902652754,0.404241337183804,0
3.72000122070313,-2.51658606529236,1.58642768859863,2.78831219673157,-2.6767633032417,1.81407991116207,2.79990108680742,1911.581,3480.245,2841.794,72.48698,0.003991617,-0.005509547,0.01321281,-0.714952051639557,-0.195740938186646,0.388633698225021,-0.639917282339434,-0.275338529371411,0.396139281255611,0
3.739990234375,-2.53064680099487,1.58261859416962,2.79633736610413,-2.68942333385363,1.80863265367006,2.80773824883709,1535.27,2464.976,2015.467,2388.728,0.01155746,-0.006098639,0.007512653,-0.703032433986664,-0.190455123782158,0.401255279779434,-0.62676873176137,-0.26968107538565,0.387999702095468,0
3.75997924804688,-2.54444265365601,1.57892727851868,2.80381417274475,-2.70181978867538,1.80329880547712,2.81541224489679,1887.68,3460.679,2802.155,140.2103,0.006300515,-0.007222493,0.009335063,-0.689801812171936,-0.184563368558884,0.373841822147369,-0.6135463347885,-0.263991847359231,0.379814408499146,0
3.77999877929688,-2.55799341201782,1.57534241676331,2.8115131855011,-2.7139695770734,1.79807109095524,2.82293354268985,1541.005,2481.309,2034.051,2327.553,0.01334679,-0.007762049,0.003793237,-0.677521765232086,-0.179247364401817,0.384951680898666,-0.60023651686137,-0.258265004538452,0.371574997167698,0
3.79998779296875,-2.57127618789673,1.57187449932098,2.81869387626648,-2.72583438304408,1.79296599641037,2.83027842278479,1868.425,3430.152,2756.771,222.3673,0.008418914,-0.00876979,0.005286817,-0.664154887199402,-0.173398077487946,0.359038144350052,-0.586886736182787,-0.252520966862155,0.36331084698941,0
3.81997680664063,-2.58430671691895,1.56851255893707,2.82605719566345,-2.73743179640664,1.78797595343468,2.83745777411762,1549.166,2512.762,2066.473,2234.288,0.0147102,-0.00927792,4.60491E-05,-0.651514112949371,-0.1680988073349,0.368165224790573,-0.573483731835694,-0.246754028528195,0.355013748824923,0
3.83999633789063,-2.59706687927246,1.56526517868042,2.83293843269348,-2.74877791451009,1.78309403578861,2.84448156171422,1837.261,3385.032,2713.671,330.4325,0.01026735,-0.01017221,0.001204262,-0.638018131256104,-0.162353754043579,0.34406453371048,-0.560014026276881,-0.240958390526246,0.346675359432959,0
3.8599853515625,-2.60956788063049,1.56212294101715,2.83996295928955,-2.75983729406747,1.77833549372837,2.85132784449154,1565.391,2552.678,2100.927,2122.989,0.01579092,-0.01066809,-0.003645335,-0.625050365924835,-0.157120898365974,0.351226359605789,-0.546525890176286,-0.235154822377061,0.338325560657667,0
3.8800048828125,-2.62179660797119,1.55909276008606,2.84654426574707,-2.77064299647982,1.77368610185671,2.85801708903178,1806.993,3336.649,2668.19,444.0956,0.01187988,-0.01147236,-0.002782471,-0.61144095659256,-0.151517882943153,0.329060733318329,-0.532985466132484,-0.229328756186666,0.329943393154704,0
3.89999389648438,-2.63376092910767,1.55616474151611,2.8532280921936,-2.78116151864576,1.76916027562219,2.86452855531919,1576.649,2594.145,2136.086,2014.813,0.01670089,-0.01195919,-0.00718361,-0.598202109336853,-0.146387293934822,0.334192872047424,-0.519441457145543,-0.223501147495394,0.321559006401168,0
3.91998291015625,-2.64545106887817,1.55334615707397,2.85950946807861,-2.79140913007042,1.76475101471128,2.87087231495249,1781.44,3284.974,2619.853,560.2151,0.0133985,-0.01268677,-0.006613694,-0.584505498409271,-0.140942558646202,0.314067900180817,-0.505880764601328,-0.217666360335509,0.313164291730931,0
3.94000244140625,-2.6568717956543,1.55062782764435,2.86585259437561,-2.8014005971492,1.76045196555656,2.87705750903383,1587.847,2638.188,2169.288,1906.697,0.0175593,-0.0131656,-0.01055144,-0.571054458618164,-0.135918468236923,0.317160487174988,-0.492290296490434,-0.211818761581115,0.30475114456651,0
