t,x_s1,x_s2,x_s3,x_s_d1,x_s_d2,x_s_d3,propellers_rpms1,propellers_rpms2,propellers_rpms3,propellers_rpms4,rollRad,pitchRad,yawRad,v_s1,v_s2,v_s3,v_s_d1,v_s_d2,v_s_d3,insideCount
0,-0.0599999986588955,2.94000005722046,1.17999994754791,-0.0599999986588955,2.94000005722046,1.17999994754791,0,0,0,0,0,0,0,0,0,0,-1.06581410364015E-15,4.44089209850063E-16,4.44089209850063E-16,0
0.019989013671875,-0.0599999986588955,2.94000005722046,1.17615437507629,-0.0600018659130177,2.93999925379318,1.18000110346716,0,0,0,0,0,0,0,0,0,-0.192275941371918,-0.000279680311988734,-0.000120338624884473,0.000173135436141649,9
0.0399932861328125,-0.0599999986588955,2.94000005722046,1.16854023933411,-0.060014863945674,2.93999366110285,1.18000914986856,0,0,0,0,0,0,0,-2.58693946061287E-22,-3.88396258331244E-24,-0.380706369876862,-0.00111059898697896,-0.000477859717552347,0.000687513678106196,9
0.05999755859375,-0.0599999986588955,2.94000005722046,1.16209828853607,-0.0600498857373401,2.93997859220429,1.18003083002592,2729.526,2675.57,2548.689,2604.059,-0.001370995,2.004392E-06,-0.0005763081,-1.80707226959953E-09,-4.42864900307427E-09,-0.322100043296814,-0.00247936261166862,-0.00106680046642749,0.00153484356504269,9
0.0800018310546875,-0.0599972419440746,2.93999338150024,1.15672361850739,-0.0601175574246769,2.93994947496775,1.18007272202403,2722.097,2694.453,2468.825,2495.833,-0.00519636,8.155054E-06,-0.001441303,0.000137847397127189,-0.000327886285958812,-0.268736064434052,-0.00437268608126799,-0.00188144466206175,0.00270690098422899,9
0.0999908447265625,-0.0599877536296844,2.93996238708496,1.15231907367706,-0.0602281370710988,2.93990189563514,1.18014117609281,2568.538,2685.843,2542.258,2420.316,-0.01060684,1.299201E-05,-0.001045024,0.000474364554975182,-0.00154463096987456,-0.22022707760334,-0.00677536694902951,-0.00291525111632684,0.0041942748969354,9
0.1199951171875,-0.0599736124277115,2.93988299369812,1.14879488945007,-0.0603918861403606,2.93983143898525,1.18024254456713,2452.269,2640.463,2581.145,2390.737,-0.01667458,5.515841E-06,0.00134738,0.000707097118720412,-0.00397350871935487,-0.176208198070526,-0.00967801353495435,-0.00416417885169243,0.00599115140585487,9
0.139999389648438,-0.0599659159779549,2.93972897529602,1.14606821537018,-0.0606185767455666,2.93973390035084,1.18038287685052,2360.224,2554.084,2600.621,2408.8,-0.02222515,-2.737927E-05,0.005773203,0.000384826504159719,-0.00770659185945988,-0.136334717273712,-0.0130660253322238,-0.00562194567796536,0.00808849210174802,9
0.159988403320313,-0.0599844269454479,2.93947768211365,1.14406263828278,-0.0609175312885481,2.93960526856281,1.18056794395381,2308.45,2451.561,2584.753,2448.976,-0.0262886,-8.520548E-05,0.01166973,-0.000925498141441494,-0.0125673012807965,-0.100281365215778,-0.0169234294955564,-0.00728167892605071,0.0104764090324936,9
0.17999267578125,-0.0600545816123486,2.93911409378052,1.14270782470703,-0.0612985250199726,2.93944133760391,1.18080379722281,2300.342,2355.607,2530.323,2487.793,-0.02838397,-0.0001502023,0.01808168,-0.00350769539363682,-0.0181749295443296,-0.067739300429821,-0.0212433804254414,-0.00914043312572283,0.0131506644458931,8
0.199996948242188,-0.0602030046284199,2.93863272666931,1.14193952083588,-0.0617704296168641,2.93923829023936,1.18109592864822,2325.99,2286.814,2446.972,2504.403,-0.02864017,-0.0001981392,0.02398328,-0.00742110516875982,-0.0240652449429035,-0.0384125448763371,-0.0260104776919234,-0.0111915819022102,0.0161017247421801,8
0.220001220703125,-0.0604530163109303,2.9380362033844,1.14169907569885,-0.0623420644491781,2.93899233174064,1.18144979784016,2363.882,2255.363,2356.225,2488.036,-0.02767451,-0.0002141181,0.02861639,-0.0125005282461643,-0.0298274382948875,-0.0120193157345057,-0.03121219533433,-0.0134297356845702,0.019321835755004,8
0.239990234375,-0.0608215667307377,2.93733215332031,1.14193320274353,-0.0630214373585105,2.93870001655724,1.18187036203406,2394.771,2259.947,2277.427,2439.374,-0.02637169,-0.0002018676,0.03168372,-0.0184276178479195,-0.0352048389613628,0.011707616969943,-0.0368316683029241,-0.015847637913056,0.022800557215184,8
0.259994506835938,-0.0613183081150055,2.93652939796448,1.14259362220764,-0.0638179029240226,2.93835731967507,1.18236341216003,2402.509,2287.908,2227.587,2369.7,-0.02557487,-0.0001747034,0.03339697,-0.0248371679335833,-0.040142223238945,0.033018060028553,-0.0428651747123285,-0.0184436871643672,0.0265355850983733,8
0.279998779296875,-0.0619468428194523,2.93563413619995,1.14363646507263,-0.0647390625194898,2.93796097043536,1.18293365383054,2383.128,2322.036,2210.934,2295.573,-0.02585663,-0.0001454086,0.03434166,-0.0314266607165337,-0.0447652339935303,0.0521444566547871,-0.0492963837173861,-0.0212108567320638,0.030516809833474,8
0.300003051757813,-0.0627074539661407,2.93464779853821,1.14502239227295,-0.0657927507678135,2.93750759781875,1.18358593705038,2337.987,2344.155,2226.574,2234.26,-0.02734001,-0.0001219728,0.03527844,-0.0380305759608746,-0.0493143126368523,0.0692985877394676,-0.0561132031658829,-0.0241439437008635,0.0347367458022363,8
0.319992065429688,-0.0636004433035851,2.93356680870056,1.14671587944031,-0.0669855955880233,2.93699435001684,1.18432436481717,2280.66,2343.33,2259.279,2197.946,-0.02972833,-0.000108657,0.0368694,-0.0446495227515697,-0.0540453605353832,0.084672786295414,-0.0632980253096114,-0.0272353719486164,0.0391844929697465,8
0.339996337890625,-0.0646288841962814,2.93238401412964,1.14868474006653,-0.068326768706371,2.93641728069206,1.18515461486636,2225.05,2316.744,2293.458,2190.707,-0.03242931,-0.0001081243,0.03948625,-0.0514219030737877,-0.0591428652405739,0.0984415858983994,-0.0708499516420146,-0.0304847548730522,0.0438594951176439,8
0.360000610351563,-0.0658000409603119,2.93109083175659,1.15090012550354,-0.0698225328270578,2.93577369517774,1.1860805641102,2186.581,2272.001,2311.193,2207.104,-0.03480538,-0.0001203749,0.04310302,-0.0585579499602318,-0.0646622180938721,0.110767394304276,-0.0787518717320621,-0.0338847303337087,0.0487511600740379,8
0.379989624023438,-0.0671251490712166,2.92968034744263,1.15333616733551,-0.0714784451857985,2.93506120235061,1.1871056527423,2169.011,2220.503,2308.217,2235.795,-0.03634256,-0.0001384844,0.04737355,-0.0662555396556854,-0.0705263540148735,0.121801905333996,-0.0869857157641562,-0.0374275233937465,0.0538483017622888,8
0.399993896484375,-0.0686178579926491,2.92814922332764,1.15596997737885,-0.0733036822025899,2.9342758538535,1.18823556140379,2173.697,2176.012,2282.218,2263.517,-0.03681554,-0.0001533981,0.05175472,-0.0746356248855591,-0.0765560939908028,0.131688863039017,-0.0955525119207663,-0.0411135764513579,0.0591515566763244,8
0.419998168945313,-0.0702919661998749,2.92649865150452,1.15878129005432,-0.0753034649285836,2.93341540321397,1.18947352217404,2195.791,2150.048,2237.856,2278.597,-0.0363628,-0.0001560612,0.05567925,-0.08370541036129,-0.0825325921177864,0.140567749738693,-0.104434660908044,-0.0449353170220673,0.0646500300148815,8
0.44000244140625,-0.0721591114997864,2.92473316192627,1.16175270080566,-0.077483988232608,2.93247718495301,1.19082336997196,2220.718,2145.668,2192.302,2274.939,-0.03536412,-0.0001459412,0.05877151,-0.0933571979403496,-0.0882720202207565,0.14857043325901,-0.113620829717891,-0.048887868829098,0.0703367061060819,8
0.459991455078125,-0.0742273330688477,2.92285966873169,1.1648690700531,-0.0798493430620752,2.93145943885026,1.19228763728888,2240.265,2160.754,2154.686,2253.365,-0.03432815,-0.0001272991,0.06092352,-0.103411227464676,-0.0936724990606308,0.155819863080978,-0.123092454730403,-0.0529632444654124,0.0762000931848968,8
0.479995727539063,-0.0765007585287094,2.92088484764099,1.16811764240265,-0.0824088828700873,2.93035814037613,1.19387211435783,2245.821,2185.936,2135.822,2220.663,-0.03370177,-0.0001081243,0.06231182,-0.11367117613554,-0.0987377166748047,0.162426769733429,-0.132852887402757,-0.0571628859694044,0.0822422659629699,8
0.5,-0.0789803937077522,2.91881370544434,1.17148745059967,-0.085166398670376,2.92917165836334,1.1955791479969,2238.372,2212.212,2134.411,2185.949,-0.03378167,-9.389451E-05,0.06329001,-0.123981811106205,-0.103560790419579,0.168490961194038,-0.142884000065179,-0.0614789935111996,0.0884520025491718,8
0.519989013671875,-0.0816656574606895,2.91664791107178,1.17496943473816,-0.0881248588203387,2.92789871561062,1.19741057576073,2216.683,2228.394,2153.278,2158.517,-0.03458434,-8.689277E-05,0.06430212,-0.134263098239899,-0.108291991055012,0.174097508192062,-0.153166947611899,-0.0659034585682559,0.0948176369253132,9
0.539993286132813,-0.0845561772584915,2.91438627243042,1.178555727005,-0.091293865515634,2.92653518056143,1.19937234186584,2189.622,2229.634,2181.147,2145.337,-0.03588982,-8.748331E-05,0.06571417,-0.144526094198227,-0.113080777227879,0.179317578673363,-0.163706645289342,-0.0704383960337938,0.101342211863077,9
0.55999755859375,-0.0876532793045044,2.91202569007874,1.18224000930786,-0.094676112580471,2.92507989413848,1.20146611391775,2167.831,2217.379,2204.177,2148.056,-0.03737374,-9.271829E-05,0.06768382,-0.154855251312256,-0.118028670549393,0.184214875102043,-0.17448465888317,-0.0750758741803766,0.108014315705644,9
0.580001831054688,-0.0909605696797371,2.90956234931946,1.1860169172287,-0.0982762614093182,2.92353085067394,1.20369477754168,2152.826,2194.818,2221.049,2163.009,-0.03865898,-9.976284E-05,0.07018145,-0.165364444255829,-0.123169660568237,0.18884502351284,-0.185490414529404,-0.0798113433697334,0.11482740272751,9
0.599990844726563,-0.0944837629795074,2.90699315071106,1.18988215923309,-0.102095761416081,2.92188742652551,1.20605922999388,2150.843,2170.684,2222.616,2184.147,-0.0394819,-0.0001049285,0.07298703,-0.176159203052521,-0.128461435437202,0.193259835243225,-0.19670480600515,-0.0846365827279185,0.121769645266545,9
0.6199951171875,-0.0982297211885452,2.90431690216064,1.19383227825165,-0.106144683970236,2.92014528826426,1.20856570593183,2159.193,2151.57,2212.043,2204.108,-0.03973277,-0.0001043959,0.07579447,-0.187298431992531,-0.133809641003609,0.197507962584496,-0.208134604141382,-0.0895545055543457,0.128845234789665,9
0.639999389648438,-0.10220530629158,2.90153479576111,1.19786512851715,-0.110424235525481,2.91830391678686,1.21121495220784,2177.368,2145.01,2188.625,2216.467,-0.03953622,-9.719519E-05,0.0782843,-0.198778867721558,-0.139100134372711,0.201640009880066,-0.219761081350814,-0.0945570538913933,0.136042578028218,9
0.659988403320313,-0.106415957212448,2.89864993095398,1.20197916030884,-0.114934715429503,2.91636318329238,1.21400715413238,2193.913,2149.989,2168.163,2217.598,-0.03911385,-8.510345E-05,0.08028147,-0.210532918572426,-0.144245788455009,0.205702796578407,-0.231565018351745,-0.0996359582190702,0.143349777331291,9
0.67999267578125,-0.110865145921707,2.89566588401794,1.20617389678955,-0.119686638739014,2.91431856344567,1.21694882102647,2205.958,2164.414,2153.741,2209.118,-0.03873248,-7.26795E-05,0.08176714,-0.222458988428116,-0.149205654859543,0.2097377628088,-0.243554411173546,-0.104794659005432,0.150771782621969,9
0.699996948242188,-0.115554213523865,2.89258599281311,1.21044957637787,-0.124680083855354,2.91217002351282,1.22004000142426,2213.136,2184.733,2145.435,2194.84,-0.0386643,-6.316166E-05,0.08284188,-0.23445388674736,-0.153993159532547,0.213783517479897,-0.255710395848158,-0.11002503961202,0.158296916205407,9
0.720001220703125,-0.120482936501503,2.88941240310669,1.21480691432953,-0.129918284978346,2.90991617190799,1.22328269744952,2209.17,2202.21,2153.553,2179.255,-0.03902223,-5.919708E-05,0.08374382,-0.246436089277267,-0.158675760030746,0.217869773507118,-0.268023157655716,-0.11532287703907,0.16591910230247,9
0.739990234375,-0.125650405883789,2.88614559173584,1.21924734115601,-0.135400001298574,2.90755754251682,1.2266761409821,2200.116,2213.317,2169.281,2168.54,-0.03978976,-6.057425E-05,0.08471896,-0.258373379707336,-0.163342237472534,0.222018525004387,-0.280473432677602,-0.12067988256057,0.173626415629864,9
0.759994506835938,-0.131056070327759,2.88278412818909,1.22377216815948,-0.14113644597991,2.90508931062815,1.2302272735046,2188.002,2214.388,2190.6,2166.174,-0.04080389,-6.585299E-05,0.08596206,-0.270283252000809,-0.168076038360596,0.226243168115616,-0.293070637251543,-0.126100107763583,0.181424685349205,9
0.779998779296875,-0.136700510978699,2.87932562828064,1.2283833026886,-0.147126184485884,2.90251209348295,1.23393520697061,2181.489,2209.259,2204.654,2172.593,-0.04189046,-7.226021E-05,0.08752079,-0.282222330570221,-0.172926411032677,0.230556264519691,-0.305795832832518,-0.131575403921268,0.189302187598958,9
0.800003051757813,-0.142585620284081,2.87576746940613,1.23308265209198,-0.153371683173492,2.89982482987671,1.2378014681726,2177.252,2198.334,2217.357,2184.617,-0.04283322,-7.742433E-05,0.08936381,-0.294255614280701,-0.177906543016434,0.234966248273849,-0.318639638509124,-0.13710173468952,0.197253115148089,9
0.819992065429688,-0.148714423179626,2.87210774421692,1.23787224292755,-0.159870162197751,2.89702871589906,1.2418243362541,2180.554,2187.837,2219.839,2199.534,-0.04349954,-7.941134E-05,0.09135264,-0.306440412998199,-0.182985559105873,0.239480942487717,-0.33158286215529,-0.142670842232658,0.205265587156312,9
0.839996337890625,-0.155090525746346,2.8683454990387,1.24275434017181,-0.166633637018892,2.89411858163313,1.24601124935738,2188.276,2180.311,2216.553,2213.271,-0.04383457,-7.72007E-05,0.09331716,-0.318804949522018,-0.188106447458267,0.244107395410538,-0.344636106234817,-0.148287288494656,0.213346167053785,9
0.860000610351563,-0.161717355251312,2.8644814491272,1.24773144721985,-0.173659158941841,2.89109569582005,1.2503603820997,2202.495,2181.552,2202.998,2222.523,-0.04394482,-7.088784E-05,0.09506813,-0.331342667341232,-0.193202003836632,0.248857378959656,-0.357780475378537,-0.153942943326036,0.221483157706883,9
0.879989624023438,-0.168597534298897,2.86051678657532,1.25280630588531,-0.18094280014554,2.88796174849148,1.25486930297274,2213.102,2188.207,2195.151,2224.576,-0.04395654,-6.309309E-05,0.09653243,-0.344008654356003,-0.19822795689106,0.253740757703781,-0.370996904517929,-0.159629603560431,0.229664756929996,9
0.899993896484375,-0.175732418894768,2.85645341873169,1.25798153877258,-0.18849723509595,2.8847112861788,1.25954585807468,2220.469,2199.222,2191.463,2221.48,-0.04400501,-5.661239E-05,0.09772613,-0.356743425130844,-0.203166037797928,0.25876373052597,-0.384296738353309,-0.165352150505452,0.237897987633041,9
0.919998168945313,-0.183122247457504,2.85229301452637,1.26326024532318,-0.196318384305134,2.8813460641717,1.26438752200817,2226.912,2213.704,2187.823,2216.048,-0.04425322,-5.276777E-05,0.09870076,-0.369491934776306,-0.208026021718979,0.263933777809143,-0.397661187980262,-0.171102499820431,0.246171218589148,9
0.94000244140625,-0.190766453742981,2.84803605079651,1.26864528656006,-0.204407453948074,2.87786556348678,1.26939504145298,2225.381,2224.707,2196.955,2209.397,-0.04473791,-5.291831E-05,0.09960577,-0.382210344076157,-0.212850287556648,0.269252568483353,-0.411081631631503,-0.176876941799768,0.254479112513653,9
0.959991455078125,-0.198664158582687,2.84368228912354,1.27413964271545,-0.212759000778906,2.87427212620069,1.27456504678061,2221.955,2231.811,2208.771,2205.922,-0.04543459,-5.640276E-05,0.1005775,-0.394885689020157,-0.217687889933586,0.274717628955841,-0.424539267042903,-0.182667386354485,0.262810029909387,9
0.979995727539063,-0.206814795732498,2.83923053741455,1.27974605560303,-0.22138664033507,2.87055989392801,1.27990596665734,2216.604,2232.204,2224.229,2207.383,-0.04622342,-6.206536E-05,0.1017206,-0.407532751560211,-0.222581833600998,0.280321061611176,-0.438046240701377,-0.188479059778567,0.271171490030365,9
1,-0.215218558907509,2.83467960357666,1.28546726703644,-0.230284798736574,2.86673126495361,1.28541435058594,2216.806,2230.753,2230.925,2214.02,-0.0470261,-6.724925E-05,0.1030263,-0.420187741518021,-0.227550193667412,0.286058157682419,-0.451584000205995,-0.194303979492187,0.279552008056641,9
1.01998901367188,-0.223876222968102,2.83002781867981,1.29130566120148,-0.239446912293295,2.86278906344998,1.29108613532954,2216.42,2225.495,2240.081,2222.569,-0.04771586,-7.071315E-05,0.1044726,-0.432884305715561,-0.232594430446625,0.291921675205231,-0.46513400752272,-0.200134169097193,0.287940108062054,9
1.03999328613281,-0.232789233326912,2.8252739906311,1.29726374149323,-0.248887339851819,2.85872711120656,1.2969302096982,2219.346,2220.327,2244.304,2232.487,-0.04820481,-7.188079E-05,0.1059869,-0.445650666952133,-0.237690150737762,0.297903001308441,-0.478708875293167,-0.205975055460915,0.29634359787259,9
1.05999755859375,-0.241959229111671,2.82041811943054,1.30334377288818,-0.258599401509697,2.85454828239877,1.30294243851408,2228.891,2220.297,2237.167,2242.018,-0.04853132,-6.972944E-05,0.1074303,-0.458500057458878,-0.242795363068581,0.303999811410904,-0.492290296490434,-0.211818761581115,0.30475114456651,9
1.08000183105469,-0.251387536525726,2.81546068191528,1.30954790115356,-0.268583149539609,2.85025255453512,1.30912285413647,2235.695,2222.267,2235.1,2247.065,-0.04872733,-6.590806E-05,0.1087398,-0.471416741609573,-0.247876659035683,0.310208797454834,-0.50587040849135,-0.217661904390701,0.313157880805523,10
1.09999084472656,-0.261075019836426,2.81040263175964,1.31587839126587,-0.278830554044452,2.84584338265603,1.31546648567654,2243.04,2228.502,2231.155,2248.99,-0.04887753,-6.183776E-05,0.1098785,-0.48437225818634,-0.252907812595367,0.31652706861496,-0.519431110871131,-0.223496695782555,0.321552601564445,10
1.1199951171875,-0.271021634340286,2.80524492263794,1.32233738899231,-0.289357002179081,2.84131414609862,1.32198285851614,2246.952,2235.321,2232.337,2248.295,-0.04903679,-5.924419E-05,0.1108716,-0.497330486774445,-0.257880330085754,0.322948485612869,-0.532985466132485,-0.229328756186667,0.329943393154705,10
1.13999938964844,-0.281226873397827,2.79998898506165,1.32892680168152,-0.300154365346813,2.83666834237095,1.3286669406667,2252.532,2245.331,2229.241,2246.893,-0.04931375,-5.813562E-05,0.1117331,-0.510261714458466,-0.262797325849533,0.329470992088318,-0.546515580872639,-0.235150386571708,0.338319178707607,10
1.15998840332031,-0.291689664125443,2.79463529586792,1.33564853668213,-0.31121353909136,2.83190988886621,1.33551309603608,2251.757,2251.669,2237.317,2244.08,-0.04971056,-5.949909E-05,0.1125583,-0.523139178752899,-0.267684131860733,0.336088091135025,-0.560003743914979,-0.240953966313175,0.346668994161124,10
1.17999267578125,-0.302408784627914,2.78918409347534,1.34250426292419,-0.322550701230474,2.8270318247214,1.34253133946411,2249.406,2254.722,2247.733,2243.405,-0.05017715,-6.333911E-05,0.1134343,-0.535955846309662,-0.272565603256226,0.342788517475128,-0.573463232144024,-0.246745208083563,0.355001058539242,10
1.19999694824219,-0.313383251428604,2.78363490104675,1.34949553012848,-0.334156660511822,2.8220381046756,1.34971598112778,2251.185,2257.495,2250.404,2246.488,-0.05070712,-6.703288E-05,0.1143641,-0.548723459243774,-0.277456432580948,0.349565386772156,-0.58687652428584,-0.252516572968185,0.36330452533874,10
1.22000122070313,-0.324612319469452,2.77798748016357,1.35662364959717,-0.346030421585499,2.81692915700008,1.35706640485806,2249.753,2255.939,2259.929,2249.982,-0.05121418,-7.057338E-05,0.1153792,-0.561453700065613,-0.28236910700798,0.356408625841141,-0.600236516861372,-0.258265004538453,0.371574997167698,10
1.239990234375,-0.336095601320267,2.77224159240723,1.36388981342316,-0.358161486344149,2.81170949873715,1.36457611182642,2251.311,2254.144,2264.166,2255.739,-0.05164242,-7.28581E-05,0.1164539,-0.574164628982544,-0.287298321723938,0.363308519124985,-0.613526094901141,-0.263983138701136,0.379801879044709,10
1.25999450683594,-0.347832977771759,2.76639699935913,1.37129485607147,-0.3705671011502,2.80637170925886,1.37225577835275,2253.113,2251.109,2268.383,2262.095,-0.05192898,-7.369198E-05,0.1175517,-0.586868345737457,-0.292227208614349,0.370253533124924,-0.626758665639206,-0.269676744214496,0.387993470686331,10
1.27999877929688,-0.359824359416962,2.76045441627502,1.37883961200714,-0.383236695417198,2.80092033679326,1.3800988607405,2260.714,2253.043,2261.564,2268.552,-0.05212712,-7.223953E-05,0.118572,-0.599569737911224,-0.297126144170761,0.377239525318146,-0.639917282339435,-0.275338529371412,0.396139281255613,10
1.30000305175781,-0.372069418430328,2.75441479682922,1.3865247964859,-0.396168722856641,2.79535604666509,1.38810440176341,2264.423,2254.834,2262.251,2271.212,-0.05224909,-6.994628E-05,0.1194946,-0.612252354621887,-0.30197736620903,0.384260833263397,-0.652995275331231,-0.280965624398954,0.404235181908735,10
1.31999206542969,-0.384567320346832,2.7482795715332,1.3943510055542,-0.409351342777246,2.78968393359302,1.39626507146953,2268.85,2259.354,2260.613,2272.41,-0.05234496,-6.787579E-05,0.1203048,-0.624895751476288,-0.306765586137772,0.391311854124069,-0.665976209205206,-0.286550957599616,0.412270998344359,10
1.33999633789063,-0.397316813468933,2.74204993247986,1.40231871604919,-0.422802873722428,2.78389611561957,1.40459220990988,2270.482,2262.962,2263.486,2272.321,-0.05242859,-6.7047E-05,0.1210289,-0.637476444244385,-0.311486482620239,0.398383975028992,-0.678873453515705,-0.29210028151913,0.420255006953505,11
1.36000061035156,-0.410316377878189,2.73572707176208,1.41042816638947,-0.436511415158101,2.77799771321212,1.41307845008695,2275.283,2269.965,2259.231,2272.589,-0.05258518,-6.692655E-05,0.1216539,-0.649977564811707,-0.316138714551926,0.405474126338959,-0.691670720740693,-0.297606588091785,0.42817712498415,11
1.37998962402344,-0.423563927412033,2.72931241989136,1.41867971420288,-0.450464156928423,2.77199423822282,1.42171586190405,2274.358,2273.395,2265.964,2270.816,-0.05280143,-6.835561E-05,0.1222482,-0.662379264831543,-0.32073849439621,0.412575453519821,-0.704352136620515,-0.303063047067127,0.436027525513373,11
1.39999389648438,-0.43705740571022,2.72280645370483,1.42707324028015,-0.464680216184654,2.76587746507559,1.43051627978847,2272.599,2274.46,2273.721,2270.731,-0.05303099,-7.115644E-05,0.1228682,-0.674675941467285,-0.325298756361008,0.419676631689072,-0.716930938559026,-0.308475354130225,0.443814403124744,11
1.41999816894531,-0.450794965028763,2.71620988845825,1.43560874462128,-0.47914673136562,2.75965292774086,1.43947174182117,2275.409,2277.092,2272.277,2273.528,-0.05329731,-7.346367E-05,0.1234902,-0.686874747276306,-0.329823106527328,0.426772594451904,-0.729391385793766,-0.313836736470737,0.451528013536465,11
1.44000244140625,-0.464774489402771,2.70952343940735,1.44428586959839,-0.493861275572861,2.75332167044526,1.4485807456364,2274.254,2275.908,2279.332,2275.269,-0.05353912,-7.560624E-05,0.1241426,-0.698977291584015,-0.334319233894348,0.433855056762695,-0.741727567798258,-0.319144650954242,0.459164697851088,11
1.45999145507813,-0.478994309902191,2.70274782180786,1.45310413837433,-0.508809800712713,2.74688973769103,1.45783459479497,2275.431,2275.193,2281.696,2278.567,-0.05372927,-7.691134E-05,0.1248103,-0.710991024971008,-0.338782429695129,0.440916150808334,-0.753924423002454,-0.324392617007921,0.466715132239272,11
1.47999572753906,-0.493452727794647,2.69588375091553,1.46206307411194,-0.524012471663969,2.74034845309416,1.46724577231745,2275.845,2272.775,2285.705,2282.208,-0.0538145,-7.747992E-05,0.1254807,-0.722919702529907,-0.343201905488968,0.447945445775986,-0.765994882555672,-0.329586198544069,0.474187321698441,11
1.5,-0.508147954940796,2.68893265724182,1.47116184234619,-0.539455198877605,2.73370387899399,1.4768055561018,2281.805,2275.164,2278.415,2286.617,-0.05385711,-7.630375E-05,0.1260727,-0.734765350818634,-0.347556591033936,0.454940438270569,-0.777924000354858,-0.334718964672088,0.481572013878822,11
1.51998901367188,-0.523078262805939,2.68189597129822,1.48039972782135,-0.555123050061237,2.72696244033876,1.48650470234772,2283.229,2276.068,2280.361,2287.461,-0.05385338,-7.476437E-05,0.1265895,-0.746512353420258,-0.35183846950531,0.461896389722824,-0.789697369743256,-0.339784716610053,0.488860290373601,11
1.53999328613281,-0.53824120759964,2.67477512359619,1.4897757768631,-0.571036956668503,2.72011513090874,1.49635616862212,2284.023,2277.26,2282.698,2287.761,-0.05380065,-7.408703E-05,0.1270442,-0.758145689964294,-0.356038868427277,0.468805074691772,-0.801327600455846,-0.344788879974649,0.496059957209413,11
1.55999755859375,-0.553634226322174,2.66757225990295,1.49928903579712,-0.587181951496087,2.71316839067337,1.50635068951315,2288.906,2282.457,2275.871,2288.943,-0.0537836,-7.336671E-05,0.1273955,-0.769654273986816,-0.360149025917053,0.475665271282196,-0.812800388649436,-0.349725300221754,0.503162159625937,11
1.58000183105469,-0.569254636764526,2.66028881072998,1.50893843173981,-0.60355483331529,2.70612359703193,1.51648628330776,2288.161,2284.599,2280.365,2287.134,-0.05379479,-7.366195E-05,0.1276922,-0.781017959117889,-0.364177852869034,0.482472211122513,-0.824110582941666,-0.354591760855452,0.510163708672098,11
1.59999084472656,-0.585099160671234,2.65292620658875,1.51872289180756,-0.620139554045575,2.69898765502515,1.52675301547962,2288.074,2286.961,2282.725,2286.238,-0.05383953,-7.504948E-05,0.1279645,-0.792227327823639,-0.368132710456848,0.489220321178436,-0.835244706287931,-0.359382463079953,0.517056261415284,11
1.6199951171875,-0.601164698600769,2.64548587799072,1.5286408662796,-0.636958033083316,2.69175113334911,1.53716445517924,2285.931,2286.073,2288.987,2286.256,-0.05386616,-7.717025E-05,0.1282521,-0.803278982639313,-0.372021436691284,0.495899826288223,-0.846214826007804,-0.364102599125749,0.523847288101157,11
1.63999938964844,-0.617448270320892,2.63796901702881,1.53869104385376,-0.653994195024907,2.68442094880091,1.54771065096602,2288.979,2288.159,2284.5,2288.703,-0.05391463,-7.851585E-05,0.1285129,-0.814178824424744,-0.375841379165649,0.502508282661438,-0.857007552155828,-0.368746407673381,0.530528499715628,11
1.65998840332031,-0.63394683599472,2.63037705421448,1.54887187480927,-0.67123120513297,2.67700434489773,1.55838118133557,2287.545,2286.78,2289.754,2289.028,-0.0539386,-7.951507E-05,0.1287737,-0.82492333650589,-0.379597991704941,0.509039998054504,-0.867610144209785,-0.373308406832068,0.537092009268528,11
1.67999267578125,-0.650656998157501,2.6227114200592,1.55918157100677,-0.688691692550512,2.66949158495151,1.56919005480539,2286.461,2284.506,2293.975,2290.457,-0.0538896,-8.041211E-05,0.1290431,-0.83551424741745,-0.383287101984024,0.515486180782318,-0.878034183119987,-0.377793579561193,0.543544985919778,11
1.69999694824219,-0.667576134204865,2.61497354507446,1.56961846351624,-0.706358800111611,2.66188992212981,1.58012683598675,2290.906,2286.329,2286.595,2293.717,-0.05382461,-7.982423E-05,0.1292505,-0.845956087112427,-0.38689449429512,0.521845638751984,-0.888267004546665,-0.382196476749158,0.549879589839776,11
1.72000122070313,-0.684700965881348,2.60716509819031,1.5801807641983,-0.724228658537036,2.6542010212754,1.5911891296115,2290.538,2285.714,2289.459,2293.657,-0.05372288,-7.90168E-05,0.1294104,-0.856237888336182,-0.390418112277985,0.52811461687088,-0.898304216251578,-0.386515208538549,0.556093102023817,11
1.739990234375,-0.702027976512909,2.59928798675537,1.59086656570435,-0.74228345468553,2.64643254688532,1.60236590849663,2291.633,2286.788,2288.605,2293.845,-0.05359931,-7.859612E-05,0.1295172,-0.866352021694183,-0.393851518630981,0.534289300441742,-0.908134108040217,-0.390744736359816,0.562178273303667,12
1.75999450683594,-0.719553768634796,2.59134411811829,1.60167384147644,-0.760546715064628,2.63857437616062,1.61367173667103,2290.626,2285.952,2291.59,2293.726,-0.05342887,-7.869754E-05,0.1295884,-0.876289248466492,-0.39719146490097,0.540362298488617,-0.917767514700581,-0.394889722119545,0.568141810929231,12
1.77999877929688,-0.737274587154388,2.58333563804626,1.61260056495667,-0.779000609654483,2.63063418086074,1.62509557650306,2294.491,2289.438,2284.003,2294.845,-0.05328612,-7.822548E-05,0.1295753,-0.886045277118683,-0.400430023670197,0.546333968639374,-0.927192788821983,-0.398945154262308,0.57397650459845,12
1.80000305175781,-0.75518673658371,2.57526421546936,1.62364459037781,-0.797640935141499,2.62261376955408,1.63663482594136,2292.867,2289.744,2287.868,2292.864,-0.0531535,-7.877868E-05,0.1295193,-0.895605146884918,-0.403574615716934,0.55220103263855,-0.936405971974637,-0.402909329586356,0.579679903854719,12
1.81999206542969,-0.773285925388336,2.56713151931763,1.63480377197266,-0.816448984455027,2.61452119137054,1.64827790441807,2292.335,2290.646,2288.771,2291.849,-0.05303419,-7.962687E-05,0.1294382,-0.904962837696075,-0.406629025936127,0.557959616184235,-0.945396434568188,-0.406777674475912,0.585245428475252,12
1.83999633789063,-0.791568338871002,2.55893969535828,1.64607584476471,-0.835449117627072,2.60634596486888,1.66003989195343,2289.818,2288.675,2293.489,2291.41,-0.05287972,-8.124643E-05,0.1293623,-0.914115786552429,-0.409597128629684,0.563601791858673,-0.954174163352093,-0.410554485950274,0.590679260733698,12
1.86000061035156,-0.810029625892639,2.55069017410278,1.65745842456818,-0.854622615239374,2.59809614449182,1.6719092003358,2292.771,2290.359,2286.741,2293.198,-0.05274284,-8.186184E-05,0.1292392,-0.923068821430206,-0.412473499774933,0.569127559661865,-0.962728579444532,-0.414235212212131,0.595974851798267,12
1.87998962402344,-0.828665912151337,2.54238486289978,1.66894912719727,-0.873950157556149,2.58978004298193,1.6838738697284,2290.762,2288.861,2290.717,2292.111,-0.05258891,-8.230229E-05,0.1290989,-0.931815147399902,-0.415263116359711,0.574533581733704,-0.971049893464309,-0.417815641164241,0.601126141575667,12
1.89999389648438,-0.847472906112671,2.5340256690979,1.68054533004761,-0.893456683142228,2.58138692997148,1.69594933829086,2288.761,2286.404,2294.157,2292.055,-0.05237479,-8.30647E-05,0.1289576,-0.940353989601135,-0.417963624000549,0.579812467098236,-0.979147395688901,-0.421299770153459,0.606138881190213,12
1.91999816894531,-0.866446793079376,2.52561450004578,1.69224464893341,-0.913122862707269,2.57292512231409,1.70812364027167,2292.298,2288.055,2285.886,2293.961,-0.0521644,-8.270473E-05,0.128751,-0.948689043521881,-0.420564383268356,0.584965169429779,-0.987011339258123,-0.424683405378145,0.611007036871143,12
1.94000244140625,-0.885582864284515,2.51715326309204,1.70404446125031,-0.932943991899774,2.5643966441608,1.72039386345315,2290.595,2286.832,2288.749,2292.558,-0.05193271,-8.228245E-05,0.1285045,-0.956809818744659,-0.423067599534988,0.589989244937897,-0.994638524886308,-0.427965170275055,0.615728628108227,12
1.95999145507813,-0.904877126216888,2.50864386558533,1.71594214439392,-0.952900013794853,2.55581012544606,1.73274759164336,2290.442,2287.021,2287.76,2291.759,-0.05168983,-8.229168E-05,0.128219,-0.964711368083954,-0.425470501184464,0.594882011413574,-1.00202031904361,-0.431141350077486,0.620298310335216,12
1.97999572753906,-0.924324810504913,2.50008845329285,1.72793483734131,-0.973016570682103,2.54715453300902,1.74520069864106,2288.13,2284.811,2290.831,2291.01,-0.05139901,-8.288914E-05,0.1279153,-0.972388625144958,-0.427772462368011,0.599637031555176,-1.00916501115878,-0.434215511495054,0.624721215103391,12
2,-0.943921685218811,2.49148917198181,1.7400199174881,-0.993273599084619,2.53843849960327,1.7577407641983,2291.286,2287.052,2282.364,2291.788,-0.05113163,-8.270756E-05,0.1275392,-0.979842126369476,-0.429965376853943,0.604255974292755,-1.01606400046349,-0.437183953857422,0.628992018127441,12
2.01998901367188,-0.963662981987,2.48284816741943,1.75219464302063,-1.01365055070775,2.52967086658596,1.77035506794184,2288.836,2285.984,2285.607,2289.492,-0.05086211,-8.282671E-05,0.1271275,-0.987060368061066,-0.43205600976944,0.608736872673035,-1.02270954399163,-0.440043345582587,0.633105926142498,12
2.03999328613281,-0.983543694019318,2.47416734695435,1.76445615291595,-1.03417354141348,2.52084039703127,1.78305977683431,2286.063,2283.967,2288.854,2288.026,-0.05055585,-8.395284E-05,0.1267094,-0.994039356708527,-0.434045702219009,0.613073289394379,-1.02910913225408,-0.442796909628122,0.637067576131623,12
2.05999755859375,-1.00355923175812,2.46544885635376,1.77680146694183,-1.05482201812353,2.5119559343546,1.79584216754118,2288.674,2285.653,2280.787,2288.705,-0.05027622,-8.415633E-05,0.1262333,-1.00078237056732,-0.435928583145142,0.617266774177551,-1.03525504859546,-0.445441325732794,0.640872191117535,12
2.08000183105469,-1.02370488643646,2.45669460296631,1.78922772407532,-1.07559088172821,2.50301967256038,1.80869908347065,2285.804,2283.873,2284.232,2286.554,-0.0499902,-8.469108E-05,0.1257347,-1.00728118419647,-0.437712281942368,0.62131541967392,-1.04114485287423,-0.447975543971863,0.644518260536375,12
2.09999084472656,-1.04397571086884,2.4479067325592,1.80173206329346,-1.09645901288412,2.49404069871208,1.82161745074311,2284.598,2282.998,2283.809,2285.445,-0.04969565,-8.534326E-05,0.125219,-1.01353549957275,-0.439397186040878,0.625216722488403,-1.04677201701582,-0.450396755497224,0.648001743199023,12
2.1199951171875,-1.06436657905579,2.4390869140625,1.81431138515472,-1.11745308225396,2.48500753716864,1.83461377976925,2281.581,2279.55,2286.841,2284.84,-0.04934411,-8.623226E-05,0.1247036,-1.01954543590546,-0.440983057022095,0.628964483737946,-1.0521429102862,-0.45270770082608,0.651326581984514,12
2.13999938964844,-1.08487272262573,2.43023800849915,1.82696259021759,-1.138551967509,2.47592927627801,1.8476749948214,2284.456,2280.622,2277.897,2285.737,-0.04900003,-8.616111E-05,0.1241262,-1.02531576156616,-0.442459940910339,0.632560849189758,-1.05725102347782,-0.454905579228273,0.654488747383304,12
2.15998840332031,-1.10548949241638,2.42136144638062,1.83968269824982,-1.15973418543027,2.46681515966915,1.86078779676364,2281.912,2278.61,2280.118,2283.718,-0.04863838,-8.591622E-05,0.1235124,-1.03083777427673,-0.443831384181976,0.636004388332367,-1.06209075728,-0.456987981476842,0.657484773155346,12
2.17999267578125,-1.12621176242828,2.4124596118927,1.85246849060059,-1.18102676265167,2.45765355853653,1.8739689163698,2279.056,2276.093,2282.374,2282.068,-0.04822665,-8.623457E-05,0.1228849,-1.03610777854919,-0.44509544968605,0.639289736747742,-1.06666760390386,-0.458957270716794,0.660318059240953,12
2.19999694824219,-1.1470342874527,2.40353465080261,1.86531686782837,-1.20240821395574,2.44845371736898,1.88720505326679,2281.781,2277.537,2273.103,2282.346,-0.04783623,-8.609541E-05,0.1221859,-1.04112792015076,-0.446243971586227,0.642419576644897,-1.07097597819164,-0.460811043810786,0.662985148161421,12
2.22000122070313,-1.16795206069946,2.39458894729614,1.87822473049164,-1.22387315175433,2.43921795429519,1.90049287228091,2278.72,2275.945,2275.589,2279.443,-0.04744368,-8.623902E-05,0.1214519,-1.04588770866394,-0.447283536195755,0.645392835140228,-1.07501419914593,-0.462548577472581,0.665484999299265,12
2.239990234375,-1.18895983695984,2.38562440872192,1.89118885993958,-1.24539969505118,2.42995568409656,1.91381882803312,2277.138,2275.202,2274.556,2277.493,-0.04705273,-8.693901E-05,0.1206922,-1.05038452148438,-0.448215663433075,0.64820796251297,-1.07877792518082,-0.464168003639063,0.667814925005999,12
2.25999450683594,-1.21005189418793,2.37664365768433,1.90420603752136,-1.26701526177039,2.4206551096063,1.92719989352455,2273.448,2271.866,2277.423,2275.949,-0.0466181,-8.794068E-05,0.1199322,-1.05461740493774,-0.449042618274689,0.650859534740448,-1.08227143928024,-0.465671165158559,0.669977576652695,12
2.27999877929688,-1.23122370243073,2.36764883995056,1.91727304458618,-1.28869796983554,2.41132564607061,1.9406225227075,2275.736,2272.633,2268.452,2276.12,-0.04620425,-8.810983E-05,0.119115,-1.05859160423279,-0.449757516384125,0.653350114822388,-1.08549040888332,-0.467056197851165,0.67197027217779,12
2.29998779296875,-1.25246977806091,2.35864162445068,1.93038666248322,-1.31042570636616,2.40197680804417,1.95407302665558,2272.283,2270.152,2271.02,2273.512,-0.04577921,-8.828198E-05,0.1182733,-1.06229996681213,-0.450366675853729,0.655678689479828,-1.08843144721369,-0.468321644481621,0.673790915005368,12
2.31999206542969,-1.27378463745117,2.3496241569519,1.94354343414307,-1.33222611841886,2.3925966997709,1.96756852021384,2268.775,2266.979,2273.174,2271.679,-0.04530463,-8.899304E-05,0.1174305,-1.06574189662933,-0.450869709253311,0.657840311527252,-1.09109790637238,-0.469468947365361,0.675441580245663,11
2.33999633789063,-1.29516291618347,2.34059906005859,1.95674014091492,-1.35407709248145,2.38319483607731,1.98109531406483,2271.074,2267.551,2263.87,2271.723,-0.04484657,-8.911682E-05,0.1165272,-1.06892251968384,-0.451258450746536,0.65983784198761,-1.09348640563071,-0.470496651869278,0.67692017506657,11
2.36000061035156,-1.31659960746765,2.33156824111938,1.96997356414795,-1.37597305876702,2.37377361348711,1.99464996024512,2267.671,2265.146,2265.821,2268.972,-0.04437838,-8.909281E-05,0.115594,-1.07183432579041,-0.45153871178627,0.661670684814453,-1.09559602313537,-0.471404361345641,0.678226128796969,11
2.37998962402344,-1.33808922767639,2.32253408432007,1.98324036598206,-1.39789168475144,2.36434264106153,2.00821863385843,2265.881,2263.809,2264.222,2266.88,-0.04390221,-8.953281E-05,0.1146358,-1.07447612285614,-0.451710313558578,0.663337886333466,-1.09742465646102,-0.47219117117957,0.679358139935436,11
2.39999389648438,-1.35962605476379,2.31349849700928,1.99653708934784,-1.41986083522252,2.35488992936084,2.02181858453579,2262.1,2260.101,2266.136,2265.268,-0.04337597,-9.009776E-05,0.113672,-1.07684743404388,-0.451773583889008,0.664834678173065,-1.09897439291323,-0.472857979480329,0.680317500623536,11
2.41999816894531,-1.3812050819397,2.30446410179138,2.0098602771759,-1.44185817738692,2.34542508756209,2.03543598721428,2264.296,2260.642,2256.666,2264.797,-0.0428689,-8.994361E-05,0.1126456,-1.07895278930664,-0.451720535755157,0.666164338588715,-1.10024313330221,-0.473403883025206,0.681102911362803,11
2.44000244140625,-1.40282082557678,2.29543304443359,2.02320671081543,-1.46387808506052,2.33595053645515,2.04906735901791,2260.611,2258.146,2258.459,2261.78,-0.04235438,-8.999198E-05,0.1115887,-1.0807843208313,-0.451557368040085,0.667326688766479,-1.10123038958312,-0.473828671822132,0.681714070030222,11
2.45999145507813,-1.42446756362915,2.28640747070313,2.0365731716156,-1.48589810917879,2.32647593524532,2.06269880290633,2258.627,2256.736,2256.627,2259.406,-0.0418356,-9.040481E-05,0.1105071,-1.08234083652496,-0.451284676790237,0.668321073055267,-1.10193535162022,-0.474131997292339,0.68215047511319,10
2.47999572753906,-1.44614005088806,2.27738928794861,2.04995608329773,-1.50794623031618,2.31698924467309,2.07634764018804,2254.551,2252.983,2258.421,2257.492,-0.04127154,-9.109386E-05,0.1094224,-1.08362245559692,-0.450903743505478,0.66914314031601,-1.10235882472314,-0.474314205938057,0.682412625136718,10
2.5,-1.4678328037262,2.26838111877441,2.06335210800171,-1.52999999932945,2.30750012397766,2.08999997377396,2256.426,2253.138,2249.168,2256.759,-0.04072719,-9.11594E-05,0.10828,-1.08463418483734,-0.450407445430756,0.669796288013458,-1.10250000050292,-0.474374949932098,0.682500019669533,10
2.51998901367188,-1.48954021930695,2.25938510894775,2.07675766944885,-1.5520369476803,2.29801824074336,2.10364189456856,2252.52,2250.442,2250.729,2253.659,-0.04017538,-9.125919E-05,0.1071111,-1.08536958694458,-0.449802219867706,0.670280396938324,-1.10235904000526,-0.474314298567936,0.682412758406603,10
2.53999328613281,-1.51125681400299,2.25040340423584,2.09016942977905,-1.57408507527774,2.28853154739156,2.11729073584934,2248.441,2246.995,2252.152,2251.291,-0.03958043,-9.179318E-05,0.1059393,-1.08582818508148,-0.449088543653488,0.670591533184052,-1.10193578218388,-0.474132182551855,0.682150741652607,9
2.55999755859375,-1.53297710418701,2.24143815040588,2.1035840511322,-1.59612191359838,2.27904971150017,2.13093258853001,2250.241,2247.01,2242.789,2250.37,-0.03900732,-9.169874E-05,0.1047102,-1.08601546287537,-0.448259860277176,0.670733332633972,-1.10123038958312,-0.473828671822132,0.681714070030222,9
2.58000183105469,-1.55469560623169,2.23249173164368,2.11699819564819,-1.61814182127198,2.26957516039323,2.14456396033363,2246.096,2244.282,2244.333,2247.061,-0.03842888,-9.203884E-05,0.103457,-1.08592486381531,-0.447323054075241,0.670705854892731,-1.10024313330221,-0.473403883025206,0.681102911362804,9
2.59999084472656,-1.57640671730042,2.22356605529785,2.13040828704834,-1.64012239440973,2.26011753383818,2.15817098218581,2243.745,2242.391,2242.295,2244.538,-0.03784618,-9.225069E-05,0.1021849,-1.08555722236633,-0.446279287338257,0.670508861541748,-1.09897546783438,-0.47285844198887,0.680318166050934,8
2.6199951171875,-1.59810495376587,2.2146635055542,2.14381098747253,-1.66209156852628,2.2506648119635,2.17177094750084,2239.321,2238.264,2243.742,2242.529,-0.03721661,-9.287095E-05,0.1009138,-1.08491396903992,-0.445129781961441,0.670138597488403,-1.09742594550583,-0.472191725819537,0.679358937915576,6
2.63999938964844,-1.61978483200073,2.20578622817993,2.15720295906067,-1.68402693989188,2.24122663446822,2.18534998730279,2241.087,2237.856,2234.301,2241.518,-0.03660462,-9.26318E-05,0.0995872,-1.08400130271912,-0.443867266178131,0.669598817825317,-1.09559602313537,-0.471404361345641,0.67822612879697,5
2.65998840332031,-1.64144122600555,2.19693613052368,2.17058086395264,-1.70590622088595,2.23181259109281,2.19889430449282,2236.948,2234.973,2235.356,2238.235,-0.03598303,-9.271648E-05,0.09823502,-1.08281338214874,-0.442497581243515,0.668889999389648,-1.09348812118877,-0.470497390025984,0.676921237078733,0
2.67999267578125,-1.66306805610657,2.18811559677124,2.18394112586975,-1.72775723139253,2.2224107117184,2.21242112090437,2232.634,2231.366,2236.292,2235.678,-0.03531831,-9.321518E-05,0.0968795,-1.08135032653809,-0.441020995378494,0.668008744716644,-1.09109983431736,-0.469469776906228,0.675442773735451,0
2.69999694824219,-1.6846604347229,2.17932724952698,2.1972804069519,-1.74955768413056,2.21303058593937,2.22591663964878,2234.328,2231.073,2226.792,2234.259,-0.03467702,-9.314715E-05,0.09546719,-1.07961750030518,-0.439431101083755,0.66695910692215,-1.08843358680109,-0.468322565086308,0.673792239511893,0
2.72000122070313,-1.70621275901794,2.17057251930237,2.21059513092041,-1.77130202882336,2.20367460188472,2.23937742484041,2229.916,2228.169,2227.878,2230.834,-0.03403253,-9.327986E-05,0.09403004,-1.07760906219482,-0.437735050916672,0.665741562843323,-1.08549040888332,-0.467056197851165,0.671970272177789,0
2.739990234375,-1.7277193069458,2.1618537902832,2.22388219833374,-1.79296822271738,2.1943522439355,2.25278983096475,2227.256,2226.234,2225.701,2227.823,-0.03338752,-9.369133E-05,0.0925762,-1.07532560825348,-0.435934454202652,0.664356470108032,-1.08227399942825,-0.465672266718727,0.669979161506271,0
2.75999450683594,-1.74917483329773,2.15317320823669,2.23713827133179,-1.81458384274179,2.18505164650952,2.26617092945464,2222.599,2222.043,2226.666,2225.654,-0.03270149,-9.413381E-05,0.09112487,-1.07276940345764,-0.434031426906586,0.662800848484039,-1.07878069424208,-0.464169195088763,0.667816639186824,0
2.77999877929688,-1.77057361602783,2.14453315734863,2.25035977363586,-1.83612684690458,2.17578229366013,2.27950707526701,2224.021,2221.23,2217.578,2224.12,-0.0320341,-9.421157E-05,0.08962402,-1.06994700431824,-0.432019859552383,0.661078691482544,-1.07501419914593,-0.462548577472581,0.665484999299265,0
2.79998779296875,-1.79191064834595,2.13593482971191,2.26354360580444,-1.85757544288233,2.1665535620153,2.29278477791556,2219.636,2218.177,2218.226,2220.781,-0.03136032,-9.425217E-05,0.08810196,-1.06685411930084,-0.429905891418457,0.659190714359283,-1.07097916161324,-0.460812413548163,0.662987118851036,0
2.81999206542969,-1.81318044662476,2.12738108634949,2.27668619155884,-1.87895695992541,2.1573536925621,2.30602095550813,2215.03,2214.466,2218.899,2218.047,-0.03064606,-9.454452E-05,0.08658155,-1.06349205970764,-0.427690446376801,0.657134413719177,-1.06667099276523,-0.458958728849171,0.660320157107579,0
2.83999633789063,-1.83437752723694,2.11887383460999,2.28978443145752,-1.90024960698239,2.14819206138118,2.31920211834584,2216.485,2213.548,2209.687,2216.395,-0.02995364,-9.439742E-05,0.08501002,-1.05986726284027,-0.425367593765259,0.654913902282715,-1.06209435025759,-0.456989527434725,0.657486997379635,0
2.86000061035156,-1.85549736022949,2.11041474342346,2.30283498764038,-1.9214480311499,2.13907097167731,2.33232495272651,2211.947,2210.61,2210.275,2212.852,-0.02925749,-9.45477E-05,0.08341785,-1.05597507953644,-0.422943949699402,0.652530133724213,-1.05725102347782,-0.454905579228273,0.654488747383304,0
2.87998962402344,-1.87653362751007,2.10200667381287,2.31583476066589,-1.94253086194772,2.12999961857111,2.34537622930486,2209.084,2208.29,2207.937,2209.847,-0.02855974,-9.472956E-05,0.08181129,-1.05181705951691,-0.420421302318573,0.649983882904053,-1.05214690704168,-0.452709420518306,0.651329056166547,0
2.89999389648438,-1.89748156070709,2.09365057945251,2.32878017425537,-1.96352501326936,2.1209664217661,2.35837260906308,2204.499,2204.122,2208.166,2207.623,-0.02782258,-9.501979E-05,0.08020567,-1.04739606380463,-0.417801201343536,0.647272884845734,-1.04677621342161,-0.450398561093403,0.648004340974112,0
2.91999816894531,-1.91833591461182,2.0853488445282,2.34166812896729,-1.98440911693069,2.11198057539494,2.37130086407726,2205.659,2203.099,2199.486,2205.482,-0.02710619,-9.501642E-05,0.07855471,-1.04271841049194,-0.415078073740005,0.644401431083679,-1.04114485287423,-0.447975543971863,0.644518260536375,0
2.94000244140625,-1.93909156322479,2.07710385322571,2.35449552536011,-2.00517798053537,2.10304431360073,2.38415778000673,2201.089,2199.992,2199.777,2202.105,-0.026385,-9.495047E-05,0.0768856,-1.03778064250946,-0.412258416414261,0.641370892524719,-1.03525504859546,-0.445441325732794,0.640872191117535,0
2.95999145507813,-1.95974349975586,2.06891679763794,2.36725926399231,-2.02581075424974,2.0941666074844,2.39693044981124,2198.341,2197.574,2197.083,2199.126,-0.02566222,-9.505828E-05,0.07520164,-1.03258490562439,-0.409343510866165,0.638182163238525,-1.02911391720548,-0.442798968459032,0.637070538244476,0
2.97999572753906,-1.98028576374054,2.06079030036926,2.37995600700378,-2.04633384260397,2.08533609591429,2.40963521915279,2193.523,2193.473,2197.401,2196.693,-0.02490109,-9.536521E-05,0.07352119,-1.0271338224411,-0.406335115432739,0.634833514690399,-1.02271452148052,-0.440045487257004,0.633109007445237,0
3,-2.00071454048157,2.05272579193115,2.392582654953,-2.06672639957428,2.07656174835205,2.42225918334961,2194.877,2192.271,2188.479,2194.508,-0.02416286,-9.517966E-05,0.07179499,-1.0214341878891,-0.403227686882019,0.631329298019409,-1.01606400046349,-0.437183953857422,0.628992018127441,0
3.01998901367188,-2.02102446556091,2.04472517967224,2.40513610839844,-2.0869680292999,2.06785234056679,2.43478971639231,2190.075,2189.167,2188.851,2191.029,-0.02342037,-9.51179E-05,0.07005248,-1.01548254489899,-0.400028109550476,0.62767106294632,-1.00917036754089,-0.434217816196637,0.624724530959079,0
3.03999328613281,-2.04121017456055,2.03679037094116,2.41761326789856,-2.10708469520508,2.05919670122237,2.4472428908773,2185.454,2185.547,2188.704,2188.229,-0.02264592,-9.527969E-05,0.068313,-1.00928103923798,-0.396737635135651,0.623857378959656,-1.00202586176059,-0.431143734953757,0.620301741541063,0
3.05999755859375,-2.06126689910889,2.02892327308655,2.43001103401184,-2.12705600675913,2.05060360379452,2.45960608409476,2186.533,2184.284,2180.242,2185.779,-0.02189757,-9.511525E-05,0.06653227,-1.00283634662628,-0.393352061510086,0.619892835617065,-0.994638524886308,-0.427965170275055,0.615728628108227,0
3.08000183105469,-2.08118963241577,2.02112579345703,2.44232654571533,-2.14687713595163,2.04207512564123,2.47187630727625,2181.729,2181.273,2180.407,2182.29,-0.02115083,-9.524896E-05,0.06473914,-0.996145904064178,-0.389878749847412,0.615778982639313,-0.987011339258122,-0.424683405378145,0.611007036871143,0
3.09999084472656,-2.10097408294678,2.01339912414551,2.45455694198608,-2.16652837486666,2.03361974652815,2.48404136028297,2178.755,2178.803,2177.815,2179.149,-0.02040674,-9.525942E-05,0.06293911,-0.989212870597839,-0.386320233345032,0.611517429351807,-0.979153483542501,-0.421302389586788,0.606142649861596,0
3.1199951171875,-2.12061500549316,2.00574588775635,2.46669912338257,-2.18603502400946,2.02522658035469,2.49611690533293,2173.78,2174.641,2177.967,2176.815,-0.01962856,-9.535518E-05,0.06114973,-0.982041358947754,-0.382678985595703,0.607106983661652,-0.971056158224178,-0.417818336715394,0.601130019760458,0
3.13999938964844,-2.14010787010193,1.99816703796387,2.47875022888184,-2.20537738341953,2.01690410346351,2.50809074721212,2174.895,2172.898,2169.662,2174.531,-0.01886956,-9.505061E-05,0.05932397,-0.974639356136322,-0.378950119018555,0.602552175521851,-0.962728579444533,-0.414235212212131,0.595974851798267,0
3.15998840332031,-2.15944814682007,1.99066400527954,2.49070739746094,-2.22453632143911,2.00866054767245,2.51995104251302,2170.24,2169.863,2169.495,2171.152,-0.0181079,-9.493388E-05,0.05748745,-0.9670050740242,-0.375139683485031,0.597854971885681,-0.954180774018563,-0.410557330335374,0.590683353051152,0
3.17999267578125,-2.17863082885742,1.98323893547058,2.50256776809692,-2.24353658854737,2.00048526354177,2.53171311296128,2165.649,2166.265,2169.038,2168.439,-0.01731587,-9.47721E-05,0.05565727,-0.959141731262207,-0.371249049901962,0.593014776706696,-0.945403214201559,-0.406780591562751,0.585249625391267,0
3.19999694824219,-2.19765162467957,1.97589373588562,2.51432847976685,-2.2623590635174,1.99238647840124,2.54336512160655,2166.653,2164.679,2161.01,2165.805,-0.01654782,-9.463216E-05,0.05379122,-0.951056301593781,-0.367274045944214,0.588036239147186,-0.936405971974636,-0.402909329586355,0.579679903854719,0
3.22000122070313,-2.21650648117065,1.96862936019897,2.52598690986633,-2.28099938900442,1.98436606709459,2.55490437104486,2162.001,2161.741,2160.704,2162.454,-0.01578349,-9.443098E-05,0.05191454,-0.942746937274933,-0.363221645355225,0.58292144536972,-0.927192788821982,-0.398945154262308,0.573976504598449,0
3.239990234375,-2.23519086837769,1.9614474773407,2.53754043579102,-2.2994392795179,1.97643189735754,2.5663195416865,2158.955,2159.362,2158.174,2159.164,-0.01502396,-9.452059E-05,0.05003474,-0.934216976165771,-0.359094381332397,0.577672362327576,-0.917774783907129,-0.394892849856044,0.568146310914365,0
3.25999450683594,-2.25370049476624,1.95434951782227,2.54898619651794,-2.31770268688992,1.96857366338589,2.57762546085652,2154.22,2155.451,2157.79,2156.856,-0.01423779,-9.427395E-05,0.04816632,-0.925470948219299,-0.354895174503326,0.572288811206818,-0.90814153446928,-0.390747931744771,0.562182870617026,0
3.27999877929688,-2.2720308303833,1.94733715057373,2.56032180786133,-2.33577134012187,1.96079922667992,2.58881081793642,2154.952,2153.634,2150.376,2154.147,-0.01347346,-9.421456E-05,0.04627094,-0.916516542434692,-0.350620418787003,0.566775500774384,-0.898304216251578,-0.386515208538549,0.556093102023818,0
3.29998779296875,-2.29017782211304,1.9404114484787,2.57154440879822,-2.35362764460945,1.95311615770631,2.59986472102797,2150.444,2150.665,2149.82,2150.988,-0.01271074,-9.381813E-05,0.04437051,-0.907353639602661,-0.34627640247345,0.56113475561142,-0.888274735793772,-0.382199803288803,0.549884375850026,0
3.31999206542969,-2.30813765525818,1.93357396125793,2.5826518535614,-2.37129490830989,1.94551442770222,2.61080159886703,2145.918,2147.241,2149.181,2148.321,-0.01192404,-9.378151E-05,0.04248158,-0.897986233234406,-0.341865181922913,0.55536675453186,-0.878042061913513,-0.37779696958594,0.54354986326829,0
3.33999633789063,-2.3259060382843,1.92682647705078,2.59364128112793,-2.38875555478454,1.93800159931817,2.62161057080077,2146.583,2145.374,2142.033,2145.549,-0.01116131,-9.348412E-05,0.04056762,-0.888421714305878,-0.337383776903152,0.549476265907288,-0.867618167158097,-0.373311858882592,0.53709697585572,0
3.36000061035156,-2.34347915649414,1.92016971111298,2.60451054573059,-2.406005803634,1.93057929915441,2.6322892965819,2142.146,2142.52,2141.367,2142.421,-0.01040337,-9.32281E-05,0.03865,-0.878660142421722,-0.332838654518127,0.543465852737427,-0.857007552155826,-0.36874640767338,0.530528499715627,0
3.37998962402344,-2.36085319519043,1.91360521316528,2.61525726318359,-2.42302905329872,1.92325467039821,2.6428274990542,2139.207,2140.151,2138.814,2139.239,-0.009652361,-9.313656E-05,0.03673503,-0.868705630302429,-0.328232407569885,0.537338018417358,-0.846223126656603,-0.364106170663035,0.523852426598178,0
3.39999389648438,-2.3780243396759,1.90713393688202,2.62587904930115,-2.43984769972619,1.91601807669906,2.65323904237604,2134.717,2136.453,2138.117,2137.042,-0.008879512,-9.268022E-05,0.03483485,-0.858563601970673,-0.323567897081375,0.531093299388885,-0.835253140422974,-0.35938609205264,0.51706148254665,0
3.41999816894531,-2.39498949050903,1.90075695514679,2.63637375831604,-2.45644516534361,1.90887665092339,2.66351366424015,2135.275,2134.541,2131.412,2134.171,-0.008130098,-9.23262E-05,0.03291623,-0.848241686820984,-0.318842500448227,0.52473658323288,-0.824110582941664,-0.354591760855451,0.510163708672097,0
3.44000244140625,-2.41174411773682,1.89447557926178,2.64673924446106,-2.47281804716281,1.90183185728196,2.67364925803476,2130.845,2131.69,2130.77,2131.22,-0.007383348,-9.203244E-05,0.03099961,-0.837740838527679,-0.314062207937241,0.518270552158356,-0.812800388649434,-0.349725300221754,0.503162159625937,0
3.45999145507813,-2.42828559875488,1.88829100131989,2.65697312355042,-2.48895081463434,1.8948903781363,2.68363620960993,2128.245,2129.329,2127.942,2128.198,-0.006644054,-9.156774E-05,0.02908729,-0.82706606388092,-0.309229165315628,0.511698067188263,-0.80133641229185,-0.344792671461508,0.496065412155666,0
3.47999572753906,-2.44461011886597,1.88220405578613,2.66707348823547,-2.50486489870395,1.88804299234919,2.69348778574196,2123.869,2125.753,2127.19,2126.087,-0.005885053,-9.133872E-05,0.02719072,-0.816222608089447,-0.304346233606339,0.505020201206207,-0.789706299681989,-0.339788558913217,0.488865818431069,0
3.5,-2.46071457862854,1.87621569633484,2.6770384311676,-2.5205447997813,1.88129636896134,2.70319439144611,2124.439,2123.906,2120.784,2123.117,-0.005150021,-9.096727E-05,0.025279,-0.805217862129211,-0.299410909414291,0.49824196100235,-0.777924000354857,-0.334718964672089,0.481572013878822,0
3.51998901367188,-2.47659540176392,1.87032747268677,2.68686580657959,-2.53597583877076,1.87465682397749,2.71274693966292,2120.237,2121.3,2119.949,2120.184,-0.004422445,-9.054881E-05,0.02337158,-0.794053196907043,-0.294429242610931,0.49136620759964,-0.766004036374581,-0.329590137176618,0.474192988348404,0
3.53999328613281,-2.49224996566772,1.86453914642334,2.6965537071228,-2.55117869390181,1.86811546013321,2.72215823120146,2116.265,2118.3,2118.819,2117.727,-0.003684217,-9.018076E-05,0.02148063,-0.782733500003815,-0.289404153823853,0.484394580125809,-0.753933682518821,-0.324396601119134,0.466720864320997,0
3.55999755859375,-2.50767540931702,1.8588525056839,2.70610022544861,-2.56613872308604,1.86167857751006,2.73141920191151,2116.394,2116.549,2113.158,2114.624,-0.002974218,-8.980346E-05,0.01958273,-0.771266043186188,-0.284334629774094,0.47733199596405,-0.741727567798258,-0.319144650954242,0.459164697851087,0
3.58000183105469,-2.52286839485168,1.85326790809631,2.71550393104553,-2.58085326729328,1.85534732021446,2.74052820572674,2112.274,2113.873,2112.319,2111.972,-0.00227434,-8.956315E-05,0.01769503,-0.759653389453888,-0.279227286577225,0.47018164396286,-0.729391385793765,-0.313836736470737,0.451528013536464,0
3.59999084472656,-2.53782606124878,1.8477863073349,2.72476291656494,-2.59530884290342,1.84912748987145,2.74947689564398,2109.581,2111.655,2109.938,2109.074,-0.001586179,-8.908309E-05,0.01582277,-0.747901320457458,-0.274085283279419,0.462946861982346,-0.716940488958392,-0.308479463400265,0.4438203152769,0
3.6199951171875,-2.55254673957825,1.84240794181824,2.73387551307678,-2.60952509409627,1.84301063413925,2.75827743234631,2105.599,2108.434,2108.98,2107.091,-0.0008868327,-8.851365E-05,0.0139754,-0.736016631126404,-0.268911987543106,0.455629467964172,-0.704361775018033,-0.303067194200314,0.436033492140578,0
3.63999938964844,-2.5670268535614,1.83713388442993,2.74284029006958,-2.6234885835008,1.83700253474321,2.76692149746096,2105.68,2106.32,2103.737,2104.41,-0.0002087918,-8.787248E-05,0.01212781,-0.724007606506348,-0.263706058263779,0.448234438896179,-0.691670720740692,-0.297606588091786,0.428177124984152,0
3.65998840332031,-2.58126425743103,1.83196449279785,2.75165557861328,-2.63718676607487,1.8311085894645,2.77540132500924,2102.112,2103.863,2102.486,2101.846,0.0004607041,-8.739481E-05,0.01029276,-0.711877584457397,-0.258472621440887,0.440765351057053,-0.678883253871145,-0.292104498338286,0.420261073840379,0
3.67999267578125,-2.5952570438385,1.82690012454987,2.76031994819641,-2.65063849381582,1.82532068681534,2.78372858527554,2098.452,2101.151,2101.338,2099.591,0.001137299,-8.679033E-05,0.008481159,-0.699632227420807,-0.253214150667191,0.433224380016327,-0.665986083416798,-0.286555206197011,0.41227711095171,0
3.69999694824219,-2.60900259017944,1.82194137573242,2.76883220672607,-2.66383127580226,1.81964420129024,2.79189554578451,2098.612,2099.269,2096.282,2096.793,0.001787834,-8.630582E-05,0.00667029,-0.687279343605042,-0.247930124402046,0.425616800785065,-0.65299527533123,-0.280965624398954,0.404235181908735,0
3.72000122070313,-2.62249898910522,1.81708884239197,2.77719116210938,-2.6767633032417,1.81407991116207,2.79990108680742,2095.003,2097.095,2095.23,2094.185,0.002423828,-8.582268E-05,0.004875914,-0.674821972846985,-0.242626398801804,0.41794627904892,-0.639917282339434,-0.275338529371411,0.396139281255611,0
3.739990234375,-2.63574409484863,1.81234288215637,2.78539538383484,-2.68942333385363,1.80863265367006,2.80773824883709,2092.561,2095.037,2093.036,2091.573,0.003043649,-8.528214E-05,0.003102248,-0.662266194820404,-0.23730643093586,0.410216480493546,-0.62676873176137,-0.26968107538565,0.387999702095468,0
3.75999450683594,-2.64873647689819,1.80770349502563,2.79344391822815,-2.70182915057228,1.80329477731443,2.81541804035694,2089.035,2092.362,2091.987,2089.614,0.003664636,-8.477188E-05,0.001358649,-0.649618744850159,-0.231973916292191,0.40243011713028,-0.613536214864365,-0.263987493038594,0.379808143784027,0
3.77999877929688,-2.66147446632385,1.80317091941833,2.80133581161499,-2.7139695770734,1.79807109095524,2.82293354268985,2088.957,2090.493,2087.569,2086.976,0.004258986,-8.418293E-05,-0.0003739078,-0.636887967586517,-0.226629033684731,0.394592374563217,-0.60023651686137,-0.258265004538452,0.371574997167698,0
3.79998779296875,-2.6739559173584,1.79874527454376,2.80906987190247,-2.72583438304408,1.79296599641037,2.83027842278479,2085.53,2088.315,2086.59,2084.709,0.004839497,-8.347671E-05,-0.002081527,-0.624078452587128,-0.2212775349617,0.386707186698914,-0.586886736182787,-0.252520966862155,0.36331084698941,0
3.81999206542969,-2.68617987632751,1.7944267988205,2.81664538383484,-2.73744054699573,1.78797218830065,2.83746319114912,2082.381,2085.988,2085.377,2082.666,0.005418257,-8.301282E-05,-0.003756122,-0.611197173595428,-0.215922445058823,0.378777652978897,-0.573473482003301,-0.246749618311662,0.355007403690404,0
3.83999633789063,-2.69814491271973,1.79021573066711,2.82406163215637,-2.74877791451009,1.78309403578861,2.84448156171422,2082.299,2084.115,2081.264,2080.219,0.005970246,-8.238717E-05,-0.005415272,-0.598252594470978,-0.210564270615578,0.370808929204941,-0.560014026276881,-0.240958390526246,0.346675359432959,0
3.86000061035156,-2.70984983444214,1.78611135482788,2.83131766319275,-2.75984563331209,1.77833190558438,2.85133300688122,2079.176,2082.119,2080.204,2078.052,0.006505752,-8.175697E-05,-0.00704779,-0.585249543190002,-0.205208525061607,0.362805277109146,-0.546515580872635,-0.235150386571708,0.338319178707605,0
3.87998962402344,-2.72129344940186,1.78211414813995,2.83841300010681,-2.7706348636882,1.77368960116974,2.85801205444635,2077.004,2080.395,2078.309,2075.674,0.007022711,-8.115338E-05,-0.008648882,-0.572194874286652,-0.199858412146568,0.354770869016647,-0.532995796775444,-0.22933320117373,0.329949788314816,0
