t,x_s1,x_s2,x_s3,x_s_d1,x_s_d2,x_s_d3,propellers_rpms1,propellers_rpms2,propellers_rpms3,propellers_rpms4,rollRad,pitchRad,yawRad,v_s1,v_s2,v_s3,v_s_d1,v_s_d2,v_s_d3,insideCount
0,-0.0599999986588955,2.94000005722046,1.17999994754791,-0.0599999986588955,2.94000005722046,1.17999994754791,0,0,0,0,0,0,0,0,0,0,-1.06581410364015E-15,4.44089209850063E-16,4.44089209850063E-16,0
0.0199999921023846,-0.0599999986588955,2.94000005722046,1.18007838726044,-0.0600018689851485,2.93999925247132,1.18000110536896,0,0,0,0,-8.223779E-10,-3.280937E-19,7.979146E-10,-3.68531795724258E-15,-8.77082051431444E-09,0.00392401264980435,-0.000279986375734238,-0.000120470315563732,0.000173324904179954,9
0.0399999842047691,-0.0599999986588955,2.94000005722046,1.17630982398987,-0.0600148713857818,2.93999365790158,1.18000915447434,0,0,0,0,-1.644756E-09,-1.312375E-18,1.595829E-09,-3.61161211478783E-15,-8.59540438824524E-09,-0.188430413603783,-0.00111096802362334,-0.000478018503710732,0.000687742129368719,9
0.059999980032444,-0.0599999986588955,2.94000005722046,1.16877102851868,-0.060049891741204,2.93997858962099,1.1800308337426,2474.323,2417.275,2282.289,2341.443,-2.467134E-09,-2.952844E-18,2.393744E-09,-3.53938032141953E-15,-8.42349656693386E-09,-0.376937747001648,-0.00247956031385756,-0.00106688553215623,0.00153496595211551,9
0.0799999684095383,-0.0599999986588955,2.94000005722046,1.16192245483398,-0.0601175492801009,2.93994947847214,1.18007271698215,2734.814,2677.457,2541.698,2601.04,-0.001475391,2.026779E-06,0.0005653385,-4.64146232559415E-09,-2.01253484988229E-08,-0.342427790164948,-0.00437248577996248,-0.00188135847800576,0.00270677698817921,9
0.0999999642372131,-0.0600070171058178,2.93999695777893,1.15622937679291,-0.0602281988646503,2.9399018690471,1.18014121434596,2775.092,2689.123,2472.964,2565.571,-0.004434163,3.442388E-06,0.001700361,-0.000350950605934486,-0.000156473746756092,-0.284652590751648,-0.00677657765502183,-0.00291577204929212,0.00419502438161857,9
0.119999960064888,-0.0600348897278309,2.93998456001282,1.15164458751678,-0.0603919330116387,2.93983141881785,1.18024257358268,2645.566,2611.734,2512.144,2553.751,-0.009714146,1.30511E-06,0.003756504,-0.00139367103110999,-0.000621060957200825,-0.229239448904991,-0.0096787755294144,-0.00416450671662093,0.00599162311672447,9
0.139999955892563,-0.0601075179874897,2.93995237350464,1.14806294441223,-0.0606185841441557,2.93973389716743,1.1803828814306,2485.634,2520.802,2581.951,2553.333,-0.01601891,-8.891954E-06,0.006245075,-0.00363146094605327,-0.00161050143651664,-0.179081946611404,-0.0130661279819148,-0.00562198984525972,0.00808855564679666,9
0.159999936819077,-0.0602522678673267,2.93988847732544,1.14538037776947,-0.0609177264885074,2.93960518457372,1.18056806479188,2363.167,2444.509,2622.376,2543.556,-0.02158386,-2.124359E-05,0.008491317,-0.0072375824674964,-0.00319286901503801,-0.134130716323853,-0.0169257889229127,-0.00728269412172734,0.0104778696304222,9
0.179999932646751,-0.0604918599128723,2.93978333473206,1.14350080490112,-0.0612986791863105,2.93944127127045,1.18080389265912,2320.776,2400.618,2590.155,2508.32,-0.02515728,-2.295557E-05,0.009999069,-0.0119796674698591,-0.00525590777397156,-0.0939792841672897,-0.0212450294505367,-0.0091411426551529,0.013151685270981,9
0.199999928474426,-0.0608391463756561,2.93963193893433,1.14233696460724,-0.0617705071352352,2.93923825688537,1.18109597663578,2352.646,2388.699,2489.249,2449.317,-0.02666144,-9.705765E-06,0.01070359,-0.0173643603920937,-0.00757507793605328,-0.0581943690776825,-0.026011220582377,-0.0111919015472184,0.0161021846267596,8
0.219999924302101,-0.0612973347306252,2.93943309783936,1.14180982112885,-0.0623420239858836,2.93899234915087,1.18144977279146,2414.529,2393.158,2362.818,2382.483,-0.02711631,9.652224E-06,0.01095606,-0.0229094754904509,-0.00993922632187605,-0.0263591036200523,-0.031211844417406,-0.0134295846948213,0.0193216185207115,8
0.239999920129776,-0.0618648640811443,2.93918800354004,1.14184808731079,-0.0630217941146897,2.93869986305502,1.18187058288313,2451.962,2393.108,2265.667,2327.543,-0.02796852,2.245432E-05,0.0112883,-0.0283765215426683,-0.0122544877231121,0.00191289931535721,-0.0368344914346654,-0.0158488526277751,0.0228023048682162,8
0.25999990105629,-0.0625417679548264,2.93889665603638,1.14238750934601,-0.0638181341527546,2.93835722018381,1.18236355530163,2431.471,2373.915,2232.483,2297.14,-0.03025138,2.152398E-05,0.01210971,-0.0338451042771339,-0.0145730348303914,0.0269715934991837,-0.0428668558492025,-0.0184444105105986,0.026536625802182,8
0.279999911785126,-0.0633339732885361,2.93855595588684,1.14337015151978,-0.0647391183472776,2.93796094641423,1.1829336883906,2356.559,2334.439,2260.776,2290.717,-0.03406343,6.70822E-06,0.01350397,-0.0396102890372276,-0.0170391853898764,0.0491343289613724,-0.0492967588323918,-0.0212110181335712,0.0305170420475318,8
0.299999892711639,-0.064253568649292,2.93816018104553,1.14474403858185,-0.0657925735053613,2.93750767408983,1.18358582731648,2261.861,2285.897,2315.858,2296.388,-0.03861104,-1.5488E-05,0.01522461,-0.0459798313677311,-0.0197923518717289,0.0686933174729347,-0.0561120968528548,-0.0241434676852743,0.0347360609417709,8
0.319999873638153,-0.0653154253959656,2.93770241737366,1.14646244049072,-0.066986089843436,2.93699413735254,1.18432467078482,2190.65,2244.328,2353.134,2298.621,-0.04274374,-3.352817E-05,0.01686708,-0.0530928000807762,-0.0228842310607433,0.0859217271208763,-0.0633009032247692,-0.0272366102351091,0.0391862745363232,8
0.339999884366989,-0.0665324926376343,2.93717741966248,1.14848399162292,-0.0683270199764796,2.93641717257755,1.18515477041453,2169.809,2221.488,2343.709,2286.906,-0.04562847,-3.702158E-05,0.01810435,-0.0608534701168537,-0.0262544099241495,0.101078011095524,-0.0708513218684839,-0.0304853444432222,0.0438603433531013,8
0.359999865293503,-0.0679125189781189,2.93658208847046,1.15077221393585,-0.0698224741524531,2.93577372042378,1.18608052778782,2196.695,2218.878,2288.542,2260.778,-0.04717737,-2.44123E-05,0.01885328,-0.069001242518425,-0.0297714993357658,0.11440821737051,-0.0787515710530303,-0.0338846009599213,0.0487509739393939,8
0.379999876022339,-0.0694577619433403,2.93591594696045,1.15329504013062,-0.0714793369853421,2.93506081863418,1.1871062048087,2243.516,2228.152,2214.986,2228.445,-0.04802052,-5.872443E-06,0.01928959,-0.0772621408104897,-0.0333090163767338,0.126141920685768,-0.086990023450842,-0.0374293768709845,0.0538509684255509,8
0.399999856948853,-0.0711675584316254,2.93517971038818,1.15602469444275,-0.0733042517476919,2.93427560879415,1.18823591397934,2275.532,2236.39,2158.646,2201.379,-0.04908312,5.951043E-06,0.01972406,-0.0854900255799294,-0.0368115566670895,0.136485159397125,-0.0955551120403749,-0.0411146952101866,0.059153166274223,8
0.419999837875366,-0.0730419978499413,2.93437337875366,1.15893697738647,-0.0753036392233569,2.93341532821979,1.18947363007081,2270.815,2233.59,2142.88,2187.624,-0.05104321,3.132567E-06,0.02042027,-0.0937221869826317,-0.040314257144928,0.145616337656975,-0.104435414773886,-0.0449356413894786,0.0646504966937494,8
0.439999848604202,-0.0750845968723297,2.93349528312683,1.16201078891754,-0.0774836936378566,2.9324773117089,1.19082318760378,2230.967,2217.647,2167,2187.886,-0.053986,-1.312743E-05,0.02145992,-0.102130010724068,-0.0439105965197086,0.153689816594124,-0.11361961986258,-0.0488873482621572,0.0703359571480111,8
0.459999829530716,-0.0773026645183563,2.93254137039185,1.16522765159607,-0.0798503739108672,2.93145899530482,1.19228827543339,2177.639,2194.444,2209.095,2196.071,-0.05742042,-3.487888E-05,0.02272189,-0.110903434455395,-0.0476917251944542,0.160843476653099,-0.123096482606157,-0.0529649775478235,0.0762025866318629,8
0.479999840259552,-0.0797054544091225,2.93150758743286,1.16857171058655,-0.0824094292610639,2.93035790527936,1.19387245259987,2138.194,2173.84,2240.433,2203.204,-0.06061355,-5.113638E-05,0.02397159,-0.120139509439468,-0.0516931228339672,0.167205944657326,-0.132854922276536,-0.0571637615187439,0.0822435256467739,8
0.499999821186066,-0.0823013558983803,2.93039011955261,1.17202973365784,-0.0851663731207339,2.92917166935664,1.19557913218046,2130.134,2163.635,2241.699,2202.842,-0.06302104,-5.378244E-05,0.02500171,-0.12979519367218,-0.0558785647153854,0.172901049256325,-0.142883909221989,-0.0614789544239126,0.0884519463129095,8
0.519999802112579,-0.0850958004593849,2.92918682098389,1.1755907535553,-0.0881265112831755,2.92789800460203,1.19741159871394,2152.088,2165.878,2213.009,2193.794,-0.06457154,-4.287968E-05,0.02573878,-0.139722257852554,-0.0601651594042778,0.178048089146614,-0.153172565600841,-0.0659058758319492,0.0948211147280901,8
0.539999783039093,-0.0880909189581871,2.92789745330811,1.1792459487915,-0.0912949291136132,2.92653472292494,1.19937300028366,2186.817,2176.145,2171.475,2180.252,-0.06565385,-2.717563E-05,0.02626746,-0.149755895137787,-0.0644724443554878,0.182757288217545,-0.163710107617,-0.0704398857766591,0.101344355208831,8
0.559999823570251,-0.0912869647145271,2.92652225494385,1.18298840522766,-0.0946765077855201,2.92507972409279,1.2014663585685,2212.391,2186.634,2139.976,2168.732,-0.06685387,-1.738203E-05,0.02676592,-0.159802317619324,-0.0687651410698891,0.187123715877533,-0.174485892312833,-0.0750764048907026,0.108015079257362,8
0.579999804496765,-0.0946845188736916,2.92506098747253,1.18681287765503,-0.0982758855033902,2.92353101241576,1.203694544838,2214.72,2190.8,2133.918,2164.146,-0.06861049,-1.966201E-05,0.02739868,-0.169877931475639,-0.0730664506554604,0.191224351525307,-0.185489288397106,-0.0798108588264658,0.114826705597972,8
0.599999785423279,-0.0982861965894699,2.92351222038269,1.19071531295776,-0.102097520116728,2.92188666980575,1.20606031871336,2194.512,2186.592,2153.372,2167.485,-0.07098763,-3.346988E-05,0.02823099,-0.180083632469177,-0.0774375796318054,0.195120349526405,-0.196709868977879,-0.0846387611836407,0.121772779487847,8
0.619999766349792,-0.102096915245056,2.92187356948853,1.19469261169434,-0.106145651628018,2.92014487190815,1.20856630495809,2165.26,2177.039,2184.6,2175.698,-0.07368115,-5.130163E-05,0.02920616,-0.19053640961647,-0.0819382146000862,0.19886326789856,-0.208137283778369,-0.0895556585272806,0.128846893612608,8
0.639999747276306,-0.10612291097641,2.92014169692993,1.19874262809753,-0.110424314118205,2.91830388297061,1.21121500086048,2144.29,2167.95,2209.12,2183.869,-0.07622553,-6.41048E-05,0.0301911,-0.201299697160721,-0.0865917503833771,0.202501326799393,-0.219761290901539,-0.0945571440552161,0.136042707750099,8
0.659999787807465,-0.110369935631752,2.91831421852112,1.20286428928375,-0.114937351717038,2.91636204897151,1.21400878611995,2142.629,2164.558,2214.502,2187.926,-0.07827243,-6.578258E-05,0.03105665,-0.212351128458977,-0.0913740620017052,0.206082999706268,-0.231571792295924,-0.0996388728580087,0.143353970725426,8
0.679999768733978,-0.11484195291996,2.91638970375061,1.2070574760437,-0.119688366274122,2.91431782013557,1.21694989045299,2159.763,2168.558,2200.32,2186.898,-0.079767,-5.707516E-05,0.03174725,-0.223601043224335,-0.0962304249405861,0.20965676009655,-0.243558692403314,-0.104796501098997,0.150774432907138,8
0.699999749660492,-0.119540877640247,2.91436767578125,1.21132278442383,-0.124680800209538,2.91216971528562,1.22004044488162,2184.931,2177.75,2177.356,2182.771,-0.08095051,-4.482361E-05,0.03230088,-0.234945818781853,-0.101107344031334,0.213267102837563,-0.25571210939136,-0.11002577690179,0.158297976970277,8
0.719999730587006,-0.124467328190804,2.91224813461304,1.2156617641449,-0.129917885593406,2.90991634375217,1.22328245021121,2204.326,2187.571,2160.248,2179.102,-0.08219154,-3.713145E-05,0.03281748,-0.246322929859161,-0.105980798602104,0.216949447989464,-0.268022234882335,-0.115322479995463,0.165918531061789,8
0.739999711513519,-0.12962207198143,2.91003084182739,1.22007632255554,-0.135402659412275,2.90755639880475,1.2266777864811,2209.027,2193.786,2158.983,2178.897,-0.08377133,-3.888006E-05,0.03339802,-0.257737278938293,-0.110865585505962,0.220728158950806,-0.280479368878259,-0.120682436741875,0.173630090420851,8
0.759999752044678,-0.13500702381134,2.90771484375,1.22456872463226,-0.141137983205286,2.90508864920302,1.23022822512034,2199.351,2194.727,2173.876,2183.046,-0.08573514,-4.929038E-05,0.03409033,-0.269247472286224,-0.115801513195038,0.224617853760719,-0.29307395749094,-0.126101536369839,0.181426740735557,8
0.779999732971191,-0.140625506639481,2.90529823303223,1.22914123535156,-0.147126476115806,2.90251196800275,1.23393538750343,2183.691,2191.873,2196.348,2190.123,-0.08789497,-6.270038E-05,0.03487008,-0.280924320220947,-0.120827257633209,0.22862808406353,-0.305796442389055,-0.131575666196417,0.189302564943491,8
0.799999713897705,-0.146481648087502,2.90277910232544,1.2337965965271,-0.153370619602546,2.89982528750158,1.23780080977152,2172.87,2188.676,2214.719,2197.408,-0.08995786,-7.204564E-05,0.03566265,-0.292806923389435,-0.125957384705544,0.232768103480339,-0.318637486048877,-0.137100808546009,0.19725178267266,8
0.819999694824219,-0.15257927775383,2.90015554428101,1.23853754997253,-0.159872691993147,2.89702762739878,1.24182590231796,2174.003,2188.424,2220.806,2202.56,-0.09169903,-7.319212E-05,0.03638944,-0.304881423711777,-0.131174996495247,0.237049624323845,-0.331587821991737,-0.142672976311719,0.205268657531342,8
0.839999675750732,-0.158921092748642,2.89742660522461,1.24336731433868,-0.16663478736965,2.89411808666934,1.24601196147929,2186.774,2192.553,2214.285,2204.683,-0.09308121,-6.6737E-05,0.03701023,-0.317090928554535,-0.13644278049469,0.241486310958862,-0.344638292118709,-0.148288229019428,0.213347520220043,8
0.859999716281891,-0.165508463978767,2.89459204673767,1.24828910827637,-0.173658839061432,2.89109583345565,1.25036018407849,2204.574,2199.974,2201.815,2204.726,-0.0942514,-5.742376E-05,0.0375404,-0.329368084669113,-0.141724139451981,0.246090471744537,-0.357779886002355,-0.15394268973393,0.221482792854951,8
0.879999697208405,-0.172341838479042,2.89165210723877,1.25330650806427,-0.180946537299623,2.88796014049848,1.25487161644914,2218.758,2208.007,2192.696,2204.633,-0.0954429,-5.169176E-05,0.03803548,-0.341669797897339,-0.147002160549164,0.250869601964951,-0.371003583951354,-0.159632477534032,0.229668891817471,8
0.899999678134918,-0.179421722888947,2.88860630989075,1.25842297077179,-0.188499456976537,2.88471033016565,1.25954723352461,2223.67,2213.972,2193.401,2206.191,-0.09683467,-5.285243E-05,0.03855643,-0.353994697332382,-0.152285546064377,0.255824565887451,-0.384300592040009,-0.165353808639179,0.237900373248685,8
0.919999659061432,-0.186749249696732,2.88545441627502,1.26364195346832,-0.196318976867224,2.88134580920878,1.26438788883233,2219.365,2216.702,2204.37,2210.01,-0.09845866,-6.026006E-05,0.03913604,-0.366375595331192,-0.15759964287281,0.260950446128845,-0.397662185688703,-0.1711029291065,0.2461718362182,8
0.939999639987946,-0.194326311349869,2.88219499588013,1.26896679401398,-0.204406302339104,2.87786605899195,1.26939432855217,2211.143,2216.783,2220.156,2215.593,-0.1001982,-6.977224E-05,0.03976582,-0.378854006528854,-0.162969037890434,0.266239732503891,-0.411079748697569,-0.1768761316259,0.254477946887852,8
0.959999680519104,-0.202155381441116,2.87882685661316,1.27440047264099,-0.212762492824401,2.87427062367106,1.27456720852312,2205.747,2216.32,2233.417,2221.379,-0.101868,-7.631775E-05,0.04040423,-0.391452640295029,-0.168402522802353,0.27168607711792,-0.424544813437776,-0.18266977281325,0.262813463392024,8
0.979999661445618,-0.210238605737686,2.8753490447998,1.27994620800018,-0.221388363573279,2.87055915246675,1.27990703342388,2207.691,2217.33,2238.881,2226.06,-0.1033259,-7.699351E-05,0.04100443,-0.404161304235458,-0.173887878656387,0.277285933494568,-0.438048900190371,-0.188480204082383,0.271173136380742,8
0.999999642372131,-0.218577429652214,2.87176108360291,1.28560698032379,-0.230284637237593,2.86673133444211,1.28541425061038,2216.897,2220.843,2236.172,2229.018,-0.104544,-7.233518E-05,0.04153903,-0.416942417621613,-0.179399311542511,0.283038318157196,-0.451583757957464,-0.194303875259412,0.27955185809326,8
1.01999962329865,-0.227172464132309,2.86806297302246,1.29138576984406,-0.239451847229689,2.86278694008471,1.29108919029025,2229.251,2226.412,2229.459,2230.609,-0.105614,-6.574026E-05,0.04201252,-0.42975115776062,-0.184911265969276,0.288942217826843,-0.465141204058494,-0.200137265565489,0.287944563060517,8
1.03999960422516,-0.236023604869843,2.86425471305847,1.2972856760025,-0.248890364392249,2.85872580983131,1.2969320820328,2239.317,2232.474,2224.673,2231.872,-0.1066825,-6.166277E-05,0.04245503,-0.442557007074356,-0.19041134417057,0.294994056224823,-0.478713164192651,-0.205976900854545,0.296346252905679,8
1.05999958515167,-0.245130702853203,2.86033654212952,1.30330944061279,-0.258600399165891,2.85454785313518,1.30294305611079,2243.492,2237.436,2226.012,2233.773,-0.1078628,-6.223152E-05,0.04290254,-0.455355435609818,-0.195904150605202,0.301186323165894,-0.492291672438868,-0.211819353613287,0.304751996344136,8
1.07999956607819,-0.254493951797485,2.8563084602356,1.30945956707001,-0.268582003756762,2.85025304753347,1.3091221448423,2241.835,2240.347,2233.763,2236.895,-0.1091779,-6.746084E-05,0.04337789,-0.4681636095047,-0.201405361294746,0.307508081197739,-0.505868871255825,-0.2176612429612,0.313156929183504,8
1.09999966621399,-0.264114052057266,2.85216975212097,1.31573855876923,-0.278835136225848,2.84584141107139,1.3154693222651,2237.582,2241.486,2244.615,2241.019,-0.1105547,-7.408122E-05,0.04387921,-0.481004774570465,-0.206930369138718,0.313947439193726,-0.519437092312213,-0.22349926942955,0.32155630436141,8
1.1199996471405,-0.273991912603378,2.84792017936707,1.32214844226837,-0.289359416585141,2.84131310724714,1.3219843531485,2234.971,2242.071,2253.915,2245.315,-0.1118778,-7.8645E-05,0.04438381,-0.493890970945358,-0.212483927607536,0.320493817329407,-0.532988533043588,-0.229330075792835,0.329945291718775,8
1.13999962806702,-0.284128189086914,2.84355902671814,1.32869124412537,-0.3001544956463,2.83666828630672,1.32866702132829,2236.881,2243.312,2258.251,2249.094,-0.1130554,-7.903928E-05,0.04486384,-0.506813943386078,-0.218056991696358,0.327139049768448,-0.546515741955651,-0.235150455881228,0.338319278425664,8
1.15999960899353,-0.294523119926453,2.83908629417419,1.33536875247955,-0.311219814352623,2.8319071887966,1.33551698072173,2243.283,2246.058,2257.35,2251.796,-0.1140685,-7.588277E-05,0.04530038,-0.519748091697693,-0.223631545901299,0.333877354860306,-0.560011295026715,-0.240957215345602,0.346673668658998,8
1.17999958992004,-0.30517640709877,2.83450245857239,1.34218287467957,-0.32255466625091,2.82703011868387,1.34253379400064,2251.656,2250.055,2253.777,2253.624,-0.114974,-7.133038E-05,0.04569402,-0.532662749290466,-0.229189872741699,0.34070348739624,-0.573467876614841,-0.246747206469604,0.355003933687925,8
1.19999957084656,-0.31608709692955,2.82980799674988,1.34913504123688,-0.334158199659061,2.82203744242354,1.34971693393324,2258.61,2254.395,2251.256,2255.135,-0.1158624,-6.857038E-05,0.04606127,-0.545535922050476,-0.234722539782524,0.347610890865326,-0.586878279457835,-0.252517328169661,0.363305611873816,8
1.21999955177307,-0.327254325151443,2.82500338554382,1.35622680187225,-0.346029419833664,2.81692958802591,1.35706578472596,2261.869,2258.102,2252.488,2256.88,-0.1168078,-6.905783E-05,0.04642341,-0.558361768722534,-0.240231454372406,0.354590535163879,-0.60023540467325,-0.258264525994975,0.37157430867027,8
1.23999953269958,-0.338677287101746,2.8200888633728,1.36345946788788,-0.358167191137591,2.8117070441239,1.36457964336532,2261.379,2260.543,2257.792,2259.22,-0.1178252,-7.267017E-05,0.04679504,-0.571148157119751,-0.24572591483593,0.361631661653519,-0.613532261758385,-0.263985792127526,0.379805696623111,8
1.2599995136261,-0.350355416536331,2.8150646686554,1.37083387374878,-0.370570239207589,2.80637035904043,1.37225772095976,2259.147,2261.848,2265.104,2262.075,-0.1188702,-7.730794E-05,0.04717669,-0.583907246589661,-0.251215189695358,0.368722975254059,-0.626761968590286,-0.269678165382072,0.387995515370391,8
1.27999949455261,-0.362288296222687,2.80993056297302,1.37835097312927,-0.383237153121874,2.80092013985572,1.38009914408149,2257.88,2262.651,2271.431,2265.098,-0.1198689,-8.048759E-05,0.04755649,-0.596644461154938,-0.256701648235321,0.375854253768921,-0.639917751425747,-0.275338731206147,0.396139571642386,8
1.29999959468842,-0.374475359916687,2.80468702316284,1.38601136207581,-0.396166465410552,2.79535701798107,1.38810300429674,2259.357,2263.801,2274.655,2267.774,-0.1207642,-8.084952E-05,0.04791776,-0.609352767467499,-0.262178719043732,0.38301745057106,-0.652993022582349,-0.280964655104045,0.404233787349864,8
1.31999957561493,-0.386915624141693,2.79933428764343,1.39381551742554,-0.409356344400193,2.78968178153439,1.3962681677124,2263.69,2265.718,2274.426,2269.921,-0.1215413,-7.872829E-05,0.04824913,-0.622014164924622,-0.267633765935898,0.39020624756813,-0.665981069175534,-0.286553048709076,0.412274006897505,9
1.33999955654144,-0.39960777759552,2.79387331008911,1.40176379680634,-0.422805058782351,2.78389517544933,1.40459356256606,2269.209,2268.397,2272.48,2271.475,-0.1222364,-7.568405E-05,0.04854908,-0.634607374668121,-0.273054033517838,0.397414952516556,-0.678875520783022,-0.292101171006504,0.420256286690452,9
1.35999953746796,-0.412550091743469,2.78830456733704,1.40985655784607,-0.43651067307629,2.77799803250919,1.41307799070296,2273.877,2271.297,2271.054,2272.782,-0.1229059,-7.375317E-05,0.04882622,-0.647116303443909,-0.278432428836823,0.40463724732399,-0.691670037181239,-0.297606293975249,0.428176701828286,9
1.37999951839447,-0.42574080824852,2.7826292514801,1.41809380054474,-0.45047112608072,2.77199123959129,1.4217201761413,2276.16,2273.886,2271.998,2274.054,-0.1235973,-7.402415E-05,0.04909259,-0.659534811973572,-0.283769160509109,0.411865234375,-0.704358386526357,-0.303065736227009,0.436031394502814,9
1.39999949932098,-0.439178109169006,2.77684783935547,1.42647564411163,-0.464684233041386,2.76587573673435,1.43051876641413,2276.084,2275.657,2275.433,2275.656,-0.1243206,-7.633922E-05,0.04935797,-0.671865463256836,-0.289069533348083,0.419090002775192,-0.716934445354295,-0.30847686300626,0.443816573998067,9
1.4199994802475,-0.45286038517952,2.77096104621887,1.43500173091888,-0.47914768781867,2.75965251620584,1.43947233391117,2274.83,2276.724,2280.179,2277.473,-0.1250487,-7.927549E-05,0.04962345,-0.684113740921021,-0.29433885216713,0.42630261182785,-0.729392198580716,-0.313837086190255,0.451528516690305,9
1.43999946117401,-0.466785997152328,2.76496958732605,1.44367158412933,-0.493859065055175,2.75332262156927,1.44857937722065,2274.114,2277.387,2284.323,2279.405,-0.1257358,-8.137854E-05,0.04988325,-0.696281254291534,-0.299578130245209,0.433494865894318,-0.741725739501034,-0.319143864289024,0.459163566048012,9
1.45999944210052,-0.480953216552734,2.75887393951416,1.45248472690582,-0.508815822343323,2.7468871467516,1.45783832247117,2275.103,2278.143,2286.461,2281.194,-0.1263446,-8.174461E-05,0.05012779,-0.708361864089966,-0.30478236079216,0.440660059452057,-0.753929269790406,-0.324394702445373,0.466718132631899,9
1.47999942302704,-0.49536007642746,2.75267505645752,1.4614405632019,-0.524015302392944,2.74034723511057,1.46724752467353,2277.812,2279.356,2286.446,2282.611,-0.1268661,-8.021361E-05,0.05034937,-0.720342695713043,-0.309942543506622,0.447792828083038,-0.765997099503737,-0.329587152434887,0.474188694094901,9
1.49999952316284,-0.510004222393036,2.74637413024902,1.47053837776184,-0.539454827934603,2.7337040386004,1.47680532647041,2281.306,2280.987,2285.219,2283.69,-0.1273209,-7.831858E-05,0.05054664,-0.732208728790283,-0.315049797296524,0.454888343811035,-0.777923717731525,-0.334718843067164,0.481571838921516,9
1.51999950408936,-0.524883151054382,2.73997211456299,1.47977721691132,-0.555131334348531,2.72695887584137,1.48650983071619,2284.27,2282.781,2284.248,2284.538,-0.127746,-7.697402E-05,0.05072387,-0.743947923183441,-0.320098549127579,0.461941361427307,-0.789703509085649,-0.339787358197571,0.488864090918999,9
1.53999948501587,-0.539994239807129,2.73347043991089,1.48915612697601,-0.571041924015683,2.72011299359802,1.49635924364665,2285.677,2284.355,2284.781,2285.317,-0.1281705,-7.702752E-05,0.05088814,-0.755554616451263,-0.325088202953339,0.468945890665054,-0.801331180275272,-0.344790420270939,0.496062173288168,9
1.55999946594238,-0.555334866046906,2.72687005996704,1.49867403507233,-0.587183501790833,2.71316772362485,1.50635164921945,2285.585,2285.435,2286.838,2286.229,-0.1286024,-7.85489E-05,0.05104546,-0.767028570175171,-0.330021500587463,0.475895166397095,-0.812801474874933,-0.34972576759424,0.503162832051264,9
1.5799994468689,-0.570902287960052,2.72017192840576,1.50832962989807,-0.603552868484143,2.70612444244388,1.51648506698368,2284.698,2286.053,2289.732,2287.228,-0.1290243,-8.064839E-05,0.05119692,-0.778371512889862,-0.334901243448257,0.482782453298569,-0.824109244838915,-0.35459118510722,0.510162880322752,9
1.59999942779541,-0.5866938829422,2.71337747573853,1.51812171936035,-0.620146723028754,2.69898457041196,1.52675745342171,2284.107,2286.418,2292.24,2288.242,-0.1294078,-8.196184E-05,0.05133953,-0.789582908153534,-0.3397276699543,0.489601701498032,-0.835249450501249,-0.359384504382406,0.517059198309326,9
1.61999940872192,-0.602707087993622,2.70648765563965,1.52804863452911,-0.636961664648381,2.69174957078812,1.53716670329101,2284.587,2286.739,2293.427,2289.222,-0.129729,-8.220431E-05,0.05146842,-0.800657391548157,-0.34449690580368,0.496347814798355,-0.846217160575712,-0.364103603625099,0.523848733309903,9
1.63999938964844,-0.618938744068146,2.69950366020203,1.53810894489288,-0.653994195024907,2.68442094880091,1.54771065096602,2286.097,2287.266,2293.265,2289.99,-0.129982,-8.137085E-05,0.05157866,-0.811585545539856,-0.349202662706375,0.503016591072083,-0.857007552155828,-0.368746407673381,0.530528499715628,9
1.65999937057495,-0.635385930538177,2.69242691993713,1.54830098152161,-0.67124072046597,2.67700025071577,1.55838707177998,2288.092,2288.088,2292.288,2290.476,-0.1301796,-8.008334E-05,0.05166853,-0.822356581687927,-0.353838443756104,0.509604215621948,-0.867615910714866,-0.373310887998107,0.53709557900987,9
1.67999935150146,-0.65204519033432,2.68525886535645,1.55862307548523,-0.688697554072563,2.66948906290232,1.56919368336676,2289.702,2288.948,2291.482,2290.82,-0.1303452,-7.93306E-05,0.05174068,-0.832961618900299,-0.358400106430054,0.516106784343719,-0.878037630105846,-0.377795062702911,0.543547119768228,9
1.69999945163727,-0.668913066387177,2.67800116539001,1.56907343864441,-0.706361023796448,2.66188896534035,1.5801282125536,2290.374,2289.699,2291.509,2291.064,-0.130497,-7.941906E-05,0.05179899,-0.84339565038681,-0.362886726856232,0.522519767284393,-0.888268272962199,-0.382197022512927,0.549880375049414,9
1.71999943256378,-0.685986220836639,2.67065525054932,1.57965016365051,-0.724227052244719,2.65420171241811,1.59118813524004,2290.089,2290.146,2292.462,2291.335,-0.1306398,-8.048247E-05,0.05184722,-0.853657066822052,-0.367299437522888,0.528838336467743,-0.898303327916801,-0.386514826312912,0.556092552102273,9
1.7399994134903,-0.703261137008667,2.66322255134583,1.59035134315491,-0.742291790573715,2.64642896018551,1.60237106880851,2289.221,2290.232,2293.995,2291.661,-0.1307644,-8.187541E-05,0.05188663,-0.86374568939209,-0.371639639139175,0.535057783126831,-0.90813857551568,-0.390746658589701,0.562181038883795,9
1.75999939441681,-0.720734238624573,2.65570449829102,1.60117483139038,-0.760551200733267,2.63857244610272,1.6136745135136,2288.515,2290.145,2295.252,2291.97,-0.1308528,-8.275372E-05,0.05191534,-0.873659908771515,-0.37590691447258,0.54117351770401,-0.917769843131486,-0.394890723978315,0.56814325233888,9
1.77999937534332,-0.738402187824249,2.64810252189636,1.61211848258972,-0.779001162304534,2.63063394307086,1.62509591861977,2288.439,2290.038,2295.681,2292.195,-0.130889,-8.300116E-05,0.05193032,-0.883395433425903,-0.380098611116409,0.547181844711304,-0.927193066516615,-0.398945273746551,0.573976676504655,9
1.79999935626984,-0.756261110305786,2.64041829109192,1.62318003177643,-0.797637474667596,2.62261525849933,1.63663268374317,2288.979,2289.992,2295.254,2292.302,-0.1308693,-8.247655E-05,0.05192913,-0.892945230007172,-0.384210199117661,0.553079605102539,-0.93640428980321,-0.402908605794985,0.579678862510473,9
1.81999933719635,-0.774307131767273,2.63265347480774,1.63435733318329,-0.816455859169051,2.61451823337315,1.64828216019354,2289.847,2290.082,2294.231,2292.249,-0.1308017,-8.166023E-05,0.05191067,-0.902301490306854,-0.388236999511719,0.558863937854767,-0.945399665503159,-0.406779064656968,0.58524742857791,9
1.83999931812286,-0.79253625869751,2.62480998039246,1.64564800262451,-0.835451961289599,2.60634474132034,1.660041652316,2290.482,2290.204,2293.25,2292.063,-0.1307,-8.112512E-05,0.05187611,-0.911457479000092,-0.392175853252411,0.564531922340393,-0.954175454508099,-0.410555041498632,0.590680060020772,9
1.85999929904938,-0.810944437980652,2.61688947677612,1.65704965591431,-0.854621352811647,2.5980966876792,1.6719084188329,2290.51,2290.214,2292.763,2291.812,-0.1305774,-8.122902E-05,0.05182774,-0.920409083366394,-0.396025568246841,0.5700803399086,-0.962728026089412,-0.414234974118882,0.595974509245088,9
1.87999927997589,-0.82952743768692,2.60889363288879,1.66855978965759,-0.87395953398689,2.58977600856573,1.68387967418569,2289.85,2290.032,2292.918,2291.515,-0.1304374,-8.196934E-05,0.05176754,-0.929154217243195,-0.399786531925201,0.575505793094635,-0.971053857898228,-0.417817346949402,0.601128595749115,9
1.89999938011169,-0.84828132390976,2.6008243560791,1.68017590045929,-0.893462052427636,2.58138461971797,1.6959526621343,2288.818,2289.674,2293.382,2291.175,-0.1302733,-8.287893E-05,0.05169629,-0.937691926956177,-0.403459340333939,0.580804765224457,-0.979149583526931,-0.421300711519042,0.606140235566175,9
1.91999936103821,-0.867201745510101,2.59268355369568,1.69189536571503,-0.913124039316749,2.57292461605191,1.70812436864899,2287.852,2289.108,2293.677,2290.87,-0.1300741,-8.365846E-05,0.05161383,-0.946020305156708,-0.407043606042862,0.585974097251892,-0.987011800861963,-0.424683603993382,0.61100732262591,9
1.93999934196472,-0.886284470558167,2.58447289466858,1.70371556282043,-0.932940909077627,2.56439797061305,1.72039195503939,2287.251,2288.485,2293.443,2290.509,-0.1298307,-8.381806E-05,0.05151818,-0.954135954380035,-0.410537242889404,0.591011226177216,-0.99463736163763,-0.427964669761646,0.615727908001882,9
1.95999932289124,-0.905525147914886,2.57619404792786,1.71563386917114,-0.952907897514699,2.55580673330166,1.7327524720415,2287.052,2287.919,2292.6,2290.025,-0.1295394,-8.358477E-05,0.05140737,-0.962033748626709,-0.413937002420425,0.595913767814636,-1.00202317702469,-0.431142579786905,0.620300079561653,9
1.97999930381775,-0.924919307231903,2.56784915924072,1.7276474237442,-0.973020179739669,2.54715298013237,1.74520293281962,2287.012,2287.424,2291.402,2289.395,-0.1292054,-8.312306E-05,0.05128083,-0.969708025455475,-0.417239785194397,0.600679695606232,-1.00916626657366,-0.434216051665007,0.624721992265008,9
1.99999928474426,-0.944462418556213,2.55944037437439,1.73975360393524,-0.993272872339099,2.53843881230157,1.75774031430821,2286.832,2286.903,2290.172,2288.698,-0.1288379,-8.286272E-05,0.05113959,-0.977153778076172,-0.420443058013916,0.605306804180145,-1.01606375821479,-0.437183849624576,0.62899186816396,9
2.01999926567078,-0.964149713516235,2.55096936225891,1.75194942951202,-1.01366103554201,2.52966635525469,1.77036155855371,2286.271,2286.278,2289.204,2287.96,-0.1284443,-8.299419E-05,0.05098505,-0.984367728233337,-0.423545807600021,0.609792828559875,-1.02271288825808,-0.440044784527016,0.633107996402746,9
2.03999924659729,-0.983976662158966,2.54243850708008,1.76423215866089,-1.03417967538748,2.52083775775362,1.78306357405642,2285.228,2285.575,2288.656,2287.102,-0.1280283,-8.342004E-05,0.05081796,-0.991347968578339,-0.426547974348068,0.614135444164276,-1.02911100139329,-0.442797713866505,0.637068733217831,8
2.0599992275238,-1.00393843650818,2.53384947776794,1.7765988111496,-1.05482374589221,2.511955190944,1.7958432371123,2283.944,2284.655,2288.261,2286.292,-0.1275856,-8.401694E-05,0.05063952,-0.99809330701828,-0.429449737071991,0.618332266807556,-1.03525555068989,-0.44544154177,0.640872501937905,8
2.07999920845032,-1.02403044700623,2.52520442008972,1.78904640674591,-1.07558815121816,2.50302084742257,1.80869739315486,2282.634,2283.679,2287.801,2285.374,-0.12711,-8.445169E-05,0.05044888,-1.0046021938324,-0.432250678539276,0.622381150722504,-1.04114409759714,-0.447975218997234,0.644517792983883,8
2.09999918937683,-1.04424786567688,2.51650547981262,1.80157196521759,-1.09646774784009,2.49403694030456,1.82162285809696,2281.531,2282.605,2286.99,2284.448,-0.1265944,-8.460763E-05,0.05024555,-1.01087188720703,-0.434949457645416,0.626280128955841,-1.04677431194403,-0.45039774294072,0.648003163868908,8
2.11999917030334,-1.06458592414856,2.50775456428528,1.8141725063324,-1.11745734671321,2.48500570229096,1.83461641967267,2280.698,2281.529,2285.735,2283.451,-0.1260373,-8.450306E-05,0.05002845,-1.01689887046814,-0.43754369020462,0.630027592182159,-1.05214397193928,-0.452708157625744,0.651327239198348,8
2.13999915122986,-1.08503937721252,2.49895405769348,1.8268449306488,-1.13855171544072,2.47592938473595,1.84767483877913,2279.949,2280.46,2284.24,2282.356,-0.1254413,-8.414398E-05,0.04979699,-1.02267909049988,-0.440031260251999,0.633622109889984,-1.05725096417139,-0.454905553710372,0.654488710669797,8
2.15999913215637,-1.10560369491577,2.49010586738586,1.83958613872528,-1.15974558044144,2.46681025671419,1.86079485081838,2279.149,2279.41,2282.635,2281.164,-0.1248122,-8.413637E-05,0.04955146,-1.02820920944214,-0.442410439252853,0.637062311172485,-1.06209328360857,-0.456989068485446,0.657486337073075,8
2.17999911308289,-1.12627339363098,2.48121237754822,1.8523930311203,-1.18103362911738,2.45765060408816,1.87397316703917,2277.975,2278.246,2281.329,2279.923,-0.124156,-8.424328E-05,0.04929286,-1.03348660469055,-0.444680273532867,0.640346586704254,-1.0666690335988,-0.458957885874587,0.660318944290228,8
2.19999933242798,-1.14704358577728,2.4722752571106,1.86526250839233,-1.20241076736204,2.44845261870959,1.88720663394693,2276.581,2277.036,2280.121,2278.613,-0.1234743,-8.466994E-05,0.04902181,-1.03850984573364,-0.446840792894363,0.643473327159882,-1.07097647561163,-0.460811257836709,0.662985456088088,8
2.21999931335449,-1.16790902614594,2.46329760551453,1.87819135189056,-1.22387110132782,2.43921883653644,1.90049160296922,2274.946,2275.76,2279.096,2277.201,-0.1227653,-8.502777E-05,0.04873899,-1.04327797889709,-0.448892056941986,0.646441042423248,-1.07501382704219,-0.462548417366737,0.665484768949324,8
2.23999929428101,-1.18886494636536,2.45428085327148,1.89117634296417,-1.24540946868523,2.42995147877487,1.91382487837818,2273.327,2274.226,2277.943,2275.927,-0.1220244,-8.53503E-05,0.04844543,-1.04778981208801,-0.450833767652512,0.649248421192169,-1.07877956933011,-0.464168711070571,0.667815942812731,7
2.25999927520752,-1.20990586280823,2.44522762298584,1.90421426296234,-1.26702042244467,2.42065288911233,1.92720308822777,2271.737,2272.715,2276.67,2274.495,-0.1212479,-8.534244E-05,0.0481392,-1.05204367637634,-0.452664762735367,0.65189403295517,-1.08227223934366,-0.465671509403495,0.669978071930061,7
2.27999925613403,-1.23102653026581,2.4361400604248,1.91730177402496,-1.28869848743772,2.41132542336085,1.94062284312791,2270.393,2271.194,2274.976,2273.029,-0.1204335,-8.553475E-05,0.04781969,-1.05603730678558,-0.454383701086044,0.654376924037933,-1.08549048233082,-0.46705622945357,0.671970317645288,7
2.29999923706055,-1.25222182273865,2.42702007293701,1.93043565750122,-1.31043816248474,2.40197144852433,1.95408073758635,2269.093,2269.689,2273.113,2271.456,-0.1195839,-8.552505E-05,0.0474865,-1.05976784229279,-0.455989092588425,0.656696259975433,-1.08843305191934,-0.468322334941636,0.673791908394614,7
2.31999921798706,-1.27348661422729,2.41787075996399,1.9436126947403,-1.33223392256247,2.39259334186593,1.9675733513505,2267.657,2268.192,2271.28,2269.767,-0.1187035,-8.536174E-05,0.04714014,-1.06323301792145,-0.457479894161224,0.658851146697998,-1.09109881011673,-0.469469336221307,0.675442139706467,7
2.33999919891357,-1.29481518268585,2.40869355201721,1.95682954788208,-1.35408022097161,2.38319348997539,1.98109725074927,2266.1,2266.506,2269.443,2268.181,-0.1177948,-8.541466E-05,0.04678209,-1.06643128395081,-0.458855599164963,0.660840690135956,-1.09348672731021,-0.470496790278978,0.676920374201502,6
2.35999917984009,-1.31620228290558,2.39949131011963,1.97008287906647,-1.37597149150444,2.37377428783641,1.99464899003492,2264.269,2264.912,2267.823,2266.354,-0.1168611,-8.566103E-05,0.04641159,-1.06936192512512,-0.46011608839035,0.662663996219635,-1.09559588226677,-0.471404300733819,0.678226041592597,6
2.3799991607666,-1.33764290809631,2.39026594161987,1.98336923122406,-1.39790215061238,2.36433813789396,2.0082251127249,2262.342,2263.119,2266.202,2264.621,-0.1158997,-8.589727E-05,0.04603035,-1.07202446460724,-0.461261540651321,0.664320170879364,-1.09742546213314,-0.472191517837776,0.679358638684859,6
2.39999914169312,-1.35913109779358,2.38102030754089,1.99668538570404,-1.41986659957358,2.35488744912162,2.02182215294369,2260.296,2261.242,2264.639,2262.835,-0.1149085,-8.607258E-05,0.04563791,-1.07441830635071,-0.462291836738586,0.665808439254761,-1.09897476243581,-0.472858138475575,0.68031772937562,5
2.41999912261963,-1.3806619644165,2.37175607681274,2.01002788543701,-1.44185922666057,2.34542463608896,2.03543663676465,2258.464,2259.36,2262.712,2261.012,-0.1138837,-8.621946E-05,0.04523363,-1.0765426158905,-0.463206380605698,0.667128205299377,-1.100243187081,-0.473403906164717,0.681102944654437,5
2.43999910354614,-1.40223002433777,2.36247634887695,2.02339339256287,-1.46387440930777,2.33595211802887,2.04906508355185,2256.574,2257.449,2260.78,2259.089,-0.1128264,-8.606873E-05,0.04481701,-1.07839596271515,-0.464004278182983,0.668279051780701,-1.10123024835468,-0.473828611055482,0.681713982603094,4
2.45999908447266,-1.42382955551147,2.35318231582642,2.03677868843079,-1.48590651627916,2.32647231790489,2.06270400730194,2254.821,2255.458,2258.561,2257.21,-0.1117366,-8.603143E-05,0.0443882,-1.07997703552246,-0.464684754610062,0.669260501861572,-1.10193556692257,-0.474132089930926,0.682150608395601,4
2.47999906539917,-1.4454550743103,2.34387731552124,2.05018019676208,-1.50794990983581,2.31698766147859,2.07634991798596,2252.899,2253.635,2256.447,2255.044,-0.1106187,-8.606334E-05,0.04394639,-1.08128464221954,-0.465247273445129,0.670072257518768,-1.10235887183014,-0.474314226206882,0.682412654298194,3
2.49999904632568,-1.46710157394409,2.33456349372864,2.06359457969666,-1.52999894790352,2.30750057637687,2.08999932289122,2250.963,2251.618,2254.22,2253.02,-0.109473,-8.601826E-05,0.04349409,-1.08231806755066,-0.465691715478897,0.67071396112442,-1.10250000050259,-0.47437494993196,0.682500019669334,0
2.5199990272522,-1.48876297473907,2.3252432346344,2.07701826095581,-1.55204798624038,2.29801349115933,2.10364872796309,2248.792,2249.479,2252.185,2250.986,-0.1083022,-8.610303E-05,0.04303138,-1.08307731151581,-0.46601802110672,0.671185314655304,-1.1023588987449,-0.474314237787549,0.68241267095971,0
2.53999900817871,-1.51043438911438,2.31591868400574,2.09044790267944,-1.5740913806044,2.28852883438564,2.11729463914691,2246.582,2247.368,2250.098,2248.85,-0.1071054,-8.634925E-05,0.04255749,-1.08356249332428,-0.466226488351822,0.671486020088196,-1.10193562074175,-0.474132113087814,0.682150641712234,0
2.55999898910522,-1.53210973739624,2.30659222602844,2.10388016700745,-1.59612348892105,2.27904903368284,2.13093356372978,2244.24,2245.157,2248.096,2246.696,-0.1058814,-8.648499E-05,0.04207255,-1.08377373218536,-0.466317355632782,0.671616017818451,-1.10123032905761,-0.473828645779696,0.681714032562048,0
2.57999897003174,-1.55378389358521,2.29726648330688,2.11731171607971,-1.61813867345089,2.2695765148127,2.14456201168243,2242.014,2243.016,2245.865,2244.426,-0.1046281,-8.647566E-05,0.04157617,-1.08371102809906,-0.466290473937988,0.67157518863678,-1.10024329463667,-0.473403952442914,0.681103011236517,0
2.59999918937683,-1.57545149326324,2.28794360160828,2.13073897361755,-1.64013156497321,2.26011358800091,2.15817665920145,2239.833,2240.735,2243.508,2242.217,-0.103345,-8.647414E-05,0.04106931,-1.08337378501892,-0.466145694255829,0.671363592147827,-1.09897488000713,-0.472858189063228,0.680317802157866,0
2.61999917030334,-1.59710669517517,2.27862596511841,2.14415860176086,-1.66209601652007,2.25066289811603,2.17177370102089,2237.665,2238.48,2241.059,2239.915,-0.1020337,-8.628364E-05,0.04055142,-1.08276200294495,-0.46588259935379,0.670981407165527,-1.09742560311921,-0.472191578500142,0.679358725961952,0
2.63999915122986,-1.61874413490295,2.26931595802307,2.15756726264954,-1.68402667868143,2.24122674685977,2.18534982560108,2235.4,2236.182,2238.633,2237.579,-0.1006963,-8.636995E-05,0.04002291,-1.08187544345856,-0.465501129627228,0.670428812503815,-1.09559604661333,-0.471404371447551,0.678226143330945,0
2.65999913215637,-1.64035856723785,2.26001596450806,2.17096138000488,-1.70591795273427,2.23180754320623,2.19890156706579,2233.081,2233.86,2236.181,2235.206,-0.09933431,-8.645337E-05,0.03948402,-1.08071458339691,-0.465001463890076,0.669705986976624,-1.09348691495395,-0.470496871016837,0.676920490361915,0
2.67999911308289,-1.66194415092468,2.25072836875916,2.1843376159668,-1.72776425512866,2.22240768960096,2.21242546893162,2230.631,2231.446,2233.807,2232.84,-0.09794787,-8.649462E-05,0.03893513,-1.07927989959717,-0.464383959770203,0.668813109397888,-1.0910990209853,-0.469469426952161,0.675442270244156,0
2.6999990940094,-1.68349552154541,2.24145531654358,2.19769263267517,-1.74956001965534,2.2130295810283,2.22591808544988,2228.174,2229.062,2231.366,2230.386,-0.09653746,-8.668622E-05,0.03837591,-1.07757222652435,-0.463649034500122,0.667750537395477,-1.08843328593135,-0.468322435630462,0.673792053259191,0
2.71999907493591,-1.70500731468201,2.2321994304657,2.2110230922699,-1.77129969961328,2.20367560407874,2.23937598294842,2225.655,2226.641,2228.94,2227.888,-0.09510255,-8.679274E-05,0.03780686,-1.0755922794342,-0.462797194719315,0.666518688201904,-1.08549073939581,-0.467056340061457,0.671970476780766,0
2.73999905586243,-1.72647428512573,2.22296285629272,2.22432541847229,-1.79297776997733,2.19434813601627,2.25279574117346,2223.165,2224.139,2226.412,2225.422,-0.09364207,-8.692902E-05,0.03722852,-1.07334077358246,-0.461828649044037,0.665117979049683,-1.08227251936216,-0.465671629887637,0.669978245274857,0
2.75999903678894,-1.74789047241211,2.21374797821045,2.23759651184082,-1.81458872956577,2.18504954384568,2.26617395463148,2220.65,2221.604,2223.859,2222.922,-0.09215656,-8.689125E-05,0.03664064,-1.07081854343414,-0.460743576288223,0.663549065589905,-1.0787798721936,-0.464168841384272,0.667816130299661,0
2.77999901771545,-1.76925110816956,2.20455718040466,2.2508327960968,-1.83612710320793,2.17578218337996,2.27950723393099,2218.213,2219.126,2221.148,2220.331,-0.09064654,-8.683867E-05,0.036043,-1.06802654266357,-0.459542393684387,0.661812603473663,-1.07501415263309,-0.462548557459409,0.665484970505605,0
2.79999899864197,-1.79055023193359,2.19539260864258,2.26403093338013,-1.85758744391174,2.16654839830762,2.29279220712445,2215.652,2216.513,2218.53,2217.801,-0.08911417,-8.69467E-05,0.03543641,-1.0649653673172,-0.458225250244141,0.659909129142761,-1.07097682380333,-0.460811407653873,0.662985671635341,0
2.81999897956848,-1.81178307533264,2.18625664710999,2.27718782424927,-1.87896433503139,2.15735051926004,2.30602552105005,2213.111,2214.007,2215.818,2215.135,-0.08755888,-8.711997E-05,0.03482028,-1.06163644790649,-0.456792771816254,0.65783953666687,-1.06666945720677,-0.458958068141266,0.660319206523745,0
2.839998960495,-1.83294379711151,2.17715167999268,2.29029989242554,-1.90025239243486,2.1481908628788,2.31920384267361,2210.439,2211.355,2213.21,2212.541,-0.08598335,-8.711597E-05,0.03419577,-1.05804097652435,-0.455245584249496,0.655604600906372,-1.06209373272561,-0.456989261727965,0.657486615097922,0
2.85999894142151,-1.85402750968933,2.16808009147644,2.30336403846741,-1.92144626667155,2.13907173088305,2.33232386043035,2207.812,2208.757,2210.497,2209.866,-0.08438652,-8.712652E-05,0.03356244,-1.05418062210083,-0.453584462404251,0.653205096721649,-1.05725143862179,-0.454905757853127,0.6544890043772,0
2.87999892234802,-1.8750284910202,2.15904378890991,2.31637692451477,-1.94254064513985,2.12999540913685,2.34538228556683,2205.119,2206.054,2207.823,2207.236,-0.08276892,-8.722803E-05,0.0329209,-1.05005693435669,-0.451810032129288,0.650642096996307,-1.052144471537,-0.452708372588685,0.651327548473136,0
2.89999890327454,-1.89594221115112,2.15004539489746,2.32933521270752,-1.96353025425476,2.1209641667165,2.3583758534827,2202.438,2203.453,2205.09,2204.467,-0.08113054,-8.725706E-05,0.03227059,-1.04567158222198,-0.449923068284988,0.647916555404663,-1.04677483649268,-0.45039796863935,0.64800348858951,0
2.91999888420105,-1.91676259040833,2.14108681678772,2.34223580360413,-1.98440986161545,2.1119802549779,2.3713013250726,2199.718,2200.674,2202.366,2201.832,-0.07947192,-8.743039E-05,0.03161277,-1.04102611541748,-0.447924345731735,0.645029664039612,-1.04114464689001,-0.447975455342608,0.644518133022331,0
2.93999886512756,-1.93748497962952,2.13217043876648,2.35507535934448,-2.00517427817288,2.10304590662387,2.38415548806798,2197.079,2198.082,2199.502,2198.998,-0.07779306,-8.744964E-05,0.03094637,-1.03612244129181,-0.445814490318298,0.64198249578476,-1.03525612450991,-0.445441788668724,0.640872857159832,0
2.95999884605408,-1.95810413360596,2.12329864501953,2.36785078048706,-2.02581836039739,2.09416333477156,2.39693515837897,2194.371,2195.332,2196.69,2196.274,-0.07609504,-8.756909E-05,0.0302732,-1.03096210956573,-0.44359427690506,0.638776242733002,-1.02911159951308,-0.442797971220741,0.637069103482473,0
2.97999882698059,-1.97861528396606,2.11447334289551,2.38055896759033,-2.04633701244627,2.0853347320197,2.40963718143616,2191.681,2192.57,2193.824,2193.539,-0.07437943,-8.747173E-05,0.02959306,-1.02554738521576,-0.441264510154724,0.635412275791168,-1.02271351043992,-0.440045052234476,0.633108381562939,0
2.99999904632568,-1.99901270866394,2.10569667816162,2.39319682121277,-2.06672543057999,2.07656216528323,2.42225858349598,2188.866,2189.782,2191.07,2190.787,-0.0726473,-8.738517E-05,0.02890573,-1.01988041400909,-0.438826054334641,0.631891846656799,-1.01606432346125,-0.437184092834336,0.628992218078444,0
3.0199990272522,-2.01929211616516,2.09697103500366,2.40576124191284,-2.08697813469083,2.06784799249938,2.43479597211068,2186.158,2187.12,2188.163,2187.907,-0.07089814,-8.750926E-05,0.028211,-1.01396369934082,-0.436280071735382,0.628216445446014,-1.00916685243125,-0.434216303743162,0.624722354938765,0
3.03999900817871,-2.03944802284241,2.08829855918884,2.41824889183044,-2.1070904288371,2.05919423420069,2.44724644026866,2183.288,2184.249,2185.426,2185.181,-0.06913406,-8.747948E-05,0.02751045,-1.00779950618744,-0.433627754449844,0.624387562274933,-1.00202378325828,-0.431142840632279,0.62030045484912,0
3.05999898910522,-2.05947589874268,2.07968139648438,2.43065690994263,-2.12705742960057,2.0506029915856,2.45960696490139,2180.542,2181.5,2182.524,2182.34,-0.06735294,-8.745786E-05,0.026803,-1.00139057636261,-0.430870115756989,0.620406568050385,-0.994637988003018,-0.427964939269174,0.615728295751895,0
3.07999897003174,-2.07937073707581,2.07112097740173,2.44298243522644,-2.14687431208796,2.04207634067088,2.47187455917011,2177.759,2178.676,2179.654,2179.545,-0.06555691,-8.751811E-05,0.02608936,-0.994739234447479,-0.428008168935776,0.616275191307068,-0.987012447105925,-0.424683882054105,0.611007722681707,0
3.09999895095825,-2.09912776947021,2.06262040138245,2.45522236824036,-2.16653631209854,2.03361633135901,2.48404627380761,2174.937,2175.976,2176.809,2176.611,-0.06374649,-8.745494E-05,0.02536928,-0.987848162651062,-0.425043165683746,0.611995160579681,-0.979150249387196,-0.421300998020112,0.606140647765399,0
3.11999893188477,-2.11874198913574,2.05418062210083,2.46737360954285,-2.18603872829175,2.02522498650551,2.49611919846012,2172.247,2173.11,2173.802,2173.853,-0.06192116,-8.747803E-05,0.02464453,-0.980719923973083,-0.421976268291473,0.607568144798279,-0.971054592046769,-0.41781766283301,0.601129050222034,0
3.13999891281128,-2.13820934295654,2.04580473899841,2.47943353652954,-2.20537692435472,2.01690430098627,2.50809046302913,2169.431,2170.422,2170.936,2170.887,-0.06008411,-8.732104E-05,0.02391426,-0.973357498645782,-0.418808549642563,0.602995991706848,-0.962728780664334,-0.41423529879139,0.595974976362911,0
3.15999889373779,-2.1575243473053,2.03749394416809,2.49139904975891,-2.22454633116994,2.00865624076491,2.51995723901323,2166.656,2167.454,2168.014,2168.204,-0.05823534,-8.725702E-05,0.02318056,-0.965763926506042,-0.415541410446167,0.598280608654022,-0.954176229199323,-0.410555374826624,0.590680539591543,0
3.17999887466431,-2.17668318748474,2.02925038337708,2.50326752662659,-2.2435424489828,2.00048274196013,2.53171674084998,2163.862,2164.751,2165.116,2165.25,-0.05637646,-8.720113E-05,0.0224413,-0.957942605018616,-0.412176132202148,0.593423962593079,-0.945400459990917,-0.406779406502856,0.585247920403679,0
3.19999885559082,-2.19568109512329,2.02107620239258,2.51503610610962,-2.26236084956923,1.99238570991304,2.54336622725771,2160.983,2161.89,2162.312,2162.444,-0.05450798,-8.724118E-05,0.02169838,-0.949896812438965,-0.408714264631271,0.58842796087265,-0.936405103758047,-0.402908956017012,0.579679366387291,0
3.21999883651733,-2.2145140171051,2.01297307014465,2.52670192718506,-2.28099717840322,1.98436701825452,2.55490300257741,2158.192,2159.062,2159.411,2159.619,-0.05262886,-8.720195E-05,0.02095137,-0.941629946231842,-0.405157327651978,0.583294749259949,-0.927193899599382,-0.398945632198791,0.573977192222574,0
3.23999881744385,-2.23317694664001,2.00494265556335,2.53826236724854,-2.29944715682451,1.97642850797257,2.56632441811454,2155.359,2156.238,2156.571,2156.786,-0.05074014,-8.699513E-05,0.02020025,-0.933145463466644,-0.401506721973419,0.578026413917542,-0.917770694993346,-0.394891090510675,0.568143779681951,0
3.25999879837036,-2.25166583061218,1.99698734283447,2.54971480369568,-2.31770658420609,1.96857198647962,2.57762787348089,2152.632,2153.555,2153.621,2153.834,-0.04884291,-8.694326E-05,0.01944507,-0.924446761608124,-0.397763967514038,0.572625339031219,-0.908139445798107,-0.390747033047917,0.562181577630074,0
3.27999877929688,-2.26997661590576,1.98910880088806,2.56105661392212,-2.33577134012187,1.96079922667992,2.58881081793642,2149.959,2150.74,2150.627,2151.025,-0.04693715,-8.695274E-05,0.01868784,-0.915537118911743,-0.393930554389954,0.567093670368195,-0.898304216251578,-0.386515208538549,0.556093102023818,0
3.29999876022339,-2.28810501098633,1.98130881786346,2.57228517532349,-2.3536373865142,1.95311196603685,2.59987075173108,2147.223,2147.927,2147.719,2148.223,-0.04502713,-8.688015E-05,0.01792853,-0.906420409679413,-0.39000791311264,0.561433732509613,-0.888269178971418,-0.382197412343383,0.54988093591228,0
3.3199987411499,-2.30604696273804,1.97358870506287,2.58339810371399,-2.37130076986152,1.9455119056403,2.61080522744671,2144.466,2145.137,2144.849,2145.417,-0.04311285,-8.698546E-05,0.01716703,-0.897100746631622,-0.385997831821442,0.5556480884552,-0.878038614955035,-0.377795486456005,0.543547729436792,0
3.33999872207642,-2.32379841804504,1.96595072746277,2.59439277648926,-2.38875762334595,1.93800070927398,2.62161185133883,2141.624,2142.417,2142.094,2142.549,-0.04119537,-8.693126E-05,0.01640347,-0.887582361698151,-0.381902188062668,0.549739122390747,-0.867616913579587,-0.37331131950278,0.537096199830905,0
3.35999870300293,-2.34135580062866,1.95839643478394,2.60526704788208,-2.40600416902084,1.93058000248278,2.63228828467848,2138.888,2139.63,2139.247,2139.779,-0.03927417,-8.680297E-05,0.01563896,-0.877869427204132,-0.377723038196564,0.543709397315979,-0.857008572601967,-0.368746846742847,0.530529131420399,0
3.37999868392944,-2.35871529579163,1.95092701911926,2.61601829528809,-2.42303671997839,1.92325137164014,2.64283224509413,2136.136,2136.845,2136.453,2137.02,-0.03735083,-8.679071E-05,0.01487336,-0.86796623468399,-0.373461991548538,0.537561476230621,-0.846218198158826,-0.364104050068127,0.523849375623278,0
3.39999890327454,-2.37587261199951,1.94354462623596,2.62664413452148,-2.43985188165647,1.91601627733129,2.65324163119009,2133.393,2134.148,2133.68,2134.204,-0.0354243,-8.666096E-05,0.01410649,-0.85787695646286,-0.369120955467224,0.531298041343689,-0.835250372983481,-0.35938490130074,0.517059769369773,0
3.41999888420105,-2.39282464981079,1.93625068664551,2.63714265823364,-2.45644575479329,1.90887639729967,2.66351402913758,2130.887,2131.498,2130.685,2131.39,-0.03349617,-8.661564E-05,0.01333922,-0.84760594367981,-0.364701747894287,0.524921894073486,-0.824110181511089,-0.35459158813109,0.510163460167449,0
3.43999886512756,-2.40956783294678,1.9290463924408,2.64751148223877,-2.47281514035847,1.90183310799866,2.6736474585844,2128.221,2128.752,2127.902,2128.685,-0.03156911,-8.640335E-05,0.01257278,-0.837157309055328,-0.360206037759781,0.518435955047607,-0.81280242532103,-0.349726176544644,0.503163420422674,0
3.45999884605408,-2.42609858512878,1.92193365097046,2.65774822235107,-2.48895673727672,1.89488782978875,2.68363987600769,2125.553,2126.098,2125.155,2125.927,-0.02964471,-8.631873E-05,0.01180686,-0.826535999774933,-0.355635941028595,0.511842966079712,-0.801332144070227,-0.344790834964984,0.496062769923157,0
3.47999882698059,-2.44241380691528,1.91491365432739,2.6678512096405,-2.50486734634964,1.88804193919563,2.69348930095124,2122.947,2123.412,2122.383,2123.246,-0.02772351,-8.619279E-05,0.01104223,-0.815746784210205,-0.350993633270264,0.505145907402039,-0.789704485795351,-0.33978777844847,0.488864695548832,0
3.4999988079071,-2.45850944519043,1.90798795223236,2.67781805992126,-2.5205438724232,1.88129676797762,2.70319381736728,2120.289,2120.763,2119.712,2120.562,-0.02580656,-8.61437E-05,0.01027886,-0.804794669151306,-0.346281081438065,0.498347818851471,-0.777924706912824,-0.334719268684242,0.481572451271862,0
3.51999878883362,-2.47438335418701,1.90115809440613,2.68764710426331,-2.53598332655545,1.87465360219292,2.71275157495833,2117.799,2118.227,2116.912,2117.818,-0.02389388,-8.598759E-05,0.00951701,-0.793684601783752,-0.341500610113144,0.491451770067215,-0.765998172218811,-0.329587613994215,0.474189358156633,0
