t,x_s1,x_s2,x_s3,x_s_d1,x_s_d2,x_s_d3,propellers_rpms1,propellers_rpms2,propellers_rpms3,propellers_rpms4,rollRad,pitchRad,yawRad,v_s1,v_s2,v_s3,v_s_d1,v_s_d2,v_s_d3,insideCount
0,-0.0599999986588955,2.94000005722046,1.17999994754791,-0.0599999986588955,2.94000005722046,1.17999994754791,0,0,0,0,0,0,0,0,0,0,-1.06581410364015E-15,4.44089209850063E-16,4.44089209850063E-16,0
0.0200042724609375,-0.0599999986588955,2.94000005722046,1.17811644077301,-0.0600018701838461,2.93999925195556,1.18000110611101,0,0,0,0,-0.01635288,0.0001297794,-0.01587137,-1.10653664009419E-09,-7.76775763711157E-08,-0.0941759571433067,-0.000280105751305916,-0.000120521679537258,0.00017339880334547,5
0.040008544921875,-0.0599999986588955,2.94000005722046,1.17242503166199,-0.060014880898484,2.93999365380853,1.18000916036316,0,0,0,0,-0.03270202,0.0005238493,-0.03175127,-1.08383135799528E-09,-7.60859677484405E-08,-0.284568399190903,-0.00111143977225461,-0.000478221483967637,0.00068803416424398,5
0.0600128173828125,-0.0599058866500854,2.93990302085876,1.16596508026123,-0.0600499235789167,2.93997857592211,1.18003085345166,1868.186,3252.807,3183.866,1722.401,-0.04942188,0.0003295492,-0.01369504,0.00470568425953388,-0.00484921643510461,-0.322996616363525,-0.00248060856799822,-0.00106733656662813,0.00153561487136384,5
0.0800018310546875,-0.0598203726112843,2.93960738182068,1.16000306606293,-0.0601175574246769,2.93994947496775,1.18007272202403,1925.521,2314.37,3252.09,2829.448,-0.07543297,-0.002136388,0.02094803,0.00427571590989828,-0.0147785749286413,-0.298098176717758,-0.00437268608126799,-0.00188144466206175,0.00270690098422899,5
0.100006103515625,-0.0599374510347843,2.93904495239258,1.15498661994934,-0.0602282404704493,2.93990185114529,1.18014124010193,979.9462,1498.767,3915.207,3896.673,-0.1031954,-0.008063519,0.06330917,-0.00585394445806742,-0.0281172171235085,-0.250822335481644,-0.00677739276378709,-0.00291612276782231,0.00419552897277328,4
0.120010375976563,-0.0604638457298279,2.93818354606628,1.15081322193146,-0.0603920338334453,2.93983137543704,1.18024263599618,346.5513,980.4565,4172.638,4613.365,-0.1214316,-0.01542077,0.1040025,-0.0263197757303715,-0.0430684797465801,-0.208672434091568,-0.00968041450003567,-0.00416521191989172,0.00599263771761404,4
0.139999389648438,-0.0615636184811592,2.93704128265381,1.14728283882141,-0.0606185767455666,2.93973390035084,1.18038287685052,353.0439,747.1285,3975.232,4854.946,-0.1254013,-0.0211668,0.1351056,-0.0549885854125023,-0.0571135133504868,-0.17652040719986,-0.0130660253322238,-0.00562194567796536,0.00808849210174802,4
0.160003662109375,-0.0633408948779106,2.93568086624146,1.14427506923676,-0.0609177895434042,2.93960515744296,1.18056810382587,820.7158,814.7341,3463.194,4692.39,-0.1184579,-0.02352423,0.15227,-0.0888637006282806,-0.0680152252316475,-0.150388970971107,-0.0169265510445065,-0.00728302204135792,0.0104783414199936,3
0.180007934570313,-0.0658469349145889,2.9341721534729,1.14182543754578,-0.0612988491946875,2.93944119812059,1.1808039979024,1348.825,1083.543,3006.427,4255.217,-0.1079784,-0.02277961,0.155778,-0.125302016735077,-0.075430691242218,-0.122481107711792,-0.0212468478482708,-0.00914192506089775,0.0131528109458008,3
0.20001220703125,-0.069084994494915,2.93255376815796,1.14006161689758,-0.0617708265342762,2.93923811945689,1.181096174359,1636.669,1381.315,2918.166,3666.287,-0.09982753,-0.02030074,0.150155,-0.161903142929077,-0.0809145197272301,-0.0881917774677277,-0.0260142813927851,-0.0111932185284278,0.0161040794142088,3
0.220001220703125,-0.0730103328824043,2.93082594871521,1.139035820961,-0.0623420644491781,2.93899233174064,1.18144979784016,1641.417,1580.689,3148.294,3113.058,-0.09584344,-0.01735475,0.1421872,-0.196267053484917,-0.0863857269287109,-0.0512920692563057,-0.03121219533433,-0.0134297356845702,0.019321835755004,3
0.240005493164063,-0.0775500982999802,2.92897343635559,1.13863360881805,-0.0630219993990999,2.93869977472688,1.18187070996396,1523.598,1623.929,3418.53,2777.481,-0.09475847,-0.01467881,0.1377347,-0.226988300681114,-0.0926262587308884,-0.0201100185513496,-0.0368361158647881,-0.0158495515746756,0.0228033104678445,3
0.260009765625,-0.0826389789581299,2.92699217796326,1.13863587379456,-0.0638185570309634,2.93835703823113,1.18236381708338,1439.117,1500.981,3532.858,2744.26,-0.09438882,-0.01258876,0.1393044,-0.25444421172142,-0.0990593954920769,0.000113677233457565,-0.0428699302682246,-0.0184457333472145,0.0265385290140116,3
0.280014038085938,-0.088244840502739,2.9249005317688,1.13885235786438,-0.0647398147611713,2.93796064676678,1.18293411950397,1401.001,1276.142,3476.101,2977.603,-0.0932117,-0.01110538,0.1456849,-0.280293226242065,-0.104584626853466,0.010823143646121,-0.0493014380023661,-0.0212130314496903,0.0305199386766456,3
0.300003051757813,-0.0943706333637238,2.92273235321045,1.13920724391937,-0.0657927507678135,2.93750759781875,1.18358593705038,1350.629,1061.546,3345.181,3324.846,-0.09053842,-0.009935189,0.1533106,-0.306289613246918,-0.10840680450201,0.0177438147366047,-0.0561132031658829,-0.0241439437008635,0.0347367458022363,3
0.32000732421875,-0.10103602707386,2.92052555084229,1.13972568511963,-0.0669865614821475,2.93699393441958,1.18432496275165,1280.169,940.7266,3238.567,3590.638,-0.08598122,-0.008525311,0.1583627,-0.333269506692886,-0.110344536602497,0.0259209685027599,-0.0633036493784043,-0.0272377918282996,0.0391879745362408,3
0.340011596679688,-0.108251623809338,2.91831183433533,1.14046216011047,-0.0683278498358171,2.93641681551226,1.18515528413699,1253.222,944.3447,3170.592,3649.92,-0.07944422,-0.00629305,0.1584797,-0.360780209302902,-0.110682494938374,0.0368252471089363,-0.0708558471483356,-0.0304872915447207,0.0438631447168985,4
0.360000610351563,-0.116003185510635,2.91611456871033,1.14145302772522,-0.0698225328270578,2.93577369517774,1.1860805641102,1320.451,1047.555,3119.915,3497.851,-0.07154796,-0.0029625,0.1534733,-0.387578040361404,-0.109859429299831,0.0495429337024689,-0.0787518717320621,-0.0338847303337087,0.0487511600740379,4
0.3800048828125,-0.124251633882523,2.91394948959351,1.1427081823349,-0.0714797725314022,2.93506063123087,1.18710647443246,1454.804,1181.236,3091.673,3231.445,-0.06361493,0.001257952,0.1450401,-0.412422090768814,-0.108257867395878,0.0627591609954834,-0.0869921272359981,-0.0374302820709642,0.0538522707687797,4
0.400009155273438,-0.132943466305733,2.91182613372803,1.14421772956848,-0.0733051402689975,2.93427522648826,1.18823646401636,1579.406,1273.705,3104.537,2982.036,-0.05701668,0.00582553,0.135749,-0.434591978788376,-0.106166586279869,0.0754761844873428,-0.0955591682828665,-0.0411164404980124,0.0591556772815509,4
0.420013427734375,-0.142023876309395,2.90974998474121,1.14595818519592,-0.0753050585276311,2.93341471753282,1.18947450868777,1631.941,1288.927,3158.436,2844.384,-0.05243977,0.01017634,0.1278544,-0.454020619392395,-0.103802517056465,0.0870229750871658,-0.104441553474511,-0.0449382827008623,0.0646542968418633,4
0.44000244140625,-0.151446342468262,2.90772414207458,1.14789617061615,-0.077483988232608,2.93247718495301,1.19082336997196,1606.988,1238.129,3219.505,2842.791,-0.04966423,0.01397518,0.1224593,-0.47112375497818,-0.101290963590145,0.0968972146511078,-0.113620829717891,-0.048887868829098,0.0703367061060819,4
0.460006713867188,-0.161177143454552,2.90575122833252,1.14999794960022,-0.0798512213598696,2.93145863067119,1.19228880004469,1540.302,1157.785,3254.032,2938.581,-0.04789109,0.01718401,0.1193442,-0.486540287733078,-0.0986418351531029,0.105088502168655,-0.123099793815011,-0.0529664022684887,0.0762046364278779,4
0.480010986328125,-0.171194016933441,2.90383553504944,1.1522399187088,-0.0824109101018722,2.93035726811493,1.19387336931088,1474.526,1086.269,3247.673,3067.158,-0.04628574,0.01998634,0.1173816,-0.500843703746796,-0.0957817584276199,0.112095683813095,-0.132860437136906,-0.0571661344090936,0.082246939608052,5
0.5,-0.181481495499611,2.90198278427124,1.154616355896,-0.085166398670376,2.92917165836334,1.1955791479969,1433.057,1046.643,3215.49,3168.988,-0.04433258,0.02264491,0.115223,-0.51437383890152,-0.0926411971449852,0.118819065392017,-0.142884000065179,-0.0614789935111996,0.0884520025491718,5
0.520004272460938,-0.192024812102318,2.90019822120667,1.15713560581207,-0.088127196023106,2.92789770997757,1.19741202260058,1422.593,1044.628,3178.49,3210.812,-0.04192082,0.02537741,0.1118904,-0.527164995670319,-0.0892288982868195,0.125964641571045,-0.153174893518032,-0.065906877469682,0.0948225558197254,5
0.540008544921875,-0.202805161476135,2.8984854221344,1.15981066226959,-0.0912963635428427,2.92653410573011,1.19937388826368,1445.307,1073.394,3148.47,3185.144,-0.03929175,0.02828799,0.107053,-0.539017558097839,-0.0856406465172768,0.133753821253777,-0.163714777034477,-0.0704418948965508,0.101347245800684,5
0.560012817382813,-0.213798508048058,2.8968448638916,1.1626535654068,-0.0946787750684717,2.92507874854427,1.20146776212465,1485.298,1114.247,3137.993,3113.41,-0.03688478,0.03132884,0.1010548,-0.549668073654175,-0.082032285630703,0.142144292593002,-0.174492968360474,-0.0750794495163205,0.10801945966793,5
0.580001831054688,-0.224976882338524,2.89527344703674,1.16566872596741,-0.0982762614093182,2.92353085067394,1.20369477754168,1521.152,1148.857,3145.945,3034.728,-0.03513455,0.03434577,0.09465151,-0.558918297290802,-0.0785766020417213,0.150760874152184,-0.185490414529404,-0.0798113433697334,0.11482740272751,5
0.600006103515625,-0.236311674118042,2.89376497268677,1.16885280609131,-0.102098762959148,2.92188613504538,1.20606108809202,1538.912,1166.652,3164.736,2979.752,-0.03429725,0.03715882,0.08862035,-0.566739737987518,-0.0754214525222778,0.159203007817268,-0.196713446836865,-0.0846403006364086,0.121774994352997,5
0.620010375976563,-0.247777044773102,2.89231157302856,1.17219567298889,-0.106147859919355,2.92014392174208,1.20856767199563,1535.105,1167.325,3181.484,2964.267,-0.03441656,0.03963184,0.0834604,-0.573269546031952,-0.072669081389904,0.167141109704971,-0.20814339888717,-0.0895582896877615,0.128850679156259,5
0.639999389648438,-0.25935235619545,2.89090394973755,1.17568778991699,-0.110424235525481,2.91830391678686,1.21121495220784,1508.647,1156.694,3193.909,2985.722,-0.03534175,0.0417005,0.07929258,-0.578765749931335,-0.0703822746872902,0.174608632922173,-0.219761081350814,-0.0945570538913933,0.136042578028218,5
0.660003662109375,-0.271022230386734,2.8895320892334,1.17932164669037,-0.114938248900541,2.91636166293851,1.21400934151928,1465.426,1144.025,3198.785,3031.881,-0.03678305,0.04338391,0.07590959,-0.583494126796722,-0.0685976296663284,0.181695595383644,-0.231574097577923,-0.0996398647564507,0.143355397804799,5
0.680007934570313,-0.282775282859802,2.88818550109863,1.1830906867981,-0.119690355154666,2.91431696437584,1.21695112166479,1428.807,1139.566,3190.107,3076.091,-0.03844433,0.04477529,0.07288806,-0.587652623653412,-0.0673267766833305,0.188449442386627,-0.243563621239988,-0.104798621839723,0.150777484091833,5
0.70001220703125,-0.294602364301682,2.88685393333435,1.18699324131012,-0.124683985757554,2.91216834463331,1.22004241688759,1405.939,1146.533,3176.707,3100.868,-0.04016633,0.04596872,0.06985302,-0.591354250907898,-0.0665753707289696,0.195127755403519,-0.255719729227087,-0.11002905550423,0.158302694011575,5
0.720001220703125,-0.306494742631912,2.88552665710449,1.19102966785431,-0.129918284978346,2.90991617190799,1.22328269744952,1393.6,1162.997,3163.541,3106.688,-0.04193999,0.04702102,0.06662608,-0.594618618488312,-0.0663605630397797,0.201822400093079,-0.268023157655716,-0.11532287703907,0.16591910230247,5
0.740005493164063,-0.318443298339844,2.88419246673584,1.19520103931427,-0.13540428105644,2.90755570105657,1.22667879035609,1390.133,1184.799,3155.127,3094.893,-0.04383989,0.04794952,0.06322432,-0.597427845001221,-0.066712848842144,0.208570882678032,-0.280482990349159,-0.120683994959631,0.173632332283853,5
0.760009765625,-0.330438494682312,2.88283920288086,1.19950592517853,-0.141140917956636,2.9050873864615,1.23023004187122,1392.721,1207.539,3148.947,3074.918,-0.04599759,0.04873356,0.05981404,-0.599760472774506,-0.0676657408475876,0.215242564678192,-0.293080296154222,-0.126104263719567,0.181430664670081,5
0.780014038085938,-0.342471390962601,2.88145399093628,1.20394325256348,-0.147130850634402,2.90251008576961,1.23393809553882,1390.121,1226.835,3149.844,3057.226,-0.04853398,0.04932112,0.05664362,-0.601645708084106,-0.0692574977874756,0.221868231892586,-0.305805585769442,-0.131579600337561,0.189308225131511,5
0.800003051757813,-0.354534506797791,2.88002347946167,1.2085098028183,-0.153371683173492,2.89982482987671,1.2378014681726,1373.936,1240.719,3154.081,3054.626,-0.05148476,0.04966059,0.05393418,-0.603153824806213,-0.0715210065245628,0.228324696421623,-0.318639638509124,-0.13710173468952,0.197253115148089,5
0.82000732421875,-0.366622447967529,2.87853407859802,1.21320056915283,-0.159875221826383,2.89702653888221,1.24182746840525,1349.607,1250.501,3158.179,3063.54,-0.05476311,0.04973455,0.05177097,-0.604398190975189,-0.0744730085134506,0.234539791941643,-0.331592781842754,-0.14267511039705,0.205271727915392,4
0.840011596679688,-0.37873238325119,2.87697196006775,1.21800851821899,-0.166638895824778,2.89411631891588,1.24601450480873,1326.587,1259.421,3155.07,3078.82,-0.05825398,0.04955744,0.05010957,-0.605495870113373,-0.0781033635139465,0.240397751331329,-0.344646098867604,-0.148291588045382,0.213352352969496,4
0.860000610351563,-0.390863627195358,2.875324010849,1.22292983531952,-0.173659158941841,2.89109569582005,1.2503603820997,1303.464,1269.419,3150.708,3094.949,-0.06186577,0.04915401,0.04885712,-0.606562376022339,-0.0823957696557045,0.246067374944687,-0.357780475378537,-0.153942943326036,0.221483157706883,4
0.8800048828125,-0.403017222881317,2.8735773563385,1.22796189785004,-0.180948461186242,2.88795931270381,1.25487280742661,1275.532,1280.907,3146.594,3114.345,-0.06551323,0.04855296,0.04792354,-0.6076779961586,-0.0873295515775681,0.251600831747055,-0.371007022483504,-0.159633957038354,0.229671020432672,4
0.900009155273438,-0.41519495844841,2.87171983718872,1.23310017585754,-0.188503099076414,2.88470876307182,1.25954948815793,1259.016,1295.037,3137.951,3124.844,-0.06911169,0.04780527,0.04718313,-0.608890533447266,-0.0928720608353615,0.256915628910065,-0.384306908919572,-0.165356526615982,0.237904283698049,4
0.920013427734375,-0.427399635314941,2.86974000930786,1.23834359645844,-0.196324452211266,2.88134345332121,1.26439127833112,1248.89,1311.12,3131.843,3126.073,-0.07266062,0.04693621,0.0466021,-0.610233902931213,-0.0989966690540314,0.262173026800156,-0.397671404529394,-0.171106895716105,0.246177543119742,4
0.94000244140625,-0.439634084701538,2.86762642860413,1.24369060993195,-0.204407453948074,2.87786556348678,1.26939504145298,1236.288,1326.817,3128.268,3128.546,-0.07619091,0.04594922,0.04622882,-0.611722469329834,-0.105675719678402,0.267353743314743,-0.411081631631503,-0.176876941799768,0.254479112513653,4
0.960006713867188,-0.451901733875275,2.86536884307861,1.2491397857666,-0.212765478812529,2.87426933888379,1.27456905699201,1224.106,1340.719,3127.862,3129.874,-0.07968764,0.04484907,0.04611005,-0.613382875919342,-0.112882889807224,0.272458285093307,-0.424549556012544,-0.182671813410681,0.262816399271726,3
0.980010986328125,-0.464206576347351,2.862957239151,1.25468707084656,-0.221393324468958,2.87055701793193,1.27991010445463,1217.039,1353.187,3124.332,3131.36,-0.08314762,0.04364319,0.04627731,-0.615241944789886,-0.120576098561287,0.277362525463104,-0.438056556301695,-0.188483498293199,0.271177875878363,3
1,-0.476553618907928,2.86038279533386,1.26033127307892,-0.230284798736574,2.86673126495361,1.28541435058594,1208.441,1363.893,3123.663,3134.419,-0.08658256,0.04232904,0.0467682,-0.617350280284882,-0.128723695874214,0.282212138175964,-0.451584000205995,-0.194303979492187,0.279552008056641,3
1.02000427246094,-0.488948673009872,2.85763692855835,1.26607155799866,-0.239454009753966,2.86278600961093,1.2910905289958,1189.826,1372.289,3125.653,3147.282,-0.08996478,0.04090537,0.04761097,-0.619753420352936,-0.137290596961975,0.287012010812759,-0.465144357597929,-0.200138622445408,0.287946515251652,3
1.04000854492188,-0.501398503780365,2.85471248626709,1.27190411090851,-0.248894644448595,2.85872396824263,1.29693473159157,1179.236,1379.886,3123.007,3157.827,-0.0932117,0.0394057,0.04872965,-0.622491359710693,-0.146224305033684,0.291628837585449,-0.47871923339115,-0.205979512261105,0.296350010028666,3
1.06001281738281,-0.513910531997681,2.85160279273987,1.2778285741806,-0.258606913342529,2.85454505026695,1.30294708869644,1172.159,1387.744,3121.421,3164.857,-0.09629671,0.03785205,0.05007413,-0.625605940818787,-0.155481547117233,0.296224653720856,-0.492300656572427,-0.21182321923497,0.304757557950783,3
1.08000183105469,-0.526492834091187,2.84830260276794,1.28384470939636,-0.268583149539609,2.85025255453512,1.30912285413647,1161.871,1395.105,3120.714,3175.446,-0.09921287,0.03625894,0.0516237,-0.6291144490242,-0.165014311671257,0.300806969404221,-0.50587040849135,-0.217661904390701,0.313157880805523,3
1.10000610351563,-0.539153516292572,2.84480714797974,1.28995275497437,-0.278838480013141,2.84583997233313,1.31547139222872,1153.508,1401.499,3121.835,3183.881,-0.1019128,0.03465088,0.05333521,-0.633031606674194,-0.174777120351791,0.30540269613266,-0.519441457145546,-0.223501147495394,0.321559006401169,3
1.12001037597656,-0.551900506019592,2.84111285209656,1.29615116119385,-0.289365134970699,2.84131064678559,1.32198789310157,1154.664,1408.071,3118.884,3187.663,-0.1043863,0.03305461,0.05516123,-0.637353897094727,-0.184709161520004,0.309917479753494,-0.532995796775449,-0.22933320117373,0.329949788314817,3
1.13999938964844,-0.564742386341095,2.83721733093262,1.30244171619415,-0.300154365346813,2.83666834237095,1.3286669406667,1156.92,1414.001,3119.259,3189.159,-0.1066745,0.03147583,0.05710589,-0.642091274261475,-0.194770827889442,0.314527183771133,-0.546515580872639,-0.235150386571708,0.338319178707607,3
1.16000366210938,-0.577687203884125,2.83311891555786,1.30882680416107,-0.311222084148811,2.83190621216671,1.33551838583369,1150.377,1417.815,3123.938,3197.583,-0.1087912,0.0299103,0.05920331,-0.647242069244385,-0.204924777150154,0.319253414869308,-0.560014026276883,-0.240958390526247,0.34667535943296,3
1.18000793457031,-0.590743124485016,2.82881665229797,1.31530547142029,-0.322559451663168,2.82702805965467,1.34253675639879,1152.387,1420.619,3124.618,3202.696,-0.1107007,0.02838261,0.06140699,-0.652799487113953,-0.215116232633591,0.323936402797699,-0.573473482003304,-0.246749618311663,0.355007403690405,3
1.20001220703125,-0.603918671607971,2.82431054115295,1.32188010215759,-0.334165615614823,2.82203425154496,1.34972152476313,1156.804,1422.903,3127.217,3205.136,-0.1124168,0.02689934,0.06370487,-0.658775329589844,-0.225308761000633,0.328730314970016,-0.586886736182789,-0.252520966862155,0.363310846989412,3
1.22000122070313,-0.61722195148468,2.81960129737854,1.32855272293091,-0.346030421585499,2.81692915700008,1.35706640485806,1155.543,1423.87,3131.231,3213.461,-0.1139588,0.02545991,0.06610667,-0.66516375541687,-0.235462695360184,0.333630442619324,-0.600236516861372,-0.258265004538453,0.371574997167698,3
1.24000549316406,-0.630661249160767,2.81469035148621,1.33532559871674,-0.358170848086624,2.8117054706409,1.36458190719098,1154.172,1423.347,3137.008,3221.663,-0.1152845,0.02407811,0.06857834,-0.67196398973465,-0.245542332530022,0.338646411895752,-0.613536214864368,-0.263987493038594,0.379808143784027,2
1.260009765625,-0.644244372844696,2.8095805644989,1.34219884872437,-0.37057666480527,2.80636759428526,1.37226169871082,1161.821,1423.431,3137.267,3226.193,-0.1163844,0.0227779,0.07106016,-0.679156839847565,-0.255493700504303,0.343660771846771,-0.626768731761373,-0.26968107538565,0.387999702095469,2
1.27999877929688,-0.657979130744934,2.80427479743958,1.34917593002319,-0.383236695417198,2.80092033679326,1.3800988607405,1170.208,1423.355,3140.136,3228.605,-0.1173011,0.02156178,0.07353552,-0.686741590499878,-0.2652887403965,0.34885510802269,-0.639917282339435,-0.275338529371412,0.396139281255613,2
1.30000305175781,-0.671873092651367,2.79877662658691,1.35626125335693,-0.396168722856641,2.79535604666509,1.38810440176341,1169.607,1421.693,3147.724,3236.759,-0.1180489,0.02042366,0.0760214,-0.69469940662384,-0.274905622005463,0.35426864027977,-0.652995275331231,-0.280965624398954,0.404235181908735,2
1.32000732421875,-0.6859330534935,2.79309058189392,1.36345565319061,-0.409361504843077,2.78967956113998,1.39627136227237,1177.728,1420.112,3150.542,3240.653,-0.1186007,0.01938548,0.07846425,-0.702996253967285,-0.284302234649658,0.359718173742294,-0.6659860834168,-0.286555206197011,0.41227711095171,2
1.34001159667969,-0.700165450572968,2.78722143173218,1.37076258659363,-0.422813232584026,2.78389165849082,1.40459862253867,1188.897,1418.499,3154.986,3240.66,-0.1189858,0.01844965,0.08085311,-0.711622834205627,-0.293457418680191,0.365345269441605,-0.678883253871146,-0.292104498338286,0.420261073840379,2
1.36000061035156,-0.714576542377472,2.78117442131042,1.37818551063538,-0.436511415158101,2.77799771321212,1.41307845008695,1194.3,1415.849,3161.234,3245.593,-0.1192414,0.01760487,0.08321194,-0.720552384853363,-0.302350550889969,0.371148139238358,-0.691670720740693,-0.297606588091785,0.42817712498415,2
1.3800048828125,-0.729171812534332,2.77495503425598,1.38572800159454,-0.450474904562636,2.77198961381608,1.4217225152016,1197.931,1411.761,3169.598,3251.131,-0.1193421,0.01685382,0.08553004,-0.729765117168427,-0.310965865850449,0.377121984958649,-0.704361775018035,-0.303067194200314,0.436033492140578,2
1.40000915527344,-0.74395626783371,2.76856970787048,1.393390417099,-0.464691155755482,2.76587275808388,1.43052305190393,1209.917,1408.693,3171.647,3253.473,-0.1192878,0.016211,0.08776299,-0.739224851131439,-0.319267719984055,0.383119344711304,-0.716940488958393,-0.308479463400265,0.443820315276901,2
1.42001342773438,-0.758934795856476,2.76202464103699,1.4011766910553,-0.479157861067077,2.75964813894125,1.43947863163655,1221.693,1405.511,3176.217,3254.17,-0.1191269,0.01566991,0.08990553,-0.748924732208252,-0.32724791765213,0.389316320419312,-0.729400843645231,-0.313840805920001,0.451533868397062,2
1.44000244140625,-0.77411150932312,2.75532650947571,1.40909099578857,-0.493861275572861,2.75332167044526,1.4485807456364,1226.022,1401.329,3183.715,3259.844,-0.1188867,0.01521858,0.09197553,-0.758836507797241,-0.33490252494812,0.395713746547699,-0.741727567798258,-0.319144650954242,0.459164697851088,2
1.46000671386719,-0.789490163326263,2.74848198890686,1.41713643074036,-0.508821304757097,2.74688478782212,1.45784171634646,1229.206,1396.136,3193.06,3264.89,-0.1185208,0.01486131,0.09395618,-0.768932998180389,-0.342228144407272,0.40227273106575,-0.753933682518823,-0.324396601119133,0.466720864320996,2
1.48001098632813,-0.805073440074921,2.74149799346924,1.42531275749207,-0.524024159888143,2.74034342397783,1.467253007885,1242.661,1392.688,3194.654,3265.365,-0.1180276,0.01461398,0.09580248,-0.779168307781219,-0.34919661283493,0.408816576004028,-0.766004036374583,-0.329590137176618,0.474192988348404,2
1.5,-0.820864140987396,2.73438191413879,1.4336234331131,-0.539455198877605,2.73370387899399,1.4768055561018,1256.394,1389.322,3198.545,3263.727,-0.1174678,0.01446498,0.09751893,-0.789533376693726,-0.355807811021805,0.415534555912018,-0.777924000354858,-0.334718964672088,0.481572013878822,1
1.52000427246094,-0.836864113807678,2.72714042663574,1.44207286834717,-0.555135099954955,2.72695725560613,1.48651216180595,1258.26,1384.153,3208.03,3269.321,-0.1168664,0.01439191,0.09914741,-0.800001800060272,-0.362073421478271,0.422471135854721,-0.789706299681991,-0.339788558913217,0.48886581843107,1
1.54000854492188,-0.853074729442596,2.71978068351746,1.45066106319427,-0.571049184024557,2.72010986981902,1.49636373793799,1267.281,1379.957,3211.719,3271.521,-0.1161948,0.01440954,0.1006457,-0.810527265071869,-0.367983102798462,0.429408699274063,-0.801336412291853,-0.344792671461508,0.496065412155667,1
1.56001281738281,-0.869496703147888,2.71230983734131,1.4593905210495,-0.587194353912065,2.71316305426025,1.50635836719945,1278.908,1376.107,3216.615,3269.613,-0.1154736,0.0145133,0.1020073,-0.821098446846008,-0.373543560504913,0.436471939086914,-0.812809078412023,-0.349729039183831,0.50316753900293,1
1.58000183105469,-0.886130392551422,2.70473456382751,1.46826338768005,-0.60355483331529,2.70612359703193,1.51648628330776,1284.539,1371.682,3222.876,3272.242,-0.1147322,0.01468683,0.1032617,-0.831684470176697,-0.378762543201447,0.443645715713501,-0.824110582941666,-0.354591760855452,0.510163708672098,0
1.60000610351563,-0.902975618839264,2.69706153869629,1.47728168964386,-0.620152298932711,2.69898217125626,1.52676090517188,1287.913,1366.348,3230.912,3275.24,-0.1139412,0.01492628,0.1044077,-0.842262506484985,-0.3836510181427,0.450916528701782,-0.835253140422976,-0.35938609205264,0.51706148254665,0
1.62001037597656,-0.920031368732452,2.68929767608643,1.48644399642944,-0.636970945360177,2.69174557755711,1.53717244849371,1299.34,1362.98,3231.307,3275.274,-0.113106,0.01524215,0.1054094,-0.852790236473083,-0.388198107481003,0.458113342523575,-0.846223126656604,-0.364106170663034,0.523852426598179,0
1.63999938964844,-0.937296688556671,2.68144917488098,1.49575245380402,-0.653994195024907,2.68442094880091,1.54771065096602,1310.074,1359.705,3234.58,3273.214,-0.1122757,0.01562135,0.106271,-0.863265633583069,-0.392419576644897,0.46542501449585,-0.857007552155828,-0.368746407673381,0.530528499715628,0
1.66000366210938,-0.954770028591156,2.67352223396301,1.50521004199982,-0.671244443874359,2.67699864863716,1.55838937674714,1309.156,1354.776,3243.618,3277.536,-0.1114554,0.0160422,0.1070356,-0.873666346073151,-0.396341741085052,0.472882032394409,-0.867618167158098,-0.373311858882592,0.53709697585572,0
1.68000793457031,-0.972449004650116,2.66552305221558,1.51481473445892,-0.688705090349012,2.66948582025311,1.56919834868089,1316.275,1351.468,3245.345,3278.298,-0.1106117,0.01652054,0.1076633,-0.883944928646088,-0.399963915348053,0.480233490467072,-0.878042061913515,-0.377796969585941,0.543549863268291,0
1.70001220703125,-0.990330934524536,2.65745711326599,1.52456712722778,-0.706372354049449,2.66188409024902,1.58013522651994,1326.755,1348.732,3247.925,3274.373,-0.1097691,0.01705071,0.1081509,-0.894097566604614,-0.403300374746323,0.487619370222092,-0.888274735793774,-0.382199803288802,0.549884375850026,0
1.72000122070313,-1.00841283798218,2.649329662323,1.53446805477142,-0.724228658537036,2.6542010212754,1.5911891296115,1329.946,1345.389,3252.537,3275.612,-0.1089622,0.01761156,0.1085391,-0.904101192951202,-0.406369984149933,0.495044112205505,-0.898304216251578,-0.386515208538549,0.556093102023817,0
1.74000549316406,-1.02669167518616,2.64114570617676,1.54451787471771,-0.742297311768984,2.64642658456943,1.60237448669139,1329.753,1341.073,3259.381,3277.776,-0.1081552,0.01819867,0.1088349,-0.913939595222473,-0.40919429063797,0.502488553524017,-0.908141534469281,-0.390747931744771,0.562182870617028,0
1.760009765625,-1.04516315460205,2.63291025161743,1.55471301078796,-0.760560719141003,2.63856835059778,1.61368040586141,1338.044,1338.959,3257.921,3276.851,-0.1073424,0.01882335,0.1090039,-0.923575580120087,-0.411769926548004,0.509759247303009,-0.91777478390713,-0.394892849856044,0.568146310914365,0
1.77999877929688,-1.06382346153259,2.62462782859802,1.56505405902863,-0.779000609654483,2.63063418086074,1.62509557650306,1346.307,1337.068,3259.125,3273.292,-0.1065701,0.01947373,0.1090522,-0.933016657829285,-0.414116501808167,0.517051160335541,-0.927192788821983,-0.398945154262308,0.57397650459845,0
1.80000305175781,-1.08266854286194,2.61630249023438,1.5755420923233,-0.797640935141499,2.62261376955408,1.63663482594136,1342.25,1333.527,3266.15,3276.754,-0.1058415,0.02012685,0.109029,-0.942249596118927,-0.416264653205872,0.524400055408478,-0.936405971974637,-0.402909329586356,0.579679903854719,0
1.82000732421875,-1.10169315338135,2.60793805122375,1.58617317676544,-0.816463410111527,2.61451498441355,1.64828683458664,1346.111,1331.727,3265.637,3276.898,-0.1051203,0.02079961,0.1088957,-0.951235771179199,-0.41821876168251,0.531552493572235,-0.94540321420156,-0.406780591562751,0.585249625391268,0
1.84001159667969,-1.12089288234711,2.59953808784485,1.59694635868073,-0.835463677219795,2.60633970028288,1.66004890503489,1353.43,1330.531,3266.315,3271.943,-0.1044252,0.02148785,0.10865,-0.959981679916382,-0.419995993375778,0.538660407066345,-0.954180774018563,-0.410557330335375,0.590683353051152,0
1.86000061035156,-1.14026236534119,2.59110569953918,1.60786080360413,-0.854622615239374,2.59809614449182,1.6719092003358,1353.021,1328.747,3268.987,3272.641,-0.1037861,0.02217122,0.1083365,-0.968472003936768,-0.421616673469543,0.545721292495728,-0.962728579444532,-0.414235212212131,0.595974851798267,0
1.8800048828125,-1.15979635715485,2.58264374732971,1.61891508102417,-0.873964974649439,2.58977366760063,1.68388304221498,1349.669,1326.064,3273.707,3274.011,-0.1031602,0.02284762,0.1079619,-0.976699650287628,-0.423102557659149,0.552715122699738,-0.971056158224177,-0.417818336715394,0.601130019760457,0
1.90000915527344,-1.1794890165329,2.5741548538208,1.63010406494141,-0.893471623792247,2.58138050142717,1.69595858726494,1355.215,1325.642,3269.839,3272.24,-0.1025413,0.02353043,0.1074922,-0.984636008739471,-0.424449801445007,0.559448421001434,-0.979153483542501,-0.421302389586788,0.606142649861596,0
1.92001342773438,-1.19933485984802,2.56564140319824,1.64142668247223,-0.913137923350175,2.5729186421402,1.70813296352707,1360.609,1325.398,3269.046,3267.745,-0.101973,0.02420816,0.1069365,-0.992298543453217,-0.425676554441452,0.566133499145508,-0.987017247723777,-0.424685947625853,0.611010694492843,0
1.94000244140625,-1.21932852268219,2.55710530281067,1.65288197994232,-0.932943991899774,2.5643966441608,1.72039386345315,1356.097,1324.257,3271.728,3269.7,-0.1014755,0.02486171,0.1063386,-0.999677896499634,-0.426807969808578,0.572765350341797,-0.994638524886308,-0.427965170275055,0.615728628108227,0
1.96000671386719,-1.23946392536163,2.54854798316956,1.66446781158447,-0.952915303453826,2.55580354673295,1.73275705667061,1349.745,1322.313,3276.244,3271.185,-0.1009801,0.02549612,0.1056971,-1.00676834583282,-0.427865564823151,0.579289019107819,-1.00202586176059,-0.431143734953757,0.620301741541062,0
1.98001098632813,-1.25973463058472,2.53997111320496,1.67617762088776,-0.973031969359004,2.54714790738853,1.74521023115561,1354.796,1322.858,3270.99,3268.118,-0.1004704,0.026129,0.104974,-1.01354193687439,-0.428839415311813,0.585488796234131,-1.00917036754089,-0.434217816196637,0.624724530959079,0
2,-1.28013515472412,2.53137636184692,1.68800950050354,-0.993273599084619,2.53843849960327,1.7577407641983,1360.47,1323.669,3268.31,3262.283,-0.1000033,0.02674826,0.1041828,-1.02001965045929,-0.429740846157074,0.591594099998474,-1.01606400046349,-0.437183953857422,0.628992018127441,0
2.02000427246094,-1.3006591796875,2.5227644443512,1.69996273517609,-1.01366615605493,2.52966415204104,1.77036472839513,1351.622,1322.616,3272.143,3265.45,-0.0995937,0.02732891,0.1033839,-1.02620267868042,-0.430595636367798,0.597664296627045,-1.02271452148052,-0.440045487257004,0.633109007445237,0
2.04000854492188,-1.3213005065918,2.51413631439209,1.7120316028595,-1.03418924440916,2.52083364047092,1.78306949773667,1350.375,1322.913,3269.023,3265.5,-0.09919529,0.02789152,0.102536,-1.03206777572632,-0.431405246257782,0.603445291519165,-1.02911391720548,-0.442798968459032,0.637070538244476,0
2.06001281738281,-1.34205317497253,2.50549268722534,1.7242134809494,-1.05483781489696,2.5119491374443,1.79585194649644,1353.074,1323.747,3267.374,3259.896,-0.09881073,0.02843712,0.1016334,-1.03763318061829,-0.432180911302567,0.609091579914093,-1.03525963910674,-0.445443300901551,0.64087503286269,0
2.08000183105469,-1.36291098594666,2.49683403968811,1.73650527000427,-1.07559088172821,2.50301967256038,1.80869908347065,1348.628,1324.088,3267.197,3259.995,-0.09846399,0.02894991,0.1007197,-1.04289293289185,-0.432933270931244,0.614589869976044,-1.04114485287423,-0.447975543971863,0.644518260536375,0
2.10000610351563,-1.38386785984039,2.48816061019897,1.74890387058258,-1.09647498538954,2.49403382618922,1.82162733848484,1342.007,1323.511,3268.807,3260.591,-0.09810925,0.02943198,0.09979829,-1.04785144329071,-0.433673352003098,0.619929194450378,-1.04677621342161,-0.450398561093403,0.648004340974112,0
2.12001037597656,-1.40491783618927,2.47947287559509,1.76140248775482,-1.11746913671118,2.48500062938421,1.83462371824305,1344.587,1324.893,3262.077,3258.099,-0.09774067,0.02989887,0.09883391,-1.05249214172363,-0.434387892484665,0.624929070472717,-1.05214690704168,-0.452709420518306,0.651329056166548,0
2.13999938964844,-1.42605459690094,2.47077083587646,1.77399885654449,-1.138551967509,2.47592927627801,1.8476749948214,1346.711,1326.333,3258.968,3253.016,-0.09740192,0.03034171,0.09783588,-1.05684101581573,-0.435086220502853,0.629820585250854,-1.05725102347782,-0.454905579228273,0.654488747383304,0
2.16000366210938,-1.44727253913879,2.46205544471741,1.78669154644012,-1.15975039167652,2.46680818657414,1.86079782920208,1335.405,1326.112,3261.921,3256.082,-0.0970914,0.030742,0.09685738,-1.06090080738068,-0.435787439346313,0.634636700153351,-1.0620943502576,-0.456989527434725,0.657486997379635,0
2.18000793457031,-1.46856558322906,2.4533257484436,1.79947364330292,-1.18104303873349,2.45764655539322,1.87397899203979,1333.617,1327.178,3256.889,3255.424,-0.09675797,0.03112464,0.09585084,-1.0646505355835,-0.436482042074203,0.639104306697845,-1.06667099276523,-0.458958728849171,0.660320157107579,0
2.20001220703125,-1.48992800712585,2.44458222389221,1.81234192848206,-1.20242455577657,2.44844668594002,1.88721516963236,1336.636,1328.77,3253.616,3248.327,-0.09641335,0.03149102,0.09481079,-1.06811320781708,-0.437173157930374,0.643415451049805,-1.07097916161324,-0.460812413548163,0.662987118851036,0
2.22000122070313,-1.5113537311554,2.43582487106323,1.82529318332672,-1.22387315175433,2.43921795429519,1.90049287228091,1330.766,1329.691,3252.228,3248.587,-0.09609324,0.03182303,0.09378811,-1.07128548622131,-0.437864989042282,0.647564470767975,-1.07501419914593,-0.462548577472581,0.665484999299265,0
2.24000549316406,-1.53283715248108,2.42705368995667,1.83832406997681,-1.24541615591711,2.42994860144581,1.91382901809327,1322.624,1329.444,3253.069,3249.287,-0.0957465,0.03212504,0.09278247,-1.07417571544647,-0.43856355547905,0.651542723178864,-1.07878069424208,-0.464169195088763,0.667816639186824,0
2.260009765625,-1.55437254905701,2.41826868057251,1.85142731666565,-1.26703177594152,2.42064800401982,1.92721011658316,1324.196,1330.916,3245.687,3246.566,-0.09536034,0.03241556,0.09175414,-1.07677042484283,-0.439249694347382,0.655163109302521,-1.08227399942825,-0.465672266718726,0.669979161506271,0
2.27999877929688,-1.57595455646515,2.40947008132935,1.86460041999817,-1.28869796983554,2.41132564607061,1.9406225227075,1326.075,1332.488,3241.715,3240.795,-0.09497525,0.03268794,0.09071002,-1.07909548282623,-0.439925909042358,0.658657670021057,-1.08549040888332,-0.467056197851165,0.67197027217779,0
2.30000305175781,-1.59757769107819,2.40065813064575,1.87784159183502,-1.31044231452835,2.40196966201596,1.95408330789913,1314.382,1332.473,3243.438,3243.759,-0.09459655,0.03292467,0.08970271,-1.08115434646606,-0.440603375434875,0.662060141563416,-1.08843358680109,-0.468322565086307,0.673792239511894,0
2.32000732421875,-1.61923635005951,2.39183282852173,1.89114379882813,-1.33224276726637,2.39258953623693,1.96757882664355,1312.555,1333.378,3237.739,3242.587,-0.09417151,0.0331514,0.08868102,-1.08293056488037,-0.441267341375351,0.66511207818985,-1.09109983431736,-0.469469776906228,0.675442773735451,0
2.34001159667969,-1.64092516899109,2.38299441337585,1.90450382232666,-1.35409377777295,2.38318765686251,1.9811056430551,1315.232,1334.767,3233.818,3235.375,-0.09371451,0.03336979,0.08763883,-1.08444583415985,-0.441915959119797,0.668004035949707,-1.09348812118877,-0.470497390025984,0.676921237078733,0
2.36000061035156,-1.66263914108276,2.37414360046387,1.91791844367981,-1.37597305876702,2.37377361348711,1.99464996024512,1309.299,1335.5,3231.834,3235.248,-0.09325964,0.0335644,0.0866235,-1.08569765090942,-0.442548513412476,0.670734107494354,-1.09559602313537,-0.471404361345641,0.678226128796969,0
2.3800048828125,-1.68437314033508,2.36528015136719,1.93138420581818,-1.39790843013262,2.36433543599182,2.00822900004707,1301.086,1334.976,3232.041,3235.774,-0.0927579,0.03373997,0.08563301,-1.08669364452362,-0.443165987730026,0.673291265964508,-1.09742594550583,-0.472191725819537,0.679358937915576,0
2.40000915527344,-1.70612144470215,2.35640525817871,1.94489407539368,-1.41987760424917,2.35488271411715,2.02182896536211,1303.116,1335.91,3224.404,3232.316,-0.09219278,0.03391559,0.08462489,-1.0874217748642,-0.443745702505112,0.675495803356171,-1.09897546783438,-0.472858441988871,0.680318166050934,0
2.42001342773438,-1.72787976264954,2.34751963615417,1.95844554901123,-1.44187496577138,2.34541786398928,2.035446380024,1305.492,1336.986,3219.883,3226.087,-0.09161007,0.03408498,0.08360624,-1.08790469169617,-0.444285660982132,0.677573680877686,-1.1002439936861,-0.473404253224357,0.681103443981416,0
2.44000244140625,-1.74964261054993,2.33862352371216,1.97203600406647,-1.46387808506052,2.33595053645515,2.04906735901791,1297.635,1337.143,3218.567,3227.338,-0.0910343,0.03423405,0.08261769,-1.08814167976379,-0.444789230823517,0.679524421691895,-1.10123038958312,-0.473828671822132,0.681714070030222,0
2.46000671386719,-1.77140533924103,2.32971858978271,1.98566222190857,-1.48591492338117,2.32646870056377,2.06270921169857,1288.633,1336.135,3219.544,3227.726,-0.09039515,0.03437296,0.08164809,-1.08813798427582,-0.445258587598801,0.681312441825867,-1.10193578218388,-0.474132182551855,0.682150741652607,0
2.48001098632813,-1.79316282272339,2.320805311203,1.99931669235229,-1.5079630509786,2.31698200721197,2.07635805297935,1291.692,1336.694,3211.472,3223.445,-0.0896713,0.03452333,0.08065188,-1.08787679672241,-0.44566684961319,0.68272453546524,-1.10235904000526,-0.474314298567936,0.682412758406602,0
2.5,-1.81491029262543,2.31188488006592,2.01299691200256,-1.52999999932945,2.30750012397766,2.08999997377396,1296.396,1337.49,3206.317,3215.44,-0.08891549,0.03467779,0.07963779,-1.08737921714783,-0.446009039878845,0.684011042118073,-1.10250000050292,-0.474374949932098,0.682500019669533,0
2.52000427246094,-1.83664321899414,2.30295920372009,2.0267014503479,-1.55205376834272,2.29801100328223,2.10365230735988,1285.966,1336.727,3207.003,3217.742,-0.08815596,0.03481481,0.07866636,-1.0866471529007,-0.446290969848633,0.685225486755371,-1.10235882472314,-0.474314205938057,0.682412625136718,0
2.54000854492188,-1.85835647583008,2.29402923583984,2.04042387008667,-1.57410188948011,2.28852431271001,2.11730114464159,1284.252,1336.188,3201.361,3216.621,-0.08733943,0.03495852,0.07768489,-1.08566772937775,-0.446497678756714,0.686118125915527,-1.10193535162022,-0.474131997292339,0.682150475113189,0
2.56001281738281,-1.88004589080811,2.28509664535522,2.05416131019592,-1.59613871703568,2.27904248145054,2.13094299065815,1287.246,1336.145,3197.697,3208.968,-0.08647284,0.03511204,0.07668132,-1.08445930480957,-0.44662681221962,0.686873972415924,-1.10122974390336,-0.473828394004169,0.681713670323692,0
2.58000183105469,-1.90170609951019,2.27616310119629,2.06791090965271,-1.61814182127198,2.26957516039323,2.14456396033363,1282.106,1335.64,3195.376,3208.326,-0.08558654,0.03526198,0.07569838,-1.08301568031311,-0.446674525737762,0.687475025653839,-1.10024313330221,-0.473403883025206,0.681102911362804,0
2.60000610351563,-1.92333292961121,2.26723003387451,2.08166909217834,-1.64013916343638,2.26011031859448,2.15818136301212,1275.903,1333.946,3194.888,3207.528,-0.08463473,0.03541398,0.07472837,-1.0813422203064,-0.446638703346252,0.687913060188293,-1.09897439291323,-0.472857979480329,0.680317500623536,0
2.62001037597656,-1.94492149353027,2.25830030441284,2.09542942047119,-1.66210831390746,2.25065760689379,2.17178131368948,1279.567,1333.432,3187.017,3203.04,-0.08360887,0.03558458,0.07373112,-1.07942676544189,-0.446496933698654,0.688021957874298,-1.09742465646102,-0.47219117117957,0.679358139935436,0
2.63999938964844,-1.9664671421051,2.24937534332275,2.10918998718262,-1.68402693989188,2.24122663446822,2.18534998730279,1283.109,1333.105,3182.337,3196.133,-0.08255853,0.03576617,0.07271383,-1.07728624343872,-0.44624736905098,0.688028275966644,-1.09559602313537,-0.471404361345641,0.67822612879697,0
2.66000366210938,-1.98796558380127,2.24045729637146,2.12294936180115,-1.70592290617745,2.23180541187802,2.19890463348308,1273.12,1331.48,3183.164,3197.907,-0.08149645,0.03594245,0.07172491,-1.07492113113403,-0.445897191762924,0.687972545623779,-1.09348640563071,-0.470496651869278,0.67692017506657,0
2.68000793457031,-2.00941205024719,2.23154854774475,2.13670134544373,-1.72777388024004,2.22240354818443,2.21243142733407,1272.661,1330.053,3177.61,3195.576,-0.08036781,0.03613652,0.07071196,-1.07231712341309,-0.44543269276619,0.687602519989014,-1.09109790637238,-0.469468947365361,0.675441580245664,0
2.70001220703125,-2.03080153465271,2.22265148162842,2.15044331550598,-1.74957429229274,2.21302343991116,2.22592692089233,1277.268,1329.22,3173.453,3186.91,-0.0791859,0.0363508,0.06966563,-1.06948745250702,-0.444850564002991,0.687095403671265,-1.08843144721369,-0.468321644481621,0.673790915005369,0
2.72000122070313,-2.05212998390198,2.21376848220825,2.16417217254639,-1.77130202882336,2.20367460188472,2.23937742484041,1273.689,1327.996,3170.67,3185.291,-0.07799174,0.03656919,0.06863035,-1.06642556190491,-0.444148182868958,0.686448156833649,-1.08549040888332,-0.467056197851165,0.671970272177789,0
2.74000549316406,-2.07339286804199,2.20490169525146,2.17788529396057,-1.79298473688851,2.19434513834902,2.25280005402337,1267.83,1325.516,3170.201,3184.304,-0.07674644,0.03679496,0.06760226,-1.0631365776062,-0.44332692027092,0.685661137104034,-1.08227143928024,-0.465671165158559,0.669977576652695,0
2.760009765625,-2.09458494186401,2.19605445861816,2.19157648086548,-1.81460030360772,2.18504456385877,2.26618111951479,1271.369,1323.98,3162.902,3179.659,-0.07543457,0.03704398,0.06654059,-1.05960941314697,-0.442369818687439,0.684564709663391,-1.07877792518082,-0.464168003639063,0.667814925005998,0
2.77999877929688,-2.1157021522522,2.18722891807556,2.20524382591248,-1.83612684690458,2.17578229366013,2.27950707526701,1275.536,1322.795,3158.362,3172.043,-0.07409926,0.03730978,0.06545004,-1.05585694313049,-0.441276431083679,0.683368682861328,-1.07501419914593,-0.462548577472581,0.665484999299265,0
2.80000305175781,-2.13673973083496,2.17842769622803,2.21888589859009,-1.85759178470316,2.16654653058634,2.29279489428112,1266.727,1320.586,3158.622,3173.044,-0.07275703,0.03757589,0.06437828,-1.05187797546387,-0.44005411863327,0.682108104228973,-1.07097597819164,-0.460811043810786,0.662985148161422,0
2.82000732421875,-2.15769290924072,2.16965389251709,2.23249673843384,-1.87897323600723,2.1573466894188,2.30603103117811,1267.211,1318.393,3152.943,3169.979,-0.0713578,0.03786333,0.0632745,-1.04766094684601,-0.438693135976791,0.680547535419464,-1.06666760390385,-0.458957270716794,0.660318059240952,0
2.84001159667969,-2.1785569190979,2.1609103679657,2.24607396125793,-1.90026581322863,2.14818508828617,2.31921215078427,1272.14,1316.865,3148.749,3161.01,-0.0699181,0.03817248,0.06213123,-1.04321658611298,-0.43719294667244,0.678862810134888,-1.06209075728,-0.456987981476842,0.657484773155346,0
2.86000061035156,-2.19932794570923,2.15219926834106,2.25961494445801,-1.9214480311499,2.13907097167731,2.33232495272651,1268.764,1315.052,3145.903,3159.081,-0.06847786,0.038488,0.06099157,-1.03853833675385,-0.435554206371307,0.677047669887543,-1.05725102347782,-0.454905579228273,0.654488747383304,0
2.8800048828125,-2.22000026702881,2.14352369308472,2.27311706542969,-1.94254691640495,2.12999271078668,2.34538616777867,1263.337,1312.068,3145.387,3157.448,-0.06699661,0.03881272,0.05985114,-1.03363108634949,-0.433781445026398,0.675101578235626,-1.0521429102862,-0.45270770082608,0.651326581984514,0
2.90000915527344,-2.24057006835938,2.1348865032196,2.28657412528992,-1.96354098577478,2.12095954924324,2.35838249680481,1267.325,1309.918,3138.086,3152.194,-0.06545784,0.03916118,0.05867103,-1.02848434448242,-0.43186166882515,0.672850072383881,-1.04677201701582,-0.450396755497224,0.648001743199023,0
2.91999816894531,-2.26103234291077,2.1262903213501,2.29998421669006,-1.98440911693069,2.11198057539494,2.37130086407726,1272.078,1308.224,3133.509,3143.777,-0.06390575,0.03952615,0.0574576,-1.023108959198,-0.429796516895294,0.67050564289093,-1.04114485287423,-0.447975543971863,0.644518260536375,0
2.94000244140625,-2.28138208389282,2.11773872375488,2.31334614753723,-2.00517798053537,2.10304431360073,2.38415778000673,1263.759,1305.722,3133.258,3144.352,-0.06236111,0.0398904,0.05625993,-1.01750338077545,-0.4275943338871,0.668095469474792,-1.03525504859546,-0.445441325732794,0.640872191117535,0
2.96000671386719,-2.30161547660828,2.10923337936401,2.32665395736694,-2.02582645724542,2.09415985092405,2.3969401707136,1264.421,1303.026,3127.408,3141.059,-0.06077547,0.04027359,0.05502716,-1.01165997982025,-0.425250381231308,0.665393233299255,-1.02910913225408,-0.442796909628122,0.637067576131623,0
2.98001098632813,-2.32172727584839,2.10077810287476,2.33990573883057,-2.04634944795115,2.08532938136936,2.40964487960608,1269.24,1301.093,3123.553,3131.521,-0.05916106,0.04067552,0.05375293,-1.00558865070343,-0.422767579555511,0.662585556507111,-1.02270954399162,-0.440043345582586,0.633105926142498,0
3,-2.34171271324158,2.0923752784729,2.35309863090515,-2.06672639957428,2.07656174835205,2.42225918334961,1265.491,1299.012,3120.422,3129.706,-0.05755784,0.04108078,0.05248139,-0.999282240867615,-0.420148193836212,0.659639537334442,-1.01606400046349,-0.437183953857422,0.628992018127441,0
3.02000427246094,-2.36156797409058,2.08402729034424,2.36622977256775,-2.0869834279768,2.06784571494631,2.43479924890685,1261.177,1295.879,3119.196,3127.097,-0.05592372,0.04149375,0.05120246,-0.992746829986572,-0.417398303747177,0.656557142734528,-1.00916501115878,-0.434215511495054,0.624721215103391,0
3.04000854492188,-2.38128757476807,2.07573699951172,2.37929368019104,-2.10709998486405,2.05919012250926,2.44725235590455,1265.041,1293.486,3112.087,3121.375,-0.05424859,0.04192538,0.04988436,-0.985975325107574,-0.414510041475296,0.653191328048706,-1.00202031904361,-0.431141350077486,0.620298310335216,0
3.06001281738281,-2.40086698532104,2.06750726699829,2.39228844642639,-2.12707118369488,2.05059707358306,2.45961547934097,1269.318,1291.582,3107.527,3112.891,-0.05257293,0.04236837,0.04853553,-0.978975892066956,-0.411486595869064,0.649733662605286,-0.994632798067981,-0.427962706185117,0.615725082934876,0
3.08000183105469,-2.42030191421509,2.05934047698975,2.40521168708801,-2.14687713595163,2.04207512564123,2.47187630727625,1264.268,1289.339,3104.873,3111.761,-0.05092816,0.04280926,0.04719354,-0.971746325492859,-0.408335536718369,0.646167457103729,-0.987011339258122,-0.424683405378145,0.611007036871143,0
3.10000610351563,-2.43958759307861,2.05123901367188,2.41806101799011,-2.16654331551667,2.03361331798384,2.48405060925705,1258.38,1286.177,3104.124,3109.814,-0.04925996,0.04325425,0.0458453,-0.964293301105499,-0.405065774917603,0.64247077703476,-0.979147395688901,-0.421299770153459,0.606138881190213,0
3.12001037597656,-2.45871996879578,2.04320573806763,2.43083047866821,-2.18604984110275,2.02522020497339,2.49612607781951,1262.375,1283.738,3097.063,3103.478,-0.04754435,0.04371675,0.04445383,-0.956610262393951,-0.401670753955841,0.638478994369507,-0.971049893464309,-0.41781564116424,0.601126141575667,0
3.13999938964844,-2.47769403457642,2.03524279594421,2.44351816177368,-2.20537738341953,2.01690410346351,2.50809074721212,1267.654,1281.969,3091.945,3094.083,-0.04582714,0.04418936,0.04302964,-0.948703110218048,-0.398151963949203,0.634384274482727,-0.962728579444533,-0.414235212212131,0.595974851798267,0
3.16000366210938,-2.49650526046753,2.02735233306885,2.45612263679504,-2.22455088103183,2.00865428308644,2.51996005559448,1260.468,1279.69,3090.499,3093.596,-0.04413977,0.04465473,0.04162315,-0.940571963787079,-0.394517987966537,0.630219757556915,-0.954174163352092,-0.410554485950274,0.590679260733698,0
3.18000793457031,-2.51514959335327,2.0195369720459,2.46863865852356,-2.24355101420387,2.00047905658478,2.53172204312984,1260.513,1276.835,3084.958,3089.949,-0.04243907,0.04512772,0.04019217,-0.932217419147491,-0.390771061182022,0.62579619884491,-0.945396434568188,-0.406777674475913,0.585245428475253,0
3.20001220703125,-2.53362274169922,2.011798620224,2.48106408119202,-2.26237335188561,1.99238033051557,2.54337396678712,1263.888,1274.791,3080.948,3081.163,-0.04073145,0.0456081,0.03873106,-0.923647582530975,-0.386916011571884,0.621265530586243,-0.93639902618694,-0.402906341007952,0.579675604081262,0
3.22000122070313,-2.55191969871521,2.00413942337036,2.49339604377747,-2.28099938900442,1.98436606709459,2.55490437104486,1260.113,1272.798,3077.57,3078.633,-0.03904673,0.04608409,0.03727646,-0.914860188961029,-0.382957637310028,0.616603195667267,-0.927192788821982,-0.398945154262308,0.573976504598449,0
3.24000549316406,-2.57003688812256,1.99656140804291,2.50563216209412,-2.29945328359428,1.9764258717947,2.56632821087688,1255.922,1269.982,3075.526,3075.621,-0.03734817,0.04655902,0.03582047,-0.90586245059967,-0.378902643918991,0.61180180311203,-0.91776751470058,-0.394889722119544,0.568141810929231,0
3.260009765625,-2.58797025680542,1.98906636238098,2.51776695251465,-2.31771654397337,1.96856770107001,2.57763403905129,1259.406,1267.629,3068.412,3069.552,-0.03562564,0.04704227,0.03433418,-0.896653056144714,-0.374747514724731,0.606736361980438,-0.908134108040216,-0.390744736359816,0.562178273303667,0
3.27999877929688,-2.60571479797363,1.98165655136108,2.52979874610901,-2.33577134012187,1.96079922667992,2.58881081793642,1262.904,1265.918,3063.722,3061.097,-0.03391749,0.04752674,0.03282816,-0.887238323688507,-0.370495945215225,0.601588487625122,-0.898304216251578,-0.386515208538549,0.556093102023818,0
3.30000305175781,-2.62326717376709,1.97433340549469,2.54172611236572,-2.35364119854729,1.95311032582551,2.59987311156116,1255.075,1263.895,3061.936,3060.936,-0.03224502,0.04799905,0.03134457,-0.877620160579681,-0.366156667470932,0.596363663673401,-0.888267004546666,-0.382196476749158,0.549879589839776,0
3.32000732421875,-2.64062333106995,1.96709871292114,2.55354404449463,-2.37130830610839,1.94550866300381,2.61080989274252,1255.166,1261.227,3056.408,3056.767,-0.03055977,0.04847439,0.02983963,-0.867803335189819,-0.361733287572861,0.590891301631927,-0.878034183119985,-0.377793579561194,0.543544985919778,0
3.34001159667969,-2.65777921676636,1.95995426177979,2.56525039672852,-2.38876879352593,1.93799590305759,2.62161876621234,1258.516,1259.5,3052.138,3047.741,-0.02887186,0.04895189,0.02831151,-0.857793867588043,-0.357229292392731,0.585316061973572,-0.867610144209785,-0.373308406832067,0.537092009268528,0
3.36000061035156,-2.67473125457764,1.95290112495422,2.57684254646301,-2.406005803634,1.93057929915441,2.6322892965819,1254.948,1257.851,3048.243,3045.063,-0.02721538,0.04942012,0.02679712,-0.84759110212326,-0.352648794651031,0.579612791538239,-0.857007552155826,-0.36874640767338,0.530528499715627,0
3.3800048828125,-2.69147539138794,1.9459410905838,2.58831834793091,-2.42304196557559,1.92324911460621,2.64283549236868,1250.776,1255.398,3045.957,3041.897,-0.02555676,0.04988188,0.02528995,-0.837204456329346,-0.347998708486557,0.573788166046143,-0.846214826007803,-0.364102599125748,0.523847288101157,0
3.40000915527344,-2.7080078125,1.93907594680786,2.59967279434204,-2.43986044461333,1.91601259293018,2.6532469320683,1253.194,1253.22,3039.239,3036.299,-0.02388536,0.05034513,0.02376501,-0.826635956764221,-0.343278050422668,0.567722678184509,-0.835244706287931,-0.359382463079953,0.517056261415284,0
3.41999816894531,-2.72432565689087,1.93230605125427,2.61090421676636,-2.45644516534361,1.90887665092339,2.66351366424015,1256.217,1251.703,3034.495,3028.121,-0.02223207,0.05080478,0.02222956,-0.815891325473785,-0.338489562273026,0.561576664447784,-0.824110582941664,-0.354591760855451,0.510163708672097,0
3.44000244140625,-2.74042510986328,1.92563307285309,2.62201142311096,-2.47281804716281,1.90183185728196,2.67364925803476,1248.743,1250.093,3032.457,3027.514,-0.02061766,0.0512486,0.02072406,-0.804974317550659,-0.333640605211258,0.555365324020386,-0.812800388649434,-0.349725300221754,0.503162159625937,0
3.46000671386719,-2.75630331039429,1.91905856132507,2.63298988342285,-2.4889630419904,1.89488511704659,2.68364377892579,1248.299,1247.648,3026.964,3023.758,-0.01899739,0.05169013,0.01920929,-0.793892860412598,-0.328735321760178,0.548922479152679,-0.801327600455845,-0.344788879974649,0.496059957209413,0
3.48001098632813,-2.77195644378662,1.91258251667023,2.64383769035339,-2.50487694859767,1.88803780761656,2.69349524520019,1251.417,1246.128,3022.564,3015.055,-0.01737872,0.05212937,0.01768041,-0.782652854919434,-0.323776125907898,0.542387723922729,-0.789697369743255,-0.339784716610052,0.488860290373601,0
3.5,-2.78738164901733,1.90620732307434,2.65455269813538,-2.5205447997813,1.88129636896134,2.70319439144611,1247.865,1244.839,3018.725,3012.193,-0.01579468,0.05255607,0.01617367,-0.771255493164063,-0.318766474723816,0.535748183727264,-0.777924000354857,-0.334718964672089,0.481572013878822,0
3.52000427246094,-2.80257558822632,1.8999330997467,2.66513252258301,-2.53598752699493,1.87465179486116,2.71275417523047,1243.522,1242.736,3015.871,3009.708,-0.01421755,0.05297283,0.0146825,-0.759710729122162,-0.313712120056152,0.528989672660828,-0.765994882555673,-0.32958619854407,0.474187321698442,0
3.54000854492188,-2.81753635406494,1.89376091957092,2.67557311058044,-2.55119019794619,1.86811051026429,2.72216535275294,1245.993,1240.781,3009.724,3003.661,-0.01263191,0.05338762,0.01318092,-0.748024106025696,-0.308613568544388,0.522031545639038,-0.753924423002452,-0.324392617007921,0.466715132239272,0
3.56001281738281,-2.83226037025452,1.88769161701202,2.68587327003479,-2.56615004087912,1.86167370777988,2.73142620816457,1247.735,1239.582,3005.299,2996.47,-0.01106916,0.05379478,0.01168261,-0.73619943857193,-0.303472578525543,0.515008926391602,-0.741718206886018,-0.31914062321522,0.45915890300049,0
3.58000183105469,-2.84674501419067,1.88172554969788,2.69603109359741,-2.58085326729328,1.85534732021446,2.74052820572674,1243.074,1238.23,3001.7,2994.828,-0.009551161,0.05418679,0.01021339,-0.72424191236496,-0.298294425010681,0.507894396781921,-0.729391385793765,-0.313836736470737,0.451528013536464,0
3.60000610351563,-2.86098861694336,1.87586379051208,2.70604491233826,-2.59531978247425,1.84912278287974,2.74948366775945,1238.689,1236.292,2999.404,2991.957,-0.008038485,0.05456824,0.008761309,-0.712163031101227,-0.293085545301437,0.500685572624207,-0.716930938559024,-0.308475354130224,0.443814403124743,0
3.62001037597656,-2.87498784065247,1.87010705471039,2.7159104347229,-2.60953584173048,1.8430060097325,2.75828408564387,1240.276,1234.504,2993.425,2986.736,-0.00651569,0.05494665,0.007304927,-0.699968218803406,-0.287846177816391,0.4932801425457,-0.704352136620513,-0.303063047067126,0.436027525513372,0
3.63999938964844,-2.88874101638794,1.86445546150208,2.72562670707703,-2.6234885835008,1.83700253474321,2.76692149746096,1243.295,1233.365,2988.808,2978.764,-0.005009406,0.05531856,0.005851037,-0.687660574913025,-0.282576501369476,0.485810846090317,-0.691670720740692,-0.297606588091786,0.428177124984152,0
3.66000366210938,-2.90224599838257,1.85890972614288,2.73519253730774,-2.63719712493647,1.83110413233575,2.77540773763803,1237.401,1232.296,2985.996,2977.727,-0.003546798,0.05567338,0.00443679,-0.675244867801666,-0.277280509471893,0.478291004896164,-0.678873453515702,-0.29210028151913,0.420255006953505,0
3.68000793457031,-2.9155011177063,1.85347044467926,2.74460458755493,-2.65064865588166,1.82531631436231,2.78373487607838,1236.751,1230.229,2981.119,2974.288,-0.002093777,0.05602093,0.003031464,-0.66273295879364,-0.271963030099869,0.470604509115219,-0.665976209205203,-0.286550957599616,0.412270998344358,0
3.70001220703125,-2.92850351333618,1.84813785552979,2.75386190414429,-2.66384123964357,1.81963991412768,2.79190171387692,1238.395,1228.998,2977.315,2967.173,-0.0006540724,0.05636123,0.001632255,-0.650130450725555,-0.266626000404358,0.46286329627037,-0.65298533214413,-0.280961346123326,0.404229026602262,0
3.72000122070313,-2.9412522315979,1.8429126739502,2.76296281814575,-2.6767633032417,1.81407991116207,2.79990108680742,1234.993,1227.973,2973.539,2964.871,0.0007492008,0.05668778,0.0002650534,-0.63744181394577,-0.261272072792053,0.455041289329529,-0.639917282339434,-0.275338529371411,0.396139281255611,0
3.74000549316406,-2.95374584197998,1.83779454231262,2.77190566062927,-2.6894328975087,1.80862853869646,2.80774416919516,1231.853,1226.334,2970.694,2961.948,0.002140386,0.05700355,-0.00107858,-0.624677419662476,-0.255905449390411,0.447141200304031,-0.626758665639204,-0.269676744214497,0.387993470686332,0
3.760009765625,-2.96598243713379,1.8327841758728,2.78068780899048,-2.70183851231475,1.80329074921818,2.81542383572149,1233.379,1224.755,2965.449,2956.88,0.003528422,0.05731364,-0.002414422,-0.611844420433044,-0.250527083873749,0.43910163640976,-0.613526094901139,-0.263983138701136,0.379801879044709,0
3.77999877929688,-2.97796154022217,1.82788133621216,2.78930830955505,-2.7139695770734,1.79807109095524,2.82293354268985,1234.868,1223.745,2961.368,2950.66,0.004889583,0.05761439,-0.003733219,-0.598946213722229,-0.245137557387352,0.431022763252258,-0.60023651686137,-0.258265004538452,0.371574997167698,0
3.80000305175781,-2.98968124389648,1.82308650016785,2.79776644706726,-2.72584333814708,1.79296214327972,2.83028396642013,1229.679,1222.753,2958.704,2949.621,0.006208041,0.05789939,-0.005010471,-0.585989475250244,-0.239740416407585,0.422910332679749,-0.586876524285838,-0.252516572968186,0.363304525338741,0
3.82000732421875,-3.001140832901,1.81839966773987,2.80605983734131,-2.73744929742843,1.78796842323393,2.8374686080838,1229.389,1220.927,2954.264,2946.201,0.007514094,0.0581767,-0.006272277,-0.572986602783203,-0.234340161085129,0.414669752120972,-0.573463232144022,-0.246745208083563,0.355001058539243,0
3.84001159667969,-3.01233959197998,1.81382083892822,2.81418776512146,-2.74878645956754,1.78309035908911,2.84448685151184,1231.026,1219.891,2950.734,2939.69,0.008800982,0.05844611,-0.007519701,-0.559941947460175,-0.228937909007072,0.406400293111801,-0.560003743914976,-0.240953966313175,0.346668994161123,0
3.86000061035156,-3.02327704429626,1.8093501329422,2.8221492767334,-2.75984563331209,1.77833190558438,2.85133300688122,1227.965,1219.014,2947.223,2937.758,0.01004632,0.05870175,-0.008728777,-0.546860933303833,-0.223535940051079,0.398079127073288,-0.546515580872635,-0.235150386571708,0.338319178707605,0
3.8800048828125,-3.03395223617554,1.8049875497818,2.82994341850281,-2.77064299647982,1.77368610185671,2.85801708903178,1225.44,1217.565,2944.598,2935.004,0.01127168,0.05894658,-0.009908557,-0.533754289150238,-0.218138173222542,0.389711320400238,-0.532985466132484,-0.229328756186666,0.329943393154704,0
3.90000915527344,-3.04436492919922,1.80073225498199,2.83756828308105,-2.78116944461445,1.76915686529929,2.86453346187138,1226.631,1216.16,2939.992,2930.679,0.0124835,0.05918453,-0.01107183,-0.520629823207855,-0.212746396660805,0.38124617934227,-0.519431110871129,-0.223496695782554,0.321552601564443,0
3.91999816894531,-3.05451464653015,1.79658532142639,2.84502387046814,-2.79141684911929,1.7647476934202,2.87087709341145,1227.871,1215.285,2936.641,2925.033,0.01366356,0.05941274,-0.01221006,-0.507491052150726,-0.207361221313477,0.372775673866272,-0.505870408491346,-0.2176619043907,0.313157880805522,0
