t,x_s1,x_s2,x_s3,x_s_d1,x_s_d2,x_s_d3,propellers_rpms1,propellers_rpms2,propellers_rpms3,propellers_rpms4,rollRad,pitchRad,yawRad,v_s1,v_s2,v_s3,v_s_d1,v_s_d2,v_s_d3,insideCount
0,-0.0599999986588955,2.94000005722046,1.17999994754791,-0.0599999986588955,2.94000005722046,1.17999994754791,0,0,0,0,0,0,0,0,0,0,-1.06581410364015E-15,4.44089209850063E-16,4.44089209850063E-16,0
0.019989013671875,-0.0599999986588955,2.94000005722046,1.17811644077301,-0.0600018659130177,2.93999925379318,1.18000110346716,0,0,0,0,-0.01635288,0.0001297794,-0.01587137,-1.10653664009419E-09,-7.76775763711157E-08,-0.0941759571433067,-0.000279680311988734,-0.000120338624884473,0.000173135436141649,5
0.03997802734375,-0.0599999986588955,2.94000005722046,1.17242503166199,-0.060014847005691,2.93999366839165,1.1800091393819,0,0,0,0,-0.03270202,0.0005238493,-0.03175127,-1.08383135799528E-09,-7.60859677484405E-08,-0.284568399190903,-0.00110975851463131,-0.000477498085781228,0.000686993385685745,5
0.05999755859375,-0.0599058829247952,2.93990302085876,1.16596508026123,-0.0600498857373401,2.93997859220429,1.18003083002592,1868.072,3252.779,3183.935,1722.446,-0.04942134,0.0003294809,-0.01369504,0.00470571499317884,-0.00484924810007215,-0.322995662689209,-0.00247936261166862,-0.00106680046642749,0.00153484356504269,5
0.079986572265625,-0.059820368885994,2.93960738182068,1.16000294685364,-0.0601174907153006,2.93994950367094,1.18007268072775,1925.918,2314.482,3251.728,2829.28,-0.07543351,-0.002135855,0.02094678,0.00427568424493074,-0.0147781055420637,-0.298104643821716,-0.00437104534358026,-0.00188073869847162,0.00270588528944111,5
0.100006103515625,-0.0599374547600746,2.93904495239258,1.15498650074005,-0.0602282404704493,2.93990185114529,1.18014124010193,979.7985,1498.691,3915.455,3896.663,-0.1031986,-0.008062987,0.06330869,-0.00585421733558178,-0.0281175076961517,-0.250819474458694,-0.00677739276378709,-0.00291612276782231,0.00419552897277328,4
0.1199951171875,-0.0604638494551182,2.93818354606628,1.15081298351288,-0.0603918861403606,2.93983143898525,1.18024254456713,346.6299,980.6221,4172.464,4613.28,-0.1214375,-0.01542077,0.1040028,-0.0263197626918554,-0.0430691987276077,-0.208673521876335,-0.00967801353495435,-0.00416417885169243,0.00599115140585487,4
0.139984130859375,-0.0615636482834816,2.93704128265381,1.14728271961212,-0.0606183773949454,2.93973398612584,1.18038275344299,352.5295,746.7971,3975.945,4855.057,-0.1254056,-0.02116787,0.1351094,-0.0549899414181709,-0.0571163892745972,-0.176513165235519,-0.0130632593357409,-0.00562075554695178,0.00808677981816243,4
0.160003662109375,-0.063340924680233,2.93568086624146,1.14427483081818,-0.0609177895434042,2.93960515744296,1.18056810382587,820.6669,814.7557,3463,4692.541,-0.1184579,-0.02352583,0.1522754,-0.088863842189312,-0.0680182278156281,-0.150395065546036,-0.0169265510445065,-0.00728302204135792,0.0104783414199936,3
0.17999267578125,-0.0658469572663307,2.9341721534729,1.14182484149933,-0.0612985250199726,2.93944133760391,1.18080379722281,1349.299,1083.856,3005.553,4255.33,-0.10798,-0.02277961,0.1557806,-0.125301629304886,-0.0754315257072449,-0.122497670352459,-0.0212433804254414,-0.00914043312572283,0.0131506644458931,3
0.199981689453125,-0.0690850988030434,2.93255376815796,1.14006114006042,-0.0617700327574899,2.93923846099686,1.18109568297336,1636.312,1380.881,2918.967,3666.33,-0.09982753,-0.02030128,0.1501564,-0.161907136440277,-0.0809159576892853,-0.0881865322589874,-0.0260066742439309,-0.011189945384795,0.0160993702266893,3
0.220001220703125,-0.0730105116963387,2.93082594871521,1.13903534412384,-0.0623420644491781,2.93899233174064,1.18144979784016,1640.921,1580.441,3148.84,3113.174,-0.09583438,-0.01735582,0.1421885,-0.196270883083344,-0.0863879323005676,-0.0512873753905296,-0.03121219533433,-0.0134297356845702,0.019321835755004,3
0.239990234375,-0.0775502473115921,2.92897343635559,1.13863265514374,-0.0630214373585105,2.93870001655724,1.18187036203406,1524.862,1624.884,3416.541,2777.244,-0.09475368,-0.01467668,0.1377291,-0.226986914873123,-0.0926246792078018,-0.0201373677700758,-0.0368316683029241,-0.015847637913056,0.022800557215184,3
0.259979248046875,-0.0826391950249672,2.92699217796326,1.13863515853882,-0.0638172488896441,2.93835760108779,1.18236300728159,1438.839,1500.646,3533.858,2744.003,-0.09438989,-0.0125877,0.1392978,-0.254447460174561,-0.0990581139922142,0.000125590711832047,-0.0428604193878216,-0.0184416410810803,0.0265326413259761,3
0.279998779296875,-0.0882451087236404,2.9249005317688,1.13885200023651,-0.0647390625194898,2.93796097043536,1.18293365383054,1399.838,1275.609,3477.447,2977.842,-0.09320638,-0.01110645,0.1456835,-0.280295819044113,-0.104586124420166,0.0108413370326161,-0.0492963837173861,-0.0212108567320638,0.030516809833474,3
0.29998779296875,-0.0943708121776581,2.92273235321045,1.13920640945435,-0.0657918945890516,2.93750796620855,1.18358540703494,1351.518,1062.208,3343.653,3324.714,-0.0905299,-0.009933591,0.1533076,-0.306285113096237,-0.108406409621239,0.017721202224493,-0.0561078595514081,-0.0241416444928383,0.0347334378503248,3
0.319976806640625,-0.101036131381989,2.92052555084229,1.13972461223602,-0.0669846297797139,2.93699476557717,1.18432376693582,1280.818,940.8741,3238.135,3590.381,-0.08597909,-0.008522648,0.1583576,-0.333265990018845,-0.110341534018517,0.0259097516536713,-0.0632924014512957,-0.0272329521594955,0.0391810115335476,3
0.339996337890625,-0.108251735568047,2.91831183433533,1.14046144485474,-0.068326768706371,2.93641728069206,1.18515461486636,1252.113,943.5872,3172.135,3650.25,-0.07944103,-0.00629305,0.1584792,-0.360780209302902,-0.110680669546127,0.0368412062525749,-0.0708499516420146,-0.0304847548730522,0.0438594951176439,4
0.3599853515625,-0.116003185510635,2.91611480712891,1.14145195484161,-0.0698213312158394,2.93577421219747,1.18607982025561,1320.743,1047.96,3118.947,3498.021,-0.07154316,-0.002961435,0.1534714,-0.38757261633873,-0.109857104718685,0.049528244882822,-0.0787457139191101,-0.0338820807988248,0.0487473480944833,4
0.3800048828125,-0.124251529574394,2.91394972801208,1.142706990242,-0.0714797725314022,2.93506063123087,1.18710647443246,1455.414,1181.476,3091.317,3231.012,-0.06361333,0.001260204,0.1450349,-0.412417352199554,-0.108254060149193,0.0627528354525566,-0.0869921272359981,-0.0374302820709642,0.0538522707687797,4
0.399993896484375,-0.132943257689476,2.91182637214661,1.1442164182663,-0.0733036822025899,2.9342758538535,1.18823556140379,1579.654,1273.865,3104.295,2981.936,-0.0570252,0.005827202,0.1357433,-0.434586644172668,-0.106162548065186,0.075472354888916,-0.0955525119207663,-0.0411135764513579,0.0591515566763244,4
0.41998291015625,-0.142023637890816,2.90975022315979,1.14595746994019,-0.075301871434707,2.93341608884986,1.18947253572543,1630.567,1288.31,3160.305,2844.494,-0.05244723,0.01017536,0.1278559,-0.4540194272995,-0.103801913559437,0.0870511904358864,-0.104427768518458,-0.0449323514193797,0.064645763297398,4
0.44000244140625,-0.151446044445038,2.90772438049316,1.14789545536041,-0.077483988232608,2.93247718495301,1.19082336997196,1605.687,1237.553,3220.328,2843.604,-0.04965198,0.01397354,0.1224686,-0.471120417118073,-0.10129339993,0.0969015508890152,-0.113620829717891,-0.048887868829098,0.0703367061060819,4
0.459991455078125,-0.16117662191391,2.90575170516968,1.1499959230423,-0.0798493430620752,2.93145943885026,1.19228763728888,1543.725,1158.997,3250.182,2937.794,-0.04787724,0.01718885,0.1193405,-0.486528873443604,-0.0986391827464104,0.105021253228188,-0.123092454730403,-0.0529632444654124,0.0762000931848968,4
0.47998046875,-0.171193420886993,2.90383625030518,1.15223813056946,-0.082406855753501,2.93035901258777,1.1938708594761,1474.673,1086.057,3248.801,3066.448,-0.04628893,0.01998879,0.1173761,-0.500840485095978,-0.0957747995853424,0.112111166119576,-0.132845337826091,-0.057159637597476,0.0822375924153778,5
0.5,-0.181480869650841,2.90198349952698,1.15461528301239,-0.085166398670376,2.92917165836334,1.1955791479969,1429.278,1045.56,3218.077,3171.116,-0.04433364,0.02264131,0.1152295,-0.514372587203979,-0.0926374569535255,0.118855774402618,-0.142884000065179,-0.0614789935111996,0.0884520025491718,5
0.519989013671875,-0.192023977637291,2.9001989364624,1.15713369846344,-0.0881248588203387,2.92789871561062,1.19741057576073,1425.077,1045.771,3175.468,3210.024,-0.04191443,0.02538087,0.111882,-0.527155637741089,-0.0892251878976822,0.125919744372368,-0.153166947611899,-0.0659034585682559,0.0948176369253132,5
0.53997802734375,-0.202804237604141,2.89848613739014,1.15980923175812,-0.0912913676125048,2.92653625533937,1.19937079554481,1446.202,1073.464,3149.552,3183.33,-0.03929068,0.02829172,0.1070421,-0.539013564586639,-0.0856354758143425,0.133775159716606,-0.16369851368286,-0.0704348972306956,0.101337178011302,5
0.55999755859375,-0.213797494769096,2.89684557914734,1.16265261173248,-0.094676112580471,2.92507989413848,1.20146611391775,1482.022,1113.261,3139.997,3115.506,-0.03687945,0.03132715,0.1010608,-0.549662590026855,-0.0820297598838806,0.14216773211956,-0.17448465888317,-0.0750758741803766,0.108014315705644,5
0.579986572265625,-0.224975615739822,2.89527416229248,1.16566681861877,-0.0982734311149,2.92353206847056,1.2036930254546,1523.42,1149.451,3143.427,3034.225,-0.03511751,0.03434944,0.09464791,-0.558906376361847,-0.0785726383328438,0.150712683796883,-0.185481935470438,-0.0798076950675377,0.114822153786096,5
0.600006103515625,-0.236310184001923,2.89376592636108,1.1688506603241,-0.102098762959148,2.92188613504538,1.20606108809202,1540.972,1167.015,3164.233,2978.094,-0.03429033,0.03716372,0.08861029,-0.566729426383972,-0.0754129663109779,0.159193232655525,-0.196713446836865,-0.0846403006364086,0.121774994352997,5
0.6199951171875,-0.247775375843048,2.89231276512146,1.17219352722168,-0.106144683970236,2.92014528826426,1.20856570593183,1534.288,1167.298,3181.489,2965.236,-0.03443467,0.03963223,0.08345621,-0.573257982730865,-0.0726599022746086,0.167140513658524,-0.208134604141382,-0.0895545055543457,0.128845234789665,5
0.639984130859375,-0.259350538253784,2.89090514183044,1.17568671703339,-0.110420882305709,2.91830535958365,1.21121287640506,1505.738,1156.215,3196.507,2986.448,-0.03536199,0.04169669,0.0792985,-0.578759551048279,-0.0703780353069305,0.174660131335258,-0.219752140575416,-0.0945532069255159,0.136037043262338,5
0.660003662109375,-0.271020263433456,2.88953328132629,1.17932045459747,-0.114938248900541,2.91636166293851,1.21400934151928,1464.179,1143.747,3198.796,3033.025,-0.03678198,0.04338121,0.07591855,-0.583486199378967,-0.0685980096459389,0.181689515709877,-0.231574097577923,-0.0996398647564507,0.143355397804799,5
0.67999267578125,-0.282773107290268,2.88818669319153,1.1830883026123,-0.119686638739014,2.91431856344567,1.21694882102647,1433.341,1140.214,3187.417,3073.625,-0.03843101,0.04478033,0.07288029,-0.587642431259155,-0.0673249214887619,0.188394129276276,-0.243554411173546,-0.104794659005432,0.150771782621969,5
0.699981689453125,-0.294600069522858,2.88685536384583,1.18699133396149,-0.124676182095571,2.91217170233105,1.22003758604909,1405.243,1146.37,3178.101,3100.63,-0.04016633,0.04596935,0.06985404,-0.591347754001617,-0.0665714889764786,0.195149496197701,-0.25570106256044,-0.110021023759057,0.158291138455704,5
0.720001220703125,-0.306492328643799,2.88552832603455,1.19102811813354,-0.129918284978346,2.90991617190799,1.22328269744952,1389.2,1162.249,3165.027,3110.128,-0.04193626,0.04701636,0.0666417,-0.594611942768097,-0.0663578286767006,0.20183914899826,-0.268023157655716,-0.11532287703907,0.16591910230247,5
0.739990234375,-0.318440675735474,2.88419413566589,1.19519793987274,-0.135400001298574,2.90755754251682,1.2266761409821,1395.293,1185.529,3151.191,3092.846,-0.04382391,0.04795506,0.0632111,-0.597416877746582,-0.0667058601975441,0.208491384983063,-0.280473432677602,-0.12067988256057,0.173626415629864,5
0.759979248046875,-0.330435752868652,2.88284087181091,1.19950377941132,-0.141131974150567,2.90509123473139,1.23022450522921,1393.167,1207.859,3150.946,3072.597,-0.04599918,0.04873697,0.05980014,-0.599755048751831,-0.0676580518484116,0.215289741754532,-0.293060978423328,-0.126095951839638,0.181418706074426,5
0.779998779296875,-0.342468500137329,2.88145589828491,1.20394194126129,-0.147126184485884,2.90251209348295,1.23393520697061,1383.372,1226.063,3152.292,3061.987,-0.04853984,0.0493159,0.05665557,-0.601637423038483,-0.0692536607384682,0.221909999847412,-0.305795832832518,-0.131575403921268,0.189302187598958,5
0.79998779296875,-0.354531347751617,2.88002562522888,1.20850718021393,-0.153366821193532,2.89982692185086,1.2377984583754,1378.184,1240.927,3151.337,3052.602,-0.05145973,0.04966598,0.05392208,-0.603141367435455,-0.0715150833129883,0.228261515498161,-0.318629798715703,-0.137097500901303,0.197247023847227,5
0.819976806640625,-0.366619020700455,2.87853646278381,1.21319770812988,-0.159865102720482,2.89703089285078,1.24182120419666,1353.466,1251.07,3157.506,3060.167,-0.05474554,0.04974261,0.05174967,-0.604385614395142,-0.0744633823633194,0.234526932239532,-0.331572942526109,-0.142666574093344,0.205259446433311,4
0.839996337890625,-0.378728687763214,2.87697458267212,1.21800649166107,-0.166633637018892,2.89411858163313,1.24601124935738,1321.619,1259.005,3157.242,3082.092,-0.05825878,0.04955588,0.0501143,-0.605481564998627,-0.0780946016311646,0.240437060594559,-0.344636106234817,-0.148287288494656,0.213346167053785,4
0.8599853515625,-0.390859574079514,2.87532687187195,1.22292709350586,-0.173653699721778,2.89109804476993,1.25035700258242,1304.377,1269.252,3149.179,3095.463,-0.0618631,0.04915547,0.04885373,-0.606544435024261,-0.0823853686451912,0.246027871966362,-0.357770416714212,-0.153938615363784,0.221476930914505,4
0.8800048828125,-0.403012812137604,2.87358045578003,1.22795915603638,-0.180948461186242,2.88795931270381,1.25487280742661,1278.007,1281.239,3146.687,3111.617,-0.0655111,0.04855706,0.04791047,-0.607662737369537,-0.0873199254274368,0.251604706048965,-0.371007022483504,-0.159633957038354,0.229671020432672,4
0.899993896484375,-0.41519021987915,2.87172317504883,1.23309719562531,-0.18849723509595,2.8847112861788,1.25954585807468,1258.632,1295.245,3137.302,3125.747,-0.06913406,0.04780599,0.04717878,-0.608872294425964,-0.0928626134991646,0.256903648376465,-0.384296738353309,-0.165352150505452,0.237897987633041,4
0.91998291015625,-0.427394658327103,2.86974334716797,1.2383416891098,-0.196312316554895,2.88134867495511,1.26438376578173,1245.741,1310.76,3134.563,3126.828,-0.07268778,0.04693149,0.04661232,-0.610220849514008,-0.0989953055977821,0.262227118015289,-0.397650971463704,-0.171098103938772,0.246164894078718,4
0.94000244140625,-0.439628839492798,2.86762976646423,1.24368894100189,-0.204407453948074,2.87786556348678,1.26939504145298,1232.081,1326.182,3129.518,3131.608,-0.07618824,0.0459423,0.04625095,-0.611709535121918,-0.105678409337997,0.267365455627441,-0.411081631631503,-0.176876941799768,0.254479112513653,4
0.959991455078125,-0.451896131038666,2.86537218093872,1.24913549423218,-0.212759000778906,2.87427212620069,1.27456504678061,1233.062,1341.197,3122.476,3125.743,-0.07965515,0.04485704,0.04609408,-0.613365828990936,-0.112874589860439,0.272330671548843,-0.424539267042903,-0.182667386354485,0.262810029909387,3
0.97998046875,-0.464200794696808,2.86296081542969,1.25468349456787,-0.221379956358585,2.87056276985637,1.27990182895749,1217.977,1353.764,3125.894,3129.027,-0.08314815,0.04364672,0.04626687,-0.615232467651367,-0.120569594204426,0.277397900819778,-0.438035925118965,-0.188474621271639,0.271165104193453,3
1,-0.476547539234161,2.86038637161255,1.26032876968384,-0.230284798736574,2.86673126495361,1.28541435058594,1198.673,1363.186,3126.558,3141.716,-0.08660387,0.04231933,0.04679289,-0.617338836193085,-0.128721565008163,0.282265067100525,-0.451584000205995,-0.194303979492187,0.279552008056641,3
1.01998901367188,-0.488942325115204,2.85764074325562,1.26606726646423,-0.239446912293295,2.86278906344998,1.29108613532954,1196.568,1372.375,3121.907,3143.849,-0.08995306,0.04091037,0.0475947,-0.619738280773163,-0.137281820178032,0.286922693252563,-0.46513400752272,-0.200134169097193,0.287940108062054,3
1.03997802734375,-0.50139194726944,2.85471630096436,1.2719007730484,-0.248880035413094,2.85873025410248,1.29692568790267,1180.725,1380.535,3124.838,3154.349,-0.0932117,0.03940978,0.04871248,-0.622483313083649,-0.146221846342087,0.29167428612709,-0.478698517198992,-0.205970598662363,0.296337185718871,3
1.05999755859375,-0.513903796672821,2.85160660743713,1.27782607078552,-0.258599401509697,2.85454828239877,1.30294243851408,1164.213,1387.159,3123.746,3170.737,-0.0963047,0.03784528,0.05009205,-0.625592589378357,-0.155482783913612,0.296263694763184,-0.492290296490434,-0.211818761581115,0.30475114456651,3
1.07998657226563,-0.526485681533813,2.84830641746521,1.28384053707123,-0.268575430648764,2.85025587575821,1.30911807577533,1167.419,1394.931,3117.587,3172.869,-0.09918357,0.03626413,0.05161326,-0.629095911979675,-0.165007025003433,0.300722002983093,-0.50586005237609,-0.217657448443621,0.313151469876847,3
1.0999755859375,-0.53914600610733,2.844810962677,1.28994822502136,-0.278822628233634,2.845846792911,1.31546157922208,1157.702,1402.185,3120.944,3180.394,-0.1018973,0.03465825,0.05331555,-0.633016586303711,-0.17476724088192,0.305383443832397,-0.519420764586993,-0.223492244065532,0.321546196721701,3
1.1199951171875,-0.551892876625061,2.8411169052124,1.29614770412445,-0.289357002179081,2.84131414609862,1.32198285851614,1147.872,1407.701,3121.698,3192.068,-0.1043991,0.03304974,0.05517272,-0.63733971118927,-0.184704393148422,0.309971272945404,-0.532985466132485,-0.229328756186667,0.329943393154705,3
1.13998413085938,-0.564734220504761,2.83722162246704,1.30243730545044,-0.300146026259498,2.83667193044725,1.3286617783744,1158.107,1413.754,3117.621,3189.47,-0.1066719,0.03147614,0.05710389,-0.642071425914764,-0.194761380553246,0.314481735229492,-0.546505271550557,-0.235145950758426,0.338312796746137,3
1.16000366210938,-0.577678799629211,2.83312320709229,1.30882227420807,-0.311222084148811,2.83190621216671,1.33551838583369,1153.919,1418.255,3123.681,3194.061,-0.1087859,0.02991531,0.05918656,-0.647226333618164,-0.204916656017303,0.319247335195541,-0.560014026276883,-0.240958390526247,0.34667535943296,3
1.17999267578125,-0.590734422206879,2.8288209438324,1.31530070304871,-0.322550701230474,2.8270318247214,1.34253133946411,1152.521,1421.069,3123.724,3203.196,-0.1107257,0.02838371,0.06140036,-0.65278023481369,-0.215107411146164,0.323921054601669,-0.573463232144024,-0.246745208083563,0.355001058539242,3
1.19998168945313,-0.60390967130661,2.8243145942688,1.3218766450882,-0.334147705564643,2.8220419577392,1.34971043758889,1152.433,1422.257,3130.795,3206.555,-0.1124514,0.02689208,0.06372053,-0.658763349056244,-0.22531270980835,0.328796327114105,-0.586866312357874,-0.25251217906087,0.363298203668868,3
1.22000122070313,-0.617212653160095,2.81960511207581,1.32854962348938,-0.346030421585499,2.81692915700008,1.35706640485806,1150.549,1422.933,3133.058,3216.894,-0.1139551,0.02544953,0.06613803,-0.665150105953217,-0.235471665859222,0.333647042512894,-0.600236516861372,-0.258265004538453,0.371574997167698,3
1.239990234375,-0.630651473999023,2.81469440460205,1.33531939983368,-0.358161486344149,2.81170949873715,1.36457611182642,1164.825,1424.273,3130.027,3216.964,-0.1152472,0.02408655,0.06856549,-0.671941459178925,-0.245531648397446,0.338488399982452,-0.613526094901141,-0.263983138701136,0.379801879044709,2
1.25997924804688,-0.644234478473663,2.80958461761475,1.34219312667847,-0.370557537648727,2.80637582416637,1.37224985808977,1162.798,1423.98,3138.67,3224.176,-0.1163892,0.02278064,0.07105132,-0.679150938987732,-0.255486756563187,0.343687504529953,-0.626748599474006,-0.269672413024826,0.387987239250554,2
1.27999877929688,-0.657969176769257,2.80427885055542,1.34917175769806,-0.383236695417198,2.80092033679326,1.3800988607405,1158.995,1422.273,3144.569,3236.183,-0.1173256,0.02154867,0.0735646,-0.686737179756165,-0.265291541814804,0.348934054374695,-0.639917282339435,-0.275338529371412,0.396139281255613,2
1.29998779296875,-0.671862900257111,2.79878091812134,1.35625517368317,-0.396158759015336,2.79536033382764,1.388098233671,1176.498,1422.221,3143.169,3233.418,-0.1180361,0.02042845,0.07600673,-0.694683492183685,-0.274897664785385,0.354170143604279,-0.652985332144132,-0.280961346123326,0.404229026602261,2
1.31997680664063,-0.685922682285309,2.79309487342834,1.36345016956329,-0.409341180862083,2.78968830598122,1.39625878075997,1180.177,1420.645,3152.167,3236.586,-0.118597,0.0193913,0.07844408,-0.702992379665375,-0.284301191568375,0.35975244641304,-0.665966334939128,-0.286546708978778,0.412264885703281,2
1.33999633789063,-0.700154960155487,2.7872257232666,1.37075805664063,-0.422802873722428,2.78389611561957,1.40459220990988,1180.887,1417.597,3158.138,3246.15,-0.1189874,0.01844248,0.08087131,-0.71161425113678,-0.29346227645874,0.365393698215485,-0.678873453515705,-0.29210028151913,0.420255006953505,2
1.3599853515625,-0.714565575122833,2.78117895126343,1.37817907333374,-0.436500861174643,2.77800225429635,1.41307191666844,1199.617,1416.055,3157.325,3243.626,-0.1192105,0.01761028,0.08320499,-0.72053188085556,-0.302343040704727,0.371053427457809,-0.69166099897751,-0.297602405088682,0.428171106749628,2
1.3800048828125,-0.729160666465759,2.77495980262756,1.38572096824646,-0.450474904562636,2.77198961381608,1.4217225152016,1202.489,1412.507,3168.22,3247.771,-0.1193293,0.0168621,0.08551048,-0.729751408100128,-0.310953497886658,0.377092033624649,-0.704361775018035,-0.303067194200314,0.436033492140578,2
1.39999389648438,-0.743944823741913,2.76857471466064,1.39338350296021,-0.464680216184654,2.76587746507559,1.43051627978847,1208.188,1409.032,3171.589,3255.304,-0.1193299,0.01621038,0.08775876,-0.739211738109589,-0.319256037473679,0.383124321699142,-0.716930938559026,-0.308475354130225,0.443814403124744,2
1.41998291015625,-0.758923292160034,2.76202964782715,1.40117192268372,-0.479135601808478,2.75965771647838,1.43946485209513,1215.085,1404.299,3181.69,3256.344,-0.1191754,0.01565844,0.08992565,-0.748923420906067,-0.327255725860596,0.389419704675674,-0.729381927869995,-0.313832666990362,0.451522158631107,2
1.44000244140625,-0.774099886417389,2.75533127784729,1.40908670425415,-0.493861275572861,2.75332167044526,1.4485807456364,1221.19,1400.138,3186.026,3262.613,-0.1188729,0.01520733,0.09200837,-0.758829534053802,-0.334918588399887,0.3957379758358,-0.741727567798258,-0.319144650954242,0.459164697851088,2
1.45999145507813,-0.789478063583374,2.74848699569702,1.41712832450867,-0.508809800712713,2.74688973769103,1.45783459479497,1242.149,1397.99,3183.706,3259.356,-0.1184691,0.01487421,0.09393863,-0.768907487392426,-0.342218279838562,0.402078330516815,-0.753924423002454,-0.324392617007921,0.466715132239272,2
1.47998046875,-0.805061280727386,2.74150323867798,1.42530500888824,-0.524000783579472,2.74035348215039,1.46723853683636,1244.541,1393.181,3195.732,3263.09,-0.1180308,0.0146197,0.09578781,-0.779165506362915,-0.349185526371002,0.408832222223282,-0.76598572865452,-0.329582259876133,0.474181654997567,2
1.5,-0.820851981639862,2.73438692092896,1.43361783027649,-0.539455198877605,2.73370387899399,1.4768055561018,1243.592,1387.643,3204.59,3271.951,-0.1174992,0.01444951,0.09754893,-0.789536774158478,-0.355810105800629,0.415640532970428,-0.777924000354858,-0.334718964672088,0.481572013878822,1
1.51998901367188,-0.83685177564621,2.72714567184448,1.44206547737122,-0.555123050061237,2.72696244033876,1.48650470234772,1264.114,1385.074,3203.283,3266.673,-0.1168606,0.01439508,0.09913582,-0.79998791217804,-0.362067878246307,0.422382265329361,-0.789697369743256,-0.339784716610053,0.488860290373601,1
1.53997802734375,-0.853062272071838,2.7197859287262,1.45065426826477,-0.571024729446907,2.7201203919406,1.49634859938949,1270.357,1380.343,3213.35,3266.895,-0.1161889,0.01441559,0.1006247,-0.810527086257935,-0.367983490228653,0.429440915584564,-0.801318788528229,-0.344785088448372,0.496054502206448,1
1.55999755859375,-0.869484126567841,2.71231484413147,1.45938467979431,-0.587181951496087,2.71316839067337,1.50635068951315,1271.527,1374.952,3219.969,3274.535,-0.1154661,0.01450679,0.1020249,-0.821093916893005,-0.373549908399582,0.436518907546997,-0.812800388649436,-0.349725300221754,0.503162159625937,1
1.57998657226563,-0.886117398738861,2.70473980903625,1.46825551986694,-0.603542258451077,2.7061290076447,1.51647849886779,1289.982,1372.297,3218.085,3270.664,-0.1146976,0.01469274,0.1032561,-0.831663846969604,-0.378755062818527,0.443540513515472,-0.82410201904291,-0.354588076049064,0.510158407210813,0
1.5999755859375,-0.902962446212769,2.69706702232361,1.4772732257843,-0.620126809287134,2.69899313873865,1.52674512586702,1292.391,1367.137,3229.393,3272.129,-0.1139322,0.01493474,0.1043879,-0.84225070476532,-0.383636474609375,0.450885742902756,-0.835236272052476,-0.359378834064062,0.517051040221759,0
1.6199951171875,-0.920018196105957,2.68930315971375,1.48643720149994,-0.636958033083316,2.69175113334911,1.53716445517924,1291.37,1361.809,3236.229,3279.569,-0.1131231,0.01523511,0.1054207,-0.852788627147675,-0.388193368911743,0.458200365304947,-0.846214826007804,-0.364102599125749,0.523847288101157,0
1.63998413085938,-0.937283098697662,2.68145489692688,1.49574494361877,-0.653981118189727,2.68442657539777,1.54770255578211,1310.673,1359.906,3232.655,3273.78,-0.1122709,0.01562106,0.1062697,-0.863250017166138,-0.392412692308426,0.465386718511581,-0.856999388527105,-0.368742895092007,0.53052344604056,0
1.66000366210938,-0.954756259918213,2.67352819442749,1.50520217418671,-0.671244443874359,2.67699864863716,1.55838937674714,1313.996,1355.456,3242.454,3273.364,-0.1114437,0.0160501,0.1070146,-0.873653411865234,-0.39633309841156,0.472860097885132,-0.867618167158098,-0.373311858882592,0.53709697585572,0
1.67999267578125,-0.972434878349304,2.66552925109863,1.51480638980865,-0.688691692550512,2.66949158495151,1.56919005480539,1317.565,1352.185,3243.782,3278.221,-0.1106405,0.01652401,0.1076506,-0.883927941322327,-0.399952590465546,0.480208694934845,-0.878034183119987,-0.377793579561193,0.543544985919778,0
1.69998168945313,-0.99031662940979,2.65746307373047,1.52456057071686,-0.706345246291743,2.66189575395985,1.5801184455266,1321.143,1347.407,3253.154,3276.133,-0.1098133,0.01704121,0.1081687,-0.894095003604889,-0.403304994106293,0.487711161375046,-0.88825927318574,-0.382193150160541,0.549874803759068,0
1.72000122070313,-1.00839853286743,2.6493353843689,1.53446209430695,-0.724228658537036,2.6542010212754,1.5911891296115,1323.598,1343.776,3255.625,3279.612,-0.1089547,0.01759797,0.1085814,-0.904095232486725,-0.406384915113449,0.495078474283218,-0.898304216251578,-0.386515208538549,0.556093102023817,0
1.739990234375,-1.02667677402496,2.64115166664124,1.54450786113739,-0.74228345468553,2.64643254688532,1.60236590849663,1341.826,1343.21,3249.344,3273.434,-0.1081137,0.01820894,0.1088267,-0.913912177085876,-0.409185320138931,0.502288043498993,-0.908134108040217,-0.390744736359816,0.562178273303667,0
1.75997924804688,-1.04514825344086,2.63291645050049,1.55470359325409,-0.760532711099173,2.63858040167573,1.61366306754931,1340.179,1339.331,3259.486,3273.94,-0.107351,0.01882783,0.108991,-0.923576235771179,-0.411758154630661,0.509783983230591,-0.917760245372929,-0.394886594330938,0.568137310869129,0
1.77999877929688,-1.06380891799927,2.62463402748108,1.56504690647125,-0.779000609654483,2.63063418086074,1.62509557650306,1333.035,1335.186,3265.763,3281.523,-0.1065983,0.01945721,0.1090835,-0.933025121688843,-0.414118885993958,0.517166137695313,-0.927192788821983,-0.398945154262308,0.57397650459845,0
1.79998779296875,-1.08265352249146,2.61630892753601,1.57553267478943,-0.797626646773287,2.62261991743975,1.63662598076079,1348.94,1334.909,3260.143,3274.048,-0.1058308,0.02013168,0.1090138,-0.942236006259918,-0.416259616613388,0.524291157722473,-0.936399026186941,-0.402906341007953,0.579675604081262,0
1.81997680664063,-1.10167837142944,2.60794448852539,1.5861644744873,-0.816434558901977,2.61452739828301,1.64826897431355,1350.145,1332.164,3267.426,3271.251,-0.1051134,0.02080825,0.108868,-0.951238512992859,-0.418217748403549,0.531587839126587,-0.945389654806995,-0.406774757334075,0.585241231480109,0
1.83999633789063,-1.12087798118591,2.59954452514648,1.59693896770477,-0.835449117627072,2.60634596486888,1.66003989195343,1344.738,1329.124,3270.482,3277.634,-0.1044215,0.02148081,0.1086686,-0.959980428218842,-0.420002490282059,0.538722038269043,-0.954174163352093,-0.410554485950274,0.590679260733698,0
1.8599853515625,-1.14024686813354,2.5911123752594,1.60785114765167,-0.854607925216182,2.59810246519841,1.67190010651166,1358.433,1329.406,3263.815,3271.353,-0.1037525,0.02217721,0.1083319,-0.968451857566833,-0.42161101102829,0.545610129833221,-0.962722140342816,-0.41423244164655,0.595970865687568,0
1.8800048828125,-1.15978074073792,2.58265066146851,1.61890482902527,-0.873964974649439,2.58977366760063,1.68388304221498,1355.041,1326.921,3272.01,3270.156,-0.1031506,0.02285707,0.1079403,-0.9766885638237,-0.423088580369949,0.552681803703308,-0.971056158224177,-0.417818336715394,0.601130019760457,0
1.89999389648438,-1.17947316169739,2.57416200637817,1.63009405136108,-0.893456683142228,2.58138692997148,1.69594933829086,1352.829,1325.99,3270.071,3274.496,-0.1025961,0.02352826,0.1074868,-0.984627366065979,-0.424436926841736,0.5594642162323,-0.979147395688901,-0.421299770153459,0.606138881190213,0
1.91998291015625,-1.19931924343109,2.56564831733704,1.64141929149628,-0.91310780215452,2.5729316024492,1.70811431707208,1352.897,1323.803,3275.906,3269.938,-0.10203,0.02419411,0.1069587,-0.992306292057037,-0.42568626999855,0.566264986991882,-0.98700543065471,-0.424680863071164,0.611003379164165,0
1.94000244140625,-1.21931278705597,2.5571117401123,1.65287518501282,-0.932943991899774,2.5643966441608,1.72039386345315,1350.777,1322.808,3274.395,3272.667,-0.1014542,0.02484971,0.1063772,-0.999678134918213,-0.426829874515533,0.572794497013092,-0.994638524886308,-0.427965170275055,0.615728628108227,0
1.95999145507813,-1.23944771289825,2.54855465888977,1.66445624828339,-0.952900013794853,2.55581012544606,1.73274759164336,1364.98,1324.753,3264.564,3265.113,-0.1009168,0.02551238,0.105678,-1.00674247741699,-0.427859991788864,0.579052865505219,-1.00202031904361,-0.431141350077486,0.620298310335216,0
1.97998046875,-1.25971853733063,2.53997802734375,1.67616641521454,-0.973001172086935,2.54716115859433,1.74519116617712,1357.672,1323.369,3272.315,3264.872,-0.1004747,0.02613625,0.1049559,-1.01354360580444,-0.428826481103897,0.585509896278381,-1.0091596546337,-0.434213206731958,0.624717899159203,0
2,-1.28011918067932,2.53138327598572,1.68800103664398,-0.993273599084619,2.53843849960327,1.7577407641983,1344.763,1321.643,3275.708,3272.399,-0.1000454,0.02672885,0.1042204,-1.02003049850464,-0.429742217063904,0.59172910451889,-1.01606400046349,-0.437183953857422,0.628992018127441,0
2.01998901367188,-1.30064296722412,2.52277135848999,1.6999523639679,-1.01365055070775,2.52967086658596,1.77035506794184,1357.508,1323.666,3266.642,3263.217,-0.09959263,0.02733092,0.1033733,-1.0261937379837,-0.430592983961105,0.597565948963165,-1.02270954399163,-0.440043345582587,0.633105926142498,0
2.03997802734375,-1.32128441333771,2.51414322853088,1.71202218532562,-1.03415783849082,2.52084715356021,1.78305005597715,1354.902,1323.382,3271.071,3258.977,-0.09918571,0.02789959,0.1025087,-1.03207528591156,-0.431408256292343,0.603489875793457,-1.02910434715509,-0.442794850733705,0.637064613927399,0
2.05999755859375,-1.34203708171844,2.50549936294556,1.72420513629913,-1.05482201812353,2.5119559343546,1.79584216754118,1344.537,1322.556,3270.969,3265.75,-0.09880114,0.02843061,0.1016531,-1.03763425350189,-0.43218982219696,0.60914534330368,-1.03525504859546,-0.445441325732794,0.640872191117535,0
2.07998657226563,-1.3628945350647,2.49684071540833,1.73649442195892,-1.07557499515204,2.50302650811029,1.80868924892322,1355.064,1324.689,3261.573,3258.258,-0.09842351,0.02895756,0.100713,-1.04287588596344,-0.432928204536438,0.614466488361359,-1.04114045847258,-0.4479736531836,0.644515540192423,0
2.0999755859375,-1.38385152816772,2.48816752433777,1.74889242649078,-1.09644304044274,2.49404757120739,1.82160756304102,1347.403,1324.344,3267.33,3256.617,-0.09809861,0.0294417,0.09977596,-1.04784405231476,-0.433659613132477,0.619901776313782,-1.04676782045836,-0.450394949835787,0.647999145330045,0
2.1199951171875,-1.40490138530731,2.47947978973389,1.76139307022095,-1.11745308225396,2.48500753716864,1.83461377976925,1334.869,1323.723,3267.571,3263.585,-0.09776464,0.02988978,0.09885064,-1.05249500274658,-0.434383422136307,0.625033974647522,-1.0521429102862,-0.45270770082608,0.651326581984514,0
2.13998413085938,-1.42603802680969,2.47077822685242,1.77398860454559,-1.13853583516761,2.47593621757383,1.84766500813359,1347.136,1326.409,3256.805,3254.009,-0.09739979,0.03034057,0.09783704,-1.05683028697968,-0.435081005096436,0.629778385162354,-1.05724722779031,-0.454903946049977,0.654486397671922,0
2.16000366210938,-1.44725573062897,2.46206259727478,1.78668093681335,-1.15975039167652,2.46680818657414,1.86079782920208,1341.321,1326.817,3260.739,3250.853,-0.09707648,0.03075118,0.09683275,-1.0608936548233,-0.435780704021454,0.634616851806641,-1.0620943502576,-0.456989527434725,0.657486997379635,0
2.17999267578125,-1.46854853630066,2.45333313941956,1.79946255683899,-1.18102676265167,2.45765355853653,1.8739689163698,1335.008,1327.963,3255.257,3255.299,-0.09678727,0.03112866,0.09583627,-1.06463825702667,-0.436472684144974,0.639081954956055,-1.06666760390386,-0.458957270716794,0.660318059240953,0
2.19998168945313,-1.48991084098816,2.44458961486816,1.81233286857605,-1.20239187218348,2.44846074877705,1.8871949369313,1330.444,1327.569,3259.039,3250.368,-0.09646235,0.03148094,0.09483061,-1.06811451911926,-0.437179267406464,0.643518567085266,-1.07097279461286,-0.460809674005774,0.6629831773745,0
2.22000122070313,-1.5113365650177,2.43583202362061,1.82528495788574,-1.22387315175433,2.43921795429519,1.90049287228091,1323.515,1328.131,3255.26,3253.431,-0.09609005,0.03180857,0.0938341,-1.071284532547,-0.437881588935852,0.6476029753685,-1.07501419914593,-0.462548577472581,0.665484999299265,0
2.239990234375,-1.5328197479248,2.42706060409546,1.8383115530014,-1.24539969505118,2.42995568409656,1.91381882803312,1336.118,1331.129,3242.951,3244.032,-0.0957007,0.03213634,0.09277073,-1.07415628433228,-0.438558012247086,0.651332080364227,-1.07877792518082,-0.464168003639063,0.667814925005999,0
2.25997924804688,-1.55435526371002,2.41827607154846,1.85141563415527,-1.26699874763832,2.42066221517598,1.92718967049012,1326.806,1331.491,3247.625,3242.706,-0.09536567,0.03242039,0.09174024,-1.0767765045166,-0.439241707324982,0.655203402042389,-1.08226887897249,-0.465670063529659,0.669975991700231,0
2.27999877929688,-1.57593727111816,2.4094774723053,1.86459112167358,-1.28869796983554,2.41132564607061,1.9406225227075,1310.908,1330.986,3247.837,3251.019,-0.0950104,0.0326698,0.090749,-1.07910573482513,-0.439929842948914,0.658774256706238,-1.08549040888332,-0.467056197851165,0.67197027217779,0
2.29998779296875,-1.59756028652191,2.4006655216217,1.87782990932465,-1.31042570636616,2.40197680804417,1.95407302665558,1322.352,1333.336,3237.336,3240.356,-0.09458536,0.03292996,0.08968604,-1.08114755153656,-0.440599739551544,0.661940276622772,-1.08843144721369,-0.468321644481621,0.673790915005368,0
2.31997680664063,-1.61921906471252,2.39184021949768,1.89113318920135,-1.33220946960077,2.39260386329221,1.96755821380235,1316.854,1333.996,3240.008,3236.103,-0.09416458,0.03316008,0.08865117,-1.08293998241425,-0.441268920898438,0.665165483951569,-1.09109597826566,-0.469468117754907,0.675440386655758,0
2.33999633789063,-1.64090800285339,2.38300180435181,1.90449464321136,-1.35407709248145,2.38319483607731,1.98109531406483,1304.848,1333.711,3237.774,3242.559,-0.09371664,0.0333616,0.08766156,-1.08444905281067,-0.441924542188644,0.668073415756226,-1.09348640563071,-0.470496651869278,0.67692017506657,0
2.3599853515625,-1.66262185573578,2.37415075302124,1.91790699958801,-1.37595634130987,2.37378080654189,1.99463961134278,1315.809,1335.678,3226.756,3233.199,-0.09322182,0.03357136,0.08661632,-1.08568525314331,-0.442545503377914,0.670616567134857,-1.09559452046326,-0.471403714787811,0.678225198571351,0
2.3800048828125,-1.68435549736023,2.36528778076172,1.93137228488922,-1.39790843013262,2.36433543599182,2.00822900004707,1307.375,1335.831,3230.531,3230.892,-0.09274139,0.03375055,0.08560862,-1.08668887615204,-0.443155497312546,0.673263847827911,-1.09742594550583,-0.472191725819537,0.679358937915576,0
2.39999389648438,-1.70610368251801,2.35641312599182,1.9448823928833,-1.41986083522252,2.35488992936084,2.02181858453579,1300.242,1336.357,3224.238,3235.385,-0.09224817,0.03391326,0.08462269,-1.08741629123688,-0.443734914064407,0.675508320331573,-1.09897439291323,-0.472857979480329,0.680317500623536,0
2.41998291015625,-1.72786211967468,2.34752702713013,1.95843660831451,-1.4418413890156,2.34543231112926,2.03542559441269,1297.392,1335.687,3226.488,3228.658,-0.09167346,0.03407066,0.08363146,-1.0879145860672,-0.444295942783356,0.677710711956024,-1.10024227275454,-0.473403512755585,0.681102378642803,0
2.44000244140625,-1.74962508678436,2.33863115310669,1.97202789783478,-1.46387808506052,2.33595053645515,2.04906735901791,1291.3,1335.841,3221.385,3230.991,-0.09102312,0.03422111,0.08265813,-1.08814799785614,-0.44481161236763,0.67956531047821,-1.10123038958312,-0.473828671822132,0.681714070030222,0
2.45999145507813,-1.77138757705688,2.32972574234009,1.98564946651459,-1.48589810917879,2.32647593524532,2.06269880290633,1304.647,1337.718,3208.694,3220.817,-0.09032803,0.03438906,0.08162473,-1.08812439441681,-0.445256739854813,0.681078851222992,-1.10193535162022,-0.474131997292339,0.68215047511319,0
2.47998046875,-1.79314517974854,2.32081270217896,1.99930453300476,-1.50792940965705,2.3169964821328,2.07633722739875,1295.573,1337.549,3212.76,3218.916,-0.08966597,0.03453192,0.08063089,-1.0878838300705,-0.445659428834915,0.682754456996918,-1.10235860927677,-0.474314113237503,0.682412491765153,0
2.5,-1.81489312648773,2.31189250946045,2.01298713684082,-1.52999999932945,2.30750012397766,2.08999997377396,1279.72,1336.144,3212.486,3227.103,-0.0889613,0.03465921,0.07968035,-1.08738958835602,-0.446011990308762,0.68413633108139,-1.10250000050292,-0.474374949932098,0.682500019669533,0
2.51998901367188,-1.83662605285645,2.30296683311462,2.02668952941895,-1.5520369476803,2.29801824074336,2.10364189456856,1292.515,1336.968,3202.022,3215.175,-0.08815543,0.03481731,0.07865609,-1.08664536476135,-0.446289032697678,0.68512350320816,-1.10235904000526,-0.474314298567936,0.682412758406603,0
2.53997802734375,-1.85833954811096,2.29403686523438,2.04041314125061,-1.57406826106879,2.28853878207593,2.11728032705303,1288.486,1336.84,3203.711,3209.945,-0.08733304,0.03496558,0.07765826,-1.08568060398102,-0.446502596139908,0.686178207397461,-1.10193621258339,-0.474132367740737,0.682151008090402,0
2.55999755859375,-1.88002896308899,2.28510403633118,2.05415177345276,-1.59612191359838,2.27904971150017,2.13093258853001,1277.52,1335.426,3200.919,3215.86,-0.08647071,0.03510492,0.07670298,-1.08446490764618,-0.446637272834778,0.68693482875824,-1.10123038958312,-0.473828671822132,0.681714070030222,0
2.57998657226563,-1.90168917179108,2.27617049217224,2.06789875030518,-1.61812503288753,2.26958238396605,2.14455356752391,1289.422,1335.651,3190.346,3205.661,-0.08554287,0.03527037,0.07568779,-1.08300793170929,-0.446672976016998,0.687354624271393,-1.1002439936861,-0.473404253224357,0.681103443981416,0
2.5999755859375,-1.92331600189209,2.26723790168762,2.08165645599365,-1.64010562536668,2.26012474908893,2.15816060134934,1282.055,1334.804,3193.393,3202.823,-0.08461715,0.0354247,0.07470312,-1.08134043216705,-0.446629345417023,0.687887907028198,-1.09897654259203,-0.472858904427064,0.680318831377119,0
2.6199951171875,-1.94490456581116,2.25830793380737,2.09541893005371,-1.66209156852628,2.2506648119635,2.17177094750084,1269.577,1332.836,3191.563,3209.235,-0.08363551,0.03557653,0.07374905,-1.079430103302,-0.446494042873383,0.688121557235718,-1.09742594550583,-0.472191725819537,0.679358937915576,0
2.63998413085938,-1.96645033359528,2.24938297271729,2.1091787815094,-1.6840102224118,2.24123382753286,2.18533963838626,1283.301,1332.774,3180.725,3197.259,-0.08256225,0.03576474,0.07271633,-1.07728159427643,-0.446244120597839,0.687993764877319,-1.09559752564474,-0.471405007833448,0.678227058921845,0
2.66000366210938,-1.98794865608215,2.24046516418457,2.12293815612793,-1.70592290617745,2.23180541187802,2.19890463348308,1278.642,1331.985,3182.581,3192.634,-0.08148368,0.0359498,0.07170298,-1.0749204158783,-0.445894360542297,0.687967002391815,-1.09348640563071,-0.470496651869278,0.67692017506657,0
2.67999267578125,-2.0093948841095,2.23155689239502,2.13668966293335,-1.72775723139253,2.2224107117184,2.21242112090437,1273.857,1330.795,3175.814,3195.76,-0.08039391,0.03613966,0.07070031,-1.07231056690216,-0.445427477359772,0.687579274177551,-1.09109983431736,-0.469469776906228,0.675442773735451,0
2.69998168945313,-2.03078460693359,2.22265934944153,2.15043354034424,-1.74954107593572,2.21303773198162,2.22590635838503,1271.884,1328.46,3177.957,3188.65,-0.0792317,0.03634233,0.06968329,-1.06949067115784,-0.444857656955719,0.687189698219299,-1.08843572622736,-0.468323485621663,0.673793563918671,0
2.72000122070313,-2.05211329460144,2.21377611160278,2.16416335105896,-1.77130202882336,2.20367460188472,2.23937742484041,1266.296,1326.78,3173.476,3190.272,-0.07799494,0.03655612,0.0686723,-1.06642913818359,-0.444164395332336,0.686492502689362,-1.08549040888332,-0.467056197851165,0.671970272177789,0
2.739990234375,-2.0733757019043,2.20490980148315,2.17787289619446,-1.79296822271738,2.1943522439355,2.25278983096475,1280.666,1326.279,3161.76,3178.919,-0.07670064,0.03680492,0.06758848,-1.06312918663025,-0.443326830863953,0.685472726821899,-1.08227399942825,-0.465672266718727,0.669979161506271,0
2.75997924804688,-2.0945680141449,2.19606256484985,2.19156503677368,-1.81456738183361,2.18505872917844,2.26616073936833,1274.412,1324.848,3164.271,3175.545,-0.07543457,0.0370489,0.06652529,-1.05961740016937,-0.442367076873779,0.684602975845337,-1.07878346314437,-0.464170386470068,0.667818353269249,0
2.77999877929688,-2.11568522453308,2.18723702430725,2.20523452758789,-1.83612684690458,2.17578229366013,2.27950707526701,1261.001,1321.985,3163.322,3182.178,-0.07413655,0.03729393,0.06548708,-1.05586636066437,-0.441281825304031,0.683476984500885,-1.07501419914593,-0.462548577472581,0.665484999299265,0
2.79998779296875,-2.13672304153442,2.17843580245972,2.21887445449829,-1.85757544288233,2.1665535620153,2.29278477791556,1274.135,1320.598,3153.751,3169.864,-0.0727485,0.03758005,0.06436335,-1.0518786907196,-0.44005486369133,0.682000815868378,-1.07097916161324,-0.460812413548163,0.662987118851036,0
2.81997680664063,-2.15767621994019,2.16966199874878,2.23248648643494,-1.87894068379188,2.15736069572766,2.30601087980613,1271.221,1319.171,3155.034,3163.737,-0.07135195,0.03787036,0.0632477,-1.04767239093781,-0.438698291778564,0.680605530738831,-1.0666743814704,-0.458960186914335,0.660322254877504,0
2.83999633789063,-2.17854070663452,2.16091799736023,2.24606513977051,-1.90024960698239,2.14819206138118,2.31920211834584,1261.926,1316.362,3151.786,3168.395,-0.06992609,0.03816478,0.06215379,-1.04322171211243,-0.437202930450439,0.678927004337311,-1.06209435025759,-0.456989527434725,0.657486997379635,0
2.8599853515625,-2.19931173324585,2.1522068977356,2.25960397720337,-1.92143189875059,2.13907791299805,2.33231496600284,1275.253,1314.649,3141.916,3156.569,-0.06844164,0.03849449,0.06098322,-1.03853523731232,-0.435556709766388,0.676944553852081,-1.05725481901126,-0.454907212340279,0.654491096999312,0
2.8800048828125,-2.21998429298401,2.14353132247925,2.27310562133789,-1.94254691640495,2.12999271078668,2.34538616777867,1269.443,1312.847,3144.009,3152.628,-0.0669769,0.03882234,0.05982819,-1.03363132476807,-0.433777540922165,0.675078570842743,-1.0521429102862,-0.45270770082608,0.651326581984514,0
2.89999389648438,-2.24055361747742,2.13489413261414,2.2865629196167,-1.96352501326936,2.1209664217661,2.35837260906308,1264.608,1310.386,3137.781,3155.181,-0.06550524,0.03915885,0.05867123,-1.02848207950592,-0.431856453418732,0.672861278057098,-1.04677621342161,-0.450398561093403,0.648004340974112,0
2.91998291015625,-2.26101589202881,2.12629795074463,2.29997539520264,-1.98439323028747,2.1119874109737,2.37129102948832,1264.582,1307.371,3138.967,3146.491,-0.06396593,0.03951333,0.05748297,-1.02311754226685,-0.429806172847748,0.67062783241272,-1.0411492471255,-0.447977434695422,0.644520980787238,0
2.94000244140625,-2.2813663482666,2.1177453994751,2.3133373260498,-2.00517798053537,2.10304431360073,2.38415778000673,1260.597,1305.083,3133.573,3146.96,-0.06237176,0.03988102,0.05628772,-1.0175107717514,-0.427611738443375,0.668097019195557,-1.03525504859546,-0.445441325732794,0.640872191117535,0
2.95999145507813,-2.30159950256348,2.10924053192139,2.3266429901123,-2.02581075424974,2.0941666074844,2.39693044981124,1275.092,1303.452,3122.746,3134.624,-0.06074031,0.04028099,0.05501466,-1.01166594028473,-0.425261348485947,0.665284335613251,-1.02911391720548,-0.442798968459032,0.637070538244476,0
2.97998046875,-2.32171177864075,2.10078477859497,2.33989524841309,-2.04631823718085,2.08534281049189,2.40962555865248,1268.859,1301.651,3124.444,3131.177,-0.05915946,0.0406749,0.05375728,-1.00559961795807,-0.422775328159332,0.662609875202179,-1.0227194988233,-0.440047628868552,0.633112088657521,0
3,-2.34169769287109,2.09238195419312,2.35308909416199,-2.06672639957428,2.07656174835205,2.42225918334961,1256.301,1298.28,3123.19,3136.634,-0.05756795,0.04106916,0.05251619,-0.999294877052307,-0.420157909393311,0.659693479537964,-1.01606400046349,-0.437183953857422,0.628992018127441,0
3.01998901367188,-2.36155247688293,2.08403372764587,2.36621785163879,-2.0869680292999,2.06785234056679,2.43478971639231,1269.017,1295.948,3114.131,3123.986,-0.05590348,0.04149884,0.05118804,-0.992755532264709,-0.417400568723679,0.656442821025848,-1.00917036754089,-0.434217816196637,0.624724530959079,0
3.03997802734375,-2.381272315979,2.07574367523193,2.37928318977356,-2.10706940546153,2.05920327997188,2.4472334257977,1267.135,1294.351,3114.579,3116.648,-0.05424859,0.04192977,0.04986262,-0.985992193222046,-0.414514064788818,0.653265357017517,-1.00203140433628,-0.431146119769234,0.620305172659443,0
3.05999755859375,-2.40085220336914,2.06751370429993,2.39227938652039,-2.12705600675913,2.05060360379452,2.45960608409476,1258.035,1291.251,3110.787,3120.869,-0.05258998,0.04235959,0.04855791,-0.978987872600555,-0.411495715379715,0.649813234806061,-0.994638524886308,-0.427965170275055,0.615728628108227,0
3.07998657226563,-2.42028713226318,2.05934691429138,2.40520095825195,-2.14686207530873,2.04208160581513,2.47186698402085,1270.855,1288.731,3101.666,3108.489,-0.05089035,0.04281647,0.04717888,-0.971753239631653,-0.408341199159622,0.646081387996674,-0.987017247723776,-0.424685947625853,0.611010694492843,0
3.0999755859375,-2.43957304954529,2.05124568939209,2.41804981231689,-2.16651343412374,2.03362617511243,2.48403211125138,1265.351,1287.008,3102.665,3104.106,-0.04922907,0.04326581,0.04581521,-0.964299142360687,-0.405065208673477,0.642448723316193,-0.979159571260203,-0.421305008961644,0.606146418448853,0
3.1199951171875,-2.45870542526245,2.04321217536926,2.43082070350647,-2.18603502400946,2.02522658035469,2.49611690533293,1254.724,1283.751,3099.751,3108.67,-0.04755979,0.04371322,0.04446612,-0.956613421440125,-0.401670187711716,0.638549149036407,-0.971056158224178,-0.417818336715394,0.601130019760458,0
3.13998413085938,-2.47767972946167,2.03524923324585,2.4435076713562,-2.20536269329809,2.01691042421237,2.50808165332716,1267.698,1281.287,3090.709,3095.558,-0.045833,0.04418864,0.04303468,-0.948703706264496,-0.398151010274887,0.634352087974548,-0.962735018414262,-0.414237982720922,0.59597883782726,0
3.16000366210938,-2.49649095535278,2.02735877037048,2.45611238479614,-2.22455088103183,2.00865428308644,2.51996005559448,1264.2,1279.909,3090.627,3089.682,-0.04413763,0.04465861,0.04161169,-0.940576434135437,-0.394517958164215,0.630231022834778,-0.954174163352092,-0.410554485950274,0.590679260733698,0
3.17999267578125,-2.5151355266571,2.01954340934753,2.46862816810608,-2.24353658854737,2.00048526354177,2.53171311296128,1260.398,1277.321,3083.841,3090.839,-0.04246517,0.04512773,0.04019037,-0.932218790054321,-0.390770792961121,0.625788629055023,-0.945403214201559,-0.406780591562751,0.585249625391267,0
3.19998168945313,-2.53360843658447,2.01180529594421,2.48105502128601,-2.26234477504321,1.99239262633251,2.54335627636037,1259.836,1274.455,3084.206,3082.297,-0.04076607,0.04560157,0.03874788,-0.923654556274414,-0.386922955513,0.621342837810516,-0.936412917636688,-0.402912318110697,0.579684203550396,0
3.22000122070313,-2.5519061088562,2.00414562225342,2.4933876991272,-2.28099938900442,1.98436606709459,2.55490437104486,1254.607,1272.146,3078.985,3082.755,-0.0390478,0.04607579,0.03730737,-0.914869427680969,-0.382969737052917,0.61662894487381,-0.927192788821982,-0.398945154262308,0.573976504598449,0
3.239990234375,-2.57002305984497,1.99656748771667,2.5056209564209,-2.2994392795179,1.97643189735754,2.5663195416865,1267.004,1269.945,3069.694,3070.303,-0.03730503,0.04656802,0.03580298,-0.905869781970978,-0.378907263278961,0.61165988445282,-0.917774783907129,-0.394892849856044,0.568146310914365,0
3.25997924804688,-2.58795666694641,1.98907244205475,2.51775670051575,-2.31768882969315,1.96857962575054,2.57761688259161,1261.64,1268.644,3069.687,3065.974,-0.03562138,0.0470465,0.03432084,-0.896662831306458,-0.374747812747955,0.606783032417297,-0.908148960779607,-0.390751127078637,0.562187467856884,0
3.27999877929688,-2.6057014465332,1.98166275024414,2.52979016304016,-2.33577134012187,1.96079922667992,2.58881081793642,1250.584,1265.689,3066.798,3070.35,-0.03395104,0.04751539,0.03286098,-0.887246191501617,-0.370498865842819,0.601668894290924,-0.898304216251578,-0.386515208538549,0.556093102023818,0
3.29998779296875,-2.62325429916382,1.97433948516846,2.54171586036682,-2.35362764460945,1.95311615770631,2.59986472102797,1261.64,1263.134,3058.694,3057.895,-0.03223597,0.04800266,0.03133247,-0.877629458904266,-0.366159707307816,0.596279263496399,-0.888274735793772,-0.382199803288803,0.549884375850026,0
3.31997680664063,-2.64061069488525,1.96710467338562,2.55353498458862,-2.37128151039117,1.94552019245235,2.61079330491711,1258.252,1262.146,3058.132,3051.566,-0.03055391,0.04847948,0.02981961,-0.867815375328064,-0.361737459897995,0.590950608253479,-0.878049940595779,-0.377800359562814,0.543554740547926,0
3.33999633789063,-2.65776681900024,1.95995998382568,2.56524229049683,-2.38875555478454,1.93800159931817,2.62161057080077,1249.521,1259.495,3053.922,3054.693,-0.02888358,0.04894608,0.02833207,-0.857801198959351,-0.357235252857208,0.585366606712341,-0.867618167158097,-0.373311858882592,0.53709697585572,0
3.3599853515625,-2.67471885681152,1.95290696620941,2.57683300971985,-2.40599272667425,1.93058492580486,2.63228120132087,1260.817,1256.966,3045.668,3042.333,-0.02718448,0.04942578,0.02678753,-0.847598373889923,-0.352652847766876,0.579535484313965,-0.857015715678588,-0.368749920209162,0.530533553325099,0
3.3800048828125,-2.69146299362183,1.94594693183899,2.58830857276917,-2.42304196557559,1.92324911460621,2.64283549236868,1255.894,1256.076,3045.072,3037.539,-0.02553705,0.04988959,0.02526969,-0.837210237979889,-0.347998082637787,0.573780119419098,-0.846214826007803,-0.364102599125748,0.523847288101157,0
3.39999389648438,-2.70799541473389,1.93908166885376,2.59966325759888,-2.43984769972619,1.91601807669906,2.65323904237604,1250.737,1253.622,3038.805,3039.095,-0.02391945,0.0503437,0.02376657,-0.826637327671051,-0.343275636434555,0.567731738090515,-0.835253140422974,-0.35938609205264,0.51706148254665,0
3.41998291015625,-2.72431349754333,1.93231177330017,2.61089658737183,-2.45643259034873,1.90888206159239,2.66350587971929,1250.641,1251.319,3038.19,3030.282,-0.02227947,0.05079617,0.02224955,-0.815897762775421,-0.338494420051575,0.561669409275055,-0.824119146742881,-0.354595445619869,0.510169010073001,0
3.44000244140625,-2.74041318893433,1.9256386756897,2.62200403213501,-2.47281804716281,1.90183185728196,2.67364925803476,1245.749,1249.627,3032.7,3030.094,-0.02063257,0.05124192,0.02074502,-0.804985046386719,-0.333651691675186,0.55537211894989,-0.812800388649434,-0.349725300221754,0.503162159625937,0
3.45999145507813,-2.75629138946533,1.91906380653381,2.63298106193542,-2.48895081463434,1.8948903781363,2.68363620960993,1256.392,1247.54,3024.169,3018.529,-0.01897129,0.05169503,0.01919647,-0.793906211853027,-0.328745692968369,0.548852682113647,-0.80133641229185,-0.344792671461508,0.496065412155666,0
3.47998046875,-2.77194452285767,1.91258811950684,2.64382934570313,-2.50485284867397,1.88804817714046,2.69348032619939,1251.455,1246.886,3023.194,3014.138,-0.01737393,0.05212982,0.01768036,-0.782664179801941,-0.323783338069916,0.542417347431183,-0.789715229532172,-0.33979240117828,0.488871346433721,0
3.5,-2.78736972808838,1.90621280670166,2.65454483032227,-2.5205447997813,1.88129636896134,2.70319439144611,1241.144,1244.552,3019.845,3017.919,-0.01580373,0.05254913,0.01619772,-0.771266043186188,-0.318773031234741,0.535776138305664,-0.777924000354857,-0.334718964672089,0.481572013878822,0
3.51998901367188,-2.80256414413452,1.89993858337402,2.66512322425842,-2.53597583877076,1.87465682397749,2.71274693966292,1250.061,1242.155,3012.977,3006.517,-0.01420157,0.05297674,0.01466941,-0.759723782539368,-0.313717007637024,0.528914034366608,-0.766004036374581,-0.329590137176618,0.474192988348404,0
3.53997802734375,-2.81752490997314,1.89376616477966,2.67556524276733,-2.55116718971613,1.86812041006291,2.72215110956251,1246.568,1241.733,3011.497,3000.878,-0.0126367,0.05338921,0.01316906,-0.748036086559296,-0.308617472648621,0.522097408771515,-0.753942941956194,-0.324400585196356,0.466726596353819,0
3.55999755859375,-2.8322491645813,1.88769674301147,2.68586659431458,-2.56613872308604,1.86167857751006,2.73141920191151,1239.017,1239.606,3007.103,3003.033,-0.0110894,0.05378805,0.01170243,-0.736209213733673,-0.30347865819931,0.515064716339111,-0.741727567798258,-0.319144650954242,0.459164697851087,0
3.57998657226563,-2.84673452377319,1.88173031806946,2.69602346420288,-2.58084213759183,1.85535210901407,2.74052131591136,1248.337,1237.304,2999.957,2991.866,-0.009524529,0.05419103,0.01020171,-0.724254667758942,-0.298301607370377,0.507837951183319,-0.72940084364523,-0.31384080592,0.451533868397061,0
3.5999755859375,-2.8609778881073,1.87586879730225,2.70603704452515,-2.59529790318687,1.84913219692586,2.7494701234383,1243.693,1236.954,2998.635,2987.493,-0.008012919,0.0545753,0.008739715,-0.712172210216522,-0.293089091777802,0.500680923461914,-0.716950039288888,-0.308483572640672,0.443826227386424,0
3.6199951171875,-2.87497711181641,1.87011182308197,2.71590352058411,-2.60952509409627,1.84301063413925,2.75827743234631,1234.964,1234.836,2994.509,2990.782,-0.006525277,0.05494468,0.007314237,-0.699972152709961,-0.287847340106964,0.493320673704147,-0.704361775018033,-0.303067194200314,0.436033492140578,0
3.63998413085938,-2.88873076438904,1.86446011066437,2.72561931610107,-2.623478029369,1.83700707589127,2.76691496395061,1243.821,1232.612,2988.155,2979.425,-0.005013134,0.05531824,0.005853638,-0.687666237354279,-0.282578349113464,0.485788971185684,-0.691680442442073,-0.297610771068296,0.428183143180413,0
3.66000366210938,-2.90223550796509,1.85891461372375,2.73518562316895,-2.63719712493647,1.83110413233575,2.77540773763803,1239.465,1232.488,2986.372,2975.225,-0.003547863,0.05567494,0.004430767,-0.675251364707947,-0.277282744646072,0.478309988975525,-0.678873453515702,-0.29210028151913,0.420255006953505,0
3.67999267578125,-2.91549015045166,1.85347509384155,2.74459767341614,-2.65063849381582,1.82532068681534,2.78372858527554,1236.026,1230.489,2980.385,2975.507,-0.002112952,0.05601994,0.003032919,-0.66273832321167,-0.271965742111206,0.470602065324783,-0.665986083416798,-0.286555206197011,0.41227711095171,0
3.69998168945313,-2.92849278450012,1.84814286231995,2.75385594367981,-2.66382131180924,1.81964848851807,2.79188937759817,1236.477,1228.955,2979.172,2967.268,-0.0006759103,0.05635757,0.001641682,-0.650137603282928,-0.266631692647934,0.462914079427719,-0.653005218467595,-0.280969902652754,0.404241337183804,0
3.72000122070313,-2.94124174118042,1.84291732311249,2.76295709609985,-2.6767633032417,1.81407991116207,2.79990108680742,1231.234,1227.779,2974.062,2967.936,0.0007436484,0.05668289,0.0002835109,-0.637451946735382,-0.261280447244644,0.455056577920914,-0.639917282339434,-0.275338529371411,0.396139281255611,0
3.739990234375,-2.95373558998108,1.83779883384705,2.77189826965332,-2.68942333385363,1.80863265367006,2.80773824883709,1239.027,1225.81,2967.878,2958.048,0.002167303,0.05700829,-0.001091363,-0.624690771102905,-0.255913227796555,0.44706317782402,-0.62676873176137,-0.26968107538565,0.387999702095468,0
3.75997924804688,-2.96597290039063,1.83278822898865,2.78068113327026,-2.70181978867538,1.80329880547712,2.81541224489679,1234.631,1225.637,2966.186,2954.559,0.003531971,0.05731518,-0.002420813,-0.611853122711182,-0.250531315803528,0.439137935638428,-0.6135463347885,-0.263991847359231,0.379814408499146,0
3.77999877929688,-2.97795176506042,1.827885389328,2.78930234909058,-2.7139695770734,1.79807109095524,2.82293354268985,1227.141,1223.807,2962.567,2956.976,0.004866319,0.05760739,-0.003709783,-0.598953425884247,-0.245141550898552,0.43106272816658,-0.60023651686137,-0.258265004538452,0.371574997167698,0
3.79998779296875,-2.9896719455719,1.82309031486511,2.79775953292847,-2.72583438304408,1.79296599641037,2.83027842278479,1234.244,1221.793,2957.248,2947.221,0.006214628,0.05790043,-0.00501633,-0.58600252866745,-0.239746510982513,0.422861337661743,-0.586886736182787,-0.252520966862155,0.36331084698941,0
3.81997680664063,-3.00113201141357,1.81840324401855,2.80605387687683,-2.73743179640664,1.78797595343468,2.83745777411762,1230.877,1221.758,2955.222,2943.25,0.007516126,0.05817774,-0.006280799,-0.572997272014618,-0.234345287084579,0.414712876081467,-0.573483731835694,-0.246754028528195,0.355013748824923,0
3.83999633789063,-3.01233053207397,1.81382465362549,2.81418251991272,-2.74877791451009,1.78309403578861,2.84448156171422,1225.191,1220.073,2951.358,2944.536,0.008789405,0.0584418,-0.007504255,-0.559951066970825,-0.22894312441349,0.406427383422852,-0.560014026276881,-0.240958390526246,0.346675359432959,0
3.8599853515625,-3.02326822280884,1.80935406684875,2.82214331626892,-2.75983729406747,1.77833549372837,2.85132784449154,1231.961,1218.155,2946.11,2935.555,0.01006462,0.05870438,-0.008736233,-0.546873867511749,-0.223542109131813,0.39803746342659,-0.546525890176286,-0.235154822377061,0.338325560657667,0
3.8800048828125,-3.03394317626953,1.80499124526978,2.82993769645691,-2.77064299647982,1.77368610185671,2.85801708903178,1228.343,1218.089,2944.235,2932.261,0.01128433,0.05895021,-0.00992134,-0.533763766288757,-0.218141824007034,0.389715433120728,-0.532985466132484,-0.229328756186666,0.329943393154704,0
3.89999389648438,-3.04435586929321,1.80073618888855,2.83756279945374,-2.78116151864576,1.76916027562219,2.86452855531919,1224.942,1216.393,2939.713,2932.547,0.01246541,0.0591835,-0.0110697,-0.520636081695557,-0.212748885154724,0.381252735853195,-0.519441457145543,-0.223501147495394,0.321559006401168,0
3.91998291015625,-3.05450630187988,1.79658889770508,2.84501910209656,-2.79140913007042,1.76475101471128,2.87087231495249,1225.265,1215.121,2938.277,2926.115,0.01363742,0.05940874,-0.01219941,-0.507498443126678,-0.207365944981575,0.372820168733597,-0.505880764601328,-0.217666360335509,0.313164291730931,0
