t,x_s1,x_s2,x_s3,x_s_d1,x_s_d2,x_s_d3,propellers_rpms1,propellers_rpms2,propellers_rpms3,propellers_rpms4,rollRad,pitchRad,yawRad,v_s1,v_s2,v_s3,v_s_d1,v_s_d2,v_s_d3,insideCount
0,-0.0599999986588955,2.94000005722046,1.17999994754791,-0.0599999986588955,2.94000005722046,1.17999994754791,0,0,0,0,0,0,0,0,0,0,-1.06581410364015E-15,4.44089209850063E-16,4.44089209850063E-16,0
0.019989013671875,-0.0599999986588955,2.94000005722046,1.17811644077301,-0.0600018659130177,2.93999925379318,1.18000110346716,0,0,0,0,-0.01635288,0.0001297794,-0.01587137,-1.10653664009419E-09,-7.76775763711157E-08,-0.0941759571433067,-0.000279680311988734,-0.000120338624884473,0.000173135436141649,5
0.0399932861328125,-0.0599999986588955,2.94000005722046,1.17242503166199,-0.060014863945674,2.93999366110285,1.18000914986856,0,0,0,0,-0.03270202,0.0005238493,-0.03175127,-1.08383135799528E-09,-7.60859677484405E-08,-0.284568399190903,-0.00111059898697896,-0.000477859717552347,0.000687513678106196,5
0.05999755859375,-0.0599058866500854,2.93990302085876,1.16596508026123,-0.0600498857373401,2.93997859220429,1.18003083002592,1868.354,3252.841,3183.737,1722.314,-0.04942294,0.000329806,-0.01369557,0.00470561534166336,-0.00484914472326636,-0.32299879193306,-0.00247936261166862,-0.00106680046642749,0.00153484356504269,5
0.079986572265625,-0.0598203726112843,2.93960738182068,1.16000318527222,-0.0601174907153006,2.93994950367094,1.18007268072775,1925.478,2314.355,3252.169,2829.42,-0.07543564,-0.002136388,0.02094805,0.00427567213773727,-0.014778820797801,-0.298097044229507,-0.00437104534358026,-0.00188073869847162,0.00270588528944111,5
0.0999908447265625,-0.0599374547600746,2.93904495239258,1.15498673915863,-0.0602281370710988,2.93990189563514,1.18014117609281,979.8283,1498.76,3915.294,3896.684,-0.1031986,-0.008064052,0.06331035,-0.00585409160703421,-0.028117997571826,-0.250821143388748,-0.00677536694902951,-0.00291525111632684,0.0041942748969354,4
0.1199951171875,-0.0604638569056988,2.93818354606628,1.15081322193146,-0.0603918861403606,2.93983143898525,1.18024254456713,346.4391,980.4211,4172.694,4613.423,-0.1214343,-0.01542183,0.1040048,-0.0263201668858528,-0.0430697575211525,-0.208673357963562,-0.00967801353495435,-0.00416417885169243,0.00599115140585487,4
0.139999389648438,-0.061563640832901,2.93704128265381,1.14728271961212,-0.0606185767455666,2.93973390035084,1.18038287685052,352.9913,747.085,3975.225,4855.024,-0.1254029,-0.02116734,0.1351083,-0.0549892820417881,-0.0571149438619614,-0.176523879170418,-0.0130660253322238,-0.00562194567796536,0.00808849210174802,4
0.159988403320313,-0.063340924680233,2.93568086624146,1.14427471160889,-0.0609175312885481,2.93960526856281,1.18056794395381,820.9889,814.9572,3462.693,4692.408,-0.1184611,-0.02352477,0.1522709,-0.088864266872406,-0.0680159479379654,-0.150398120284081,-0.0169234294955564,-0.00728167892605071,0.0104764090324936,3
0.17999267578125,-0.0658470392227173,2.9341721534729,1.1418251991272,-0.0612985250199726,2.93944133760391,1.18080379722281,1348.431,1083.154,3007.24,4255.203,-0.1079795,-0.02278068,0.1557794,-0.125305712223053,-0.0754329711198807,-0.122474029660225,-0.0212433804254414,-0.00914043312572283,0.0131506644458931,3
0.199996948242188,-0.0690851435065269,2.93255376815796,1.14006125926971,-0.0617704296168641,2.93923829023936,1.18109592864822,1636.609,1381.373,2918.039,3666.351,-0.09982433,-0.02030128,0.1501567,-0.161905124783516,-0.0809169486165047,-0.0881956964731216,-0.0260104776919234,-0.0111915819022102,0.0161017247421801,3
0.220001220703125,-0.0730105042457581,2.93082594871521,1.13903522491455,-0.0623420644491781,2.93899233174064,1.18144979784016,1641.709,1580.855,3147.846,3113.043,-0.09583811,-0.01735475,0.142187,-0.196268036961555,-0.086386613547802,-0.0513021871447563,-0.03121219533433,-0.0134297356845702,0.019321835755004,3
0.239990234375,-0.0775502771139145,2.92897343635559,1.13863277435303,-0.0630214373585105,2.93870001655724,1.18187036203406,1524.124,1624.245,3417.853,2777.381,-0.09475953,-0.01467775,0.1377306,-0.226988792419434,-0.0926252007484436,-0.0201216954737902,-0.0368316683029241,-0.015847637913056,0.022800557215184,3
0.259994506835938,-0.0826392397284508,2.92699217796326,1.1386353969574,-0.0638179029240226,2.93835731967507,1.18236341216003,1438.383,1500.545,3534.099,2744.228,-0.09439095,-0.0125893,0.139302,-0.254448115825653,-0.0990603119134903,0.000130265951156616,-0.0428651747123285,-0.0184436871643672,0.0265355850983733,3
0.279998779296875,-0.0882451236248016,2.9249005317688,1.13885188102722,-0.0647390625194898,2.93796097043536,1.18293365383054,1400.683,1276.121,3476.251,2977.681,-0.09320798,-0.01110591,0.1456849,-0.280294239521027,-0.104586839675903,0.0108250137418509,-0.0492963837173861,-0.0212108567320638,0.030516809833474,3
0.29998779296875,-0.0943708866834641,2.92273235321045,1.13920652866364,-0.0657918945890516,2.93750796620855,1.18358540703494,1351.13,1061.771,3344.532,3324.737,-0.0905315,-0.009934124,0.1533099,-0.306288033723831,-0.10840766876936,0.0177306588739157,-0.0561078595514081,-0.0241416444928383,0.0347334378503248,3
0.319992065429688,-0.101036235690117,2.92052555084229,1.13972473144531,-0.0669855955880233,2.93699435001684,1.18432436481717,1280.473,940.7471,3238.268,3590.663,-0.08597643,-0.008524246,0.1583608,-0.333267956972122,-0.110343307256699,0.0259108282625675,-0.0632980253096114,-0.0272353719486164,0.0391844929697465,3
0.339996337890625,-0.108251824975014,2.91831183433533,1.14046120643616,-0.068326768706371,2.93641728069206,1.18515461486636,1253.049,944.2448,3170.808,3650.013,-0.07944263,-0.006291984,0.1584771,-0.360779762268066,-0.110680535435677,0.0368255972862244,-0.0708499516420146,-0.0304847548730522,0.0438594951176439,4
0.360000610351563,-0.11600336432457,2.91611456871033,1.14145219326019,-0.0698225328270578,2.93577369517774,1.1860805641102,1320.18,1047.498,3120.205,3497.867,-0.07154582,-0.002961968,0.1534705,-0.387577503919601,-0.109857924282551,0.0495469383895397,-0.0787518717320621,-0.0338847303337087,0.0487511600740379,4
0.379989624023438,-0.124251753091812,2.91394948959351,1.14270722866058,-0.0714784451857985,2.93506120235061,1.1871056527423,1455.436,1181.691,3090.851,3231.183,-0.06361706,0.001259607,0.145035,-0.412418723106384,-0.108256004750729,0.0627491027116776,-0.0869857157641562,-0.0374275233937465,0.0538483017622888,4
0.399993896484375,-0.132943585515022,2.91182613372803,1.14421713352203,-0.0733036822025899,2.9342758538535,1.18823556140379,1578.67,1273.216,3105.921,2981.903,-0.05701828,0.005825673,0.1357485,-0.434592247009277,-0.106166265904903,0.0754952132701874,-0.0955525119207663,-0.0411135764513579,0.0591515566763244,4
0.419998168945313,-0.14202393591404,2.90974998474121,1.14595746994019,-0.0753034649285836,2.93341540321397,1.18947352217404,1631.451,1288.716,3158.445,2844.945,-0.05243391,0.01017596,0.1278584,-0.454017579555511,-0.103803411126137,0.087017185986042,-0.104434660908044,-0.0449353170220673,0.0646500300148815,4
0.439987182617188,-0.151446312665939,2.90772414207458,1.14789497852325,-0.0774822545706558,2.93247793089932,1.19082229675263,1607.962,1238.405,3218.554,2842.489,-0.04965357,0.01397712,0.1224598,-0.471119225025177,-0.10128965228796,0.0968777388334274,-0.113613709720558,-0.0488848052931553,0.0703322984885602,4
0.459991455078125,-0.161177039146423,2.9057514667511,1.14999651908875,-0.0798493430620752,2.93145943885026,1.19228763728888,1540.639,1157.799,3253.779,2938.572,-0.0478847,0.01718568,0.1193424,-0.486536294221878,-0.098637580871582,0.105079419910908,-0.123092454730403,-0.0529632444654124,0.0762000931848968,4
0.479995727539063,-0.171193853020668,2.9038360118866,1.15223848819733,-0.0824088828700873,2.93035814037613,1.19387211435783,1474.07,1086.195,3247.95,3067.446,-0.04628414,0.01998728,0.1173785,-0.500840485095978,-0.0957764238119125,0.112098999321461,-0.132852887402757,-0.0571628859694044,0.0822422659629699,5
0.5,-0.181481242179871,2.9019832611084,1.15461504459381,-0.085166398670376,2.92917165836334,1.1955791479969,1432.682,1046.657,3215.784,3169.018,-0.04433098,0.02264607,0.1152183,-0.514370441436768,-0.0926364734768867,0.11882558465004,-0.142884000065179,-0.0614789935111996,0.0884520025491718,5
0.519989013671875,-0.192024424672127,2.90019869804382,1.15713405609131,-0.0881248588203387,2.92789871561062,1.19741057576073,1423.671,1045.104,3177.574,3210.178,-0.04192401,0.02538048,0.1118811,-0.527158677577972,-0.08922428637743,0.125953182578087,-0.153166947611899,-0.0659034585682559,0.0948176369253132,5
0.539993286132813,-0.202804699540138,2.89848589897156,1.15980970859528,-0.091293865515634,2.92653518056143,1.19937234186584,1444.255,1072.974,3150.195,3184.934,-0.03929548,0.02828836,0.1070512,-0.539014458656311,-0.0856379345059395,0.133782774209976,-0.163706645289342,-0.0704383960337938,0.101342211863077,5
0.55999755859375,-0.213797956705093,2.89684534072876,1.16265249252319,-0.094676112580471,2.92507989413848,1.20146611391775,1484.368,1113.933,3137.997,3114.462,-0.03687999,0.0313285,0.1010603,-0.54966127872467,-0.0820316225290298,0.14213664829731,-0.17448465888317,-0.0750758741803766,0.108014315705644,5
0.579986572265625,-0.224976152181625,2.8952739238739,1.16566717624664,-0.0982734311149,2.92353206847056,1.2036930254546,1522.761,1149.111,3144.827,3033.976,-0.03512177,0.0343484,0.09465173,-0.558910429477692,-0.0785738974809647,0.150736287236214,-0.185481935470438,-0.0798076950675377,0.114822153786096,5
0.599990844726563,-0.23631078004837,2.8937656879425,1.16885101795197,-0.102095761416081,2.92188742652551,1.20605922999388,1539.36,1166.659,3164.429,2979.724,-0.03429033,0.03716082,0.08861941,-0.566732168197632,-0.0754154771566391,0.159191757440567,-0.19670480600515,-0.0846365827279185,0.121769645266545,5
0.6199951171875,-0.247776031494141,2.89231252670288,1.17219388484955,-0.106144683970236,2.92014528826426,1.20856570593183,1534.374,1167.243,3181.755,2964.85,-0.03441656,0.03963226,0.08345956,-0.573262691497803,-0.0726617649197578,0.167144119739532,-0.208134604141382,-0.0895545055543457,0.128845234789665,5
0.639999389648438,-0.259351223707199,2.89090490341187,1.17568624019623,-0.110424235525481,2.91830391678686,1.21121495220784,1508.08,1156.706,3194.228,2985.908,-0.03534175,0.04170128,0.0792892,-0.578759253025055,-0.0703755244612694,0.174615815281868,-0.219761081350814,-0.0945570538913933,0.136042578028218,5
0.659988403320313,-0.271020919084549,2.88953304290771,1.17931985855103,-0.114934715429503,2.91636318329238,1.21400715413238,1466.915,1144.436,3197.776,3030.99,-0.03678624,0.04338725,0.07589893,-0.583485424518585,-0.0685911551117897,0.181680202484131,-0.231565018351745,-0.0996359582190702,0.143349777331291,5
0.67999267578125,-0.282773852348328,2.88818669319153,1.18308961391449,-0.119686638739014,2.91431856344567,1.21694882102647,1427.388,1139.324,3192.059,3075.857,-0.03845019,0.04477564,0.07288606,-0.587646663188934,-0.067322663962841,0.188487470149994,-0.243554411173546,-0.104794659005432,0.150771782621969,5
0.699996948242188,-0.294600754976273,2.88685512542725,1.18699193000793,-0.124680083855354,2.91217002351282,1.22004000142426,1404.544,1146.194,3176.567,3102.495,-0.04016313,0.04596793,0.06985895,-0.591344833374023,-0.0665732100605965,0.195116072893143,-0.255710395848158,-0.11002503961202,0.158296916205407,5
0.720001220703125,-0.306492924690247,2.88552808761597,1.19102787971497,-0.129918284978346,2.90991617190799,1.22328269744952,1396.036,1163.188,3162.459,3105.142,-0.04192455,0.04702483,0.06662278,-0.594609081745148,-0.0663565397262573,0.201795727014542,-0.268023157655716,-0.11532287703907,0.16591910230247,5
0.739990234375,-0.318441241979599,2.88419389724731,1.19519865512848,-0.135400001298574,2.90755754251682,1.2266761409821,1392.202,1185.147,3153.542,3094.277,-0.04383989,0.04795343,0.06321685,-0.59741622209549,-0.0667048841714859,0.208536937832832,-0.280473432677602,-0.12067988256057,0.173626415629864,5
0.759994506835938,-0.3304363489151,2.88284063339233,1.19950449466705,-0.14113644597991,2.90508931062815,1.2302272735046,1389.725,1207.236,3151.466,3075.848,-0.0460141,0.0487311,0.05981915,-0.599753737449646,-0.0676599964499474,0.215293645858765,-0.293070637251543,-0.126100107763583,0.181424685349205,5
0.779998779296875,-0.342469096183777,2.88145542144775,1.20394194126129,-0.147126184485884,2.90251209348295,1.23393520697061,1387.225,1226.443,3150.288,3059.706,-0.04853984,0.04931718,0.05665448,-0.601637899875641,-0.069254994392395,0.221871793270111,-0.305795832832518,-0.131575403921268,0.189302187598958,5
0.79998779296875,-0.35453200340271,2.88002514839172,1.20850789546967,-0.153366821193532,2.89982692185086,1.2377984583754,1376.851,1240.939,3153.062,3052.386,-0.05146506,0.04966403,0.05392758,-0.60314667224884,-0.0715179964900017,0.228300094604492,-0.318629798715703,-0.137097500901303,0.197247023847227,5
0.819992065429688,-0.366619765758514,2.87853574752808,1.21319830417633,-0.159870162197751,2.89702871589906,1.2418243362541,1351.145,1250.764,3157.378,3062.688,-0.054745,0.04973927,0.05176107,-0.604389011859894,-0.0744664445519447,0.234519124031067,-0.33158286215529,-0.142670842232658,0.205265587156312,4
0.839996337890625,-0.378729492425919,2.87697386741638,1.21800625324249,-0.166633637018892,2.89411858163313,1.24601124935738,1326.325,1259.435,3155.115,3079.162,-0.05824919,0.04956001,0.05010324,-0.605485022068024,-0.0780946165323257,0.240394920110703,-0.344636106234817,-0.148287288494656,0.213346167053785,4
0.860000610351563,-0.390860497951508,2.87532615661621,1.2229278087616,-0.173659158941841,2.89109569582005,1.2503603820997,1302.465,1269.339,3151.157,3095.579,-0.06186949,0.04915468,0.04885374,-0.606550872325897,-0.082387313246727,0.246075019240379,-0.357780475378537,-0.153942943326036,0.221483157706883,4
0.879989624023438,-0.403013825416565,2.87357974052429,1.22795939445496,-0.18094280014554,2.88796174849148,1.25486930297274,1277.094,1281.115,3145.62,3113.548,-0.06552389,0.04855517,0.04791415,-0.607664823532104,-0.0873210802674294,0.25158229470253,-0.370996904517929,-0.159629603560431,0.229664756929996,4
0.899993896484375,-0.415191411972046,2.87172245979309,1.23309874534607,-0.18849723509595,2.8847112861788,1.25954585807468,1256.572,1294.907,3140.364,3125.045,-0.06912767,0.04780325,0.04718613,-0.608881056308746,-0.0928697511553764,0.256967395544052,-0.384296738353309,-0.165352150505452,0.237897987633041,4
0.919998168945313,-0.427395850419998,2.86974263191223,1.23834192752838,-0.196318384305134,2.8813460641717,1.26438752200817,1246.804,1310.746,3131.671,3128.331,-0.07266275,0.04693329,0.04661284,-0.6102215051651,-0.0989954918622971,0.262159436941147,-0.397661187980262,-0.171102499820431,0.246171218589148,4
0.939987182617188,-0.439630031585693,2.86762928962708,1.24368822574615,-0.204401181418416,2.87786826238106,1.26939115845832,1239.887,1326.876,3127.042,3126.079,-0.0761696,0.04595263,0.04622376,-0.611711263656616,-0.105672173202038,0.267317414283752,-0.411071375662203,-0.176872528942697,0.254472763580097,4
0.959991455078125,-0.451897472143173,2.86537170410156,1.24913692474365,-0.212759000778906,2.87427212620069,1.27456504678061,1224.926,1340.968,3127.111,3129.759,-0.07967539,0.04485178,0.04610548,-0.613371074199677,-0.11287572234869,0.272437512874603,-0.424539267042903,-0.182667386354485,0.262810029909387,3
0.979995727539063,-0.464202076196671,2.86296033859253,1.25468420982361,-0.22138664033507,2.87055989392801,1.27990596665734,1216.021,1353.157,3124.627,3132.215,-0.08314975,0.04364352,0.04627565,-0.615230441093445,-0.120568186044693,0.277364671230316,-0.438046240701377,-0.188479059778567,0.271171490030365,3
1,-0.476548850536346,2.86038589477539,1.26032865047455,-0.230284798736574,2.86673126495361,1.28541435058594,1207.345,1363.842,3124.215,3134.951,-0.08658789,0.04232874,0.04676554,-0.617339134216309,-0.128717243671417,0.28222194314003,-0.451584000205995,-0.194303979492187,0.279552008056641,3
1.01998901367188,-0.488943606615067,2.85764026641846,1.26606845855713,-0.239446912293295,2.86278906344998,1.29108613532954,1192.179,1372.59,3124.462,3145.813,-0.08997276,0.04090838,0.04759831,-0.619740188121796,-0.137283340096474,0.286988228559494,-0.46513400752272,-0.200134169097193,0.287940108062054,3
1.03999328613281,-0.501393258571625,2.8547158241272,1.27190208435059,-0.248887339851819,2.85872711120656,1.2969302096982,1176.79,1379.81,3125.447,3157.991,-0.09322662,0.0394038,0.0487311,-0.62248170375824,-0.146224796772003,0.291679948568344,-0.478708875293167,-0.205975055460915,0.29634359787259,3
1.05999755859375,-0.513905167579651,2.85160613059998,1.2778263092041,-0.258599401509697,2.85454828239877,1.30294243851408,1169.987,1387.354,3121.319,3167.154,-0.09629884,0.03784854,0.05008552,-0.625591933727264,-0.155482038855553,0.296210885047913,-0.492290296490434,-0.211818761581115,0.30475114456651,3
1.07998657226563,-0.526487112045288,2.84830594062805,1.28384160995483,-0.268575430648764,2.85025587575821,1.30911807577533,1165.436,1395.095,3119.414,3173.149,-0.0991921,0.03626166,0.05162026,-0.629101455211639,-0.165011450648308,0.300766170024872,-0.50586005237609,-0.217657448443621,0.313151469876847,3
1.09999084472656,-0.53914749622345,2.84481048583984,1.28994917869568,-0.278830554044452,2.84584338265603,1.31546648567654,1154.364,1401.782,3121.052,3183.743,-0.1019021,0.0346528,0.05333216,-0.633019268512726,-0.174770668148994,0.305380672216415,-0.519431110871131,-0.223496695782555,0.321552601564445,3
1.1199951171875,-0.55189436674118,2.84111642837524,1.29614758491516,-0.289357002179081,2.84131414609862,1.32198285851614,1153.411,1408.035,3119.222,3188.714,-0.1043906,0.03305402,0.05516144,-0.637342751026154,-0.184702411293983,0.309919536113739,-0.532985466132485,-0.229328756186667,0.329943393154705,3
1.13999938964844,-0.564736008644104,2.83722114562988,1.30243837833405,-0.300154365346813,2.83666834237095,1.3286669406667,1155.798,1413.926,3119.878,3189.662,-0.1066798,0.03147488,0.0571041,-0.642080843448639,-0.194766029715538,0.314536929130554,-0.546515580872639,-0.235150386571708,0.338319178707607,3
1.15998840332031,-0.577680647373199,2.83312273025513,1.30882287025452,-0.31121353909136,2.83190988886621,1.33551309603608,1153.072,1418.212,3122.495,3195.941,-0.1087992,0.0299136,0.05918976,-0.647228837013245,-0.204918190836906,0.319224745035172,-0.560003743914979,-0.240953966313175,0.346668994161124,3
1.17999267578125,-0.590736389160156,2.82882022857666,1.31530272960663,-0.322550701230474,2.8270318247214,1.34253133946411,1149.785,1420.447,3127.384,3202.81,-0.1107156,0.02838027,0.06140863,-0.652791440486908,-0.215119272470474,0.323991656303406,-0.573463232144024,-0.246745208083563,0.355001058539242,3
1.19999694824219,-0.603911697864532,2.82431411743164,1.32187712192535,-0.334156660511822,2.8220381046756,1.34971598112778,1154.457,1422.476,3127.254,3207.479,-0.1124174,0.02689528,0.06371837,-0.658761262893677,-0.225311502814293,0.328718304634094,-0.58687652428584,-0.252516572968185,0.36330452533874,3
1.22000122070313,-0.617214620113373,2.81960487365723,1.32854878902435,-0.346030421585499,2.81692915700008,1.35706640485806,1159.318,1423.902,3129.588,3211.242,-0.1139359,0.02546247,0.0661051,-0.665149867534637,-0.235460489988327,0.333581566810608,-0.600236516861372,-0.258265004538453,0.371574997167698,3
1.239990234375,-0.630653619766235,2.81469416618347,1.33532059192657,-0.358161486344149,2.81170949873715,1.36457611182642,1157.962,1424.089,3134.309,3220.225,-0.115285,0.02408266,0.06856853,-0.671949863433838,-0.245532363653183,0.338589906692505,-0.613526094901141,-0.263983138701136,0.379801879044709,2
1.25999450683594,-0.64423668384552,2.80958437919617,1.34219527244568,-0.3705671011502,2.80637170925886,1.37225577835275,1156.672,1422.997,3140.923,3228.383,-0.1164148,0.02277147,0.0710713,-0.679153740406036,-0.255494683980942,0.34373277425766,-0.626758665639206,-0.269676744214496,0.387993470686331,2
1.27999877929688,-0.657971382141113,2.80427861213684,1.34917271137238,-0.383236695417198,2.80092033679326,1.3800988607405,1165.943,1422.743,3141.381,3231.684,-0.1173128,0.02155361,0.07355353,-0.686734676361084,-0.265293955802917,0.348871648311615,-0.639917282339435,-0.275338529371412,0.396139281255613,2
1.29998779296875,-0.671865165233612,2.79878044128418,1.35625660419464,-0.396158759015336,2.79536033382764,1.388098233671,1176.494,1422.376,3144.297,3232.502,-0.1180318,0.02042913,0.07600708,-0.694688081741333,-0.274903565645218,0.354194611310959,-0.652985332144132,-0.280961346123326,0.404229026602261,2
1.31999206542969,-0.685925006866455,2.79309439659119,1.36345148086548,-0.409351342777246,2.78968393359302,1.39626507146953,1177.004,1420.23,3152.202,3240.006,-0.1185986,0.01938642,0.07846084,-0.702993035316467,-0.284304648637772,0.359746903181076,-0.665976209205206,-0.286550957599616,0.412270998344359,2
1.33999633789063,-0.700157344341278,2.78722524642944,1.3707582950592,-0.422802873722428,2.78389611561957,1.40459220990988,1185.366,1418.057,3155.432,3244,-0.1189884,0.0184451,0.08086558,-0.711614549160004,-0.293458878993988,0.365342289209366,-0.678873453515705,-0.29210028151913,0.420255006953505,2
1.36000061035156,-0.714568138122559,2.78117823600769,1.37818074226379,-0.436511415158101,2.77799771321212,1.41307845008695,1196.434,1415.821,3160.439,3244.183,-0.1192265,0.01760622,0.08320975,-0.720544397830963,-0.302349269390106,0.371121883392334,-0.691670720740693,-0.297606588091785,0.42817712498415,2
1.37998962402344,-0.729163229465485,2.77495908737183,1.38572227954865,-0.450464156928423,2.77199423822282,1.42171586190405,1201.717,1412.625,3167.056,3249.298,-0.1193432,0.01685902,0.08551508,-0.72975492477417,-0.310957908630371,0.377074927091599,-0.704352136620515,-0.303063047067127,0.436027525513373,2
1.39999389648438,-0.743947803974152,2.76857376098633,1.39338612556458,-0.464680216184654,2.76587746507559,1.43051627978847,1205.644,1408.146,3175.417,3254.752,-0.1193107,0.01620668,0.08776753,-0.739225447177887,-0.319270849227905,0.38319143652916,-0.716930938559026,-0.308475354130225,0.443814403124744,2
1.41999816894531,-0.758926153182983,2.76202869415283,1.40117263793945,-0.47914673136562,2.75965292774086,1.43947174182117,1218.094,1404.891,3177.204,3256.888,-0.1191312,0.01566355,0.08992103,-0.748918473720551,-0.327254444360733,0.389326512813568,-0.729391385793766,-0.313836736470737,0.451528013536465,2
1.43998718261719,-0.774102687835693,2.75533056259155,1.40908586978912,-0.49384995777978,2.75332654017544,1.44857373938334,1230.153,1401.58,3181.751,3257.237,-0.1188569,0.01522234,0.0919712,-0.758826732635498,-0.334903717041016,0.395664304494858,-0.741718206886022,-0.319140623215221,0.459158903000492,2
1.45999145507813,-0.789481222629547,2.74848604202271,1.41713058948517,-0.508809800712713,2.74688973769103,1.45783459479497,1231.611,1396.645,3191.457,3263.879,-0.1184995,0.01486669,0.09394682,-0.768923342227936,-0.342221975326538,0.402234882116318,-0.753924423002454,-0.324392617007921,0.466715132239272,2
1.47999572753906,-0.80506432056427,2.74150228500366,1.42530703544617,-0.524012471663969,2.74034845309416,1.46724577231745,1241.437,1392.667,3195.072,3266.433,-0.1180297,0.01461483,0.09579833,-0.779161334037781,-0.349188834428787,0.408820956945419,-0.765994882555672,-0.329586198544069,0.474187321698441,2
1.5,-0.820854842662811,2.73438620567322,1.43361818790436,-0.539455198877605,2.73370387899399,1.4768055561018,1254.395,1389.081,3199.778,3264.667,-0.1174774,0.01446368,0.09751708,-0.789527654647827,-0.355803519487381,0.41555792093277,-0.777924000354858,-0.334718964672088,0.481572013878822,1
1.51998901367188,-0.836854636669159,2.72714495658875,1.44206714630127,-0.555123050061237,2.72696244033876,1.48650470234772,1260.845,1384.76,3206.405,3267.712,-0.1168792,0.01439518,0.09913452,-0.79999053478241,-0.362068057060242,0.422446548938751,-0.789697369743256,-0.339784716610053,0.488860290373601,1
1.53999328613281,-0.853065192699432,2.71978521347046,1.45065653324127,-0.571036956668503,2.72011513090874,1.49635616862212,1264.65,1379.322,3215.104,3271.467,-0.1162097,0.01440661,0.1006497,-0.810524761676788,-0.367988586425781,0.429469436407089,-0.801327600455846,-0.344788879974649,0.496059957209413,1
1.55999755859375,-0.869486927986145,2.71231412887573,1.45938563346863,-0.587181951496087,2.71316839067337,1.50635068951315,1276.809,1375.619,3216.511,3271.873,-0.1154683,0.01450885,0.1020248,-0.821087002754211,-0.373549282550812,0.43645641207695,-0.812800388649436,-0.349725300221754,0.503162159625937,1
1.57998657226563,-0.8861203789711,2.70473885536194,1.46825730800629,-0.603542258451077,2.7061290076447,1.51647849886779,1288.528,1371.978,3220.498,3270.304,-0.1147055,0.01468986,0.1032638,-0.831671476364136,-0.378760576248169,0.443586528301239,-0.82410201904291,-0.354588076049064,0.510158407210813,0
1.59999084472656,-0.902965426445007,2.69706606864929,1.47727513313293,-0.620139554045575,2.69898765502515,1.52675301547962,1288.985,1366.7,3229.806,3275.246,-0.1139311,0.01492866,0.1044058,-0.842253684997559,-0.383642464876175,0.450888693332672,-0.835244706287931,-0.359382463079953,0.517056261415284,0
1.6199951171875,-0.920021057128906,2.68930220603943,1.4864376783371,-0.636958033083316,2.69175113334911,1.53716445517924,1297.316,1362.881,3232.229,3276.608,-0.113114,0.01524058,0.1054082,-0.852786302566528,-0.38819020986557,0.458129644393921,-0.846214826007804,-0.364102599125749,0.523847288101157,0
1.63999938964844,-0.93728643655777,2.68145394325256,1.49574673175812,-0.653994195024907,2.68442094880091,1.54771065096602,1308.544,1359.57,3235.839,3273.464,-0.1122799,0.01562042,0.1062662,-0.863262534141541,-0.39241623878479,0.465450674295425,-0.857007552155828,-0.368746407673381,0.530528499715628,0
1.65998840332031,-0.954759478569031,2.67352724075317,1.50520360469818,-0.67123120513297,2.67700434489773,1.55838118133557,1312.649,1355.647,3241.303,3275.468,-0.1114618,0.01604776,0.1070167,-0.873654663562775,-0.396335929632187,0.472845017910004,-0.867610144209785,-0.373308406832068,0.537092009268528,0
1.67999267578125,-0.972438335418701,2.66552782058716,1.51480948925018,-0.688691692550512,2.66949158495151,1.56919005480539,1314.166,1350.824,3248.76,3277.811,-0.1106245,0.01651954,0.107662,-0.883942663669586,-0.399967610836029,0.480293035507202,-0.878034183119987,-0.377793579561193,0.543544985919778,0
1.69999694824219,-0.990320026874542,2.65746164321899,1.52456164360046,-0.706358800111611,2.66188992212981,1.58012683598675,1324.045,1348.141,3248.173,3277.031,-0.109767,0.01704596,0.1081686,-0.894086003303528,-0.403305530548096,0.487610459327698,-0.888267004546665,-0.382196476749158,0.549879589839776,0
1.72000122070313,-1.00840175151825,2.649334192276,1.53446137905121,-0.724228658537036,2.6542010212754,1.5911891296115,1333.538,1345.605,3250.294,3273.974,-0.1089393,0.01761378,0.1085442,-0.904087424278259,-0.406368374824524,0.494987666606903,-0.898304216251578,-0.386515208538549,0.556093102023817,0
1.739990234375,-1.02668023109436,2.64115047454834,1.54450976848602,-0.74228345468553,2.64643254688532,1.60236590849663,1333.914,1342.18,3255.784,3276.566,-0.1081627,0.01820318,0.1088267,-0.91392582654953,-0.409181922674179,0.502421438694,-0.908134108040217,-0.390744736359816,0.562178273303667,0
1.75999450683594,-1.04515194892883,2.63291501998901,1.5547069311142,-0.760546715064628,2.63857437616062,1.61367173667103,1332.249,1337.972,3263.084,3278.77,-0.1073792,0.01881498,0.1090153,-0.923582315444946,-0.411769539117813,0.509855806827545,-0.917767514700581,-0.394889722119545,0.568141810929231,0
1.77999877929688,-1.06381225585938,2.6246325969696,1.56504857540131,-0.779000609654483,2.63063418086074,1.62509557650306,1341.198,1336.286,3260.923,3276.683,-0.1065781,0.01946373,0.1090732,-0.933017015457153,-0.414124727249146,0.517079532146454,-0.927192788821983,-0.398945154262308,0.57397650459845,0
1.79998779296875,-1.08265697956085,2.61630725860596,1.57553458213806,-0.797626646773287,2.62261991743975,1.63662598076079,1350.491,1334.881,3261.046,3272.122,-0.1058186,0.02013507,0.1090122,-0.942238628864288,-0.416264057159424,0.52430260181427,-0.936399026186941,-0.402906341007953,0.579675604081262,0
1.81999206542969,-1.10168147087097,2.60794281959534,1.58616626262665,-0.816448984455027,2.61452119137054,1.64827790441807,1346.203,1331.622,3267.651,3275.47,-0.1051155,0.02080241,0.1088883,-0.951237738132477,-0.418219208717346,0.531583607196808,-0.945396434568188,-0.406777674475912,0.585245428475252,0
1.83999633789063,-1.12088131904602,2.59954285621643,1.59693968296051,-0.835449117627072,2.60634596486888,1.66003989195343,1348.75,1329.915,3267.297,3276.098,-0.1044305,0.02148212,0.1086649,-0.959978222846985,-0.419997155666351,0.538669109344482,-0.954174163352093,-0.410554485950274,0.590679260733698,0
1.86000061035156,-1.14025068283081,2.59111046791077,1.60785365104675,-0.854622615239374,2.59809614449182,1.6719092003358,1354.791,1328.772,3268.14,3271.523,-0.1037722,0.0221719,0.1083369,-0.968467712402344,-0.421615868806839,0.545698642730713,-0.962728579444532,-0.414235212212131,0.595974851798267,0
1.87998962402344,-1.15978455543518,2.58264851570129,1.61890685558319,-0.873950157556149,2.58978004298193,1.6838738697284,1354.166,1327.208,3270.443,3271.918,-0.1031634,0.02285377,0.1079448,-0.97669130563736,-0.423094153404236,0.552659749984741,-0.971049893464309,-0.417815641164241,0.601126141575667,0
1.89999389648438,-1.17947745323181,2.57415914535522,1.63009762763977,-0.893456683142228,2.58138692997148,1.69594933829086,1350.865,1324.826,3274.52,3273.01,-0.1025653,0.02352587,0.1074954,-0.984643220901489,-0.424451798200607,0.55953723192215,-0.979147395688901,-0.421299770153459,0.606138881190213,0
1.91999816894531,-1.19932341575623,2.56564569473267,1.64142060279846,-0.913122862707269,2.57292512231409,1.70812364027167,1356.203,1324.654,3270.268,3271.08,-0.1019756,0.02420047,0.1069561,-0.992297053337097,-0.425684362649918,0.566149234771729,-0.987011339258123,-0.424683405378145,0.611007036871143,0
1.93998718261719,-1.21931672096252,2.55710959434509,1.65287470817566,-0.932928814964021,2.56440317437226,1.72038446820694,1360.895,1324.626,3269.109,3266.932,-0.1014393,0.02486636,0.1063362,-0.999670743942261,-0.426809668540955,0.572704553604126,-0.994632798067981,-0.427962706185118,0.615725082934877,0
1.95999145507813,-1.23945200443268,2.54855251312256,1.66445958614349,-0.952900013794853,2.55581012544606,1.73274759164336,1352.813,1322.911,3274.256,3269.892,-0.1009546,0.02550249,0.105687,-1.00676143169403,-0.427857369184494,0.57924485206604,-1.00202031904361,-0.431141350077486,0.620298310335216,0
1.97999572753906,-1.25972270965576,2.53997588157654,1.67616963386536,-0.973016570682103,2.54715453300902,1.74520069864106,1353.123,1322.84,3271.579,3269.526,-0.1004757,0.02612954,0.1049695,-1.01353883743286,-0.428828537464142,0.585499823093414,-1.00916501115878,-0.434215511495054,0.624721215103391,0
2,-1.28012323379517,2.53138113021851,1.68800222873688,-0.993273599084619,2.53843849960327,1.7577407641983,1357.833,1323.378,3269.976,3263.449,-0.1000161,0.02674584,0.1041806,-1.02001869678497,-0.429734617471695,0.591630220413208,-1.01606400046349,-0.437183953857422,0.628992018127441,0
2.01998901367188,-1.30064702033997,2.52276945114136,1.69995498657227,-1.01365055070775,2.52967086658596,1.77035506794184,1354.471,1323.314,3270.279,3263.677,-0.09960862,0.02733257,0.1033681,-1.02619457244873,-0.430589735507965,0.597639381885529,-1.02270954399163,-0.440043345582587,0.633105926142498,0
2.03999328613281,-1.32128846645355,2.51414132118225,1.71202528476715,-1.03417354141348,2.52084039703127,1.78305977683431,1347.995,1322.245,3272.826,3264.829,-0.09920914,0.02788943,0.1025376,-1.03206944465637,-0.431410074234009,0.603516936302185,-1.02910913225408,-0.442796909628122,0.637067576131623,0
2.05999755859375,-1.34204077720642,2.5054976940155,1.7242066860199,-1.05482201812353,2.5119559343546,1.79584216754118,1350.567,1323.211,3267.098,3262.749,-0.09880434,0.02843279,0.101653,-1.03762423992157,-0.432186633348465,0.609073281288147,-1.03525504859546,-0.445441325732794,0.640872191117535,0
2.07998657226563,-1.36289858818054,2.49683904647827,1.73649716377258,-1.07557499515204,2.50302650811029,1.80868924892322,1353.349,1324.351,3264.498,3257.7,-0.09843469,0.02895396,0.1007218,-1.04288244247437,-0.432930827140808,0.614523887634277,-1.04114045847258,-0.4479736531836,0.644515540192423,0
2.09999084472656,-1.38385546207428,2.48816585540771,1.74889528751373,-1.09645901288412,2.49404069871208,1.82161745074311,1343.055,1323.858,3267.75,3260.634,-0.09809967,0.02943422,0.09979736,-1.04784548282623,-0.433663636445999,0.619904339313507,-1.04677201701582,-0.450396755497224,0.648001743199023,0
2.1199951171875,-1.40490531921387,2.47947835922241,1.76139438152313,-1.11745308225396,2.48500753716864,1.83461377976925,1341.979,1324.781,3263.165,3259.859,-0.09775239,0.02989627,0.09883507,-1.05249118804932,-0.434378683567047,0.624952077865601,-1.0521429102862,-0.45270770082608,0.651326581984514,0
2.13999938964844,-1.42604207992554,2.47077679634094,1.77399134635925,-1.138551967509,2.47592927627801,1.8476749948214,1345.002,1326.219,3260.206,3253.404,-0.09740831,0.03034025,0.09783138,-1.05684113502502,-0.435081839561462,0.629849195480347,-1.05725102347782,-0.454905579228273,0.654488747383304,0
2.15998840332031,-1.4472599029541,2.46206116676331,1.78668332099915,-1.15973418543027,2.46681515966915,1.86078779676364,1339.51,1326.994,3259.363,3253.635,-0.09709832,0.03074839,0.09683465,-1.06089246273041,-0.435781121253967,0.634596288204193,-1.06209075728,-0.456987981476842,0.657484773155346,0
2.17999267578125,-1.46855294704437,2.4533314704895,1.79946684837341,-1.18102676265167,2.45765355853653,1.8739689163698,1331.373,1326.652,3260.775,3254.527,-0.09677181,0.0311242,0.09584745,-1.06465184688568,-0.43648573756218,0.639179527759552,-1.06666760390386,-0.458957270716794,0.660318059240953,0
2.19999694824219,-1.489914894104,2.44458794593811,1.81233489513397,-1.20240821395574,2.44845371736898,1.88720505326679,1333.148,1328.15,3253.708,3251.885,-0.09641389,0.03148589,0.09483041,-1.06810402870178,-0.437178641557693,0.643405199050903,-1.07097597819164,-0.460811043810786,0.662985148161421,0
2.21998596191406,-1.51134049892426,2.43583059310913,1.82528495788574,-1.22385674836213,2.4392250122166,1.90048271779974,1335.383,1329.793,3249.847,3246.18,-0.09606715,0.03182629,0.09379084,-1.07127499580383,-0.437864065170288,0.647503614425659,-1.07501122224684,-0.462547296596067,0.665483156456917,0
2.239990234375,-1.53282380104065,2.42705941200256,1.83831524848938,-1.24539969505118,2.42995568409656,1.91381882803312,1323.889,1329.796,3251.916,3249.168,-0.09573744,0.03212692,0.09278299,-1.07416892051697,-0.438555896282196,0.651515662670135,-1.07877792518082,-0.464168003639063,0.667814925005999,0
2.25999450683594,-1.55435943603516,2.41827440261841,1.85141885280609,-1.26701526177039,2.4206551096063,1.92719989352455,1321.846,1330.838,3246.549,3248.27,-0.09537206,0.03241294,0.0917578,-1.07676827907562,-0.43924206495285,0.655180811882019,-1.08227143928024,-0.465671165158559,0.669977576652695,0
2.27999877929688,-1.57594120502472,2.4094762802124,1.86459255218506,-1.28869796983554,2.41132564607061,1.9406225227075,1324.228,1332.358,3242.895,3241.42,-0.09498377,0.0326857,0.09070922,-1.07909536361694,-0.439922571182251,0.658683955669403,-1.08549040888332,-0.467056197851165,0.67197027217779,0
2.29998779296875,-1.59756398200989,2.40066432952881,1.87783288955688,-1.31042570636616,2.40197680804417,1.95407302665558,1318.337,1333.269,3240.948,3241.477,-0.09460507,0.03293,0.089683,-1.08114731311798,-0.440598130226135,0.662019073963165,-1.08843144721369,-0.468321644481621,0.673790915005368,0
2.31999206542969,-1.61922264099121,2.39183855056763,1.89113664627075,-1.33222611841886,2.3925966997709,1.96756852021384,1310.23,1332.968,3241.534,3241.74,-0.09418748,0.03315016,0.08867871,-1.08293318748474,-0.441272228956223,0.66518759727478,-1.09109790637238,-0.469468947365361,0.675441580245663,0
2.33999633789063,-1.64091157913208,2.38300037384033,1.90449655056,-1.35407709248145,2.38319483607731,1.98109531406483,1311.707,1334.191,3234.041,3238.79,-0.09371557,0.03336474,0.08765813,-1.08443915843964,-0.441923022270203,0.667997241020203,-1.09348640563071,-0.470496651869278,0.67692017506657,0
2.36000061035156,-1.66262531280518,2.37414932250977,1.91790997982025,-1.37597305876702,2.37377361348711,1.99464996024512,1313.913,1335.537,3229.473,3232.877,-0.09323248,0.03356773,0.08662554,-1.08568930625916,-0.44254931807518,0.670671463012695,-1.09559602313537,-0.471404361345641,0.678226128796969,0
2.37998962402344,-1.68435895442963,2.36528611183167,1.93137443065643,-1.39789168475144,2.36434264106153,2.00821863385843,1306.123,1335.993,3228.402,3233.896,-0.09276163,0.03374519,0.08562197,-1.08668482303619,-0.443156331777573,0.67322164773941,-1.09742465646102,-0.47219117117957,0.679358139935436,0
2.39999389648438,-1.70610749721527,2.35641121864319,1.94488644599915,-1.41986083522252,2.35488992936084,2.02181858453579,1296.432,1335.28,3229.504,3234.885,-0.09223592,0.03390613,0.08464013,-1.08742988109589,-0.443747043609619,0.67560213804245,-1.09897439291323,-0.472857979480329,0.680317500623536,0
2.41999816894531,-1.72786569595337,2.34752535820007,1.95843851566315,-1.44185817738692,2.34542508756209,2.03543598721428,1299.318,1336.208,3221.584,3230.576,-0.09162819,0.03407332,0.0836324,-1.08790862560272,-0.444295257329941,0.677603781223297,-1.10024313330221,-0.473403883025206,0.681102911362803,0
2.43998718261719,-1.74962854385376,2.33862948417664,1.97202789783478,-1.46386128162322,2.33595776650478,2.04905695688976,1303.543,1337.386,3216.381,3223.022,-0.09099436,0.03423893,0.08260931,-1.0881427526474,-0.444795936346054,0.679470181465149,-1.10122974390336,-0.473828394004169,0.681713670323692,0
2.45999145507813,-1.77139139175415,2.32972407341003,1.98565304279327,-1.48589810917879,2.32647593524532,2.06269880290633,1292.957,1336.94,3217.1,3225.442,-0.09035893,0.03438194,0.08162974,-1.08813571929932,-0.445255428552628,0.681259095668793,-1.10193535162022,-0.474131997292339,0.68215047511319,0
2.47999572753906,-1.79314887523651,2.3208110332489,1.99930763244629,-1.50794623031618,2.31698924467309,2.07634764018804,1290.894,1336.832,3211.675,3224.338,-0.08967023,0.0345262,0.08064333,-1.08787488937378,-0.445659458637238,0.682727754116058,-1.10235882472314,-0.474314205938057,0.682412625136718,0
2.5,-1.81489646434784,2.31189060211182,2.01298856735229,-1.52999999932945,2.30750012397766,2.08999997377396,1293.215,1337.184,3207.873,3217.373,-0.08893413,0.0346751,0.07963893,-1.08737850189209,-0.446004748344421,0.684045195579529,-1.10250000050292,-0.474374949932098,0.682500019669533,0
2.51998901367188,-1.83662915229797,2.30296516418457,2.02669262886047,-1.5520369476803,2.29801824074336,2.10364189456856,1288.134,1337.049,3205.687,3216.471,-0.08817886,0.03481608,0.07865661,-1.08664274215698,-0.446287900209427,0.68520724773407,-1.10235904000526,-0.474314298567936,0.682412758406603,0
2.53999328613281,-1.8583425283432,2.29403495788574,2.04041647911072,-1.57408507527774,2.28853154739156,2.11729073584934,1281.235,1335.747,3205.141,3216.323,-0.08736127,0.03495391,0.07769231,-1.08567225933075,-0.446506053209305,0.68619692325592,-1.10193578218388,-0.474132182551855,0.682150741652607,0
2.55999755859375,-1.88003158569336,2.28510189056396,2.05415368080139,-1.59612191359838,2.27904971150017,2.13093258853001,1284.678,1335.657,3197.331,3211.866,-0.08646911,0.03510658,0.07670316,-1.08445620536804,-0.446636527776718,0.686855375766754,-1.10123038958312,-0.473828671822132,0.681714070030222,0
2.57998657226563,-1.90169191360474,2.27616858482361,2.0679018497467,-1.61812503288753,2.26958238396605,2.14455356752391,1287.656,1335.719,3192.886,3205.181,-0.08555245,0.03526594,0.07569938,-1.08301258087158,-0.446677178144455,0.687408924102783,-1.1002439936861,-0.473404253224357,0.681103443981416,0
2.59999084472656,-1.92331874370575,2.26723599433899,2.08165955543518,-1.64012239440973,2.26011753383818,2.15817098218581,1277.21,1334.4,3193.514,3207.565,-0.08462141,0.03541591,0.07472815,-1.08134138584137,-0.446633666753769,0.687882840633392,-1.09897546783438,-0.47285844198887,0.680318166050934,0
2.6199951171875,-1.94490730762482,2.25830626487732,2.09542036056519,-1.66209156852628,2.2506648119635,2.17177094750084,1277.006,1333.414,3187.85,3204.975,-0.08362166,0.03558189,0.07373392,-1.07942986488342,-0.446491330862045,0.688041985034943,-1.09742594550583,-0.472191725819537,0.679358937915576,0
2.63999938964844,-1.96645307540894,2.24938130378723,2.10918164253235,-1.68402693989188,2.24122663446822,2.18534998730279,1280.941,1332.988,3183.793,3196.797,-0.08257025,0.03576384,0.07271194,-1.07729160785675,-0.446246415376663,0.68806391954422,-1.09559602313537,-0.471404361345641,0.67822612879697,0
2.65998840332031,-1.9879515171051,2.24046349525452,2.12294054031372,-1.70590622088595,2.23181259109281,2.19889430449282,1276.788,1332.046,3181.238,3195.526,-0.08150391,0.03594726,0.07170549,-1.07492065429688,-0.445895880460739,0.687941670417786,-1.09348812118877,-0.470497390025984,0.676921237078733,0
2.67999267578125,-2.00939774513245,2.23155474662781,2.13669395446777,-1.72775723139253,2.2224107117184,2.21242112090437,1270.664,1329.862,3180.794,3194.757,-0.08038006,0.03613606,0.07070968,-1.07232224941254,-0.445439606904984,0.687670469284058,-1.09109983431736,-0.469469776906228,0.675442773735451,0
2.69999694824219,-2.03078770637512,2.22265768051147,2.15043568611145,-1.74955768413056,2.21303058593937,2.22591663964878,1274.323,1328.725,3173.262,3190.144,-0.07918643,0.03634676,0.0696828,-1.06948494911194,-0.444858253002167,0.687081634998322,-1.08843358680109,-0.468322565086308,0.673792239511893,0
2.71998596191406,-2.05211591720581,2.21377468109131,2.16416358947754,-1.77128546553625,2.20368172860443,2.23936717137667,1278.098,1327.855,3168.835,3182.837,-0.07796777,0.03657223,0.06863155,-1.06642353534698,-0.444151043891907,0.686395704746246,-1.08549275912543,-0.467057209094684,0.671971727089609,0
2.739990234375,-2.07337856292725,2.2049081325531,2.17787647247314,-1.79296822271738,2.1943522439355,2.25278983096475,1268.865,1325.858,3169.234,3184.216,-0.07673792,0.0367964,0.06760313,-1.0631365776062,-0.443324506282806,0.685640633106232,-1.08227399942825,-0.465672266718727,0.669979161506271,0
2.75999450683594,-2.09457111358643,2.19606065750122,2.19156813621521,-1.81458384274179,2.18505164650952,2.26617092945464,1269.191,1323.965,3163.517,3181.356,-0.07544576,0.03704141,0.0665452,-1.05961203575134,-0.442366927862167,0.684580147266388,-1.07878069424208,-0.464169195088763,0.667816639186824,0
2.77999877929688,-2.11568832397461,2.1872353553772,2.20523595809937,-1.83612684690458,2.17578229366013,2.27950707526701,1273.866,1322.696,3159.418,3172.612,-0.07410832,0.03730775,0.0654505,-1.05586159229279,-0.441276878118515,0.683394491672516,-1.07501419914593,-0.462548577472581,0.665484999299265,0
2.79998779296875,-2.13672590255737,2.17843437194824,2.21887731552124,-1.85757544288233,2.1665535620153,2.29278477791556,1270.325,1321.089,3156.582,3170.952,-0.07276395,0.03758008,0.06436168,-1.05187833309174,-0.440053403377533,0.682072699069977,-1.07097916161324,-0.460812413548163,0.662987118851036,0
2.81999206542969,-2.15767908096313,2.16966032981873,2.23248958587646,-1.87895695992541,2.1573536925621,2.30602095550813,1264.955,1318.303,3156.072,3169.393,-0.07137325,0.0378623,0.06327333,-1.04766714572906,-0.438699901103973,0.680617213249207,-1.06667099276523,-0.458958728849171,0.660320157107579,0
2.83999633789063,-2.17854332923889,2.16091632843018,2.24606680870056,-1.90024960698239,2.14819206138118,2.31920211834584,1268.778,1316.403,3148.831,3164.339,-0.06992183,0.03816823,0.06214766,-1.04321682453156,-0.437201648950577,0.678857028484344,-1.06209435025759,-0.456989527434725,0.657486997379635,0
2.86000061035156,-2.19931435585022,2.15220499038696,2.25960683822632,-1.9214480311499,2.13907097167731,2.33232495272651,1273.263,1314.878,3144.311,3156.284,-0.06845176,0.03849136,0.06099075,-1.03853893280029,-0.435559391975403,0.677000463008881,-1.05725102347782,-0.454905579228273,0.654488747383304,0
2.87998962402344,-2.21998691558838,2.14352941513062,2.27310752868652,-1.94253086194772,2.12999961857111,2.34537622930486,1267.899,1312.815,3142.251,3155.725,-0.06699555,0.03881729,0.0598417,-1.03362953662872,-0.433778524398804,0.675039887428284,-1.05214690704168,-0.452709420518306,0.651329056166547,0
2.89999389648438,-2.24055671691895,2.13489246368408,2.28656625747681,-1.96352501326936,2.1209664217661,2.35837260906308,1261.547,1309.708,3142.082,3154.531,-0.06549459,0.03915336,0.05868675,-1.02849245071411,-0.431865066289902,0.6729416847229,-1.04677621342161,-0.450398561093403,0.648004340974112,0
2.91999816894531,-2.26101875305176,2.126296043396,2.29997682571411,-1.98440911693069,2.11198057539494,2.37130086407726,1266.219,1307.59,3134.697,3148.447,-0.06392599,0.03951582,0.05748333,-1.02311623096466,-0.429805606603622,0.670528411865234,-1.04114485287423,-0.447975543971863,0.644518260536375,0
2.93998718261719,-2.28136920928955,2.1177442073822,2.3133373260498,-2.00516218376194,2.10305111051103,2.38414800105147,1272.107,1306.02,3129.892,3138.921,-0.06234087,0.03989636,0.05624343,-1.01750981807709,-0.427600502967834,0.668019533157349,-1.03525963910674,-0.445443300901551,0.640875032862689,0
2.95999145507813,-2.30160236358643,2.10923910140991,2.32664608955383,-2.02581075424974,2.0941666074844,2.39693044981124,1263.967,1303.553,3129.149,3139.74,-0.06077067,0.04027499,0.05502221,-1.01167058944702,-0.425257325172424,0.665438294410706,-1.02911391720548,-0.442798968459032,0.637070538244476,0
2.97999572753906,-2.32171416282654,2.10078358650208,2.33989763259888,-2.04633384260397,2.08533609591429,2.40963521915279,1264.757,1300.75,3123.624,3136.079,-0.05916692,0.04067087,0.05376802,-1.00559413433075,-0.422773599624634,0.662582755088806,-1.02271452148052,-0.440045487257004,0.633109007445237,0
3,-2.34170007705688,2.09238052368164,2.3530900478363,-2.06672639957428,2.07656174835205,2.42225918334961,1268.624,1298.734,3119.857,3127.356,-0.05754132,0.04108293,0.0524774,-0.999289631843567,-0.420152813196182,0.659618973731995,-1.01606400046349,-0.437183953857422,0.628992018127441,0
3.01998901367188,-2.3615550994873,2.0840322971344,2.36622047424316,-2.0869680292999,2.06785234056679,2.43478971639231,1264.844,1296.543,3116.928,3125.333,-0.05592425,0.04149812,0.05118864,-0.99275153875351,-0.417398273944855,0.656518459320068,-1.00917036754089,-0.434217816196637,0.624724530959079,0
3.03999328613281,-2.38127470016479,2.07574200630188,2.37928605079651,-2.10708469520508,2.05919670122237,2.4472428908773,1260.542,1293.418,3115.605,3122.671,-0.05427522,0.04192058,0.04989273,-0.985985219478607,-0.414515376091003,0.653276443481445,-1.00202586176059,-0.431143734953757,0.620301741541063,0
3.05999755859375,-2.40085411071777,2.06751227378845,2.39228081703186,-2.12705600675913,2.05060360379452,2.45960608409476,1264.824,1291.02,3108.118,3116.821,-0.05258465,0.04236172,0.04855623,-0.978983640670776,-0.41149565577507,0.649743795394897,-0.994638524886308,-0.427965170275055,0.615728628108227,0
3.07998657226563,-2.42028951644897,2.05934548377991,2.40520334243774,-2.14686207530873,2.04208160581513,2.47186698402085,1269.338,1289.164,3103.425,3108.153,-0.05089834,0.04281314,0.04718808,-0.971755504608154,-0.408342897891998,0.646126806735992,-0.987017247723776,-0.424685947625853,0.611010694492843,0
3.09999084472656,-2.43957543373108,2.05124378204346,2.41805219650269,-2.16652837486666,2.03361974652815,2.48404136028297,1260.779,1286.706,3102.753,3108.579,-0.04923652,0.04325886,0.04583659,-0.964300334453583,-0.405067324638367,0.64244556427002,-0.979153483542501,-0.421302389586788,0.606142649861596,0
3.1199951171875,-2.45870780944824,2.04321074485779,2.43082189559937,-2.18603502400946,2.02522658035469,2.49611690533293,1261.17,1283.818,3097.276,3104.633,-0.04754541,0.04371717,0.0444529,-0.95661598443985,-0.401669263839722,0.638488113880157,-0.971056158224178,-0.417818336715394,0.601130019760458,0
3.13999938964844,-2.47768211364746,2.03524804115295,2.44351005554199,-2.20537738341953,2.01690410346351,2.50809074721212,1265.724,1281.823,3092.788,3095.285,-0.04583833,0.04418784,0.04303147,-0.948709309101105,-0.398151427507401,0.634408116340637,-0.962728579444533,-0.414235212212131,0.595974851798267,0
3.15998840332031,-2.49649333953857,2.02735757827759,2.4561140537262,-2.22453632143911,2.00866054767245,2.51995104251302,1262.745,1279.83,3089.341,3092.3,-0.04415308,0.04465666,0.04161315,-0.94057708978653,-0.394518166780472,0.630202889442444,-0.954180774018563,-0.410557330335374,0.590683353051152,0
3.17999267578125,-2.51513767242432,2.01954174041748,2.46863150596619,-2.24353658854737,2.00048526354177,2.53171311296128,1257.961,1276.904,3087.769,3089.71,-0.04245665,0.04512546,0.04019555,-0.932225942611694,-0.390776932239532,0.625868439674377,-0.945403214201559,-0.406780591562751,0.585249625391267,0
3.19999694824219,-2.53361082077026,2.011803150177,2.48105669021606,-2.2623590635174,1.99238647840124,2.54336512160655,1261.097,1274.401,3080.827,3084.042,-0.04073305,0.04560454,0.03874682,-0.923653602600098,-0.386924028396606,0.621260166168213,-0.936405971974636,-0.402909329586355,0.579679903854719,0
3.21998596191406,-2.55190849304199,2.00414419174194,2.49338793754578,-2.280985241111,1.98437215453788,2.55489561282487,1264.976,1272.547,3076.06,3075.504,-0.03901797,0.04608784,0.03727351,-0.914867281913757,-0.382962942123413,0.616559267044067,-0.927199897745278,-0.398948213033402,0.573980905360615,0
3.239990234375,-2.57002592086792,1.9965660572052,2.50562357902527,-2.2994392795179,1.97643189735754,2.5663195416865,1257.229,1270.376,3074.418,3075.36,-0.03733379,0.04656157,0.03581872,-0.905868172645569,-0.378902435302734,0.611782431602478,-0.917774783907129,-0.394892849856044,0.568146310914365,0
3.25999450683594,-2.5879590511322,1.98907124996185,2.51775860786438,-2.31770268688992,1.96857366338589,2.57762546085652,1257.562,1267.649,3068.876,3071.081,-0.03563309,0.04704111,0.03433818,-0.896658957004547,-0.374745398759842,0.606752753257751,-0.90814153446928,-0.390747931744771,0.562182870617026,0
3.27999877929688,-2.60570383071899,1.98166143894196,2.5297908782959,-2.33577134012187,1.96079922667992,2.58881081793642,1261.103,1265.834,3064.542,3062.067,-0.03392814,0.04752504,0.0328302,-0.887245655059814,-0.370495438575745,0.601614058017731,-0.898304216251578,-0.386515208538549,0.556093102023818,0
3.29998779296875,-2.62325668334961,1.97433805465698,2.54171776771545,-2.35362764460945,1.95311615770631,2.59986472102797,1257.663,1264.059,3060.829,3059.239,-0.03225195,0.04800182,0.03133225,-0.877626895904541,-0.36615714430809,0.596347749233246,-0.888274735793772,-0.382199803288803,0.549884375850026,0
3.31999206542969,-2.64061260223389,1.96710348129272,2.55353689193726,-2.37129490830989,1.94551442770222,2.61080159886703,1253.185,1261.45,3058.75,3056.302,-0.03057149,0.04847363,0.02983937,-0.867811322212219,-0.361737668514252,0.590955257415771,-0.878042061913513,-0.37779696958594,0.54354986326829,0
3.33999633789063,-2.6577684879303,1.9599586725235,2.56524300575256,-2.38875555478454,1.93800159931817,2.62161057080077,1256.058,1259.152,3051.788,3050.559,-0.02887346,0.0489498,0.02832298,-0.857799708843231,-0.357235223054886,0.585306286811829,-0.867618167158097,-0.373311858882592,0.53709697585572,0
3.36000061035156,-2.67472076416016,1.95290589332581,2.5768346786499,-2.406005803634,1.93057929915441,2.6322892965819,1259.394,1257.556,3047.221,3041.957,-0.02719141,0.04942425,0.02679221,-0.847598314285278,-0.3526531457901,0.579581141471863,-0.857007552155826,-0.36874640767338,0.530528499715627,0
3.37998962402344,-2.69146466255188,1.94594597816467,2.58830952644348,-2.42302905329872,1.92325467039821,2.6428274990542,1253.787,1255.845,3043.774,3040.98,-0.02555623,0.04988514,0.0252828,-0.837208867073059,-0.347998321056366,0.573748171329498,-0.846223126656603,-0.364106170663035,0.523852426598178,0
3.39999389648438,-2.7079975605011,1.93907999992371,2.59966540336609,-2.43984769972619,1.91601807669906,2.65323904237604,1248.75,1253.346,3041.977,3038.138,-0.02391625,0.05034002,0.02377776,-0.826642572879791,-0.343279600143433,0.567797660827637,-0.835253140422974,-0.35938609205264,0.51706148254665,0
3.41999816894531,-2.72431564331055,1.93231022357941,2.61089754104614,-2.45644516534361,1.90887665092339,2.66351366424015,1251.205,1251.277,3035.497,3032.077,-0.02225284,0.05079727,0.02225146,-0.81590062379837,-0.338495582342148,0.561603188514709,-0.824110582941664,-0.354591760855451,0.510163708672097,0
3.43998718261719,-2.74041557312012,1.92563724517822,2.62200379371643,-2.47280564474684,1.90183719369507,2.67364158034846,1254.967,1249.862,3030.344,3023.466,-0.02060115,0.05125229,0.02071301,-0.804986596107483,-0.333647191524506,0.555312812328339,-0.812809078412023,-0.349729039183832,0.50316753900293,0
3.45999145507813,-2.75629353523254,1.91906237602234,2.63298296928406,-2.48895081463434,1.8948903781363,2.68363620960993,1248.672,1248.347,3027.819,3022.201,-0.0189894,0.05169181,0.01920388,-0.793904006481171,-0.328740417957306,0.548957049846649,-0.80133641229185,-0.344792671461508,0.496065412155666,0
3.47999572753906,-2.7719464302063,1.91258692741394,2.6438307762146,-2.50486489870395,1.88804299234919,2.69348778574196,1248.046,1245.988,3022.417,3018.608,-0.01738245,0.05212686,0.01769072,-0.782661378383636,-0.323780089616776,0.542387783527374,-0.789706299681989,-0.339788558913217,0.488865818431069,0
3.5,-2.78737163543701,1.90621161460876,2.654545545578,-2.5205447997813,1.88129636896134,2.70319439144611,1250.23,1244.45,3018.393,3010.529,-0.01578349,0.05255793,0.01616932,-0.771265625953674,-0.318769782781601,0.535735785961151,-0.777924000354857,-0.334718964672089,0.481572013878822,0
3.51998901367188,-2.80256605148315,1.89993739128113,2.66512513160706,-2.53597583877076,1.87465682397749,2.71274693966292,1246.116,1243.106,3014.632,3008.192,-0.01421862,0.05297577,0.01467139,-0.759719133377075,-0.313713550567627,0.528973698616028,-0.766004036374581,-0.329590137176618,0.474192988348404,0
3.53999328613281,-2.81752681732178,1.89376497268677,2.67556715011597,-2.55117869390181,1.86811546013321,2.72215823120146,1242.224,1241.042,3011.96,3005.074,-0.01265428,0.05338451,0.01318756,-0.748032033443451,-0.308616697788239,0.522098302841187,-0.753933682518821,-0.324396601119134,0.466720864320997,0
3.55999755859375,-2.83225107192993,1.88769543170929,2.68586754798889,-2.56613872308604,1.86167857751006,2.73141920191151,1244.578,1239.159,3005.629,2999.32,-0.01108035,0.05379076,0.01169595,-0.736208975315094,-0.303478807210922,0.515017807483673,-0.741727567798258,-0.319144650954242,0.459164697851087,0
3.57998657226563,-2.84673595428467,1.88172960281372,2.69602489471436,-2.58084213759183,1.85535210901407,2.74052131591136,1247.013,1237.948,3001.004,2991.76,-0.009528791,0.05418973,0.01020691,-0.72425389289856,-0.298301070928574,0.50787341594696,-0.72940084364523,-0.31384080592,0.451533868397061,0
3.59999084472656,-2.86097955703735,1.87586772441864,2.70603823661804,-2.59530884290342,1.84912748987145,2.74947689564398,1240.378,1236.688,2998.348,2991.138,-0.008020909,0.05457145,0.008754481,-0.712172091007233,-0.2930888235569,0.50067001581192,-0.716940488958392,-0.308479463400265,0.4438203152769,0
3.6199951171875,-2.87497901916504,1.87011075019836,2.71590399742126,-2.60952509409627,1.84301063413925,2.75827743234631,1239.766,1234.553,2993.439,2987.364,-0.00651569,0.05494742,0.007304219,-0.699974834918976,-0.287847012281418,0.493286430835724,-0.704361775018033,-0.303067194200314,0.436033492140578,0
3.63999938964844,-2.88873243331909,1.86445903778076,2.72562074661255,-2.6234885835008,1.83700253474321,2.76692149746096,1241.73,1233.299,2989.416,2979.786,-0.005019526,0.05531703,0.005854621,-0.68766713142395,-0.282577455043793,0.485832273960114,-0.691670720740692,-0.297606588091786,0.428177124984152,0
3.65998840332031,-2.90223741531372,1.85891366004944,2.73518657684326,-2.63718676607487,1.8311085894645,2.77540132500924,1238.423,1232.209,2985.498,2977.227,-0.003557451,0.05567342,0.004433959,-0.675252377986908,-0.277282744646072,0.478285998106003,-0.678883253871145,-0.292104498338286,0.420261073840379,0
3.67999267578125,-2.91549205780029,1.85347414016724,2.74459958076477,-2.65063849381582,1.82532068681534,2.78372858527554,1235.181,1230.468,2982.553,2974.21,-0.002106028,0.05601924,0.003034732,-0.66274094581604,-0.271967202425003,0.470650136470795,-0.665986083416798,-0.286555206197011,0.41227711095171,0
3.69999694824219,-2.92849516868591,1.84814143180847,2.75385689735413,-2.66383127580226,1.81964420129024,2.79189554578451,1236.857,1228.809,2977.083,2968.877,-0.0006562029,0.05635944,0.001640017,-0.650139629840851,-0.266631811857224,0.462860345840454,-0.65299527533123,-0.280965624398954,0.404235181908735,0
3.71998596191406,-2.94124412536621,1.8429160118103,2.76295733451843,-2.67675353880252,1.81408411252746,2.79989504215442,1238.028,1227.736,2972.938,2962.673,0.0007668537,0.0566901,0.0002602094,-0.637452185153961,-0.261277496814728,0.455022901296616,-0.639927289491732,-0.275342835169479,0.396145476159594,0
3.739990234375,-2.95373773574829,1.83779788017273,2.77189993858337,-2.68942333385363,1.80863265367006,2.80773824883709,1232.605,1226.617,2970.142,2961.645,0.002150144,0.05700509,-0.001080711,-0.624685525894165,-0.255908280611038,0.447136253118515,-0.62676873176137,-0.26968107538565,0.387999702095468,0
3.75999450683594,-2.96597480773926,1.83278727531433,2.78068208694458,-2.70182915057228,1.80329477731443,2.81541804035694,1232.487,1224.748,2965.526,2957.79,0.003524989,0.05731305,-0.002411759,-0.611851155757904,-0.250528544187546,0.439108788967133,-0.613536214864365,-0.263987493038594,0.379808143784027,0
3.77999877929688,-2.97795391082764,1.8278843164444,2.78930282592773,-2.7139695770734,1.79807109095524,2.82293354268985,1233.943,1223.689,2961.839,2951.148,0.004882708,0.05761334,-0.003730556,-0.598953485488892,-0.245139300823212,0.431039750576019,-0.60023651686137,-0.258265004538452,0.371574997167698,0
3.79998779296875,-2.98967385292053,1.82308948040009,2.79776096343994,-2.72583438304408,1.79296599641037,2.83027842278479,1230.811,1222.719,2958.182,2949.01,0.006202179,0.05789963,-0.005013667,-0.585997700691223,-0.2397430986166,0.422904133796692,-0.586886736182787,-0.252520966862155,0.36331084698941,0
3.81999206542969,-3.00113344192505,1.8184027671814,2.80605506896973,-2.73744054699573,1.78797218830065,2.83746319114912,1228.178,1221.19,2955.403,2946.064,0.007505274,0.05817543,-0.006270146,-0.572994351387024,-0.234343811869621,0.414708018302917,-0.573473482003301,-0.246749618311662,0.355007403690404,0
3.83999633789063,-3.01233243942261,1.81382369995117,2.81418299674988,-2.74877791451009,1.78309403578861,2.84448156171422,1229.512,1219.715,2950.471,2941.446,0.008797996,0.05844449,-0.007512778,-0.559950947761536,-0.228942781686783,0.406396597623825,-0.560014026276881,-0.240958390526246,0.346675359432959,0
3.8599853515625,-3.02326989173889,1.80935299396515,2.82214426994324,-2.75983729406747,1.77833549372837,2.85132784449154,1230.637,1218.785,2946.905,2935.647,0.01006036,0.05870369,-0.008733571,-0.54687112569809,-0.223540768027306,0.398068487644196,-0.546525890176286,-0.235154822377061,0.338325560657667,0
3.87998962402344,-3.03394556045532,1.80499005317688,2.82993841171265,-2.7706348636882,1.77368960116974,2.85801205444635,1225.802,1217.837,2944.118,2934.988,0.01127813,0.05894767,-0.009910155,-0.533762276172638,-0.218141138553619,0.389708995819092,-0.532995796775444,-0.22933320117373,0.329949788314816,0
3.89999389648438,-3.04435801506042,1.80073535442352,2.83756351470947,-2.78116151864576,1.76916027562219,2.86452855531919,1225.943,1216.133,2940.182,2931.271,0.01248077,0.05918407,-0.0110697,-0.520636677742004,-0.212748378515244,0.381255626678467,-0.519441457145543,-0.223501147495394,0.321559006401168,0
3.91999816894531,-3.05450773239136,1.79658794403076,2.84501910209656,-2.79141684911929,1.7647476934202,2.87087709341145,1227.217,1215.212,2936.736,2925.635,0.01365781,0.05941196,-0.01220793,-0.507498383522034,-0.207363396883011,0.372783243656158,-0.505870408491346,-0.2176619043907,0.313157880805522,0
