t,x_s1,x_s2,x_s3,x_s_d1,x_s_d2,x_s_d3,propellers_rpms1,propellers_rpms2,propellers_rpms3,propellers_rpms4,rollRad,pitchRad,yawRad,v_s1,v_s2,v_s3,v_s_d1,v_s_d2,v_s_d3,insideCount
0,-0.0599999986588955,2.94000005722046,1.17999994754791,-0.0599999986588955,2.94000005722046,1.17999994754791,0,0,0,0,0,0,0,0,0,0,-1.06581410364015E-15,4.44089209850063E-16,4.44089209850063E-16,0
0.0200042724609375,-0.0599999986588955,2.94000005722046,1.17811644077301,-0.0600018701838461,2.93999925195556,1.18000110611101,0,0,0,0,-0.01635288,0.0001297794,-0.01587137,-1.10653664009419E-09,-7.76775763711157E-08,-0.0941759571433067,-0.000280105751305916,-0.000120521679537258,0.00017339880334547,5
0.0399932861328125,-0.0599999986588955,2.94000005722046,1.17242503166199,-0.060014863945674,2.93999366110285,1.18000914986856,0,0,0,0,-0.03270202,0.0005238493,-0.03175127,-1.08383135799528E-09,-7.60859677484405E-08,-0.284568399190903,-0.00111059898697896,-0.000477859717552347,0.000687513678106196,5
0.05999755859375,-0.0599058829247952,2.93990302085876,1.16596519947052,-0.0600498857373401,2.93997859220429,1.18003083002592,1867.904,3252.744,3184.064,1722.533,-0.04942081,0.0003291642,-0.01369451,0.00470578344538808,-0.00484931888058782,-0.322993487119675,-0.00247936261166862,-0.00106680046642749,0.00153484356504269,5
0.0800018310546875,-0.0598203651607037,2.93960738182068,1.16000318527222,-0.0601175574246769,2.93994947496775,1.18007272202403,1925.689,2314.406,3251.882,2829.42,-0.07542925,-0.002135855,0.02094752,0.00427580904215574,-0.0147780273109674,-0.298102557659149,-0.00437268608126799,-0.00188144466206175,0.00270690098422899,5
0.100006103515625,-0.0599374361336231,2.93904495239258,1.15498661994934,-0.0602282404704493,2.93990185114529,1.18014124010193,980.3461,1498.873,3914.857,3896.541,-0.1031932,-0.008062454,0.06330631,-0.00585355889052153,-0.0281156711280346,-0.250828981399536,-0.00677739276378709,-0.00291612276782231,0.00419552897277328,4
0.1199951171875,-0.0604638308286667,2.93818354606628,1.15081322193146,-0.0603918861403606,2.93983143898525,1.18024254456713,346.4634,980.4227,4172.878,4613.283,-0.1214322,-0.01542023,0.1039995,-0.0263196937739849,-0.0430673956871033,-0.208668023347855,-0.00967801353495435,-0.00416417885169243,0.00599115140585487,4
0.139999389648438,-0.0615635961294174,2.93704128265381,1.1472829580307,-0.0606185767455666,2.93973390035084,1.18038287685052,352.6188,746.9421,3975.811,4854.936,-0.1254008,-0.0211668,0.1351052,-0.0549882985651493,-0.0571138560771942,-0.176511004567146,-0.0130660253322238,-0.00562194567796536,0.00808849210174802,4
0.160003662109375,-0.0633407980203629,2.93568110466003,1.14427495002747,-0.0609177895434042,2.93960515744296,1.18056810382587,821.0513,815.0817,3462.452,4692.405,-0.1184579,-0.0235237,0.15227,-0.0888602584600449,-0.0680143982172012,-0.150398463010788,-0.0169265510445065,-0.00728302204135792,0.0104783414199936,3
0.17999267578125,-0.0658467933535576,2.93417263031006,1.14182531833649,-0.0612985250199726,2.93944133760391,1.18080379722281,1348.888,1083.453,3006.435,4255.287,-0.1079816,-0.02277961,0.1557778,-0.125299856066704,-0.0754294916987419,-0.12248432636261,-0.0212433804254414,-0.00914043312572283,0.0131506644458931,3
0.199996948242188,-0.0690848529338837,2.93255424499512,1.14006161689758,-0.0617704296168641,2.93923829023936,1.18109592864822,1636.157,1380.875,2918.992,3666.399,-0.09982699,-0.02030128,0.1501564,-0.161903142929077,-0.0809147357940674,-0.0881832242012024,-0.0260104776919234,-0.0111915819022102,0.0161017247421801,3
0.220001220703125,-0.07301015406847,2.93082642555237,1.13903570175171,-0.0623420644491781,2.93899233174064,1.18144979784016,1641.461,1580.811,3147.989,3113.125,-0.09583758,-0.01735475,0.1421883,-0.196265012025833,-0.0863855555653572,-0.0512969195842743,-0.03121219533433,-0.0134297356845702,0.019321835755004,3
0.240005493164063,-0.0775498449802399,2.92897391319275,1.1386331319809,-0.0630219993990999,2.93869977472688,1.18187070996396,1524.375,1624.394,3417.466,2777.338,-0.09475687,-0.01467721,0.1377315,-0.226984634995461,-0.0926236063241959,-0.0201257336884737,-0.0368361158647881,-0.0158495515746756,0.0228033104678445,3
0.259994506835938,-0.0826387107372284,2.92699289321899,1.13863551616669,-0.0638179029240226,2.93835731967507,1.18236341216003,1439.035,1500.876,3533.281,2744.118,-0.09439361,-0.0125877,0.1393,-0.254443317651749,-0.0990569293498993,0.000120010226964951,-0.0428651747123285,-0.0184436871643672,0.0265355850983733,3
0.279998779296875,-0.0882445797324181,2.92490124702454,1.13885235786438,-0.0647390625194898,2.93796097043536,1.18293365383054,1399.965,1275.644,3477.404,2977.773,-0.09321223,-0.01110591,0.1456848,-0.280293583869934,-0.10458517074585,0.0108425812795758,-0.0492963837173861,-0.0212108567320638,0.030516809833474,3
0.300003051757813,-0.0943702906370163,2.92273306846619,1.13920712471008,-0.0657927507678135,2.93750759781875,1.18358593705038,1350.759,1061.717,3344.73,3324.865,-0.0905315,-0.009935189,0.1533117,-0.306285709142685,-0.108407631516457,0.0177368670701981,-0.0561132031658829,-0.0241439437008635,0.0347367458022363,3
0.319992065429688,-0.101035535335541,2.92052626609802,1.13972496986389,-0.0669855955880233,2.93699435001684,1.18432436481717,1281.432,941.3679,3236.938,3590.413,-0.08597909,-0.008523181,0.1583594,-0.333262503147125,-0.110341899096966,0.025895219296217,-0.0632980253096114,-0.0272353719486164,0.0391844929697465,3
0.339996337890625,-0.108251124620438,2.91831254959106,1.1404618024826,-0.068326768706371,2.93641728069206,1.18515461486636,1252.599,943.7689,3171.886,3649.935,-0.07944635,-0.006292517,0.1584779,-0.360779374837875,-0.110679976642132,0.0368400476872921,-0.0708499516420146,-0.0304847548730522,0.0438594951176439,4
0.360000610351563,-0.116002634167671,2.91611528396606,1.14145278930664,-0.0698225328270578,2.93577369517774,1.1860805641102,1319.626,1047.277,3120.463,3498.298,-0.07154582,-0.002963033,0.1534744,-0.387575656175613,-0.109858781099319,0.0495498925447464,-0.0787518717320621,-0.0338847303337087,0.0487511600740379,4
0.3800048828125,-0.124250948429108,2.91395020484924,1.14270758628845,-0.0714797725314022,2.93506063123087,1.18710647443246,1455.932,1181.968,3090.188,3231.046,-0.06361333,0.00125972,0.1450363,-0.412415713071823,-0.108256064355373,0.0627403184771538,-0.0869921272359981,-0.0374302820709642,0.0538522707687797,4
0.399993896484375,-0.132942706346512,2.91182684898376,1.14421713352203,-0.0733036822025899,2.9342758538535,1.18823556140379,1579.677,1273.704,3104.796,2981.623,-0.0570236,0.005826683,0.1357448,-0.4345882833004,-0.106164216995239,0.0754802748560905,-0.0955525119207663,-0.0411135764513579,0.0591515566763244,4
0.419998168945313,-0.142023101449013,2.90975069999695,1.14595806598663,-0.0753034649285836,2.93341540321397,1.18947352217404,1630.247,1288.164,3160.221,2844.997,-0.05244297,0.01017423,0.1278587,-0.454019516706467,-0.103803165256977,0.0870470255613327,-0.104434660908044,-0.0449353170220673,0.0646500300148815,4
0.44000244140625,-0.151445463299751,2.90772485733032,1.14789569377899,-0.077483988232608,2.93247718495301,1.19082336997196,1606.993,1238.178,3218.915,2843.148,-0.04965464,0.01397452,0.1224644,-0.471118867397308,-0.101292535662651,0.0968835949897766,-0.113620829717891,-0.048887868829098,0.0703367061060819,4
0.459991455078125,-0.161176115274429,2.90575218200684,1.14999675750732,-0.0798493430620752,2.93145943885026,1.19228763728888,1542.626,1158.551,3251.864,2937.745,-0.04788417,0.01718714,0.1193397,-0.486532658338547,-0.0986393392086029,0.105051420629025,-0.123092454730403,-0.0529632444654124,0.0762000931848968,4
0.479995727539063,-0.171192944049835,2.90383672714233,1.15223908424377,-0.0824088828700873,2.93035814037613,1.19387211435783,1473.559,1085.8,3249.194,3067.251,-0.0462884,0.01998633,0.1173797,-0.500841856002808,-0.0957777202129364,0.112117514014244,-0.132852887402757,-0.0571628859694044,0.0822422659629699,5
0.5,-0.18148036301136,2.90198397636414,1.15461564064026,-0.085166398670376,2.92917165836334,1.1955791479969,1431.422,1046.31,3216.151,3170.147,-0.04433258,0.02264309,0.1152249,-0.514370501041412,-0.0926392525434494,0.118827998638153,-0.142884000065179,-0.0614789935111996,0.0884520025491718,5
0.520004272460938,-0.192023515701294,2.90019941329956,1.15713453292847,-0.088127196023106,2.92789770997757,1.19741202260058,1424.485,1045.385,3176.853,3209.763,-0.04191869,0.02538009,0.1118821,-0.527158439159393,-0.089226596057415,0.125942334532738,-0.153174893518032,-0.065906877469682,0.0948225558197254,5
0.539993286132813,-0.202803790569305,2.89848661422729,1.15980982780457,-0.091293865515634,2.92653518056143,1.19937234186584,1445.803,1073.477,3148.893,3184.297,-0.03929973,0.0282898,0.1070453,-0.539012908935547,-0.0856380686163902,0.133763015270233,-0.163706645289342,-0.0704383960337938,0.101342211863077,5
0.55999755859375,-0.213797092437744,2.8968460559845,1.16265332698822,-0.094676112580471,2.92507989413848,1.20146611391775,1482.704,1113.472,3140.057,3114.629,-0.03689117,0.03132614,0.1010613,-0.549665212631226,-0.0820331424474716,0.142174914479256,-0.17448465888317,-0.0750758741803766,0.108014315705644,5
0.580001831054688,-0.224975317716599,2.89527440071106,1.16566812992096,-0.0982762614093182,2.92353085067394,1.20369477754168,1521.202,1148.802,3145.171,3035.271,-0.0351239,0.03434509,0.09465834,-0.558912098407745,-0.0785789787769318,0.150740250945091,-0.185490414529404,-0.0798113433697334,0.11482740272751,5
0.600006103515625,-0.236309945583344,2.89376592636108,1.16885125637054,-0.102098762959148,2.92188613504538,1.20606108809202,1542.405,1167.365,3162.324,2978.082,-0.0342866,0.03716327,0.0886142,-0.566731452941895,-0.0754195526242256,0.159157395362854,-0.196713446836865,-0.0846403006364086,0.121774994352997,5
0.6199951171875,-0.247775241732597,2.89231252670288,1.17219436168671,-0.106144683970236,2.92014528826426,1.20856570593183,1534.89,1167.305,3182.176,2964.103,-0.03442881,0.03963229,0.08345758,-0.573264539241791,-0.0726645216345787,0.167153775691986,-0.208134604141382,-0.0895545055543457,0.128845234789665,5
0.639999389648438,-0.259350508451462,2.89090490341187,1.17568743228912,-0.110424235525481,2.91830391678686,1.21121495220784,1504.376,1155.96,3196.494,2988.014,-0.03535666,0.04169471,0.07930443,-0.578764200210571,-0.0703816413879395,0.174654752016068,-0.219761081350814,-0.0945570538913933,0.136042578028218,5
0.660003662109375,-0.271020323038101,2.88953280448914,1.17932069301605,-0.114938248900541,2.91636166293851,1.21400934151928,1466.72,1144.313,3197.045,3031.747,-0.03677985,0.04338365,0.07591077,-0.58348947763443,-0.0685991644859314,0.181661710143089,-0.231574097577923,-0.0996398647564507,0.143355397804799,5
0.67999267578125,-0.282773286104202,2.88818621635437,1.1830894947052,-0.119686638739014,2.91431856344567,1.21694882102647,1431.692,1140.034,3189.552,3073.48,-0.03843847,0.04477889,0.07287908,-0.587649941444397,-0.0673267543315887,0.188440889120102,-0.243554411173546,-0.104794659005432,0.150771782621969,5
0.699996948242188,-0.294600337743759,2.88685464859009,1.18699252605438,-0.124680083855354,2.91217002351282,1.22004000142426,1403.014,1146.025,3178.409,3102.634,-0.04016686,0.04596652,0.06986016,-0.591352164745331,-0.066575825214386,0.195153295993805,-0.255710395848158,-0.11002503961202,0.158296916205407,5
0.720001220703125,-0.306492626667023,2.88552737236023,1.1910285949707,-0.129918284978346,2.90991617190799,1.22328269744952,1393.233,1162.813,3162.914,3107.66,-0.04192828,0.04702041,0.06663163,-0.594614446163177,-0.0663604885339737,0.201802030205727,-0.268023157655716,-0.11532287703907,0.16591910230247,5
0.740005493164063,-0.318441063165665,2.88419318199158,1.19519913196564,-0.13540428105644,2.90755570105657,1.22667879035609,1394.116,1185.383,3152.938,3092.649,-0.04382764,0.04795451,0.06321221,-0.597422242164612,-0.0667085498571396,0.208527982234955,-0.280482990349159,-0.120683994959631,0.173632332283853,5
0.759994506835938,-0.330436229705811,2.8828399181366,1.19950449466705,-0.14113644597991,2.90508931062815,1.2302272735046,1392.333,1207.707,3149.865,3074.532,-0.04601037,0.04873476,0.05980722,-0.599756598472595,-0.0676605999469757,0.215265646576881,-0.293070637251543,-0.126100107763583,0.181424685349205,5
0.779998779296875,-0.342469096183777,2.88145470619202,1.20394289493561,-0.147126184485884,2.90251209348295,1.23393520697061,1384.934,1226.229,3152.541,3060.14,-0.04855156,0.04931526,0.05665624,-0.601643562316895,-0.0692575201392174,0.22192108631134,-0.305795832832518,-0.131575403921268,0.189302187598958,5
0.800003051757813,-0.354532063007355,2.88002419471741,1.20850896835327,-0.153371683173492,2.89982482987671,1.2378014681726,1374.201,1240.51,3153.373,3054.86,-0.05147091,0.0496597,0.05393906,-0.603150188922882,-0.0715226083993912,0.228302881121635,-0.318639638509124,-0.13710173468952,0.197253115148089,5
0.819992065429688,-0.366619914770126,2.87853479385376,1.21319854259491,-0.159870162197751,2.89702871589906,1.2418243362541,1355.61,1251.117,3155.288,3059.96,-0.05473808,0.04974213,0.05175408,-0.604392290115356,-0.0744692012667656,0.234477683901787,-0.33158286215529,-0.142670842232658,0.205265587156312,4
0.839996337890625,-0.378729730844498,2.87697291374207,1.21800720691681,-0.166633637018892,2.89411858163313,1.24601124935738,1324.806,1259.431,3156.833,3079.205,-0.05825398,0.04955832,0.05010787,-0.605491697788239,-0.0780986696481705,0.24043370783329,-0.344636106234817,-0.148287288494656,0.213346167053785,4
0.860000610351563,-0.390860855579376,2.87532520294189,1.22292864322662,-0.173659158941841,2.89109569582005,1.2503603820997,1299.705,1268.94,3151.19,3098.471,-0.06187215,0.04915025,0.04886764,-0.606555581092834,-0.0823912471532822,0.246070623397827,-0.357780475378537,-0.153942943326036,0.221483157706883,4
0.8800048828125,-0.403014242649078,2.87357878684998,1.2279599905014,-0.180948461186242,2.88795931270381,1.25487280742661,1279.555,1281.179,3144.884,3111.715,-0.06550843,0.04855662,0.04791164,-0.607671499252319,-0.0873234272003174,0.251565337181091,-0.371007022483504,-0.159633957038354,0.229671020432672,4
0.899993896484375,-0.415191948413849,2.87172150611877,1.23309874534607,-0.18849723509595,2.8847112861788,1.25954585807468,1259.34,1295.407,3138.63,3123.728,-0.06912448,0.04780713,0.04717459,-0.608885645866394,-0.0928679034113884,0.256937116384506,-0.384296738353309,-0.165352150505452,0.237897987633041,4
0.919998168945313,-0.427396535873413,2.86974143981934,1.23834311962128,-0.196318384305134,2.8813460641717,1.26438752200817,1243.653,1310.638,3134.261,3129.191,-0.07267766,0.04693081,0.04661581,-0.610229432582855,-0.0989981666207314,0.262220233678818,-0.397661187980262,-0.171102499820431,0.246171218589148,4
0.94000244140625,-0.43963086605072,2.8676278591156,1.24368965625763,-0.204407453948074,2.87786556348678,1.26939504145298,1236.909,1326.468,3127.472,3128.664,-0.07617493,0.04594852,0.0462346,-0.611716270446777,-0.105676487088203,0.267324715852737,-0.411081631631503,-0.176876941799768,0.254479112513653,4
0.959991455078125,-0.451898366212845,2.86537027359009,1.24913740158081,-0.212759000778906,2.87427212620069,1.27456504678061,1230.521,1341.262,3124.777,3126.194,-0.07966261,0.04485666,0.04609334,-0.613375127315521,-0.112876415252686,0.272388637065887,-0.424539267042903,-0.182667386354485,0.262810029909387,3
0.979995727539063,-0.464203119277954,2.86295890808105,1.25468552112579,-0.22138664033507,2.87055989392801,1.27990596665734,1214.513,1353.298,3126.307,3132.208,-0.08315241,0.04364318,0.04627786,-0.615237653255463,-0.120571658015251,0.277405470609665,-0.438046240701377,-0.188479059778567,0.271171490030365,3
1,-0.476549983024597,2.86038446426392,1.26032996177673,-0.230284798736574,2.86673126495361,1.28541435058594,1204.1,1363.404,3124.322,3138.29,-0.08659162,0.04232479,0.04678025,-0.617343187332153,-0.128719553351402,0.282219499349594,-0.451584000205995,-0.194303979492187,0.279552008056641,3
1.02000427246094,-0.488944917917252,2.85763883590698,1.26606941223145,-0.239454009753966,2.86278600961093,1.2910905289958,1194.685,1372.523,3123.814,3143.952,-0.08995679,0.04091015,0.04759602,-0.619746327400208,-0.137283861637115,0.286971420049667,-0.465144357597929,-0.200138622445408,0.287946515251652,3
1.03999328613281,-0.501394629478455,2.85471439361572,1.27190232276917,-0.248887339851819,2.85872711120656,1.2969302096982,1179.872,1380.381,3123.507,3156.504,-0.09322342,0.03940838,0.0487188,-0.622485935688019,-0.146220356225967,0.29164719581604,-0.478708875293167,-0.205975055460915,0.29634359787259,3
1.05999755859375,-0.51390665769577,2.8516047000885,1.27782785892487,-0.258599401509697,2.85454828239877,1.30294243851408,1166.412,1387.229,3124.137,3168.235,-0.09631535,0.03784603,0.05008943,-0.625600755214691,-0.155484646558762,0.296277284622192,-0.492290296490434,-0.211818761581115,0.30475114456651,3
1.08000183105469,-0.526488780975342,2.84830451011658,1.28384339809418,-0.268583149539609,2.85025255453512,1.30912285413647,1162.275,1394.649,3119.889,3175.866,-0.09919689,0.0362577,0.05163186,-0.629106044769287,-0.165015056729317,0.300774455070496,-0.50587040849135,-0.217661904390701,0.313157880805523,3
1.10000610351563,-0.539149224758148,2.84480905532837,1.28994989395142,-0.278838480013141,2.84583997233313,1.31547139222872,1160.601,1402.125,3118.364,3179.844,-0.1018872,0.034659,0.05331768,-0.633022010326385,-0.174768671393394,0.305324763059616,-0.519441457145546,-0.223501147495394,0.321559006401169,3
1.1199951171875,-0.551896214485168,2.84111499786377,1.29614865779877,-0.289357002179081,2.84131414609862,1.32198285851614,1154.274,1408.51,3119.484,3187.583,-0.1044044,0.03305629,0.05515526,-0.637348771095276,-0.18470224738121,0.309935569763184,-0.532985466132485,-0.229328756186667,0.329943393154705,3
1.13999938964844,-0.564737975597382,2.83721947669983,1.30244076251984,-0.300154365346813,2.83666834237095,1.3286669406667,1148.803,1413.225,3123.092,3194.019,-0.1067081,0.03146587,0.05712865,-0.642089486122131,-0.194774433970451,0.314603835344315,-0.546515580872639,-0.235150386571708,0.338319178707607,3
1.16000366210938,-0.577682733535767,2.83312106132507,1.30882489681244,-0.311222084148811,2.83190621216671,1.33551838583369,1152.796,1417.677,3122.012,3196.698,-0.1087891,0.02990929,0.05920545,-0.647235035896301,-0.204925164580345,0.319205820560455,-0.560014026276883,-0.240958390526247,0.34667535943296,3
1.17999267578125,-0.590738594532013,2.82881879806519,1.31530320644379,-0.322550701230474,2.8270318247214,1.34253133946411,1157.285,1421.23,3123.539,3198.535,-0.110689,0.02838765,0.06139302,-0.65279632806778,-0.215116024017334,0.323914170265198,-0.573463232144024,-0.246745208083563,0.355001058539242,3
1.19999694824219,-0.603914141654968,2.82431244850159,1.32187855243683,-0.334156660511822,2.8220381046756,1.34971598112778,1152.088,1422.645,3129.259,3208.172,-0.1124211,0.02689518,0.06371693,-0.65877377986908,-0.225312560796738,0.328766614198685,-0.58687652428584,-0.252516572968185,0.36330452533874,3
1.22000122070313,-0.617217242717743,2.81960320472717,1.32855069637299,-0.346030421585499,2.81692915700008,1.35706640485806,1154.739,1423.401,3130.739,3214.897,-0.1139439,0.02545791,0.06611575,-0.665158271789551,-0.235462754964828,0.33360543847084,-0.600236516861372,-0.258265004538453,0.371574997167698,3
1.24000549316406,-0.63065642118454,2.81469249725342,1.33532226085663,-0.358170848086624,2.8117054706409,1.36458190719098,1160.374,1424.062,3133.776,3218.16,-0.1152653,0.02408593,0.06855968,-0.671956956386566,-0.245533138513565,0.338579088449478,-0.613536214864368,-0.263987493038594,0.379808143784027,2
1.25999450683594,-0.644239485263824,2.80958271026611,1.34219598770142,-0.3705671011502,2.80637170925886,1.37225577835275,1161.376,1423.857,3138.216,3225.773,-0.1164041,0.02278031,0.0710489,-0.679155766963959,-0.255488067865372,0.343688577413559,-0.626758665639206,-0.269676744214496,0.387993470686331,2
1.27999877929688,-0.657974421977997,2.80427670478821,1.3491747379303,-0.383236695417198,2.80092033679326,1.3800988607405,1162.449,1422.418,3144.493,3232.697,-0.1173288,0.02155298,0.07355347,-0.686743199825287,-0.265295952558517,0.348940402269363,-0.639917282339435,-0.275338529371412,0.396139281255613,2
1.30000305175781,-0.671868145465851,2.79877853393555,1.35625898838043,-0.396168722856641,2.79535604666509,1.38810440176341,1172.627,1421.719,3145.251,3235.648,-0.1180393,0.02042424,0.07602268,-0.694690346717834,-0.274907469749451,0.354211717844009,-0.652995275331231,-0.280965624398954,0.404235181908735,2
1.31999206542969,-0.685928046703339,2.79309248924255,1.36345267295837,-0.409351342777246,2.78968393359302,1.39626507146953,1183.047,1420.739,3148.914,3236.683,-0.1185884,0.01939179,0.07845231,-0.702991127967834,-0.284300833940506,0.35968342423439,-0.665976209205206,-0.286550957599616,0.412270998344359,2
1.33999633789063,-0.700160503387451,2.78722333908081,1.37076044082642,-0.422802873722428,2.78389611561957,1.40459220990988,1183.603,1417.953,3157.536,3244.109,-0.1189948,0.0184438,0.08087021,-0.711622953414917,-0.293460875749588,0.365388095378876,-0.678873453515705,-0.29210028151913,0.420255006953505,2
1.36000061035156,-0.714571416378021,2.78117632865906,1.3781830072403,-0.436511415158101,2.77799771321212,1.41307845008695,1192.571,1415.327,3161.002,3247.678,-0.1192303,0.01760058,0.08322684,-0.720548570156097,-0.302351295948029,0.371130377054214,-0.691670720740693,-0.297606588091785,0.42817712498415,2
1.3800048828125,-0.729166567325592,2.77495718002319,1.38572406768799,-0.450474904562636,2.77198961381608,1.4217225152016,1204.366,1412.72,3165.937,3247.522,-0.1193219,0.01686132,0.08551169,-0.72975891828537,-0.310956388711929,0.377051144838333,-0.704361775018035,-0.303067194200314,0.436033492140578,2
1.39999389648438,-0.743951141834259,2.7685718536377,1.3933869600296,-0.464680216184654,2.76587746507559,1.43051627978847,1210.014,1409.177,3172.514,3252.564,-0.1193054,0.01621427,0.08774737,-0.739226341247559,-0.319261193275452,0.383145958185196,-0.716930938559026,-0.308475354130225,0.443814403124744,2
1.41999816894531,-0.75892972946167,2.7620267868042,1.40117514133453,-0.47914673136562,2.75965292774086,1.43947174182117,1213.919,1404.384,3181.074,3257.987,-0.1191509,0.01566147,0.08992002,-0.748929798603058,-0.327255398035049,0.389408797025681,-0.729391385793766,-0.313836736470737,0.451528013536465,2
1.44000244140625,-0.774106323719025,2.75532865524292,1.40908885002136,-0.493861275572861,2.75332167044526,1.4485807456364,1226.265,1400.936,3182.933,3260.077,-0.1188606,0.01521739,0.09198315,-0.758829772472382,-0.334908336400986,0.395686537027359,-0.741727567798258,-0.319144650954242,0.459164697851088,2
1.45999145507813,-0.789484679698944,2.74848437309265,1.41713201999664,-0.508809800712713,2.74688973769103,1.45783459479497,1238.504,1397.499,3187.483,3260.046,-0.118484,0.01487437,0.09393211,-0.76891827583313,-0.342217564582825,0.402161329984665,-0.753924423002454,-0.324392617007921,0.466715132239272,2
1.47999572753906,-0.805068075656891,2.74150061607361,1.42530930042267,-0.524012471663969,2.74034845309416,1.46724577231745,1240.172,1392.466,3197.174,3266.229,-0.1180345,0.01461557,0.09579801,-0.779167532920837,-0.349188983440399,0.408862560987473,-0.765994882555672,-0.329586198544069,0.474187321698441,2
1.5,-0.820858538150787,2.73438453674316,1.43362069129944,-0.539455198877605,2.73370387899399,1.4768055561018,1250.095,1388.455,3200.708,3268.403,-0.1174843,0.01445773,0.09753423,-0.789529621601105,-0.355804890394211,0.415572047233582,-0.777924000354858,-0.334718964672088,0.481572013878822,1
1.52000427246094,-0.836858451366425,2.72714328765869,1.44206917285919,-0.555135099954955,2.72695725560613,1.48651216180595,1262.958,1384.816,3205.383,3266.371,-0.1168627,0.01439636,0.09913459,-0.79999178647995,-0.362066745758057,0.42242506146431,-0.789706299681991,-0.339788558913217,0.48886581843107,1
1.53999328613281,-0.853068888187408,2.71978378295898,1.45065760612488,-0.571036956668503,2.72011513090874,1.49635616862212,1269.138,1380.435,3211.921,3269.331,-0.1162076,0.01441348,0.1006318,-0.810522615909576,-0.367978990077972,0.429419219493866,-0.801327600455846,-0.344788879974649,0.496059957209413,1
1.55999755859375,-0.8694908618927,2.71231269836426,1.45938837528229,-0.587181951496087,2.71316839067337,1.50635068951315,1272.719,1374.969,3220.563,3272.85,-0.1154896,0.01450593,0.1020248,-0.821097910404205,-0.373550087213516,0.436538636684418,-0.812800388649436,-0.349725300221754,0.503162159625937,1
1.58000183105469,-0.886124312877655,2.70473742485046,1.4682605266571,-0.60355483331529,2.70612359703193,1.51648628330776,1284.546,1371.315,3221.751,3273.173,-0.1147093,0.01468417,0.1032767,-0.831674158573151,-0.378766149282455,0.443609088659286,-0.824110582941666,-0.354591760855452,0.510163708672098,0
1.60000610351563,-0.902969241142273,2.69706463813782,1.4772766828537,-0.620152298932711,2.69898217125626,1.52676090517188,1296.01,1367.764,3225.43,3271.476,-0.1139162,0.01493614,0.1043907,-0.842246770858765,-0.383638918399811,0.450809687376022,-0.835253140422976,-0.35938609205264,0.51706148254665,0
1.6199951171875,-0.920025050640106,2.68930101394653,1.48643946647644,-0.636958033083316,2.69175113334911,1.53716445517924,1299.043,1363.326,3232.311,3274.976,-0.1131353,0.01524388,0.105398,-0.852788627147675,-0.388186752796173,0.458139002323151,-0.846214826007804,-0.364102599125749,0.523847288101157,0
1.63999938964844,-0.937290489673615,2.68145251274109,1.4957503080368,-0.653994195024907,2.68442094880091,1.54771065096602,1300.143,1358.058,3240.989,3278.107,-0.1123146,0.01560762,0.1062938,-0.863273978233337,-0.392426669597626,0.465544611215591,-0.857007552155828,-0.368746407673381,0.530528499715628,0
1.66000366210938,-0.954763650894165,2.67352557182312,1.505206823349,-0.671244443874359,2.67699864863716,1.55838937674714,1311.665,1355.138,3240.767,3276.762,-0.1114469,0.01604107,0.1070394,-0.87365734577179,-0.396347641944885,0.472826361656189,-0.867618167158098,-0.373311858882592,0.53709697585572,0
1.67999267578125,-0.972442328929901,2.66552639007568,1.5148104429245,-0.688691692550512,2.66949158495151,1.56919005480539,1323.262,1352.443,3242.753,3273.277,-0.1105936,0.0165293,0.1076457,-0.883938193321228,-0.399963766336441,0.480181753635406,-0.878034183119987,-0.377793579561193,0.543544985919778,0
1.69999694824219,-0.990324378013611,2.65746021270752,1.52456367015839,-0.706358800111611,2.66188992212981,1.58012683598675,1322.033,1347.926,3250.863,3277.249,-0.1097734,0.01704652,0.1081632,-0.894098877906799,-0.403303474187851,0.487662762403488,-0.888267004546665,-0.382196476749158,0.549879589839776,0
1.72000122070313,-1.00840628147125,2.64933276176453,1.53446424007416,-0.724228658537036,2.6542010212754,1.5911891296115,1327.51,1344.858,3252.463,3278.279,-0.108951,0.01760673,0.1085554,-0.904096841812134,-0.406371414661407,0.495030432939529,-0.898304216251578,-0.386515208538549,0.556093102023817,0
1.74000549316406,-1.02668488025665,2.64114904403687,1.54451239109039,-0.742297311768984,2.64642658456943,1.60237448669139,1336.109,1342.333,3255.063,3274.597,-0.1081403,0.01820607,0.1088175,-0.913930416107178,-0.409185022115707,0.502410650253296,-0.908141534469281,-0.390747931744771,0.562182870617028,0
1.75999450683594,-1.04515647888184,2.63291382789612,1.55470824241638,-0.760546715064628,2.63857437616062,1.61367173667103,1338.287,1339.347,3259.137,3275.588,-0.1073675,0.01882603,0.1089869,-0.923577666282654,-0.411763072013855,0.509792506694794,-0.917767514700581,-0.394889722119545,0.568141810929231,0
1.77999877929688,-1.06381702423096,2.62463140487671,1.56505143642426,-0.779000609654483,2.63063418086074,1.62509557650306,1337.738,1335.551,3264.959,3277.262,-0.1065968,0.01946321,0.1090689,-0.933025062084198,-0.414125978946686,0.517158687114716,-0.927192788821983,-0.398945154262308,0.57397650459845,0
1.80000305175781,-1.08266186714172,2.61630606651306,1.57553803920746,-0.797640935141499,2.62261376955408,1.63663482594136,1345.552,1333.995,3262.545,3275.962,-0.1058282,0.02012816,0.1090305,-0.942238688468933,-0.416270703077316,0.524328172206879,-0.936405971974637,-0.402909329586356,0.579679903854719,0
1.81999206542969,-1.10168635845184,2.60794162750244,1.58616816997528,-0.816448984455027,2.61452119137054,1.64827790441807,1352.679,1332.579,3263.293,3272.289,-0.1051086,0.02080799,0.1088804,-0.951229274272919,-0.418218284845352,0.531505584716797,-0.945396434568188,-0.406777674475912,0.585245428475252,0
1.83999633789063,-1.1208860874176,2.59954166412354,1.59694254398346,-0.835449117627072,2.60634596486888,1.66003989195343,1347.295,1329.484,3270.034,3275.646,-0.104438,0.02148075,0.1086689,-0.959985375404358,-0.420000374317169,0.538720548152924,-0.954174163352093,-0.410554485950274,0.590679260733698,0
1.86000061035156,-1.14025557041168,2.59110927581787,1.60785675048828,-0.854622615239374,2.59809614449182,1.6719092003358,1350.283,1328.163,3268.909,3275.53,-0.1037754,0.02216489,0.1083568,-0.968469798564911,-0.421620756387711,0.545709013938904,-0.962728579444532,-0.414235212212131,0.595974851798267,0
1.8800048828125,-1.15978956222534,2.5826473236084,1.61890935897827,-0.873964974649439,2.58977366760063,1.68388304221498,1357.076,1327.46,3268.879,3270.131,-0.1031389,0.02285633,0.1079423,-0.976692020893097,-0.423095256090164,0.55262815952301,-0.971056158224177,-0.417818336715394,0.601130019760457,0
1.89999389648438,-1.17948222160339,2.57415819168091,1.63009893894196,-0.893456683142228,2.58138692997148,1.69594933829086,1355.897,1326.148,3270.902,3270.649,-0.1025615,0.02353455,0.1074719,-0.984639585018158,-0.424443244934082,0.5594801902771,-0.979147395688901,-0.421299770153459,0.606138881190213,0
1.91999816894531,-1.19932842254639,2.56564474105835,1.64142394065857,-0.913122862707269,2.57292512231409,1.70812364027167,1351.561,1323.892,3275.122,3271.975,-0.1019996,0.02419774,0.1069528,-0.992308557033539,-0.425685912370682,0.566248059272766,-0.987011339258123,-0.424683405378145,0.611007036871143,0
1.94000244140625,-1.21932184696198,2.5571084022522,1.65287864208221,-0.932943991899774,2.5643966441608,1.72039386345315,1356.045,1323.861,3270.647,3270.394,-0.1014441,0.02486016,0.1063497,-0.999672532081604,-0.426818281412125,0.572733163833618,-0.994638524886308,-0.427965170275055,0.615728628108227,0
1.95999145507813,-1.23945689201355,2.54855132102966,1.66446173191071,-0.952900013794853,2.55581012544606,1.73274759164336,1360.784,1324.031,3269.421,3265.54,-0.1009365,0.02551165,0.1056697,-1.00675201416016,-0.42785769701004,0.579156160354614,-1.00202031904361,-0.431141350077486,0.620298310335216,0
1.97999572753906,-1.25972759723663,2.53997468948364,1.6761726140976,-0.973016570682103,2.54715453300902,1.74520069864106,1352.24,1322.535,3274.083,3268.732,-0.1004789,0.02613072,0.104968,-1.01354277133942,-0.42883113026619,0.585546255111694,-1.00916501115878,-0.434215511495054,0.624721215103391,0
2,-1.28012800216675,2.53137993812561,1.6880054473877,-0.993273599084619,2.53843849960327,1.7577407641983,1352.658,1322.671,3270.896,3268.129,-0.1000246,0.02673843,0.1042021,-1.02001750469208,-0.429738521575928,0.591642320156097,-1.01606400046349,-0.437183953857422,0.628992018127441,0
2.02000427246094,-1.30065178871155,2.52276802062988,1.69995772838593,-1.01366615605493,2.52966415204104,1.77036472839513,1356.832,1323.374,3269.083,3262.233,-0.09959157,0.02733319,0.1033699,-1.02619338035583,-0.43059104681015,0.597613394260406,-1.02271452148052,-0.440045487257004,0.633109007445237,0
2.03999328613281,-1.32129311561584,2.51413989067078,1.7120269536972,-1.03417354141348,2.52084039703127,1.78305977683431,1352.895,1323.454,3269.358,3262.498,-0.09920808,0.02789618,0.1025188,-1.03206467628479,-0.431402921676636,0.60346120595932,-1.02910913225408,-0.442796909628122,0.637067576131623,0
2.05999755859375,-1.34204578399658,2.50549602508545,1.72421038150787,-1.05482201812353,2.5119559343546,1.79584216754118,1345.979,1322.523,3271.814,3263.618,-0.09882778,0.02842863,0.1016539,-1.03763437271118,-0.432189404964447,0.609169602394104,-1.03525504859546,-0.445441325732794,0.640872191117535,0
2.08000183105469,-1.3629035949707,2.49683713912964,1.73650133609772,-1.07559088172821,2.50301967256038,1.80869908347065,1348.611,1323.647,3265.735,3261.287,-0.09843735,0.02894704,0.1007381,-1.04288351535797,-0.432939499616623,0.614545106887817,-1.04114485287423,-0.447975543971863,0.644518260536375,0
2.10000610351563,-1.38386034965515,2.48816394805908,1.74889755249023,-1.09647498538954,2.49403382618922,1.82162733848484,1351.411,1324.928,3262.825,3256.07,-0.0980789,0.02944308,0.09977997,-1.04783666133881,-0.433663249015808,0.619810521602631,-1.04677621342161,-0.450398561093403,0.648004340974112,0
2.1199951171875,-1.40491008758545,2.47947645187378,1.76139676570892,-1.11745308225396,2.48500753716864,1.83461377976925,1344.129,1325.309,3263.264,3257.81,-0.09777264,0.02989998,0.09882326,-1.05249154567719,-0.434376746416092,0.624961793422699,-1.0521429102862,-0.45270770082608,0.651326581984514,0
2.13999938964844,-1.42604732513428,2.47077465057373,1.77399587631226,-1.138551967509,2.47592927627801,1.8476749948214,1335.272,1324.753,3265.779,3258.907,-0.09744772,0.03032562,0.09786375,-1.05685102939606,-0.435093283653259,0.62995457649231,-1.05725102347782,-0.454905579228273,0.654488747383304,0
2.16000366210938,-1.44726514816284,2.46205878257751,1.78668737411499,-1.15975039167652,2.46680818657414,1.86079782920208,1338.016,1326.334,3258.814,3255.494,-0.09708394,0.03074046,0.09686131,-1.06089472770691,-0.43579488992691,0.634574055671692,-1.0620943502576,-0.456989527434725,0.657486997379635,0
2.17999267578125,-1.46855807304382,2.45332908630371,1.79946851730347,-1.18102676265167,2.45765355853653,1.8739689163698,1341.935,1328.142,3254.518,3248.903,-0.096734,0.03113499,0.09582788,-1.06464779376984,-0.436484396457672,0.639056980609894,-1.06666760390386,-0.458957270716794,0.660318059240953,0
2.19999694824219,-1.48992037773132,2.44458556175232,1.81233775615692,-1.20240821395574,2.44845371736898,1.88720505326679,1331.131,1328.155,3256.559,3251.813,-0.09641602,0.03148642,0.09482457,-1.06811559200287,-0.437177747488022,0.643464267253876,-1.07097597819164,-0.460811043810786,0.662985148161421,0
2.22000122070313,-1.51134586334229,2.43582820892334,1.82528865337372,-1.22387315175433,2.43921795429519,1.90049287228091,1328.372,1329.101,3251.781,3251.621,-0.09608046,0.03181806,0.09380583,-1.07128179073334,-0.437866866588593,0.647542238235474,-1.07501419914593,-0.462548577472581,0.665484999299265,0
2.24000549316406,-1.53282928466797,2.42705726623535,1.83831787109375,-1.24541615591711,2.42994860144581,1.91382901809327,1329.943,1330.514,3248.741,3245.394,-0.09572946,0.03213312,0.09276281,-1.07416880130768,-0.438554733991623,0.651461064815521,-1.07878069424208,-0.464169195088763,0.667816639186824,0
2.25999450683594,-1.55436491966248,2.4182722568512,1.85142195224762,-1.26701526177039,2.4206551096063,1.92719989352455,1323.944,1331.391,3247.174,3245.484,-0.09538857,0.03241734,0.09173837,-1.07677364349365,-0.43924343585968,0.655206859111786,-1.08227143928024,-0.465671165158559,0.669977576652695,0
2.27999877929688,-1.57594704627991,2.40947365760803,1.86459743976593,-1.28869796983554,2.41132564607061,1.9406225227075,1316.233,1331.197,3247.619,3245.679,-0.09500881,0.03267566,0.09073146,-1.07910418510437,-0.439935863018036,0.658775150775909,-1.08549040888332,-0.467056197851165,0.67197027217779,0
2.30000305175781,-1.59756994247437,2.40066146850586,1.87783706188202,-1.31044231452835,2.40196966201596,1.95408330789913,1318.195,1332.658,3239.739,3242.749,-0.09458163,0.03292588,0.08970367,-1.08114659786224,-0.440610289573669,0.661980628967285,-1.08843358680109,-0.468322565086307,0.673792239511894,0
2.31999206542969,-1.61922836303711,2.39183616638184,1.8911384344101,-1.33222611841886,2.3925966997709,1.96756852021384,1320.306,1334.181,3235.54,3236.747,-0.0941534,0.03316066,0.08866205,-1.08292734622955,-0.44126832485199,0.665066540241241,-1.09109790637238,-0.469468947365361,0.675441580245663,0
2.33999633789063,-1.64091730117798,2.38299775123596,1.90449976921082,-1.35407709248145,2.38319483607731,1.98109531406483,1308.295,1334.09,3237.222,3239.855,-0.09372836,0.03336239,0.08766038,-1.08444941043854,-0.441920638084412,0.668066143989563,-1.09348640563071,-0.470496651869278,0.67692017506657,0
2.36000061035156,-1.66263139247894,2.3741466999054,1.91791415214539,-1.37597305876702,2.37377361348711,1.99464996024512,1306.326,1334.788,3231.686,3238.551,-0.09325112,0.03355738,0.08664611,-1.08569693565369,-0.442552238702774,0.670718491077423,-1.09559602313537,-0.471404361345641,0.678226128796969,0
2.3800048828125,-1.68436515331268,2.36528348922729,1.9313782453537,-1.39790843013262,2.36433543599182,2.00822900004707,1309.13,1335.996,3227.656,3231.192,-0.09273393,0.03374805,0.08561271,-1.08669018745422,-0.443159610033035,0.673206329345703,-1.09742594550583,-0.472191725819537,0.679358937915576,0
2.39999389648438,-1.70611357688904,2.35640859603882,1.94488883018494,-1.41986083522252,2.35488992936084,2.02181858453579,1303.683,1336.585,3225.355,3230.787,-0.09221248,0.03391878,0.08460627,-1.08742642402649,-0.443740129470825,0.675529718399048,-1.09897439291323,-0.472857979480329,0.680317500623536,0
2.41999816894531,-1.72787189483643,2.3475227355957,1.95844256877899,-1.44185817738692,2.34542508756209,2.03543598721428,1295.79,1335.896,3225.432,3231.077,-0.0916415,0.03407381,0.08362532,-1.08791375160217,-0.444294184446335,0.677686870098114,-1.10024313330221,-0.473403883025206,0.681102911362803,0
2.44000244140625,-1.74963474273682,2.33862686157227,1.97203242778778,-1.46387808506052,2.33595053645515,2.04906735901791,1297.693,1336.568,3217.724,3227.854,-0.09100607,0.03423224,0.08262756,-1.08814001083374,-0.444798767566681,0.679494261741638,-1.10123038958312,-0.473828671822132,0.681714070030222,0
2.45999145507813,-1.77139735221863,2.32972192764282,1.98565602302551,-1.48589810917879,2.32647593524532,2.06269880290633,1300.195,1337.385,3213.299,3221.432,-0.09034827,0.03438821,0.08161771,-1.08812761306763,-0.445252150297165,0.681182146072388,-1.10193535162022,-0.474131997292339,0.68215047511319,0
2.47999572753906,-1.79315495491028,2.32080841064453,1.99931168556213,-1.50794623031618,2.31698924467309,2.07634764018804,1289.182,1336.76,3214.309,3223.893,-0.08967716,0.03452526,0.08064629,-1.0878781080246,-0.445660412311554,0.682785093784332,-1.10235882472314,-0.474314205938057,0.682412625136718,0
2.5,-1.81490254402161,2.3118884563446,2.01299285888672,-1.52999999932945,2.30750012397766,2.08999997377396,1288.161,1336.639,3208.513,3221.952,-0.08893946,0.03466809,0.07966065,-1.08737683296204,-0.446006685495377,0.684053957462311,-1.10250000050292,-0.474374949932098,0.682500019669533,0
2.52000427246094,-1.83663523197174,2.30296277999878,2.02669620513916,-1.55205376834272,2.29801100328223,2.10365230735988,1291.579,1337.025,3204.168,3214.364,-0.08815223,0.03481903,0.07865338,-1.08664095401764,-0.446285963058472,0.685169219970703,-1.10235882472314,-0.474314205938057,0.682412625136718,0
2.53999328613281,-1.85834860801697,2.29403257369995,2.04041886329651,-1.57408507527774,2.28853154739156,2.11729073584934,1286.79,1336.837,3201.784,3213.43,-0.08735275,0.03496281,0.07766815,-1.08566725254059,-0.446495354175568,0.686138927936554,-1.10193578218388,-0.474132182551855,0.682150741652607,0
2.55999755859375,-1.88003778457642,2.28510022163391,2.05415797233582,-1.59612191359838,2.27904971150017,2.13093258853001,1279.392,1335.34,3201.828,3213.327,-0.08649468,0.03510329,0.07670338,-1.08446133136749,-0.446634531021118,0.686955571174622,-1.10123038958312,-0.473828671822132,0.681714070030222,0
2.58000183105469,-1.9016979932785,2.2761664390564,2.06790661811829,-1.61814182127198,2.26957516039323,2.14456396033363,1282.251,1335.028,3193.985,3209.532,-0.08556204,0.03525957,0.07571452,-1.08301019668579,-0.446680217981339,0.68742847442627,-1.10024313330221,-0.473403883025206,0.681102911362804,0
2.59999084472656,-1.92332482337952,2.26723408699036,2.08166265487671,-1.64012239440973,2.26011753383818,2.15817098218581,1286.079,1334.948,3189.556,3202.01,-0.08459904,0.03542547,0.07470603,-1.08133339881897,-0.44663068652153,0.687799453735352,-1.09897546783438,-0.47285844198887,0.680318166050934,0
2.6199951171875,-1.94491302967072,2.25830435752869,2.09542441368103,-1.66209156852628,2.2506648119635,2.17177094750084,1275.708,1333.564,3190.094,3204.388,-0.08362326,0.03558324,0.07373071,-1.07942938804626,-0.446490854024887,0.688091695308685,-1.09742594550583,-0.472191725819537,0.679358937915576,0
2.63999938964844,-1.96645879745483,2.2493793964386,2.10918569564819,-1.68402693989188,2.24122663446822,2.18534998730279,1275.746,1332.419,3184.336,3201.72,-0.0825793,0.03575759,0.07273184,-1.07728576660156,-0.446246236562729,0.688068926334381,-1.09559602313537,-0.471404361345641,0.67822612879697,0
2.66000366210938,-1.987957239151,2.24046158790588,2.12294387817383,-1.70592290617745,2.23180541187802,2.19890463348308,1279.672,1331.845,3180.322,3193.573,-0.08148527,0.03594878,0.07170466,-1.07491648197174,-0.445893734693527,0.687914311885834,-1.09348640563071,-0.470496651869278,0.67692017506657,0
2.67999267578125,-2.00940346717834,2.23155307769775,2.13669610023499,-1.72775723139253,2.2224107117184,2.21242112090437,1275.4,1330.776,3177.745,3192.46,-0.0803774,0.0361422,0.07069156,-1.07231521606445,-0.4454305768013,0.687616467475891,-1.09109983431736,-0.469469776906228,0.675442773735451,0
2.69999694824219,-2.03079319000244,2.22265625,2.15043950080872,-1.74955768413056,2.21303058593937,2.22591663964878,1269.512,1328.499,3177.313,3191.43,-0.079212,0.03634262,0.06968599,-1.06948709487915,-0.444857209920883,0.687172472476959,-1.08843358680109,-0.468322565086308,0.673792239511893,0
2.72000122070313,-2.05212163925171,2.21377301216125,2.16416764259338,-1.77130202882336,2.20367460188472,2.23937742484041,1273.187,1327.26,3169.754,3186.825,-0.07797682,0.03656569,0.06864763,-1.06642007827759,-0.444154560565948,0.686410963535309,-1.08549040888332,-0.467056197851165,0.671970272177789,0
2.74000549316406,-2.07338428497314,2.20490646362305,2.17787885665894,-1.79298473688851,2.19434513834902,2.25280005402337,1277.326,1326.294,3165.424,3179.057,-0.07671662,0.03680455,0.06758317,-1.06312894821167,-0.443322420120239,0.685556709766388,-1.08227143928024,-0.465671165158559,0.669977576652695,0
2.75999450683594,-2.09457635879517,2.19605922698975,2.19157075881958,-1.81458384274179,2.18505164650952,2.26617092945464,1271.172,1324.647,3163.581,3179.29,-0.0754612,0.03704465,0.06653306,-1.05960845947266,-0.442364126443863,0.684591293334961,-1.07878069424208,-0.464169195088763,0.667816639186824,0
2.77999877929688,-2.11569356918335,2.18723344802856,2.20524048805237,-1.83612684690458,2.17578229366013,2.27950707526701,1264.51,1321.885,3163.718,3178.371,-0.07414773,0.03729505,0.06548093,-1.05586266517639,-0.441283494234085,0.683483362197876,-1.07501419914593,-0.462548577472581,0.665484999299265,0
2.80000305175781,-2.13673114776611,2.17843222618103,2.21888160705566,-1.85759178470316,2.16654653058634,2.29279489428112,1269.143,1320.282,3156.265,3172.518,-0.0727549,0.03757347,0.06438426,-1.051877617836,-0.440062463283539,0.682050466537476,-1.07097597819164,-0.460811043810786,0.662985148161422,0
2.81999206542969,-2.15768432617188,2.16965818405151,2.23249173164368,-1.87895695992541,2.1573536925621,2.30602095550813,1274.846,1319.103,3151.19,3163.725,-0.07133703,0.03787097,0.06325416,-1.04766416549683,-0.438698917627335,0.680510461330414,-1.06667099276523,-0.458958728849171,0.660320157107579,0
2.83999633789063,-2.17854881286621,2.16091442108154,2.24606990814209,-1.90024960698239,2.14819206138118,2.31920211834584,1266.744,1316.841,3151.018,3164.419,-0.06992289,0.03816805,0.06214461,-1.04322111606598,-0.437200039625168,0.678910195827484,-1.06209435025759,-0.456989527434725,0.657486997379635,0
2.86000061035156,-2.19931983947754,2.15220308303833,2.259610414505,-1.9214480311499,2.13907097167731,2.33232495272651,1266.67,1314.394,3145.509,3161.859,-0.06846721,0.03848423,0.06100692,-1.03853964805603,-0.435559302568436,0.677024126052856,-1.05725102347782,-0.454905579228273,0.654488747383304,0
2.8800048828125,-2.21999216079712,2.14352750778198,2.27311086654663,-1.94254691640495,2.12999271078668,2.34538616777867,1270.778,1312.583,3141.948,3153.104,-0.06697477,0.03882008,0.05983154,-1.03363132476807,-0.43377897143364,0.675027012825012,-1.0521429102862,-0.45270770082608,0.651326581984514,0
2.89999389648438,-2.24056220054626,2.13489007949829,2.2865686416626,-1.96352501326936,2.1209664217661,2.35837260906308,1267.124,1310.594,3139.126,3151.274,-0.06548021,0.03916247,0.0586591,-1.02848851680756,-0.43185967206955,0.672887921333313,-1.04677621342161,-0.450398561093403,0.648004340974112,0
2.91999816894531,-2.26102447509766,2.12629413604736,2.29998087882996,-1.98440911693069,2.11198057539494,2.37130086407726,1262.569,1307.542,3138.129,3149.076,-0.06394196,0.03951496,0.05748141,-1.02311611175537,-0.42980495095253,0.670607149600983,-1.04114485287423,-0.447975543971863,0.644518260536375,0
2.94000244140625,-2.28137445449829,2.11774206161499,2.31334137916565,-2.00517798053537,2.10304431360073,2.38415778000673,1266.996,1305.346,3130.517,3143.591,-0.06235152,0.03989054,0.05626201,-1.01750457286835,-0.427602589130402,0.668026030063629,-1.03525504859546,-0.445441325732794,0.640872191117535,0
2.95999145507813,-2.30160760879517,2.1092369556427,2.3266487121582,-2.02581075424974,2.0941666074844,2.39693044981124,1271.622,1303.601,3126.032,3135.095,-0.06075576,0.04028098,0.05500917,-1.01166439056396,-0.425255656242371,0.665363729000092,-1.02911391720548,-0.442798968459032,0.637070538244476,0
2.97999572753906,-2.32171940803528,2.10078167915344,2.33990144729614,-2.04633384260397,2.08533609591429,2.40963521915279,1262.818,1301.066,3125.783,3135.958,-0.05917331,0.04066944,0.05377228,-1.00559377670288,-0.422773659229279,0.662635982036591,-1.02271452148052,-0.440045487257004,0.633109007445237,0
3,-2.34170532226563,2.09237837791443,2.35309386253357,-2.06672639957428,2.07656174835205,2.42225918334961,1263.442,1298.269,3120.184,3132.324,-0.05755091,0.04107629,0.05249899,-0.999286592006683,-0.42015352845192,0.659620463848114,-1.01606400046349,-0.437183953857422,0.628992018127441,0
3.02000427246094,-2.36156034469604,2.08403038978577,2.36622357368469,-2.0869834279768,2.06784571494631,2.43479924890685,1268.397,1296.312,3116.134,3122.636,-0.05590082,0.04150062,0.05118435,-0.992751240730286,-0.417397707700729,0.656491100788116,-1.00916501115878,-0.434215511495054,0.624721215103391,0
3.03999328613281,-2.38127994537354,2.07574033737183,2.37928795814514,-2.10708469520508,2.05919670122237,2.4472428908773,1265.153,1294.229,3112.812,3120.344,-0.05426457,0.04192734,0.04987241,-0.985981404781342,-0.414508700370789,0.653224229812622,-1.00202586176059,-0.431143734953757,0.620301741541063,0
3.05999755859375,-2.40085935592651,2.0675106048584,2.39228439331055,-2.12705600675913,2.05060360379452,2.45960608409476,1260.714,1291.104,3111.415,3117.875,-0.05260489,0.04235952,0.0485558,-0.978983640670776,-0.411492884159088,0.649823129177094,-0.994638524886308,-0.427965170275055,0.615728628108227,0
3.08000183105469,-2.42029428482056,2.05934357643127,2.40520715713501,-2.14687713595163,2.04207512564123,2.47187630727625,1264.383,1288.64,3104.357,3112.195,-0.05091005,0.04280823,0.04720149,-0.971752405166626,-0.408344179391861,0.64614349603653,-0.987011339258122,-0.424683405378145,0.611007036871143,0
3.09999084472656,-2.43958020210266,2.05124235153198,2.41805458068848,-2.16652837486666,2.03361974652815,2.48404136028297,1268.29,1286.718,3099.961,3103.745,-0.04921788,0.04326611,0.04581829,-0.964295923709869,-0.40506649017334,0.642376780509949,-0.979153483542501,-0.421302389586788,0.606142649861596,0
3.1199951171875,-2.45871257781982,2.04320907592773,2.43082523345947,-2.18603502400946,2.02522658035469,2.49611690533293,1260.177,1284.257,3098.884,3104,-0.04754648,0.0437184,0.04445059,-0.956613481044769,-0.401668846607208,0.638529658317566,-0.971056158224178,-0.417818336715394,0.601130019760458,0
3.13999938964844,-2.47768688201904,2.03524613380432,2.4435133934021,-2.20537738341953,2.01690410346351,2.50809074721212,1261.092,1281.407,3093.111,3099.762,-0.04584792,0.044183,0.04304944,-0.94870400428772,-0.398151308298111,0.634409248828888,-0.962728579444533,-0.414235212212131,0.595974851798267,0
3.16000366210938,-2.49649810791016,2.02735567092896,2.45611691474915,-2.22455088103183,2.00865428308644,2.51996005559448,1265.414,1279.466,3088.827,3090.366,-0.04413657,0.04465806,0.04161287,-0.940574526786804,-0.394517421722412,0.63018000125885,-0.954174163352092,-0.410554485950274,0.590679260733698,0
3.17999267578125,-2.51514267921448,2.01954007148743,2.46863341331482,-2.24353658854737,2.00048526354177,2.53171311296128,1261.921,1277.482,3085.416,3087.759,-0.04245079,0.04512998,0.04018212,-0.932221412658691,-0.390771746635437,0.625822246074677,-0.945403214201559,-0.406780591562751,0.585249625391267,0
3.19999694824219,-2.53361558914185,2.01180195808411,2.48106002807617,-2.2623590635174,1.99238647840124,2.54336512160655,1257.178,1274.554,3083.677,3085.218,-0.04075276,0.04560133,0.03875107,-0.923652112483978,-0.386921733617783,0.621330320835114,-0.936405971974636,-0.402909329586355,0.579679903854719,0
3.22000122070313,-2.55191278457642,2.00414276123047,2.49339127540588,-2.28099938900442,1.98436606709459,2.55490437104486,1260.632,1272.109,3076.569,3079.311,-0.03902809,0.04608334,0.03728685,-0.914864540100098,-0.382963806390762,0.616566359996796,-0.927192788821982,-0.398945154262308,0.573976504598449,0
3.24000549316406,-2.57003021240234,1.9965648651123,2.50562572479248,-2.29945328359428,1.9764258717947,2.56632821087688,1264.478,1270.348,3072.01,3070.491,-0.03731462,0.04656834,0.03579943,-0.905865728855133,-0.378901958465576,0.61172080039978,-0.91776751470058,-0.394889722119544,0.568141810929231,0
3.25999450683594,-2.58796310424805,1.9890695810318,2.51776099205017,-2.31770268688992,1.96857366338589,2.57762546085652,1258.948,1268.372,3068.928,3069.414,-0.03564322,0.04704389,0.03432718,-0.896655380725861,-0.374743700027466,0.60676521062851,-0.90814153446928,-0.390747931744771,0.562182870617026,0
3.27999877929688,-2.60570788383484,1.98166000843048,2.52979469299316,-2.33577134012187,1.96079922667992,2.58881081793642,1253.567,1265.537,3067.538,3066.812,-0.03396063,0.0475166,0.03285449,-0.887243032455444,-0.370498478412628,0.60168194770813,-0.898304216251578,-0.386515208538549,0.556093102023818,0
3.30000305175781,-2.62326049804688,1.97433638572693,2.54172110557556,-2.35364119854729,1.95311032582551,2.59987311156116,1256.77,1263.243,3060.417,3060.793,-0.03224662,0.04799758,0.03134952,-0.877626895904541,-0.366162806749344,0.5963214635849,-0.888267004546666,-0.382196476749158,0.549879589839776,0
3.31999206542969,-2.64061689376831,1.96710169315338,2.55353856086731,-2.37129490830989,1.94551442770222,2.61080159886703,1261.487,1261.681,3055.607,3051.046,-0.03054007,0.04848054,0.02982247,-0.867812275886536,-0.361738950014114,0.590877652168274,-0.878042061913513,-0.37779696958594,0.54354986326829,0
3.33999633789063,-2.65777254104614,1.95995700359344,2.56524562835693,-2.38875555478454,1.93800159931817,2.62161057080077,1253.889,1259.856,3053.299,3051.019,-0.02887506,0.04894947,0.02832331,-0.857800006866455,-0.357233911752701,0.585351645946503,-0.867618167158097,-0.373311858882592,0.53709697585572,0
3.36000061035156,-2.67472505569458,1.95290398597717,2.57683753967285,-2.406005803634,1.93057929915441,2.6322892965819,1254.174,1257.186,3047.778,3046.724,-0.02720419,0.04941887,0.02680728,-0.847597301006317,-0.352652251720428,0.579590499401093,-0.857007552155826,-0.36874640767338,0.530528499715627,0
3.3800048828125,-2.6914689540863,1.94594407081604,2.58831238746643,-2.42304196557559,1.92324911460621,2.64283549236868,1256.524,1255.506,3043.749,3038.433,-0.02553865,0.0498876,0.02527484,-0.837210714817047,-0.347998201847076,0.573738396167755,-0.846214826007803,-0.364102599125748,0.523847288101157,0
3.39999389648438,-2.70800185203552,1.93907856941223,2.5996675491333,-2.43984769972619,1.91601807669906,2.65323904237604,1252.606,1253.88,3039.999,3035.899,-0.02390294,0.05034583,0.02375818,-0.826640963554382,-0.343276351690292,0.567759394645691,-0.835253140422974,-0.35938609205264,0.51706148254665,0
3.41999816894531,-2.72431969642639,1.93230867385864,2.61090064048767,-2.45644516534361,1.90887665092339,2.66351366424015,1248.591,1251.533,3037.514,3032.676,-0.02226349,0.0507973,0.02224916,-0.815897345542908,-0.338492840528488,0.561655461788177,-0.824110582941664,-0.354591760855451,0.510163708672097,0
3.44000244140625,-2.74041938781738,1.92563581466675,2.62200713157654,-2.47281804716281,1.90183185728196,2.67364925803476,1251.293,1249.453,3030.813,3026.754,-0.02061074,0.05124927,0.02072374,-0.804982423782349,-0.333646565675735,0.555319011211395,-0.812800388649434,-0.349725300221754,0.503162159625937,0
3.45999145507813,-2.75629758834839,1.91906094551086,2.63298535346985,-2.48895081463434,1.8948903781363,2.68363620960993,1254.044,1248.041,3026.104,3018.79,-0.01897822,0.05169601,0.0191923,-0.793901145458221,-0.328739702701569,0.548907577991486,-0.80133641229185,-0.344792671461508,0.496065412155666,0
3.47999572753906,-2.77195024490356,1.91258537769318,2.64383387565613,-2.50486489870395,1.88804299234919,2.69348778574196,1246.697,1246.502,3023.799,3018.339,-0.01738618,0.05212645,0.01769244,-0.78265792131424,-0.323779106140137,0.542428195476532,-0.789706299681989,-0.339788558913217,0.488865818431069,0
3.5,-2.78737545013428,1.906210064888,2.65454840660095,-2.5205447997813,1.88129636896134,2.70319439144611,1246.497,1244.145,3018.382,3014.321,-0.01579095,0.052554,0.01618465,-0.771261751651764,-0.31876927614212,0.535730838775635,-0.777924000354857,-0.334718964672089,0.481572013878822,0
3.52000427246094,-2.80256986618042,1.89993572235107,2.66512751579285,-2.53598752699493,1.87465179486116,2.71275417523047,1249.082,1242.742,3014.21,3005.926,-0.01420104,0.05297753,0.01466781,-0.759718120098114,-0.313712745904922,0.52895200252533,-0.765994882555673,-0.32958619854407,0.474187321698442,0
3.53999328613281,-2.81753063201904,1.89376354217529,2.67556881904602,-2.55117869390181,1.86811546013321,2.72215823120146,1245.232,1241.48,3010.301,3003.497,-0.01264575,0.05338797,0.01317563,-0.748028934001923,-0.30861297249794,0.522065103054047,-0.753933682518821,-0.324396601119134,0.466720864320997,0
3.55999755859375,-2.83225464820862,1.88769388198853,2.68587017059326,-2.56613872308604,1.86167857751006,2.73141920191151,1241.448,1239.458,3007.545,3000.436,-0.01109526,0.05378875,0.01169912,-0.736204624176025,-0.303475260734558,0.515069365501404,-0.741727567798258,-0.319144650954242,0.459164697851087,0
3.58000183105469,-2.84673976898193,1.88172781467438,2.6960277557373,-2.58085326729328,1.85534732021446,2.74052820572674,1243.605,1237.608,3001.435,2994.734,-0.00953891,0.05418628,0.01021735,-0.724250555038452,-0.298299878835678,0.507879614830017,-0.729391385793765,-0.313836736470737,0.451528013536464,0
3.59999084472656,-2.86098289489746,1.87586617469788,2.70604038238525,-2.59530884290342,1.84912748987145,2.74947689564398,1245.537,1236.412,2996.981,2987.556,-0.008005463,0.05457544,0.008741271,-0.712170720100403,-0.293088138103485,0.500628232955933,-0.716940488958392,-0.308479463400265,0.4438203152769,0
3.6199951171875,-2.87498235702515,1.87010955810547,2.71590662002563,-2.60952509409627,1.84301063413925,2.75827743234631,1239.082,1235.145,2994.287,2986.866,-0.006513559,0.05494798,0.007301746,-0.699970960617065,-0.287845134735107,0.493315011262894,-0.704361775018033,-0.303067194200314,0.436033492140578,0
3.63999938964844,-2.88873553276062,1.86445808410645,2.72562313079834,-2.6234885835008,1.83700253474321,2.76692149746096,1238.756,1233.046,2989.259,2983.009,-0.005024852,0.05531455,0.005864455,-0.687662482261658,-0.282575488090515,0.485823571681976,-0.691670720740692,-0.297606588091786,0.428177124984152,0
3.66000366210938,-2.90224075317383,1.85891222953796,2.73518848419189,-2.63719712493647,1.83110413233575,2.77540773763803,1240.746,1231.855,2985.374,2975.345,-0.003546265,0.05567512,0.004429544,-0.675249874591827,-0.277280867099762,0.478272199630737,-0.678873453515702,-0.29210028151913,0.420255006953505,0
3.67999267578125,-2.9154953956604,1.85347282886505,2.74460101127625,-2.65063849381582,1.82532068681534,2.78372858527554,1237.105,1230.796,2981.517,2973.14,-0.002103365,0.05602158,0.003026375,-0.662736892700195,-0.271963834762573,0.470630437135696,-0.665986083416798,-0.286555206197011,0.41227711095171,0
3.69999694824219,-2.92849779129028,1.84814047813416,2.75385904312134,-2.66383127580226,1.81964420129024,2.79189554578451,1234.114,1229.044,2978.615,2969.962,-0.0006700513,0.05635728,0.001644988,-0.650134265422821,-0.26662877202034,0.462901473045349,-0.65299527533123,-0.280965624398954,0.404235181908735,0
3.72000122070313,-2.94124698638916,1.84291505813599,2.76295948028564,-2.6767633032417,1.81407991116207,2.79990108680742,1235.796,1227.409,2972.973,2964.913,0.0007599939,0.05668754,0.0002688634,-0.637448728084564,-0.261276364326477,0.455018222332001,-0.639917282339434,-0.275338529371411,0.396139281255611,0
3.74000549316406,-2.95374035835266,1.83779668807983,2.77190160751343,-2.6894328975087,1.80862853869646,2.80774416919516,1237.138,1226.383,2969.032,2958.455,0.002162397,0.05700841,-0.001092429,-0.624683976173401,-0.255907654762268,0.447100877761841,-0.626758665639204,-0.269676744214497,0.387993470686332,0
3.75999450683594,-2.96597719192505,1.8327864408493,2.78068399429321,-2.70182915057228,1.80329477731443,2.81541804035694,1232.907,1225.31,2965.633,2956.972,0.003519087,0.05731365,-0.00241602,-0.611846804618835,-0.250526756048203,0.439120441675186,-0.613536214864365,-0.263987493038594,0.379808143784027,0
3.77999877929688,-2.97795629501343,1.82788336277008,2.7893054485321,-2.7139695770734,1.79807109095524,2.82293354268985,1229.313,1223.668,2963.043,2954.506,0.004862089,0.05760822,-0.00371511,-0.598948955535889,-0.245138704776764,0.431069254875183,-0.60023651686137,-0.258265004538452,0.371574997167698,0
3.80000305175781,-2.98967599868774,1.82308876514435,2.79776334762573,-2.72584333814708,1.79296214327972,2.83028396642013,1230.851,1222.163,2958.14,2949.281,0.006205171,0.0578978,-0.005006743,-0.585997581481934,-0.239744707942009,0.42289000749588,-0.586876524285838,-0.252516572968186,0.363304525338741,0
3.81999206542969,-3.00113582611084,1.81840205192566,2.80605673789978,-2.73744054699573,1.78797218830065,2.83746319114912,1232.587,1221.219,2953.922,2943.176,0.007523377,0.05817855,-0.006281332,-0.572995185852051,-0.234344527125359,0.414667874574661,-0.573473482003301,-0.246749618311662,0.355007403690404,0
3.83999633789063,-3.0123348236084,1.81382322311401,2.81418514251709,-2.74877791451009,1.78309403578861,2.84448156171422,1228.399,1220.286,2951.153,2941.566,0.008797914,0.0584443,-0.007514375,-0.559948027133942,-0.228941231966019,0.40642112493515,-0.560014026276881,-0.240958390526246,0.346675359432959,0
3.86000061035156,-3.02327251434326,1.80935215950012,2.82214641571045,-2.75984563331209,1.77833190558438,2.85133300688122,1227.777,1218.586,2947.01,2938.457,0.01005225,0.05870125,-0.008726646,-0.54686826467514,-0.223539426922798,0.398067444562912,-0.546515580872635,-0.235150386571708,0.338319178707605,0
3.8800048828125,-3.03394746780396,1.80498945713043,2.82994031906128,-2.77064299647982,1.77368610185671,2.85801708903178,1228.798,1217.52,2943.775,2932.624,0.01128384,0.05894956,-0.009919209,-0.533761322498322,-0.218140736222267,0.389691650867462,-0.532985466132484,-0.229328756186666,0.329943393154704,0
3.89999389648438,-3.04436039924622,1.8007345199585,2.83756566047668,-2.78116151864576,1.76916027562219,2.86452855531919,1226.115,1216.59,2940.247,2930.716,0.0124751,0.05918455,-0.01107396,-0.520633518695831,-0.212747618556023,0.381265133619308,-0.519441457145543,-0.223501147495394,0.321559006401168,0
3.91999816894531,-3.05451011657715,1.79658710956573,2.84502172470093,-2.79141684911929,1.7647476934202,2.87087709341145,1224.05,1215.242,2937.729,2927.699,0.01364468,0.05940888,-0.01219888,-0.507494866847992,-0.20736363530159,0.372807294130325,-0.505870408491346,-0.2176619043907,0.313157880805522,0
