t,x_s1,x_s2,x_s3,x_s_d1,x_s_d2,x_s_d3,propellers_rpms1,propellers_rpms2,propellers_rpms3,propellers_rpms4,rollRad,pitchRad,yawRad,v_s1,v_s2,v_s3,v_s_d1,v_s_d2,v_s_d3,insideCount
0,-0.0599999986588955,2.94000005722046,1.17999994754791,-0.0599999986588955,2.94000005722046,1.17999994754791,0,0,0,0,0,0,0,0,0,0,-1.06581410364015E-15,4.44089209850063E-16,4.44089209850063E-16,0
0.0200004577636719,-0.0599999986588955,2.94000005722046,1.17811644077301,-0.0600018691155303,2.93999925241522,1.18000110544967,0,0,0,0,-0.01635288,0.0001297794,-0.01587137,-1.10653664009419E-09,-7.76775763711157E-08,-0.0941759571433067,-0.000279999361409376,-0.000120475902936966,0.000173332942931458,5
0.0400009155273438,-0.0599999986588955,2.94000005722046,1.17242503166199,-0.0600148724204753,2.93999365745638,1.18000915511487,0,0,0,0,-0.03270202,0.0005238493,-0.03175127,-1.08383135799528E-09,-7.60859677484405E-08,-0.284568399190903,-0.00111101934050116,-0.00047804058392963,0.00068777389696065,5
0.0600013732910156,-0.0599058866500854,2.93990302085876,1.16596508026123,-0.0600498951959519,2.93997858813451,1.18003083588125,1868.158,3252.8,3183.883,1722.412,-0.04942188,0.0003295469,-0.01369504,0.00470569217577577,-0.00484922388568521,-0.322996377944946,-0.0024796740721389,-0.00106693447916665,0.00153503637391071,5
0.0799999237060547,-0.0598203726112843,2.93960738182068,1.16000306606293,-0.0601175490846357,2.93994947855624,1.18007271686115,1925.485,2314.352,3252.117,2829.462,-0.07543244,-0.002136388,0.02094808,0.0042757336050272,-0.0147785618901253,-0.298098176717758,-0.00437248097278563,-0.00188135640961186,0.00270677401230774,5
0.100000381469727,-0.059937447309494,2.93904495239258,1.15498650074005,-0.0602282016920704,2.93990186783054,1.18014121609627,980.1564,1498.851,3914.982,3896.603,-0.1031954,-0.008062987,0.06330834,-0.00585370231419802,-0.0281167402863503,-0.250826150178909,-0.0067766330492767,-0.00291579588389246,0.00419505867330113,4
0.120000839233398,-0.0604638457298279,2.93818354606628,1.15081310272217,-0.0603919415209741,2.93983141515652,1.18024257885037,346.4167,980.3741,4172.86,4613.373,-0.1214322,-0.01542077,0.1040022,-0.0263199545443058,-0.043068490922451,-0.208669781684875,-0.00967891386376713,-0.00416456623802829,0.00599170875227859,4
0.14000129699707,-0.0615636147558689,2.93704128265381,1.14728271961212,-0.0606186016673619,2.93973388962768,1.1803828922783,352.9139,747.0927,3975.362,4854.956,-0.1254013,-0.0211668,0.1351061,-0.0549884922802448,-0.0571139045059681,-0.176518619060516,-0.0130663711011143,-0.0056220944526593,0.00808870614916252,4
0.159999847412109,-0.0633408650755882,2.93568086624146,1.14427483081818,-0.0609177249752248,2.93960518522485,1.18056806385509,820.9596,814.9492,3462.73,4692.391,-0.118459,-0.02352423,0.1522699,-0.088862419128418,-0.0680149048566818,-0.15039549767971,-0.0169257706321904,-0.00728268625174051,0.0104778583075938,3
0.180000305175781,-0.0658469125628471,2.9341721534729,1.14182531833649,-0.0612986871007165,2.9394412678651,1.18080389755851,1348.682,1083.357,3006.794,4255.207,-0.10798,-0.02278015,0.1557783,-0.125302463769913,-0.0754309296607971,-0.122477933764458,-0.0212451141043368,-0.00914117907931815,0.0131517376757159,3
0.200000762939453,-0.0690849795937538,2.93255376815796,1.14006149768829,-0.0617705288407759,2.93923824754608,1.18109599007255,1636.475,1381.2,2918.385,3666.346,-0.09982699,-0.02030074,0.1501564,-0.161903500556946,-0.0809154435992241,-0.0881898701190948,-0.0260114285934326,-0.0111919910485645,0.016102313395512,3
0.220001220703125,-0.0730103105306625,2.93082594871521,1.13903558254242,-0.0623420644491781,2.93899233174064,1.18144979784016,1641.444,1580.702,3148.171,3113.111,-0.09583918,-0.01735475,0.1421887,-0.196266651153564,-0.0863861739635468,-0.0512957945466042,-0.03121219533433,-0.0134297356845702,0.019321835755004,3
0.239999771118164,-0.077550046145916,2.92897343635559,1.1386331319809,-0.063021788625926,2.93869986541668,1.18187057948532,1524.102,1624.226,3417.785,2777.451,-0.09475687,-0.01467775,0.1377333,-0.226986765861511,-0.0926247239112854,-0.0201220028102398,-0.0368344480011416,-0.0158488339395432,0.022802277980796,3
0.260000228881836,-0.0826389491558075,2.92699217796326,1.13863551616669,-0.0638181482056218,2.93835721413725,1.18236356400102,1438.896,1500.805,3533.359,2744.213,-0.09439041,-0.01258876,0.1393023,-0.254445135593414,-0.0990581437945366,0.000120129436254501,-0.0428669580186739,-0.0184444544712678,0.0265366890499518,3
0.280000686645508,-0.0882448256015778,2.9249005317688,1.1388521194458,-0.0647391565454824,2.9379609299786,1.18293371203711,1400.56,1275.994,3476.591,2977.655,-0.09321064,-0.01110591,0.1456843,-0.28029391169548,-0.104584693908691,0.0108312126249075,-0.0492970154907394,-0.021211128566488,0.0305172009312752,3
0.30000114440918,-0.0943705886602402,2.92273235321045,1.13920700550079,-0.0657926437410092,2.93750764386939,1.18358587079569,1350.667,1061.588,3345.067,3324.815,-0.09053256,-0.009935189,0.1533105,-0.306288361549377,-0.108406953513622,0.0177413318306208,-0.0561125352021854,-0.0241436562947452,0.034736332300888,3
0.319999694824219,-0.101035907864571,2.92052555084229,1.13972508907318,-0.0669860785243584,2.93699414222283,1.18432466377777,1280.946,941.1476,3237.509,3590.522,-0.08597856,-0.008523713,0.1583599,-0.333265602588654,-0.110342338681221,0.0259043835103512,-0.0633008373176985,-0.0272365818771378,0.0391862337367069,3
0.340000152587891,-0.108251497149467,2.91831183433533,1.14046168327332,-0.0683270389802989,2.93641716440073,1.1851547821788,1253.013,944.1155,3171.183,3649.849,-0.07944635,-0.006292517,0.1584772,-0.360779643058777,-0.110679998993874,0.0368323065340519,-0.0708514254995047,-0.0304853890327553,0.0438604075056398,4
0.360000610351563,-0.116003036499023,2.91611456871033,1.14145278930664,-0.0698225328270578,2.93577369517774,1.1860805641102,1319.704,1047.219,3120.672,3498.119,-0.07154742,-0.002963033,0.1534739,-0.387577623128891,-0.109858654439449,0.0495530851185322,-0.0787518717320621,-0.0338847303337087,0.0487511600740379,4
0.380001068115234,-0.124251395463943,2.91394948959351,1.14270770549774,-0.0714794406858296,2.93506077401475,1.18710626900424,1455.444,1181.684,3090.693,3231.291,-0.06361386,0.001258782,0.1450388,-0.412418127059937,-0.108256831765175,0.0627461820840836,-0.0869905243502129,-0.0374295923939903,0.0538512785061227,4
0.399999618530273,-0.132943198084831,2.91182613372803,1.14421725273132,-0.0733042289655903,2.93427561859665,1.18823589987613,1579.592,1273.658,3104.75,2981.751,-0.05701881,0.005826154,0.1357478,-0.434590011835098,-0.106165066361427,0.0754783675074577,-0.0955550080350531,-0.0411146504596022,0.0591531018899743,4
0.420000076293945,-0.142023578286171,2.90974998474121,1.14595782756805,-0.075303664122713,2.9334153175063,1.1894736454847,1631.136,1288.541,3159.156,2844.824,-0.05243977,0.0101753,0.1278574,-0.454019337892532,-0.103801980614662,0.087030440568924,-0.104435522469179,-0.0449356877277546,0.0646505633622661,4
0.440000534057617,-0.151445999741554,2.90772414207458,1.14789569377899,-0.0774837715189226,2.93247727819886,1.19082323581587,1606.886,1238.095,3219.375,2842.979,-0.0496573,0.01397494,0.1224624,-0.471121490001678,-0.101290479302406,0.096892349421978,-0.113619939708908,-0.0488874858830966,0.0703361551481246,4
0.460000991821289,-0.161176711320877,2.9057514667511,1.1499969959259,-0.0798505169850734,2.93145893374399,1.19228836400314,1541.601,1158.258,3252.667,2938.208,-0.04788577,0.01718607,0.1193409,-0.486535727977753,-0.0986387804150581,0.105065330862999,-0.123097041639078,-0.0529652180840716,0.076202932699871,4
0.480001449584961,-0.171193554997444,2.9038360118866,1.15223908424377,-0.0824096430685067,2.93035781328399,1.19387258495686,1474.41,1086.204,3248.193,3066.949,-0.04628893,0.01998715,0.1173772,-0.500842034816742,-0.0957773923873901,0.112104646861553,-0.132855718534608,-0.0571641041263472,0.0822440185684512,5
0.5,-0.181481003761292,2.9019832611084,1.15461575984955,-0.085166398670376,2.92917165836334,1.1955791479969,1431.69,1046.306,3216.483,3169.637,-0.04433577,0.02264375,0.1152229,-0.514372646808624,-0.0926388502120972,0.118835508823395,-0.142884000065179,-0.0614789935111996,0.0884520025491718,5
0.520000457763672,-0.192024230957031,2.90019869804382,1.15713489055634,-0.0881266117110474,2.92789796139072,1.19741166088358,1423.344,1044.98,3177.675,3210.444,-0.04192082,0.02537843,0.1118868,-0.527160942554474,-0.0892276540398598,0.125953763723373,-0.153172907027918,-0.0659060227384819,0.0948213260877149,5
0.540000915527344,-0.202804520726204,2.89848589897156,1.15981006622314,-0.0912951145137283,2.92653464315245,1.19937311505516,1445.728,1073.414,3148.701,3184.534,-0.03929281,0.028289,0.1070502,-0.539014518260956,-0.0856394618749619,0.133757710456848,-0.163710711144578,-0.0704401454577151,0.101344728821151,5
0.560001373291016,-0.213797807693481,2.89684534072876,1.16265296936035,-0.0946767781905844,2.92507960774504,1.20146652596211,1484.45,1113.935,3138.485,3114.046,-0.03688585,0.03132813,0.1010584,-0.549664676189423,-0.0820318758487701,0.142147958278656,-0.174486736240074,-0.0750767680090178,0.108015601688526,5
0.579999923706055,-0.224976077675819,2.8952739238739,1.16566801071167,-0.0982759076154404,2.92353100290156,1.20369455852641,1521.051,1148.767,3145.835,3034.965,-0.03512923,0.03434531,0.09465567,-0.558914661407471,-0.0785762667655945,0.150755003094673,-0.18548935464012,-0.0798108873289844,0.114826746605553,5
0.600000381469727,-0.23631078004837,2.89376544952393,1.16885161399841,-0.102097637365047,2.92188661935708,1.20606039129565,1540.276,1166.964,3163.509,2979.34,-0.03429299,0.03716037,0.08861832,-0.566734671592712,-0.0754190608859062,0.15917931497097,-0.196710206510864,-0.0846389064146545,0.121772988436844,5
0.620000839233398,-0.247776135802269,2.89231204986572,1.17219471931458,-0.106145874935429,2.92014477582521,1.20856644319602,1534.874,1167.31,3182.095,2964.031,-0.03442029,0.03963185,0.08345851,-0.573266983032227,-0.0726656317710876,0.167153492569923,-0.208137902157644,-0.089555924598607,0.128847276418837,5
0.64000129699707,-0.259351372718811,2.89090442657471,1.17568719387054,-0.110424654687545,2.91830373643314,1.21121521168912,1506.887,1156.424,3194.769,2986.803,-0.03534494,0.04169864,0.07929581,-0.578763425350189,-0.0703804492950439,0.17462357878685,-0.21976219895537,-0.0945575347654113,0.136043269878677,5
0.659999847412109,-0.271021157503128,2.88953256607056,1.17932069301605,-0.114937365519793,2.91636204303257,1.21400879466451,1466.914,1144.35,3197.588,3031.191,-0.03678145,0.04338547,0.07590497,-0.583489775657654,-0.0685960724949837,0.181674540042877,-0.231571827761751,-0.0996388881179631,0.143353992680462,5
0.680000305175781,-0.282774180173874,2.88818597793579,1.18308997154236,-0.119688496929273,2.91431776391831,1.21694997133476,1429.136,1139.619,3190.713,3075.221,-0.03844646,0.04477642,0.07288434,-0.587650060653687,-0.0673253238201141,0.188462376594543,-0.243559016194652,-0.104796640417365,0.150774633349401,5
0.700000762939453,-0.294601172208786,2.88685441017151,1.18699264526367,-0.124681059317553,2.91216960379868,1.22004060528183,1404.246,1146.224,3177.309,3102.188,-0.04016899,0.04596696,0.06985845,-0.591350853443146,-0.0665751472115517,0.195134744048119,-0.255712729184339,-0.110026043581393,0.158298360651655,5
0.720001220703125,-0.30649346113205,2.88552713394165,1.19102895259857,-0.129918284978346,2.90991617190799,1.22328269744952,1393.846,1162.916,3163.346,3106.617,-0.04193147,0.04702105,0.06662917,-0.594615280628204,-0.0663603022694588,0.201814189553261,-0.268023157655716,-0.11532287703907,0.16591910230247,5
0.739999771118164,-0.318441927433014,2.884192943573,1.19519972801208,-0.13540267613015,2.90755639161152,1.22667779683026,1392.383,1185.116,3153.539,3093.981,-0.04383244,0.04795256,0.06321874,-0.59742271900177,-0.0667096376419067,0.208537667989731,-0.280479406212952,-0.12068245280595,0.173630113532805,5
0.760000228881836,-0.330437064170837,2.88283967971802,1.19950497150421,-0.141138122953911,2.90508858907309,1.23022831163139,1392.193,1207.555,3149.894,3074.675,-0.04600238,0.04873405,0.05981202,-0.599757671356201,-0.0676620155572891,0.215263038873672,-0.293074259331322,-0.126101666243323,0.181426927589132,5
0.780000686645508,-0.342469871044159,2.88145446777344,1.20394265651703,-0.14712676774631,2.90251184252229,1.2339355680366,1387.426,1226.528,3150.789,3059.143,-0.04854091,0.0493182,0.05665042,-0.601642668247223,-0.0692557841539383,0.221885278820992,-0.30579705194586,-0.131575928471681,0.189302942288191,5
0.80000114440918,-0.354532927274704,2.88002395629883,1.20850908756256,-0.153371075417786,2.89982509137701,1.23780109194287,1374.305,1240.651,3154.01,3054.213,-0.05147411,0.04966106,0.05393439,-0.603151082992554,-0.0715200677514076,0.228320196270943,-0.318638408531467,-0.137101205464496,0.197252353733327,5
0.819999694824219,-0.366620779037476,2.87853455543518,1.21319913864136,-0.159872691993147,2.89702762739878,1.24182590231796,1352.685,1250.859,3156.36,3061.979,-0.0547482,0.04973928,0.05175987,-0.604392766952515,-0.0744685307145119,0.234500914812088,-0.331587821991737,-0.142672976311719,0.205268657531342,4
0.840000152587891,-0.378730595111847,2.87697267532349,1.21800744533539,-0.166634951706069,2.89411801595997,1.24601206321137,1326.399,1259.517,3155.876,3078.354,-0.05825452,0.0495595,0.05010398,-0.60549122095108,-0.0780983045697212,0.240415528416634,-0.344638604388044,-0.148288363380199,0.213347713529636,4
0.860000610351563,-0.390861719846725,2.87532472610474,1.22292912006378,-0.173659158941841,2.89109569582005,1.2503603820997,1300.411,1269.1,3151.624,3097.289,-0.06187429,0.04915134,0.04886377,-0.606556475162506,-0.082392044365406,0.246083498001099,-0.357780475378537,-0.153942943326036,0.221483157706883,4
0.880001068115234,-0.40301513671875,2.87357831001282,1.22796058654785,-0.180947045911593,2.88795992165696,1.25487193130418,1277.697,1280.988,3145.411,3113.174,-0.06551269,0.04855463,0.04791859,-0.60767138004303,-0.0873252525925636,0.251574754714966,-0.37100449298811,-0.159632868667153,0.229669454554527,4
0.899999618530273,-0.415192842483521,2.87172102928162,1.23309922218323,-0.188499434070438,2.88471034002151,1.25954721934464,1259.409,1295.214,3138.527,3123.843,-0.06911702,0.0478063,0.04717967,-0.608885884284973,-0.0928693786263466,0.256930202245712,-0.384300552311253,-0.165353791545005,0.237900348654692,4
0.920000076293945,-0.427397429943085,2.86974120140076,1.23834300041199,-0.196319142784876,2.88134573781905,1.26438799154326,1246.165,1310.865,3132.678,3128.103,-0.07266808,0.04693341,0.04661085,-0.610228717327118,-0.0989959016442299,0.262186616659164,-0.397662465047122,-0.171103049306624,0.246172009154369,4
0.940000534057617,-0.439631730318069,2.86762762069702,1.24368989467621,-0.204406669873309,2.87786590085225,1.26939455607335,1236.522,1326.6,3128.138,3128.472,-0.07617972,0.04594884,0.04623238,-0.611717700958252,-0.105674788355827,0.267342954874039,-0.41108034963383,-0.176876390191985,0.254478318896024,4
0.960000991821289,-0.451899260282516,2.86537003517151,1.24913811683655,-0.212763049531523,2.87427038413554,1.27456755315135,1227.594,1341.052,3125.833,3128.16,-0.0796722,0.04485368,0.04609983,-0.613376319408417,-0.112877003848553,0.272412598133087,-0.424545697646264,-0.182670153263461,0.262814010759199,3
0.979999542236328,-0.464204043149948,2.86295866966248,1.25468575954437,-0.221388311353785,2.87055917493534,1.27990700109753,1216.819,1353.39,3125.07,3130.932,-0.08315188,0.04364488,0.0462717,-0.615237355232239,-0.120570972561836,0.277380377054214,-0.438048819599778,-0.188480169406503,0.271173086491326,3
1,-0.476550936698914,2.86038422584534,1.26033055782318,-0.230284798736574,2.86673126495361,1.28541435058594,1204.498,1363.588,3125.073,3137.121,-0.08659535,0.04232559,0.04677636,-0.617345035076141,-0.128721535205841,0.282240092754364,-0.451584000205995,-0.194303979492187,0.279552008056641,3
1.02000045776367,-0.488945871591568,2.8576385974884,1.26607024669647,-0.239452235373992,2.86278677307706,1.29108943057007,1192.184,1372.297,3124.389,3145.994,-0.08996318,0.04090733,0.0476052,-0.619746446609497,-0.13728703558445,0.286981850862503,-0.465141770078335,-0.200137509108014,0.287944913453762,3
1.04000091552734,-0.501395583152771,2.85471415519714,1.2719030380249,-0.24889099213045,2.8587255397331,1.29693247063265,1180.346,1380.139,3123.369,3156.271,-0.0932133,0.03940776,0.04872324,-0.622486591339111,-0.14622288942337,0.291637986898422,-0.478714054341683,-0.205977283860805,0.296346803950333,3
1.05999946594238,-0.513907551765442,2.85160446166992,1.27782773971558,-0.258600340480156,2.85454787838601,1.30294301978152,1169.648,1387.571,3122.107,3166.793,-0.09630523,0.03784963,0.05008181,-0.625599920749664,-0.155481740832329,0.296235233545303,-0.492291591500725,-0.211819318787865,0.30475194623957,3
1.07999992370605,-0.526489794254303,2.848304271698,1.28384375572205,-0.268582184669612,2.85025296969173,1.30912225683598,1161.388,1394.776,3120.991,3175.799,-0.09920541,0.03625762,0.05163025,-0.629108965396881,-0.165014788508415,0.300802767276764,-0.505869113977232,-0.21766134739744,0.313157079439617,3
1.10000038146973,-0.539150238037109,2.84480881690979,1.28995084762573,-0.278835507756382,2.84584125121218,1.3154695522602,1156.886,1401.807,3119.639,3182.42,-0.1018995,0.03465454,0.05332763,-0.633024096488953,-0.174771457910538,0.305352449417114,-0.51943757729378,-0.223499478103569,0.321556604588103,3
1.1200008392334,-0.55189722776413,2.84111475944519,1.29614949226379,-0.289360051957465,2.84131283386418,1.32198474647424,1154.765,1408.295,3119.526,3187,-0.1043906,0.03305603,0.05515575,-0.637350261211395,-0.184705212712288,0.309932321310043,-0.53298934012525,-0.229330423057527,0.32994579134077,3
1.13999938964844,-0.564739048480988,2.83721923828125,1.30244052410126,-0.300154365346813,2.83666834237095,1.3286669406667,1153.145,1413.735,3120.617,3191.731,-0.1066884,0.03147218,0.05711345,-0.64208710193634,-0.194770291447639,0.314553827047348,-0.546515580872639,-0.235150386571708,0.338319178707607,3
1.15999984741211,-0.577683746814728,2.83312082290649,1.30882513523102,-0.311219947869739,2.83190713134792,1.33551706337518,1152.45,1417.847,3122.892,3196.353,-0.1087917,0.02991163,0.05919828,-0.647235631942749,-0.204922839999199,0.319228440523148,-0.560011455688534,-0.240957284473894,0.346673768116318,3
1.18000030517578,-0.590739607810974,2.82881855964661,1.31530404090881,-0.322555076427271,2.82702994219644,1.34253404791935,1153.248,1420.816,3125.023,3201.369,-0.1107023,0.02838388,0.0614023,-0.652795612812042,-0.215116828680038,0.323945015668869,-0.573468357077025,-0.246747413199059,0.355004231116904,3
1.20000076293945,-0.60391503572464,2.82431244850159,1.32187879085541,-0.334158899272964,2.82203714139922,1.34971736702757,1154.613,1422.694,3127.84,3206.846,-0.1124221,0.02689681,0.06371302,-0.658770203590393,-0.22531071305275,0.328737616539001,-0.586879077262985,-0.252517671442929,0.363306105753208,3
1.21999931335449,-0.617218196392059,2.81960320472717,1.32855117321014,-0.346029276726411,2.81692964960096,1.35706569613575,1155.515,1423.6,3131.191,3213.651,-0.1139497,0.02545867,0.06611267,-0.665158629417419,-0.235463887453079,0.333619296550751,-0.600235245789198,-0.258264457631606,0.371574210313473,3
1.23999977111816,-0.630657374858856,2.81469249725342,1.33532321453094,-0.3581673374151,2.81170698118478,1.36457973391807,1157.23,1423.741,3134.946,3220.353,-0.1152744,0.02408171,0.06857165,-0.6719571352005,-0.245537340641022,0.338601231575012,-0.613532419882739,-0.263985860164018,0.379805794509619,2
1.26000022888184,-0.644240498542786,2.80958271026611,1.34219682216644,-0.370570687502852,2.8063701661515,1.37225799847589,1161.301,1423.556,3138.072,3226.053,-0.1163919,0.0227784,0.07105638,-0.679154992103577,-0.255491107702255,0.343677997589111,-0.626762440440062,-0.269678368405849,0.38799580746788,2
1.28000068664551,-0.657975256443024,2.80427694320679,1.34917449951172,-0.383237915963745,2.80091981162618,1.38009961631695,1166.741,1423.008,3141.727,3230.687,-0.1173122,0.02155805,0.07354241,-0.68673974275589,-0.265290647745132,0.348885178565979,-0.639918533236038,-0.275339067597274,0.396140055620199,2
1.30000114440918,-0.671869158744812,2.79877877235413,1.35625922679901,-0.396167477368181,2.79535658256398,1.38810363074672,1172.289,1421.933,3146.095,3235.308,-0.1180473,0.020426,0.07601488,-0.694692850112915,-0.2749043405056,0.354234427213669,-0.652994032435618,-0.280965089615694,0.404234412497144,2
1.31999969482422,-0.685929000377655,2.79309272766113,1.36345374584198,-0.409356423791328,2.7896817473746,1.39626821685929,1178.724,1420.291,3150.991,3239.242,-0.1186055,0.01938719,0.07845918,-0.70299369096756,-0.28430363535881,0.3597272336483,-0.665981146317813,-0.286553081901244,0.412274054652251,2
1.34000015258789,-0.700161397457123,2.78722357749939,1.37076103687286,-0.422805463423808,2.78389500134342,1.4045938130584,1185.717,1418.088,3156.3,3242.857,-0.1189959,0.01844531,0.08086549,-0.711620211601257,-0.293462216854095,0.36536517739296,-0.678875903610019,-0.292101335726266,0.4202565236786,2
1.36000061035156,-0.714572370052338,2.78117656707764,1.37818372249603,-0.436511415158101,2.77799771321212,1.41307845008695,1194.012,1415.501,3161.146,3246.071,-0.1192308,0.01760245,0.08322211,-0.720548570156097,-0.302354395389557,0.371134907007217,-0.691670720740693,-0.297606588091785,0.42817712498415,2
1.38000106811523,-0.729167520999908,2.77495741844177,1.38572490215302,-0.450472217640295,2.7719907699237,1.42172085186868,1202.228,1412.43,3166.614,3249.252,-0.1193277,0.0168584,0.08552162,-0.729758381843567,-0.31096076965332,0.377060651779175,-0.704359365424783,-0.303066157419654,0.436032000487571,2
1.39999961853027,-0.743951976299286,2.76857209205627,1.39338767528534,-0.464684318506637,2.76587569996104,1.4305188193212,1209.527,1408.86,3172.563,3253.172,-0.1192984,0.01621184,0.08775701,-0.739226043224335,-0.319264888763428,0.383139550685883,-0.716934519966859,-0.308476895109962,0.443816620186799,2
1.42000007629395,-0.758930563926697,2.76202702522278,1.40117502212524,-0.479148122570409,2.75965232914431,1.43947260304321,1216.931,1404.916,3178.765,3256.819,-0.1191429,0.01566435,0.08991485,-0.748927354812622,-0.327252417802811,0.389364778995514,-0.729392568029154,-0.313837245153597,0.451528745396487,2
1.44000053405762,-0.774107277393341,2.7553288936615,1.40908920764923,-0.493859860840914,2.7533222791649,1.44857986984993,1225.796,1401.025,3183.926,3259.742,-0.1188691,0.01521757,0.09197856,-0.758834481239319,-0.334908038377762,0.395710438489914,-0.741726397688367,-0.319144147488646,0.459163973497326,2
1.46000099182129,-0.78948575258255,2.74848437309265,1.41713321208954,-0.508816990723896,2.74688664403008,1.4578390457544,1234.986,1397.065,3189.307,3262.015,-0.1184936,0.01487027,0.09393819,-0.768922984600067,-0.342222630977631,0.402198046445847,-0.753930210209442,-0.324395107081412,0.46671871479608,2
1.47999954223633,-0.805069029331207,2.74150061607361,1.42530977725983,-0.524015393706918,2.74034719582071,1.46724758120123,1243.124,1392.901,3195.2,3264.66,-0.1180318,0.01461805,0.09579057,-0.779165148735046,-0.34919062256813,0.408827900886536,-0.76599717101811,-0.329587183205524,0.474188738365705,2
1.5,-0.820859611034393,2.73438453674316,1.43362152576447,-0.539455198877605,2.73370387899399,1.4768055561018,1250.909,1388.529,3201.361,3267.095,-0.117488,0.01445906,0.09752979,-0.789532244205475,-0.355808854103088,0.415586352348328,-0.777924000354858,-0.334718964672088,0.481572013878822,1
1.52000045776367,-0.836859524250031,2.72714304924011,1.44207036495209,-0.555132087468752,2.72695855179478,1.48651029693349,1260.016,1384.339,3206.518,3268.572,-0.1168702,0.01439185,0.09914701,-0.799993693828583,-0.362073212862015,0.42244279384613,-0.789704067205609,-0.339787598340998,0.488864436421842,1
1.54000091552734,-0.853070020675659,2.71978330612183,1.45065855979919,-0.571043070329722,2.72011250037111,1.49635995326965,1268.987,1380.126,3211.883,3269.615,-0.1161959,0.01441115,0.1006419,-0.810523808002472,-0.367984712123871,0.429411321878433,-0.801332006385301,-0.344790775723006,0.496062684689629,1
1.55999946594238,-0.869491875171661,2.71231245994568,1.45938813686371,-0.587183501790833,2.71316772362485,1.50635164921945,1276.649,1375.768,3217.465,3271.327,-0.1154779,0.01451002,0.1020176,-0.821094930171967,-0.373546898365021,0.43648162484169,-0.812801474874933,-0.34972576759424,0.503162832051264,1
1.57999992370605,-0.88612562417984,2.70473718643188,1.46826088428497,-0.603553261450117,2.7061242733616,1.51648531024834,1283.749,1371.302,3223.135,3272.961,-0.1147199,0.01468423,0.1032722,-0.831680953502655,-0.378765463829041,0.443639695644379,-0.824109512459656,-0.354591300256948,0.510163045992739,0
1.60000038146973,-0.902970612049103,2.69706439971924,1.47727799415588,-0.620147519584954,2.69898422767608,1.52675794652794,1291.675,1367.144,3227.714,3273.944,-0.1139279,0.01493085,0.1043995,-0.842253983020782,-0.383644759654999,0.450854420661926,-0.835249977634101,-0.359384731192946,0.517059524629672,0
1.6200008392334,-0.920026361942291,2.68930053710938,1.48644065856934,-0.636962875172296,2.6917490499335,1.53716745266298,1299.347,1363.123,3232.306,3274.507,-0.113114,0.01524406,0.1053994,-0.852790951728821,-0.388193190097809,0.458135098218918,-0.8462179387632,-0.364103938457435,0.523849215045028,0
1.63999938964844,-0.937291741371155,2.68145203590393,1.49575006961823,-0.653994195024907,2.68442094880091,1.54771065096602,1305.722,1359.12,3237.094,3275.49,-0.1122895,0.01561688,0.1062757,-0.863267302513123,-0.392421841621399,0.465472936630249,-0.857007552155828,-0.368746407673381,0.530528499715628,0
1.65999984741211,-0.954764902591705,2.67352509498596,1.50520706176758,-0.671241134177535,2.67700007270724,1.55838732788714,1311.411,1355.144,3241.935,3276.343,-0.1114538,0.01604427,0.1070293,-0.873659193515778,-0.396342784166336,0.472851306200027,-0.867616161431205,-0.373310995874343,0.537095734215228,0
1.68000030517578,-0.972443699836731,2.66552567481995,1.51481175422668,-0.688698391434734,2.66948870260877,1.56919420173384,1318.06,1351.619,3245.42,3276.478,-0.1106112,0.01652332,0.1076569,-0.883940994739532,-0.399965584278107,0.480232894420624,-0.878038122530658,-0.377795274579551,0.543547424602645,0
1.70000076293945,-0.990325570106506,2.65745949745178,1.52456438541412,-0.706362188585011,2.66188846416437,1.5801289336132,1324.39,1348.287,3248.958,3276.15,-0.109775,0.01704734,0.1081618,-0.894093871116638,-0.40330383181572,0.487631499767303,-0.888268937369113,-0.38219730838866,0.549880786348944,0
1.71999931335449,-1.00840747356415,2.64933204650879,1.53446507453918,-0.724226945158621,2.65420175849427,1.59118806894864,1329.085,1344.999,3252.718,3276.49,-0.1089542,0.01760828,0.1085524,-0.904097318649292,-0.406373113393784,0.495037466287613,-0.898303268694426,-0.386514800831178,0.556092515440802,0
1.73999977111816,-1.02668607234955,2.64114832878113,1.54451370239258,-0.74229211534941,2.6464288204436,1.60237126986013,1333.01,1341.77,3256.511,3276.74,-0.1081456,0.01820143,0.1088317,-0.913932085037231,-0.409189641475677,0.502432763576508,-0.908138749572296,-0.3907467334814,0.562181146633131,0
1.76000022888184,-1.04515767097473,2.63291311264038,1.55470931529999,-0.76055196658027,2.63857211658015,1.61367498760938,1337.842,1339.035,3258.922,3276.301,-0.1073515,0.01882365,0.1089986,-0.923577547073364,-0.411766290664673,0.509779930114746,-0.917770240667228,-0.394890895026838,0.568143498432442,0
1.78000068664551,-1.06381821632385,2.62463068962097,1.56505119800568,-0.779002378135229,2.63063341993288,1.62509667127688,1342.32,1336.53,3261.323,3275.46,-0.1065802,0.01946884,0.1090581,-0.933019876480103,-0.414118945598602,0.517092049121857,-0.927193677444144,-0.398945536611599,0.573977054697898,0
1.79999923706055,-1.08266305923462,2.61630535125732,1.57553839683533,-0.79763736303951,2.62261530652977,1.63663261464007,1345.195,1334.105,3263.922,3275.274,-0.1058393,0.02012985,0.1090198,-0.942243993282318,-0.416264891624451,0.524360716342926,-0.936404235539493,-0.402908582446823,0.579678828918647,0
1.81999969482422,-1.10168766975403,2.6079409122467,1.58616971969604,-0.816456197270346,2.61451808789761,1.64828236949435,1347.296,1331.785,3266.472,3275.074,-0.105123,0.02080208,0.108888,-0.951235830783844,-0.418221175670624,0.531567931175232,-0.945399824400851,-0.406779133026206,0.585247526943151,0
1.84000015258789,-1.1208872795105,2.5995409488678,1.5969432592392,-0.835452757515797,2.60634439872645,1.66004214521794,1350.318,1329.985,3267.597,3274.237,-0.1044316,0.02148384,0.1086619,-0.959980249404907,-0.420001208782196,0.538677871227264,-0.954175816030892,-0.41055519705179,0.590680283820602,0
1.86000061035156,-1.14025664329529,2.59110856056213,1.60785734653473,-0.854622615239374,2.59809614449182,1.6719092003358,1352.935,1328.424,3268.787,3273.026,-0.1037727,0.0221693,0.1083474,-0.968468964099884,-0.421620935201645,0.545707404613495,-0.962728579444532,-0.414235212212131,0.595974851798267,0
1.8799991607666,-1.15979051589966,2.58264660835266,1.61891031265259,-0.873959418228252,2.58977605837344,1.68387960252558,1353.934,1326.952,3270.201,3272.502,-0.1031496,0.02285239,0.1079544,-0.976691961288452,-0.423097431659698,0.552648782730103,-0.971053808954927,-0.417817325890467,0.60112856545088,0
1.89999961853027,-1.17948341369629,2.57415771484375,1.63010001182556,-0.8934622858751,2.58138451927205,1.6959528066494,1354.199,1325.567,3271.653,3271.917,-0.1025557,0.02353,0.107488,-0.984640300273895,-0.424446910619736,0.559486150741577,-0.979149678649926,-0.42130075244781,0.60614029445184,0
1.92000007629395,-1.1993293762207,2.56564402580261,1.64142370223999,-0.913124745282702,2.57292431229448,1.70812480567554,1355.52,1324.694,3271.598,3270.724,-0.1019868,0.02420134,0.106948,-0.992303252220154,-0.425680994987488,0.566181838512421,-0.987012077823863,-0.42468372316235,0.61100749407852,0
1.94000053405762,-1.21932291984558,2.55710768699646,1.65287888050079,-0.932942094778026,2.56439746043929,1.72039268904442,1356.686,1324.059,3271.606,3269.005,-0.1014505,0.02486195,0.1063406,-0.99967759847641,-0.426813662052155,0.572756707668304,-0.994637809041649,-0.427964862267096,0.615728184966283,0
1.95999908447266,-1.23945820331573,2.54855060577393,1.6644629240036,-0.952907658613767,2.55580683609405,1.73275232415044,1356.019,1323.461,3271.876,3268.286,-0.1009503,0.0255063,0.1056773,-1.00675797462463,-0.427859365940094,0.579205214977264,-1.00202309041976,-0.431142542523221,0.620300025949072,0
1.97999954223633,-1.2597291469574,2.53997397422791,1.67617321014404,-0.973020420343666,2.54715287660719,1.74520308176496,1354.657,1322.908,3272.204,3267.57,-0.1004768,0.02613272,0.1049623,-1.01354050636292,-0.428831726312637,0.585513591766357,-1.00916635026771,-0.434216087676217,0.62472204407561,0
2,-1.28012931346893,2.53137922286987,1.68800616264343,-0.993273599084619,2.53843849960327,1.7577407641983,1354.453,1322.825,3271.192,3266.102,-0.1000241,0.02674157,0.1041946,-1.02001941204071,-0.429739981889725,0.591649413108826,-1.01606400046349,-0.437183953857422,0.628992018127441,0
2.02000045776367,-1.30065321922302,2.52276730537415,1.69995880126953,-1.01366225471101,2.52966583068033,1.7703623132774,1354.139,1322.951,3270.186,3264.227,-0.09959743,0.02733004,0.1033803,-1.02619481086731,-0.430594503879547,0.597630739212036,-1.022713277122,-0.440044951844294,0.633108237128032,0
2.03999900817871,-1.32129454612732,2.51413917541504,1.71202790737152,-1.03417943002831,2.52083786332482,1.7830634221674,1352.229,1323.081,3269.46,3263.232,-0.09919795,0.027894,0.1025299,-1.03206551074982,-0.431406170129776,0.603455722332001,-1.02911092662815,-0.442797681697156,0.63706868693465,0
2.05999946594238,-1.34204721450806,2.50549554824829,1.72421014308929,-1.05482399271638,2.51195508474246,1.79584338990822,1349.68,1323.21,3268.838,3262.28,-0.09881659,0.02843263,0.1016477,-1.03763103485107,-0.432184815406799,0.60911351442337,-1.03525562241752,-0.445441572632395,0.640872546340724,0
2.07999992370605,-1.36290514469147,2.49683690071106,1.7365015745163,-1.07558889590252,2.5030205270057,1.80869785414995,1348.342,1323.739,3266.854,3260.703,-0.09844641,0.02894797,0.1007318,-1.042888879776,-0.432935684919357,0.614572107791901,-1.04114430358224,-0.447975307626868,0.644517920498472,0
2.10000038146973,-1.38386201858521,2.4881637096405,1.74889874458313,-1.09646899569251,2.49403640338852,1.82162363057704,1346.952,1324.406,3265.059,3258.645,-0.09809168,0.02943814,0.09978732,-1.04784286022186,-0.43366551399231,0.619856536388397,-1.04677463978721,-0.450397884002483,0.648003366819457,0
2.1200008392334,-1.4049117565155,2.47947597503662,1.76139795780182,-1.11745910266827,2.48500494675256,1.8346175066925,1344.062,1325.045,3263.512,3257.509,-0.09775346,0.02990033,0.09882393,-1.05249381065369,-0.434381008148193,0.624963045120239,-1.05214440908742,-0.452708345718374,0.651327509813868,0
2.13999938964844,-1.42604851722717,2.47077417373657,1.77399551868439,-1.138551967509,2.47592927627801,1.8476749948214,1341.171,1325.714,3261.859,3256.071,-0.09742216,0.03033541,0.09784371,-1.05684375762939,-0.435087651014328,0.629880249500275,-1.05725102347782,-0.454905579228273,0.654488747383304,0
2.15999984741211,-1.44726669788361,2.46205830574036,1.78668749332428,-1.15974634010981,2.46680992985011,1.86079532108929,1338.092,1326.415,3260.035,3254.645,-0.09708927,0.03074406,0.09685025,-1.0608948469162,-0.435788720846176,0.634601771831512,-1.06209345202774,-0.456989140951513,0.657486441332569,0
2.18000030517578,-1.4685595035553,2.45332860946655,1.79946959018707,-1.18103490068612,2.45765005696766,1.87397395420079,1336.086,1327.386,3257.053,3252.81,-0.09675371,0.03112829,0.09584205,-1.06464803218842,-0.436484098434448,0.639107286930084,-1.06666929835407,-0.458957999791384,0.660319108186354,0
2.20000076293945,-1.4899218082428,2.44458484649658,1.81233811378479,-1.20241229940639,2.4484519595137,1.88720758235537,1333.858,1328.398,3254.438,3250.668,-0.09641974,0.03148735,0.09482312,-1.0681095123291,-0.437176108360291,0.643425643444061,-1.07097677406178,-0.460811386251471,0.662985640842948,0
2.21999931335449,-1.51134741306305,2.43582773208618,1.82528924942017,-1.22387110132782,2.43921883653644,1.90049160296922,1330.016,1329.267,3252.369,3249.442,-0.09608525,0.03181963,0.09380189,-1.07128250598907,-0.437867432832718,0.647557616233826,-1.07501382704219,-0.462548417366737,0.665484768949324,0
2.23999977111816,-1.53283071517944,2.42705655097961,1.83831894397736,-1.24540998308744,2.42995125744197,1.91382519681765,1326.016,1330.03,3250.216,3248.219,-0.09573798,0.03212757,0.09277874,-1.07416987419128,-0.438558667898178,0.65148651599884,-1.07877965586273,-0.46416874830314,0.667815996380546,0
2.26000022888184,-1.55436635017395,2.41827154159546,1.85142278671265,-1.26702145457998,2.42065244501334,1.92720372716869,1323.892,1331.049,3246.928,3245.832,-0.09537046,0.03241552,0.09174897,-1.07677340507507,-0.439246326684952,0.655192732810974,-1.08227239935447,-0.465671578251677,0.669978170984375,0
2.28000068664551,-1.57594835758209,2.40947294235229,1.86459684371948,-1.28870004024447,2.41132475523149,1.94062380438925,1321.509,1332.057,3243.851,3243.46,-0.09498803,0.03268252,0.09071821,-1.07909893989563,-0.439928501844406,0.658701837062836,-1.08549070267236,-0.467056324260381,0.671970454047199,0
2.29999923706055,-1.59757137298584,2.4006609916687,1.87783718109131,-1.31043816248474,2.40197144852433,1.95408073758635,1317.937,1332.888,3241.077,3241.944,-0.09459282,0.03292795,0.08969268,-1.08115017414093,-0.44060355424881,0.662015080451965,-1.08843305191934,-0.468322334941636,0.673791908394614,0
2.31999969482422,-1.61922991275787,2.39183568954468,1.89113974571228,-1.33223444283894,2.39259311800549,1.96757367342642,1313.993,1333.53,3238.59,3240.446,-0.09417364,0.03315404,0.08867247,-1.08293175697327,-0.44126957654953,0.665130853652954,-1.09109887036509,-0.469469362144493,0.675442177003072,0
2.34000015258789,-1.64091897010803,2.38299703598022,1.90450024604797,-1.35408126380187,2.38319304127467,1.98109789631088,1311.485,1334.328,3235.04,3238.251,-0.09372409,0.03336515,0.08765251,-1.0844452381134,-0.441920787096024,0.66802442073822,-1.09348683453544,-0.470496836415,0.676920440579027,0
2.36000061035156,-1.66263294219971,2.37414598464966,1.91791474819183,-1.37597305876702,2.37377361348711,1.99464996024512,1309.163,1335.08,3231.821,3235.568,-0.09324685,0.03356196,0.08663497,-1.08569669723511,-0.442553102970123,0.670723915100098,-1.09559602313537,-0.471404361345641,0.678226128796969,0
2.3799991607666,-1.68436670303345,2.36528301239014,1.93137919902802,-1.39790215061238,2.36433813789396,2.0082251127249,1305.743,1335.661,3228.686,3233.902,-0.09274352,0.03374451,0.08562508,-1.08668863773346,-0.443161875009537,0.673224449157715,-1.09742546213314,-0.472191517837776,0.679358638684859,0
2.39999961853027,-1.7061151266098,2.35640811920166,1.94488978385925,-1.41986712360559,2.35488722364528,2.02182247734447,1302.324,1336.026,3225.842,3231.975,-0.09220503,0.03391533,0.08462089,-1.08742570877075,-0.443742990493774,0.675530016422272,-1.09897479602782,-0.472858152929276,0.680317750170671,0
2.42000007629395,-1.7278733253479,2.34752225875854,1.95844221115112,-1.44186027593426,2.3454241846158,2.03543728631505,1300.11,1336.48,3222.185,3229.443,-0.09162712,0.03407818,0.08361843,-1.08790910243988,-0.444289147853851,0.677622258663177,-1.10024324085915,-0.473403929303954,0.681102977945675,0
2.44000053405762,-1.74963641166687,2.33862638473511,1.97203266620636,-1.46387598463032,2.33595144021159,2.04906605875155,1297.969,1336.836,3218.753,3226.694,-0.09101353,0.03423387,0.08261926,-1.08814346790314,-0.444794505834579,0.679522395133972,-1.10123030888212,-0.473828637098746,0.681714020072459,0
2.45999908447266,-1.77139890193939,2.32972121238708,1.9856573343277,-1.48590651627916,2.32647231790489,2.06270400730194,1294.983,1336.988,3215.535,3224.644,-0.09036531,0.03438282,0.08162676,-1.0881313085556,-0.445253521203995,0.681231498718262,-1.10193556692257,-0.474132089930926,0.682150608395601,0
2.47999954223633,-1.79315638542175,2.32080769538879,1.99931240081787,-1.50795043548148,2.31698743530794,2.07635024338568,1291.953,1336.905,3212.64,3222.375,-0.08967396,0.03452741,0.08063933,-1.08787608146667,-0.445661008358002,0.682752430438995,-1.10235887855907,-0.474314229102152,0.682412658463722,0
2.5,-1.81490385532379,2.31188774108887,2.01299357414246,-1.52999999932945,2.30750012397766,2.08999997377396,1290.145,1336.87,3208.783,3219.691,-0.08893733,0.03467129,0.07965221,-1.08737790584564,-0.446008384227753,0.684062361717224,-1.10250000050292,-0.474374949932098,0.682500019669533,0
2.52000045776367,-1.8366367816925,2.30296206474304,2.02669739723206,-1.55204956317742,2.29801281264738,2.10364970416224,1288.65,1336.751,3205.061,3216.658,-0.08815969,0.03481565,0.07866432,-1.08664083480835,-0.446289122104645,0.685185492038727,-1.10235887855907,-0.474314229102152,0.682412658463722,0
2.53999900817871,-1.85835003852844,2.29403209686279,2.0404200553894,-1.5740913806044,2.28852883438564,2.11729463914691,1286.107,1336.411,3201.935,3214.186,-0.08734369,0.03496009,0.07767928,-1.08566737174988,-0.446498304605484,0.686133801937103,-1.10193562074175,-0.474132113087814,0.682150641712234,0
2.55999946594238,-1.88003945350647,2.28509950637817,2.05415797233582,-1.59612401402858,2.27904880774374,2.13093388879636,1283.191,1335.805,3199.102,3211.849,-0.08648189,0.03510685,0.07669661,-1.08445870876312,-0.44663068652153,0.686900436878204,-1.10123030888212,-0.473828637098746,0.681714020072458,0
2.57999992370605,-1.90169966220856,2.27616596221924,2.06790709495544,-1.61813972272464,2.26957606333952,2.14456266123286,1282.021,1335.231,3195.126,3208.771,-0.08556949,0.03525995,0.07570876,-1.08301413059235,-0.446677505970001,0.687458574771881,-1.10024324085916,-0.473403929303954,0.681102977945675,0
2.60000038146973,-1.92332637310028,2.26723337173462,2.0816638469696,-1.64013287505331,2.26011302431004,2.15817747020344,1281.376,1334.61,3191.397,3205.027,-0.08461342,0.03542052,0.07471511,-1.08133697509766,-0.446632593870163,0.687840640544891,-1.09897479602782,-0.472858152929276,0.680317750170671,0
2.61999893188477,-1.94491481781006,2.25830364227295,2.09542489051819,-1.66209575487342,2.25066301069528,2.17177353904914,1279.232,1333.761,3188.102,3202.459,-0.08362006,0.03558613,0.07372143,-1.0794278383255,-0.446491062641144,0.688051998615265,-1.09742562325992,-0.472191587166126,0.67935873843001,0
2.63999938964844,-1.96646070480347,2.24937868118286,2.10918664932251,-1.68402693989188,2.24122663446822,2.18534998730279,1276.838,1332.612,3185.207,3199.831,-0.08258196,0.03575964,0.07272493,-1.07728838920593,-0.44624862074852,0.688091099262238,-1.09559602313537,-0.471404361345641,0.67822612879697,0
2.65999984741211,-1.98795914649963,2.24046039581299,2.1229453086853,-1.70591873485703,2.23180720668066,2.19890205123703,1275.971,1331.51,3181.333,3196.489,-0.08149432,0.03594434,0.07171829,-1.07491719722748,-0.445898145437241,0.687933325767517,-1.09348683453544,-0.470496836414999,0.676920440579028,0
2.68000030517578,-2.0094051361084,2.23155188560486,2.13669753074646,-1.72776555581996,2.22240712994983,2.2124262741215,1275.604,1330.36,3177.723,3192.461,-0.08036301,0.03614065,0.07070094,-1.07231628894806,-0.445434629917145,0.687606751918793,-1.09109887036509,-0.469469362144494,0.675442177003072,0
2.69999885559082,-2.0307948589325,2.2226550579071,2.15043973922729,-1.74955976015262,2.21302969268507,2.22591792480533,1274.11,1329.042,3174.162,3189.559,-0.07919548,0.03634734,0.06967701,-1.06948482990265,-0.444853365421295,0.687107980251312,-1.08843331936148,-0.468322450014513,0.673792073954033,0
2.71999931335449,-2.05212354660034,2.21377182006836,2.1641685962677,-1.77129995841443,2.20367549272384,2.23937614315866,1272.422,1327.456,3171.177,3186.385,-0.07798694,0.03656575,0.06864367,-1.0664244890213,-0.444151639938354,0.68644767999649,-1.08549070267236,-0.467056324260381,0.6719704540472,0
2.73999977111816,-2.07338619232178,2.20490527153015,2.17788052558899,-1.79297854407892,2.19434780294198,2.25279622037922,1271.78,1325.899,3167.455,3182.731,-0.07673366,0.03679822,0.06759632,-1.0631331205368,-0.443324387073517,0.685602426528931,-1.08227239935447,-0.465671578251677,0.669978170984375,0
2.76000022888184,-2.09457850456238,2.19605779647827,2.19157218933105,-1.81459001557147,2.18504899051335,2.26617475073026,1271.649,1324.293,3163.73,3178.607,-0.07544149,0.03704489,0.06653383,-1.0596114397049,-0.442367672920227,0.684588074684143,-1.07877965586273,-0.46416874830314,0.667815996380545,0
2.77999877929688,-2.11569547653198,2.18723249435425,2.20524048805237,-1.83612684690458,2.17578229366013,2.27950707526701,1270.704,1322.547,3160.286,3175.059,-0.07411684,0.03730458,0.06545946,-1.05585920810699,-0.441278964281082,0.683412253856659,-1.07501419914593,-0.462548577472581,0.665484999299265,0
2.79999923706055,-2.13673305511475,2.17843127250671,2.21888184547424,-1.85758769925251,2.16654828844162,2.29279236519255,1269.28,1320.588,3157.087,3171.776,-0.07275596,0.03757733,0.06437231,-1.05187654495239,-0.440056294202805,0.682073593139648,-1.07097677406178,-0.460811386251471,0.662985640842947,0
2.81999969482422,-2.15768623352051,2.16965699195862,2.23249292373657,-1.87896509797278,2.15735019098767,2.30602599334712,1269.141,1318.648,3153.288,3167.67,-0.0713578,0.03786577,0.06326619,-1.04766237735748,-0.438696563243866,0.680557072162628,-1.06666929835407,-0.458957999791384,0.660319108186353,0
2.84000015258789,-2.17855072021484,2.16091322898865,2.24607062339783,-1.90025365854909,2.14819031810522,2.31920462645863,1269.071,1316.695,3149.676,3163.296,-0.06992716,0.0381689,0.06214225,-1.04321694374084,-0.437198132276535,0.678880989551544,-1.06209345202774,-0.456989140951513,0.657486441332568,0
2.86000061035156,-2.19932150840759,2.15220189094543,2.25961136817932,-1.9214480311499,2.13907097167731,2.33232495272651,1268.151,1314.612,3146.043,3159.786,-0.06846987,0.03848547,0.0610029,-1.03853917121887,-0.435559511184692,0.677040338516235,-1.05725102347782,-0.454905579228273,0.654488747383304,0
2.8799991607666,-2.21999406814575,2.14352655410767,2.27311229705811,-1.94254089599063,2.12999530120277,2.34538244085541,1267.715,1312.418,3142.672,3155.517,-0.0669833,0.03881624,0.05984468,-1.03362989425659,-0.433780819177628,0.675042152404785,-1.05214440908742,-0.452708345718374,0.651327509813868,0
2.89999961853027,-2.24056386947632,2.13488936424255,2.28656983375549,-1.9635310029664,2.1209638445668,2.35837631697087,1266.658,1310.17,3139.254,3151.819,-0.06546795,0.03916064,0.05866937,-1.02848815917969,-0.431861490011215,0.67288076877594,-1.04677463978721,-0.450397884002483,0.648003366819456,0
2.92000007629395,-2.26102614402771,2.12629342079163,2.29998064041138,-1.98441110275638,2.11197972094963,2.37130209339796,1267.066,1307.932,3135.215,3147.179,-0.06392279,0.03951998,0.0574711,-1.02311313152313,-0.429800152778625,0.67054408788681,-1.04114430358224,-0.447975307626868,0.644517920498472,0
2.94000053405762,-2.28137612342834,2.11774134635925,2.31334161758423,-2.00517600594252,2.10304516321287,2.3841565576397,1267.183,1305.721,3131.438,3142.531,-0.06235738,0.03989246,0.05625272,-1.01750528812408,-0.427597314119339,0.668054044246674,-1.03525562241752,-0.445441572632395,0.640872546340724,0
2.95999908447266,-2.30160927772522,2.10923647880554,2.3266499042511,-2.02581860575671,2.0941632292003,2.39693531026807,1266.307,1303.39,3127.971,3138.536,-0.06077547,0.04027636,0.05501812,-1.01166462898254,-0.42525452375412,0.665410876274109,-1.02911152474823,-0.442797939051516,0.637069057199471,0
2.97999954223633,-2.32172107696533,2.10078096389771,2.33990216255188,-2.04633774394789,2.08533441727499,2.40963763427052,1265.158,1300.916,3124.587,3134.685,-0.05917331,0.04067125,0.05376589,-1.00559175014496,-0.422773480415344,0.662607908248901,-1.022713277122,-0.440044951844293,0.633108237128031,0
3,-2.34170699119568,2.09237766265869,2.35309481620789,-2.06672639957428,2.07656174835205,2.42225918334961,1265.478,1298.527,3120.522,3129.871,-0.05754771,0.04107913,0.05249022,-0.999286234378815,-0.420154541730881,0.659631252288818,-1.01606400046349,-0.437183953857422,0.628992018127441,0
3.02000045776367,-2.3615620136261,2.08402991294861,2.36622476577759,-2.08697957831524,2.06784737134813,2.43479686578296,1265.669,1296.207,3116.642,3124.935,-0.05590668,0.04149806,0.05119397,-0.992748916149139,-0.417399346828461,0.656501471996307,-1.00916635026771,-0.434216087676216,0.62472204407561,0
3.03999900817871,-2.38128137588501,2.07573962211609,2.37928915023804,-2.1070904288371,2.05919423420069,2.44724644026866,1264.939,1293.818,3112.797,3120.833,-0.05425658,0.04192606,0.04988068,-0.985979914665222,-0.414510041475296,0.653214514255524,-1.00202378325828,-0.431142840632279,0.62030045484912,0
3.05999946594238,-2.40086126327515,2.06750965118408,2.39228463172913,-2.12705790388088,2.05060278751603,2.4596072585035,1264.069,1291.327,3109.452,3116.334,-0.0525937,0.04236251,0.04854971,-0.97898131608963,-0.411490261554718,0.649779975414276,-0.994637809041649,-0.427964862267096,0.615728184966283,0
3.07999992370605,-2.42029619216919,2.05934286117554,2.40520811080933,-2.1468752533762,2.04207593566084,2.47187514187237,1263.769,1288.906,3105.292,3111.886,-0.05091698,0.04280795,0.04719926,-0.971752643585205,-0.408341526985168,0.646170735359192,-0.987012077823862,-0.42468372316235,0.61100749407852,0
3.10000038146973,-2.43958234786987,2.05124163627625,2.41805624961853,-2.1665377127838,2.03361572868328,2.48404714089851,1264.177,1286.539,3101.204,3106.616,-0.04923066,0.04326171,0.0458279,-0.964296042919159,-0.405066430568695,0.642406702041626,-0.979149678649927,-0.42130075244781,0.60614029445184,0
3.11999893188477,-2.4587140083313,2.04320859909058,2.43082618713379,-2.18603872829175,2.02522498650551,2.49611919846012,1263.356,1284.193,3097.371,3102.226,-0.04754169,0.04372091,0.04444174,-0.956612586975098,-0.401668518781662,0.638493955135345,-0.971054592046769,-0.41781766283301,0.601129050222034,0
3.13999938964844,-2.47768831253052,2.03524541854858,2.44351482391357,-2.20537738341953,2.01690410346351,2.50809074721212,1262.266,1281.739,3093.741,3097.858,-0.04584792,0.04418527,0.04304076,-0.948704421520233,-0.398151874542236,0.634428858757019,-0.962728579444533,-0.414235212212131,0.595974851798267,0
3.15999984741211,-2.49649953842163,2.0273551940918,2.45611882209778,-2.2245472411431,2.00865584922888,2.51995780232997,1262.028,1279.353,3089.627,3092.976,-0.04414615,0.04465505,0.04162235,-0.940573155879974,-0.39451938867569,0.630198299884796,-0.954175816030892,-0.41055519705179,0.590680283820602,0
3.18000030517578,-2.51514410972595,2.01953983306885,2.46863508224487,-2.24354380138856,2.00048216005771,2.53171757805356,1262.046,1277.058,3085.389,3087.88,-0.0424412,0.04512933,0.04018771,-0.932220816612244,-0.390774101018906,0.625811755657196,-0.94539982440085,-0.406779133026206,0.58524752694315,0
3.19999885559082,-2.53361701965332,2.01180148124695,2.48106074333191,-2.26236084956923,1.99238570991304,2.54336622725771,1261.286,1274.77,3081.422,3083.242,-0.04073837,0.04560574,0.03874097,-0.923650085926056,-0.386920064687729,0.621278822422028,-0.936405103758047,-0.402908956017012,0.579679366387291,0
3.21999931335449,-2.55191421508789,2.00414228439331,2.49339270591736,-2.28099762052367,1.98436682802245,2.55490327627103,1259.948,1272.43,3077.698,3078.876,-0.03903662,0.04608326,0.03728383,-0.91486394405365,-0.382961839437485,0.616598546504974,-0.927193677444144,-0.398945536611599,0.573977054697898,0
3.23999977111816,-2.57003116607666,1.99656414985657,2.50562763214111,-2.29944803207863,1.97642813137517,2.56632495993854,1259.657,1270.142,3073.3,3074.021,-0.03733166,0.04656321,0.03581242,-0.905864834785461,-0.378902524709702,0.611751437187195,-0.917770240667228,-0.394890895026838,0.568143498432441,0
3.26000022888184,-2.58796429634094,1.98906946182251,2.5177628993988,-2.31770788330949,1.96857142751172,2.57762867768778,1259.641,1267.987,3069.109,3068.614,-0.0356299,0.04704374,0.03432847,-0.896656274795532,-0.374746084213257,0.606760621070862,-0.908138749572296,-0.390746733481401,0.562181146633132,0
3.27999877929688,-2.60570907592773,1.98165941238403,2.5297954082489,-2.33577134012187,1.96079922667992,2.58881081793642,1258.304,1265.844,3064.994,3064.383,-0.03393666,0.04752262,0.03283818,-0.887241065502167,-0.370496660470963,0.60162353515625,-0.898304216251578,-0.386515208538549,0.556093102023818,0
3.29999923706055,-2.62326145172119,1.97433614730835,2.54172229766846,-2.35363781007389,1.95311178379095,2.59987101393471,1257.039,1263.624,3061.263,3059.7,-0.03224662,0.04800017,0.03134051,-0.877623915672302,-0.366159170866013,0.596345841884613,-0.888268937369113,-0.38219730838866,0.549880786348944,0
3.31999969482422,-2.64061784744263,1.96710133552551,2.55354046821594,-2.37130160722417,1.94551154534655,2.61080574581408,1256.521,1261.505,3056.731,3054.935,-0.03055871,0.04847634,0.02983399,-0.867807686328888,-0.36173677444458,0.590904355049133,-0.878038122530657,-0.377795274579551,0.543547424602645,0
3.34000015258789,-2.65777373313904,1.95995676517487,2.56524705886841,-2.38875886448137,1.93800017524809,2.62161261966077,1256.362,1259.482,3052.435,3049.578,-0.02887665,0.04895034,0.02831945,-0.857796847820282,-0.357233196496964,0.58532440662384,-0.867616161431205,-0.373310995874343,0.537095734215228,0
3.35999870300293,-2.67472553253174,1.95290386676788,2.57683920860291,-2.40600416902084,1.93058000248278,2.63228828467848,1255.089,1257.516,3048.23,3045.168,-0.02720739,0.04941967,0.02680304,-0.84759521484375,-0.35265263915062,0.579605638980865,-0.857008572601967,-0.368746846742847,0.530529131420399,0
3.3799991607666,-2.69146966934204,1.94594359397888,2.58831429481506,-2.42303712348661,1.92325119802182,2.64283249488494,1253.583,1255.478,3044.338,3040.708,-0.02554717,0.04988451,0.02528488,-0.837208092212677,-0.347999840974808,0.573751389980316,-0.846217938763199,-0.364103938457435,0.523849215045027,0
3.39999961853027,-2.70800256729126,1.93907809257507,2.59966921806335,-2.43985247907395,1.91601602027924,2.65324200101997,1252.861,1253.513,3039.993,3035.836,-0.02389228,0.05034501,0.02376347,-0.826639890670776,-0.343278378248215,0.567748069763184,-0.8352499776341,-0.359384731192945,0.517059524629672,0
3.42000007629395,-2.72432017326355,1.93230843544006,2.61090135574341,-2.45644673720879,1.90887597459372,2.66351463729957,1252.321,1251.644,3035.563,3030.866,-0.02224698,0.05080063,0.02224033,-0.81589537858963,-0.338491648435593,0.561606466770172,-0.824109512459656,-0.354591300256948,0.51016304599274,0
3.43999862670898,-2.74042010307312,1.92563557624817,2.62200808525085,-2.47281494657125,1.90183319137989,2.67364733862088,1251.307,1249.827,3031.326,3026.173,-0.02061553,0.05124987,0.02071912,-0.804979622364044,-0.333643615245819,0.555335760116577,-0.812802561098952,-0.34972623496609,0.503163504475677,0
3.45999908447266,-2.75629782676697,1.91906070709229,2.63298678398132,-2.48895692832918,1.89488774758421,2.68363999427827,1249.437,1247.993,3027.451,3021.983,-0.01899686,0.05169151,0.0192031,-0.793898284435272,-0.328738510608673,0.54894083738327,-0.801332006385299,-0.344790775723006,0.496062684689628,0
3.47999954223633,-2.77195119857788,1.91258525848389,2.64383482933044,-2.50486791119015,1.88804169616054,2.69348965061443,1248.689,1246.154,3022.986,3017.274,-0.01738671,0.05212708,0.01768859,-0.782656908035278,-0.323779821395874,0.542401373386383,-0.789704067205609,-0.339787598340998,0.488864436421841,0
3.5,-2.78737616539001,1.90620970726013,2.65454959869385,-2.5205447997813,1.88129636896134,2.70319439144611,1248.134,1244.461,3018.637,3012.259,-0.01578828,0.05255562,0.0161772,-0.771260917186737,-0.318770498037338,0.535739004611969,-0.777924000354857,-0.334718964672089,0.481572013878822,0
3.51999855041504,-2.80257081985474,1.8999354839325,2.66512870788574,-2.53598314392723,1.87465368077274,2.71275146190277,1246.83,1242.821,3014.503,3007.78,-0.01420637,0.0529759,0.01467414,-0.759715735912323,-0.313714295625687,0.528958857059479,-0.765998315247401,-0.329587675535422,0.474189446698144,0
3.53999900817871,-2.8175311088562,1.89376330375671,2.67556977272034,-2.55118300793501,1.86811360392524,2.72216090179351,1244.965,1241.121,3010.488,3003.822,-0.0126399,0.0533872,0.01318095,-0.748027861118317,-0.308614909648895,0.522058665752411,-0.753930210209441,-0.324395107081412,0.466718714796081,0
3.55999946594238,-2.83225536346436,1.88769364356995,2.68587040901184,-2.56614013781799,1.86167796879043,2.73142007769798,1244.422,1239.437,3006.064,2999.01,-0.01108301,0.05379112,0.01169312,-0.736203551292419,-0.303475350141525,0.515029788017273,-0.741726397688367,-0.319144147488645,0.459163973497326,0
3.57999992370605,-2.84674000740051,1.88172793388367,2.69602823257446,-2.58085187608849,1.85534791881102,2.74052734450471,1243.586,1237.936,3001.934,2994.18,-0.009542638,0.05418635,0.01021508,-0.72424840927124,-0.298298627138138,0.507895648479462,-0.729392568029152,-0.313837245153596,0.451528745396486,0
3.59999847412109,-2.86098384857178,1.87586569786072,2.70604109764099,-2.59531431270705,1.84912513636775,2.74948028171299,1242.066,1236.4,2997.698,2990.225,-0.008021441,0.05457194,0.008750585,-0.712168514728546,-0.293087840080261,0.500646889209747,-0.716935713767317,-0.308477408768949,0.443817359206151,0
3.61999893188477,-2.87498331069946,1.87010884284973,2.71590709686279,-2.6095277810186,1.84300947803163,2.75827909567923,1240.605,1234.847,2994.01,2985.774,-0.006514625,0.0549481,0.00729966,-0.699971199035645,-0.287846654653549,0.493301540613174,-0.704359365424783,-0.303066157419654,0.436032000487571,0
3.63999938964844,-2.88873624801636,1.86445713043213,2.7256236076355,-2.6234885835008,1.83700253474321,2.76692149746096,1239.531,1233.313,2989.477,2981.826,-0.005022722,0.05531539,0.00586165,-0.687662601470947,-0.282577335834503,0.485831499099731,-0.691670720740692,-0.297606588091786,0.428177124984152,0
3.65999984741211,-2.90224123001099,1.85891175270081,2.73518896102905,-2.6371945352351,1.83110524661191,2.77540613448951,1239.43,1231.874,2985.431,2976.555,-0.003546798,0.05567386,0.00443521,-0.67524927854538,-0.277282565832138,0.478272259235382,-0.678875903610016,-0.292101335726265,0.420256523678599,0
3.68000030517578,-2.91549587249756,1.85347247123718,2.74460124969482,-2.65064357486757,1.82531850058072,2.78373173068862,1237.487,1230.546,2981.342,2973.142,-0.00209644,0.05602122,0.003029236,-0.662737190723419,-0.271965175867081,0.470618277788162,-0.665981146317811,-0.286553081901244,0.412274054652249,0
3.69999885559082,-2.92849826812744,1.848140001297,2.75385880470276,-2.66383252129072,1.81964366539135,2.79189631680119,1236.272,1229.061,2977.621,2968.877,-0.0006636597,0.05635878,0.001639879,-0.650134444236755,-0.266628712415695,0.462875872850418,-0.652994032435616,-0.280965089615694,0.404234412497143,0
3.71999931335449,-2.94124746322632,1.84291422367096,2.76295971870422,-2.67676208269516,1.81408043632915,2.79990033123096,1234.822,1227.707,2973.76,2964.971,0.0007517276,0.05668664,0.0002696055,-0.637447714805603,-0.261275678873062,0.455042898654938,-0.639918533236037,-0.275339067597273,0.396140055620198,0
3.73999977111816,-2.9537410736084,1.83779621124268,2.77190208435059,-2.68942931115605,1.80863008180382,2.80774194907203,1234.201,1226.317,2969.703,2960.631,0.00215098,0.05700509,-0.001082841,-0.624683737754822,-0.255908250808716,0.447117865085602,-0.626762440440059,-0.269678368405848,0.387995807467879,0
3.76000022888184,-2.96597814559937,1.8327853679657,2.78068423271179,-2.7018326612438,1.80329326677055,2.81542021362985,1233.647,1225.017,2965.592,2956.396,0.00352842,0.05731394,-0.00241602,-0.611848950386047,-0.250528514385223,0.439111888408661,-0.613532419882738,-0.263985860164019,0.379805794509619,0
3.77999877929688,-2.97795677185059,1.82788276672363,2.78930497169495,-2.7139695770734,1.79807109095524,2.82293354268985,1232.468,1223.769,2961.953,2952.425,0.004880003,0.05761187,-0.003725762,-0.598950326442719,-0.245139047503471,0.431041836738586,-0.60023651686137,-0.258265004538452,0.371574997167698,0
3.79999923706055,-2.98967719078064,1.82308793067932,2.79776287078857,-2.72584109938593,1.7929631065561,2.83028258052034,1230.726,1222.461,2958.243,2949.229,0.006206399,0.05789891,-0.005009938,-0.585995674133301,-0.239742904901505,0.422897070646286,-0.586879077262983,-0.252517671442928,0.363306105753209,0
3.81999969482422,-3.00113677978516,1.81840133666992,2.8060564994812,-2.73744492223163,1.78797030575888,2.83746589962856,1229.997,1221.14,2954.583,2945.157,0.0075129,0.0581767,-0.006273875,-0.57299268245697,-0.234342753887177,0.414684176445007,-0.573468357077023,-0.246747413199059,0.355004231116903,0
3.84000015258789,-3.01233577728271,1.81382250785828,2.81418466567993,-2.74878005078916,1.78309311660741,2.84448288417273,1229.35,1219.966,2950.819,2941.161,0.008795572,0.05844454,-0.007514375,-0.559947788715363,-0.228940710425377,0.406408041715622,-0.560011455688534,-0.240957284473894,0.346673768116317,0
3.85999870300293,-3.023273229599,1.80935144424438,2.82214617729187,-2.75984459091511,1.77833235409867,2.85133236158783,1228.384,1218.799,2947.326,2937.395,0.01005132,0.05870185,-0.008728244,-0.546868026256561,-0.223539128899574,0.398079425096512,-0.546516869536602,-0.235150941047811,0.338319976451988,0
3.8799991607666,-3.03394842147827,1.80498874187469,2.8299400806427,-2.77063994670143,1.77368741409115,2.85801520107368,1227.099,1217.598,2943.93,2934.032,0.0112801,0.05894842,-0.00991335,-0.533760964870453,-0.218140676617622,0.389698266983032,-0.532989340125247,-0.229330423057526,0.32994579134077,0
3.89999961853027,-3.04436111450195,1.80073380470276,2.83756518363953,-2.78116449090252,1.76915899674315,2.86453039528771,1226.572,1216.341,2940.212,2930.472,0.01248279,0.059185,-0.01107289,-0.520634591579437,-0.212747767567635,0.381258368492126,-0.519437577293778,-0.223499478103569,0.321556604588101,0
3.92000007629395,-3.05451154708862,1.79658627510071,2.84502100944519,-2.79141781398929,1.76474727826359,2.87087769071194,1226.13,1215.243,2936.883,2926.537,0.01365566,0.05941122,-0.01220473,-0.507495641708374,-0.207362666726112,0.372786074876785,-0.50586911397723,-0.21766134739744,0.313157079439616,0
