t,x_s1,x_s2,x_s3,x_s_d1,x_s_d2,x_s_d3,propellers_rpms1,propellers_rpms2,propellers_rpms3,propellers_rpms4,rollRad,pitchRad,yawRad,v_s1,v_s2,v_s3,v_s_d1,v_s_d2,v_s_d3,insideCount
0,-0.0599999986588955,2.94000005722046,1.17999994754791,-0.0599999986588955,2.94000005722046,1.17999994754791,0,0,0,0,0,0,0,0,0,0,-1.06581410364015E-15,4.44089209850063E-16,4.44089209850063E-16,0
0.019989013671875,-0.0599999986588955,2.94000005722046,1.17615437507629,-0.0600018659130177,2.93999925379318,1.18000110346716,0,0,0,0,0,0,0,0,0,-0.192275941371918,-0.000279680311988734,-0.000120338624884473,0.000173135436141649,9
0.03997802734375,-0.0599999986588955,2.94000005722046,1.16854023933411,-0.060014847005691,2.93999366839165,1.1800091393819,0,0,0,0,0,0,0,-2.58693946061287E-22,-3.88396258331244E-24,-0.380706369876862,-0.00110975851463131,-0.000477498085781228,0.000686993385685745,9
0.05999755859375,-0.0599999986588955,2.94000005722046,1.16209828853607,-0.0600498857373401,2.93997859220429,1.18003083002592,2729.295,2675.473,2548.915,2604.147,-0.001367267,2.002408E-06,-0.0005752428,-1.80238712843561E-09,-4.41745884316447E-09,-0.32210037112236,-0.00247936261166862,-0.00106680046642749,0.00153484356504269,9
0.079986572265625,-0.0599972493946552,2.93999361991882,1.15672361850739,-0.0601174907153006,2.93994950367094,1.18007268072775,2722.604,2694.542,2468.312,2495.752,-0.005195827,8.099308E-06,-0.001442901,0.000137505237944424,-0.000327059446135536,-0.268736302852631,-0.00437104534358026,-0.00188073869847162,0.00270588528944111,9
0.0999755859375,-0.059987761080265,2.93996286392212,1.15231907367706,-0.0602280337026576,2.93990194011169,1.18014111210282,2568.05,2685.725,2542.749,2420.417,-0.01060311,1.299348E-05,-0.001045557,0.000474372500320897,-0.00154367834329605,-0.220227673649788,-0.00677334142420609,-0.00291437958958193,0.00419302100058057,9
0.1199951171875,-0.0599736161530018,2.93988347053528,1.14879488945007,-0.0603918861403606,2.93983143898525,1.18024254456713,2452.567,2640.504,2580.832,2390.696,-0.01667085,5.539412E-06,0.001344859,0.000707298051565886,-0.00397163163870573,-0.17620912194252,-0.00967801353495435,-0.00416417885169243,0.00599115140585487,9
0.139984130859375,-0.059965904802084,2.93972945213318,1.14606821537018,-0.0606183773949454,2.93973398612584,1.18038275344299,2360.551,2554.271,2600.295,2408.616,-0.02222727,-2.732003E-05,0.005767351,0.00038561612018384,-0.00770386820659041,-0.136335492134094,-0.0130632593357409,-0.00562075554695178,0.00808677981816243,9
0.15997314453125,-0.0599843747913837,2.93947815895081,1.14406251907349,-0.0609172730813211,2.93960537966217,1.18056778411123,2307.728,2451.479,2585.502,2449.014,-0.02628753,-8.541209E-05,0.01166768,-0.000923424144275486,-0.0125651471316814,-0.100282438099384,-0.0169203082141145,-0.00728033592584475,0.0104744768105937,9
0.17999267578125,-0.0600544773042202,2.93911480903625,1.14270770549774,-0.0612985250199726,2.93944133760391,1.18080379722281,2300.617,2355.621,2530.008,2487.803,-0.02838344,-0.0001502023,0.01808034,-0.00350516056641936,-0.0181726366281509,-0.0677406713366508,-0.0212433804254414,-0.00914043312572283,0.0131506644458931,8
0.199981689453125,-0.060202844440937,2.93863344192505,1.14193940162659,-0.0617700327574899,2.93923846099686,1.18109568297336,2326.38,2286.916,2446.533,2504.359,-0.02864549,-0.0001981392,0.02397907,-0.00741832936182618,-0.0240628719329834,-0.0384136401116848,-0.0260066742439309,-0.011189945384795,0.0160993702266893,8
0.219970703125,-0.0604527816176414,2.93803691864014,1.14169895648956,-0.0623411120546116,2.93899274152942,1.18144920826256,2363.03,2255.171,2357.198,2488.088,-0.02767397,-0.0002141181,0.02861764,-0.0124969389289618,-0.0298262853175402,-0.0120207406580448,-0.0312039351396938,-0.0134261815535814,0.0193167223010366,8
0.239990234375,-0.0608212687075138,2.93733286857605,1.14193308353424,-0.0630214373585105,2.93870001655724,1.18187036203406,2394.726,2259.7,2277.447,2439.602,-0.02636263,-0.0002018676,0.03168826,-0.0184243805706501,-0.0352036543190479,0.0117052085697651,-0.0368316683029241,-0.015847637913056,0.022800557215184,8
0.259979248046875,-0.0613179691135883,2.93653011322021,1.14259338378906,-0.0638172488896441,2.93835760108779,1.18236300728159,2403.943,2288.331,2225.862,2369.583,-0.02557753,-0.0001747034,0.03339099,-0.0248350072652102,-0.0401391461491585,0.03301602602005,-0.0428604193878216,-0.0184416410810803,0.0265326413259761,8
0.279998779296875,-0.0619464330375195,2.93563485145569,1.14363622665405,-0.0647390625194898,2.93796097043536,1.18293365383054,2381.77,2321.769,2212.606,2295.509,-0.02585343,-0.0001454086,0.03434007,-0.0314232595264912,-0.0447628349065781,0.0521420836448669,-0.0492963837173861,-0.0212108567320638,0.030516809833474,8
0.29998779296875,-0.0627069696784019,2.93464851379395,1.14502215385437,-0.0657918945890516,2.93750796620855,1.18358540703494,2338.97,2344.589,2225.359,2234.072,-0.02734587,-0.0001219728,0.03527291,-0.0380269326269627,-0.0493113100528717,0.0692966356873512,-0.0561078595514081,-0.0241416444928383,0.0347334378503248,8
0.319976806640625,-0.0635998621582985,2.9335675239563,1.14671552181244,-0.0669846297797139,2.93699476557717,1.18432376693582,2279.519,2342.95,2260.678,2198.049,-0.0297278,-0.000108657,0.03687083,-0.0446448102593422,-0.0540437251329422,0.0846704989671707,-0.0632924014512957,-0.0272329521594955,0.0391810115335476,8
0.339996337890625,-0.0646282136440277,2.93238472938538,1.14868426322937,-0.068326768706371,2.93641728069206,1.18515461486636,2225.55,2316.768,2292.802,2190.821,-0.03242718,-0.000108657,0.03948801,-0.05141756311059,-0.0591410994529724,0.098438948392868,-0.0708499516420146,-0.0304847548730522,0.0438594951176439,8
0.3599853515625,-0.0657992959022522,2.93109154701233,1.15089952945709,-0.0698213312158394,2.93577421219747,1.18607982025561,2187.208,2272.23,2310.424,2207.038,-0.03481124,-0.0001203749,0.0430993,-0.0585541352629662,-0.0646599978208542,0.110765255987644,-0.0787457139191101,-0.0338820807988248,0.0487473480944833,8
0.379974365234375,-0.0671243146061897,2.92968106269836,1.15333557128906,-0.0714771179380247,2.93506177342824,1.1871048311127,2167.798,2220.116,2309.775,2235.819,-0.03633883,-0.000139017,0.04737682,-0.0662510767579079,-0.0705253854393959,0.121799387037754,-0.0869793044824472,-0.0374247647983375,0.0538443328734993,8
0.399993896484375,-0.0686169490218163,2.92814993858337,1.15596926212311,-0.0733036822025899,2.9342758538535,1.18823556140379,2174.33,2176.077,2281.364,2263.653,-0.03681021,-0.0001533981,0.05175676,-0.0746319144964218,-0.0765543580055237,0.1316859126091,-0.0955525119207663,-0.0411135764513579,0.0591515566763244,8
0.41998291015625,-0.0702909901738167,2.92649936676025,1.15878057479858,-0.075301871434707,2.93341608884986,1.18947253572543,2196.515,2150.386,2236.906,2278.51,-0.0363676,-0.0001565939,0.05567343,-0.0837021693587303,-0.0825298279523849,0.140565440058708,-0.104427768518458,-0.0449323514193797,0.064645763297398,8
0.439971923828125,-0.072158046066761,2.92473387718201,1.16175198554993,-0.0774805210173447,2.93247867679888,1.19082122360055,2219.375,2145.251,2194.151,2274.829,-0.03535932,-0.0001459412,0.05877307,-0.0933528766036034,-0.0882701650261879,0.148567676544189,-0.113606589893581,-0.0488817418305121,0.0703278909764972,8
0.459991455078125,-0.0742261856794357,2.92286038398743,1.16486835479736,-0.0798493430620752,2.93145943885026,1.19228763728888,2240.233,2160.419,2154.678,2253.675,-0.03431057,-0.0001278317,0.06092917,-0.103407204151154,-0.0936696529388428,0.155815631151199,-0.123092454730403,-0.0529632444654124,0.0762000931848968,8
0.47998046875,-0.0764995515346527,2.92088580131531,1.16811680793762,-0.082406855753501,2.93035901258777,1.1938708594761,2248.099,2186.935,2132.617,2220.623,-0.03370656,-0.0001081243,0.0622981,-0.113668367266655,-0.0987313762307167,0.162423387169838,-0.132845337826091,-0.057159637597476,0.0822375924153778,8
0.5,-0.0789790749549866,2.91881465911865,1.17148649692535,-0.085166398670376,2.92917165836334,1.1955791479969,2236.17,2211.626,2137.588,2185.54,-0.03377847,-9.406938E-05,0.06328442,-0.12397626042366,-0.103555575013161,0.168487340211868,-0.142884000065179,-0.0614789935111996,0.0884520025491718,8
0.519989013671875,-0.0816642045974731,2.91664886474609,1.17496836185455,-0.0881248588203387,2.92789871561062,1.19741057576073,2218.105,2229.267,2151.203,2158.33,-0.03459872,-8.723191E-05,0.06429175,-0.134256616234779,-0.108286388218403,0.17409485578537,-0.153166947611899,-0.0659034585682559,0.0948176369253132,9
0.53997802734375,-0.084554560482502,2.91438722610474,1.1785546541214,-0.0912913676125048,2.92653625533937,1.19937079554481,2188.62,2229.379,2182.594,2145.178,-0.0359074,-8.783214E-05,0.06571147,-0.144517704844475,-0.11307817697525,0.179315686225891,-0.16369851368286,-0.0704348972306956,0.101337178011302,9
0.55999755859375,-0.0876514911651611,2.91202664375305,1.18223893642426,-0.094676112580471,2.92507989413848,1.20146611391775,2166.802,2216.701,2205.615,2148.298,-0.03737587,-9.33446E-05,0.06769692,-0.154846414923668,-0.118029683828354,0.184212356805801,-0.17448465888317,-0.0750758741803766,0.108014315705644,9
0.579986572265625,-0.0909586623311043,2.90956330299377,1.18601584434509,-0.0982734311149,2.92353206847056,1.2036930254546,2154.527,2195.203,2218.551,2163.453,-0.03866857,-9.987426E-05,0.07018787,-0.165358483791351,-0.123171150684357,0.188843116164207,-0.185481935470438,-0.0798076950675377,0.114822153786096,9
0.5999755859375,-0.0944817513227463,2.90699410438538,1.1898809671402,-0.102092760004862,2.92188871794891,1.20605737197736,2149.223,2169.69,2225.075,2184.271,-0.03947071,-0.0001054612,0.07300247,-0.176154553890228,-0.128464832901955,0.193257093429565,-0.196696165293826,-0.0846328648712294,0.121764296254622,9
0.6199951171875,-0.0982276946306229,2.90431785583496,1.19383108615875,-0.106144683970236,2.92014528826426,1.20856570593183,2160.323,2151.747,2210.348,2204.468,-0.03971572,-0.0001049285,0.07580302,-0.187296941876411,-0.133810669183731,0.197504490613937,-0.208134604141382,-0.0895545055543457,0.128845234789665,9
0.639984130859375,-0.102203264832497,2.901535987854,1.19786381721497,-0.110420882305709,2.91830535958365,1.21121287640506,2178.551,2145.709,2186.886,2216.358,-0.03953249,-9.715976E-05,0.07827475,-0.19877915084362,-0.139097660779953,0.201637417078018,-0.219752140575416,-0.0945532069255159,0.136037043262338,9
0.65997314453125,-0.106413885951042,2.89865112304688,1.20197784900665,-0.114931182097002,2.91636470358665,1.21400496683125,2192.166,2149.453,2170.911,2217.098,-0.03909947,-8.539676E-05,0.08027747,-0.210531160235405,-0.144242525100708,0.205699577927589,-0.231555939228262,-0.0996320517258771,0.143344156921357,9
0.67999267578125,-0.110863015055656,2.89566707611084,1.20617258548737,-0.119686638739014,2.91431856344567,1.21694882102647,2206.851,2164.925,2152.261,2209.161,-0.0387229,-7.270465E-05,0.08175852,-0.222456395626068,-0.149199530482292,0.209734007716179,-0.243554411173546,-0.104794659005432,0.150771782621969,9
0.699981689453125,-0.115552008152008,2.89258742332458,1.21044814586639,-0.124676182095571,2.91217170233105,1.22003758604909,2214.02,2185.538,2144.029,2194.595,-0.03867709,-6.330894E-05,0.08282203,-0.234449684619904,-0.153985247015953,0.21378093957901,-0.25570106256044,-0.110021023759057,0.158291138455704,9
0.719970703125,-0.120480567216873,2.88941407203674,1.21480548381805,-0.129910105849058,2.90991969115882,1.22327763417886,2206.964,2201.359,2157.04,2178.789,-0.0390249,-5.96659E-05,0.08374096,-0.246427968144417,-0.158670589327812,0.21786667406559,-0.268004259419652,-0.115314745656047,0.165907403394098,9
0.739990234375,-0.125647872686386,2.88614726066589,1.21924579143524,-0.135400001298574,2.90755754251682,1.2266761409821,2199.909,2212.676,2169.462,2169.098,-0.03977324,-6.109104E-05,0.08472873,-0.258364677429199,-0.163337618112564,0.222013056278229,-0.280473432677602,-0.12067988256057,0.173626415629864,9
0.759979248046875,-0.131053388118744,2.88278579711914,1.22377061843872,-0.141131974150567,2.90509123473139,1.23022450522921,2191.185,2215.936,2185.492,2166.604,-0.04081987,-6.585768E-05,0.08594642,-0.270276844501495,-0.168068289756775,0.226238995790482,-0.293060978423328,-0.126095951839638,0.181418706074426,9
0.779998779296875,-0.13669764995575,2.87932729721069,1.22838163375854,-0.147126184485884,2.90251209348295,1.23393520697061,2178.315,2207.974,2209.904,2171.768,-0.04189046,-7.251853E-05,0.08752204,-0.282212853431702,-0.172922044992447,0.230551585555077,-0.305795832832518,-0.131575403921268,0.189302187598958,9
0.79998779296875,-0.142582580447197,2.87576913833618,1.23308086395264,-0.153366821193532,2.89982692185086,1.2377984583754,2179.361,2199.576,2213.846,2184.831,-0.04285346,-7.758159E-05,0.0893575,-0.294246643781662,-0.17790225148201,0.234962791204453,-0.318629798715703,-0.137097500901303,0.197247023847227,9
0.819976806640625,-0.148711189627647,2.87210941314697,1.23787045478821,-0.159865102720482,2.89703089285078,1.24182120419666,2178.214,2186.406,2223.706,2199.404,-0.04349901,-7.981918E-05,0.09136488,-0.306430280208588,-0.182985439896584,0.239476785063744,-0.331572942526109,-0.142666574093344,0.205259446433311,9
0.839996337890625,-0.155087128281593,2.86834740638733,1.24275255203247,-0.166633637018892,2.89411858163313,1.24601124935738,2189.417,2180.464,2214.592,2213.907,-0.04382711,-7.747544E-05,0.09332885,-0.318797379732132,-0.188106149435043,0.244102418422699,-0.344636106234817,-0.148287288494656,0.213346167053785,9
0.8599853515625,-0.161713883280754,2.86448335647583,1.24772965908051,-0.173653699721778,2.89109804476993,1.25035700258242,2203.842,2182.232,2200.807,2222.743,-0.04395281,-7.085406E-05,0.09506301,-0.331337720155716,-0.193200260400772,0.248853608965874,-0.357770416714212,-0.153938615363784,0.221476930914505,9
0.879974365234375,-0.168593928217888,2.86051869392395,1.25280439853668,-0.180937139259224,2.88796418421271,1.25486579861444,2210.892,2187.134,2199.008,2223.961,-0.04394429,-6.344962E-05,0.09654028,-0.34400263428688,-0.198227778077126,0.253736168146133,-0.370986786595025,-0.159625250100867,0.229658493453734,9
0.899993896484375,-0.17572870850563,2.85645532608032,1.25797951221466,-0.18849723509595,2.8847112861788,1.25954585807468,2221.71,2199.681,2189.24,2221.969,-0.04399116,-5.68249E-05,0.09772839,-0.356739044189453,-0.203163355588913,0.258758366107941,-0.384296738353309,-0.165352150505452,0.237897987633041,9
0.91998291015625,-0.183118492364883,2.852294921875,1.26325809955597,-0.196312316554895,2.88134867495511,1.26438376578173,2228.187,2214.7,2185.662,2215.997,-0.04426227,-5.273679E-05,0.09868467,-0.369488298892975,-0.208020612597466,0.263929933309555,-0.397650971463704,-0.171098103938772,0.246164894078718,9
0.939971923828125,-0.190762549638748,2.84803795814514,1.26864302158356,-0.204394909045252,2.877870961208,1.26938727556053,2222.896,2223.605,2201.314,2208.583,-0.04473099,-5.336065E-05,0.09960622,-0.38220340013504,-0.212846711277962,0.26924803853035,-0.411061119720526,-0.176868116097511,0.254466414663641,9
0.959991455078125,-0.198660105466843,2.84368419647217,1.27413725852966,-0.212759000778906,2.87427212620069,1.27456504678061,2221.849,2231.194,2208.764,2206.519,-0.04540477,-5.694178E-05,0.1005886,-0.394878655672073,-0.217682883143425,0.274710148572922,-0.424539267042903,-0.182667386354485,0.262810029909387,9
0.97998046875,-0.20681069791317,2.83923268318176,1.27974355220795,-0.221379956358585,2.87056276985637,1.27990182895749,2220.449,2234.531,2217.459,2208.057,-0.04623727,-6.180086E-05,0.1016946,-0.407528281211853,-0.222570925951004,0.280315488576889,-0.438035925118965,-0.188474621271639,0.271165104193453,9
1,-0.215214267373085,2.83468174934387,1.28546464443207,-0.230284798736574,2.86673126495361,1.28541435058594,2213.017,2229.133,2237.797,2212.521,-0.0470245,-6.749514E-05,0.1030194,-0.4201779961586,-0.227542355656624,0.286052376031876,-0.451584000205995,-0.194303979492187,0.279552008056641,9
1.01998901367188,-0.22387170791626,2.83002996444702,1.29130303859711,-0.239446912293295,2.86278906344998,1.29108613532954,2218.772,2227.32,2235.732,2222.813,-0.04774462,-7.088713E-05,0.1044573,-0.432873517274857,-0.232586622238159,0.29191792011261,-0.46513400752272,-0.200134169097193,0.287940108062054,9
1.03997802734375,-0.232784450054169,2.82527613639832,1.29726099967957,-0.248880035413094,2.85873025410248,1.29692568790267,2217.725,2219.591,2247.22,2231.992,-0.04823731,-7.239559E-05,0.1059862,-0.445637077093124,-0.237688317894936,0.297900766134262,-0.478698517198992,-0.205970598662363,0.296337185718871,9
1.05999755859375,-0.241954207420349,2.82042002677917,1.30334091186523,-0.258599401509697,2.85454828239877,1.30294243851408,2227.325,2218.845,2239.92,2242.237,-0.04853558,-7.068588E-05,0.1074582,-0.458486497402191,-0.24280010163784,0.303996205329895,-0.492290296490434,-0.211818761581115,0.30475114456651,9
1.07998657226563,-0.251382350921631,2.81546235084534,1.30954504013062,-0.268575430648764,2.85025587575821,1.30911807577533,2238.362,2223.261,2230.192,2248.382,-0.04874277,-6.630091E-05,0.1087543,-0.471409350633621,-0.247882217168808,0.310206264257431,-0.50586005237609,-0.217657448443621,0.313151469876847,10
1.0999755859375,-0.261069715023041,2.81040406227112,1.31587553024292,-0.278822628233634,2.845846792911,1.31546157922208,2240.644,2226.5,2235.801,2248.695,-0.04885622,-6.233423E-05,0.1099082,-0.484367877244949,-0.252916306257248,0.31652295589447,-0.519420764586993,-0.223492244065532,0.321546196721701,10
1.1199951171875,-0.271016389131546,2.80524635314941,1.32233440876007,-0.289357002179081,2.84131414609862,1.32198285851614,2248.711,2235.865,2229.096,2249.191,-0.04900376,-5.937627E-05,0.110888,-0.497332215309143,-0.25788414478302,0.322943031787872,-0.532985466132485,-0.229328756186667,0.329943393154705,10
1.13998413085938,-0.281221687793732,2.79999041557312,1.32892370223999,-0.300146026259498,2.83667193044725,1.3286617783744,2254.34,2246.72,2226.038,2246.973,-0.04930416,-5.789035E-05,0.1117165,-0.510266959667206,-0.262794375419617,0.329467296600342,-0.546505271550557,-0.235145950758426,0.338312796746137,10
1.15997314453125,-0.291684538125992,2.79463672637939,1.33564531803131,-0.311204994190806,2.83191356549821,1.33550780633558,2249.168,2250.646,2242.293,2242.665,-0.04968446,-6.007179E-05,0.112551,-0.523140728473663,-0.267679125070572,0.336083769798279,-0.559993461530388,-0.240949542090342,0.346662628875245,10
1.17999267578125,-0.302403628826141,2.78918552398682,1.34250104427338,-0.322550701230474,2.8270318247214,1.34253133946411,2250.682,2255.724,2245.075,2243.736,-0.05016011,-6.378827E-05,0.113419,-0.535955727100372,-0.272555381059647,0.342783629894257,-0.573463232144024,-0.246745208083563,0.355001058539242,10
1.19998168945313,-0.313378065824509,2.78363656997681,1.34949231147766,-0.334147705564643,2.8220419577392,1.34971043758889,2252.401,2258.949,2248.034,2246.26,-0.05072789,-6.723974E-05,0.1143304,-0.548720300197601,-0.277442991733551,0.34956282377243,-0.586866312357874,-0.25251217906087,0.363298203668868,10
1.219970703125,-0.3246069252491,2.77798938751221,1.35662043094635,-0.346012104131023,2.81693703848901,1.35705506548116,2246.562,2254.305,2265.962,2248.715,-0.05122004,-7.158056E-05,0.1153744,-0.561443507671356,-0.282360166311264,0.356405317783356,-0.600216179640808,-0.2582562540006,0.371562407459373,10
1.239990234375,-0.336089998483658,2.77224349975586,1.36388647556305,-0.358161486344149,2.81170949873715,1.36457611182642,2250.964,2253.1,2264.491,2256.628,-0.05162005,-7.3968E-05,0.1164713,-0.574153184890747,-0.287290722131729,0.363301336765289,-0.613526094901141,-0.263983138701136,0.379801879044709,10
1.25997924804688,-0.347827225923538,2.76639914512634,1.37129139900208,-0.370557537648727,2.80637582416637,1.37224985808977,2257.47,2253.842,2259.947,2263.533,-0.05195455,-7.354217E-05,0.1175298,-0.58686101436615,-0.292215198278427,0.370248407125473,-0.626748599474006,-0.269672413024826,0.387987239250554,10
1.27999877929688,-0.359818339347839,2.76045680046082,1.37883603572845,-0.383236695417198,2.80092033679326,1.3800988607405,2256.449,2250.538,2270.178,2266.662,-0.05212712,-7.27161E-05,0.1185765,-0.599557876586914,-0.297119587659836,0.37723371386528,-0.639917282339435,-0.275338529371412,0.396139281255613,10
1.29998779296875,-0.372063189744949,2.75441741943359,1.38652122020721,-0.396158759015336,2.79536033382764,1.388098233671,2267.308,2257.001,2256.459,2272.043,-0.05227785,-6.99648E-05,0.1194862,-0.612241923809052,-0.301971077919006,0.384257078170776,-0.652985332144132,-0.280961346123326,0.404229026602261,10
1.31997680664063,-0.384560823440552,2.74828219413757,1.39434731006622,-0.409341180862083,2.78968830598122,1.39625878075997,2265.758,2256.927,2266.763,2271.728,-0.05234336,-6.844327E-05,0.1203235,-0.624883651733398,-0.30676543712616,0.39130699634552,-0.665966334939128,-0.286546708978778,0.412264885703281,10
1.33999633789063,-0.397310197353363,2.74205255508423,1.40231490135193,-0.422802873722428,2.78389611561957,1.40459220990988,2272.011,2263.39,2260.351,2273.457,-0.05241793,-6.744028E-05,0.1210461,-0.637468338012695,-0.311485946178436,0.39837783575058,-0.678873453515705,-0.29210028151913,0.420255006953505,11
1.3599853515625,-0.410309672355652,2.73572993278503,1.4104243516922,-0.436500861174643,2.77800225429635,1.41307191666844,2277.027,2271.138,2255.939,2273.061,-0.05259636,-6.651507E-05,0.1216465,-0.649973392486572,-0.316136002540588,0.405469954013824,-0.69166099897751,-0.297602405088682,0.428171106749628,11
1.37997436523438,-0.423557162284851,2.72931528091431,1.41867578029633,-0.45045340944128,2.77199886256629,1.42170920869753,2271.529,2271.57,2271.802,2269.579,-0.05278438,-6.862018E-05,0.1222593,-0.662373423576355,-0.320738106966019,0.412570208311081,-0.704342498157629,-0.303058899905815,0.436021558845703,11
1.39999389648438,-0.437050610780716,2.72280931472778,1.42706918716431,-0.464680216184654,2.76587746507559,1.43051627978847,2274.173,2275.288,2270.389,2271.615,-0.05301235,-7.13872E-05,0.1228714,-0.674672424793243,-0.325294733047485,0.419670313596725,-0.716930938559026,-0.308475354130225,0.443814403124744,11
1.41998291015625,-0.450788050889969,2.71621298789978,1.43560457229614,-0.479135601808478,2.75965771647838,1.43946485209513,2277.045,2278.626,2269.066,2273.666,-0.05331009,-7.322425E-05,0.1234671,-0.686872243881226,-0.329815238714218,0.426768720149994,-0.729381927869995,-0.313832666990362,0.451522158631107,11
1.43997192382813,-0.464767426252365,2.70952677726746,1.44428157806396,-0.493838640129536,2.75333140984416,1.4485667332187,2271.119,2274.134,2285.73,2273.723,-0.05353114,-7.617605E-05,0.1241426,-0.698969841003418,-0.334314167499542,0.433850467205048,-0.741708845898107,-0.319136595443637,0.459153108103047,11
1.45999145507813,-0.478987157344818,2.70275115966797,1.45309972763062,-0.508809800712713,2.74688973769103,1.45783459479497,2275.265,2274.348,2281.686,2279.397,-0.05369039,-7.768809E-05,0.1248256,-0.710983216762543,-0.338775545358658,0.440907388925552,-0.753924423002454,-0.324392617007921,0.466715132239272,11
1.47998046875,-0.49344539642334,2.69588732719421,1.46205854415894,-0.524000783579472,2.74035348215039,1.46723853683636,2280.63,2276.353,2275.948,2283.719,-0.05383474,-7.692553E-05,0.1254445,-0.722915589809418,-0.343187123537064,0.447939544916153,-0.76598572865452,-0.329582259876133,0.474181654997567,11
1.5,-0.508140504360199,2.68893647193909,1.4711571931839,-0.539455198877605,2.73370387899399,1.4768055561018,2277.109,2272.611,2288.317,2283.918,-0.05385764,-7.664629E-05,0.1260637,-0.734753668308258,-0.347546279430389,0.454934418201447,-0.777924000354858,-0.334718964672088,0.481572013878822,11
1.51998901367188,-0.523070454597473,2.68189978599548,1.48039507865906,-0.555123050061237,2.72696244033876,1.48650470234772,2286.101,2278.689,2274.168,2288.271,-0.05389386,-7.497276E-05,0.1265688,-0.746499359607697,-0.351828634738922,0.461893111467361,-0.789697369743256,-0.339784716610053,0.488860290373601,11
1.53997802734375,-0.53823310136795,2.67477893829346,1.48977112770081,-0.571024729446907,2.7201203919406,1.49634859938949,2282.023,2276.155,2286.827,2286.833,-0.05384645,-7.441739E-05,0.1270436,-0.758128941059113,-0.356037765741348,0.468804091215134,-0.801318788528229,-0.344785088448372,0.496054502206448,11
1.55999755859375,-0.553625762462616,2.66757583618164,1.49928438663483,-0.587181951496087,2.71316839067337,1.50635068951315,2286.969,2280.368,2279.729,2289.052,-0.05379159,-7.396552E-05,0.1274344,-0.769637525081635,-0.360157400369644,0.475662469863892,-0.812800388649436,-0.349725300221754,0.503162159625937,11
1.57998657226563,-0.569245994091034,2.66029214859009,1.50893378257751,-0.603542258451077,2.7061290076447,1.51647849886779,2291.441,2286.087,2273.567,2289.266,-0.05381609,-7.320107E-05,0.1277132,-0.781010031700134,-0.364187866449356,0.482470721006393,-0.82410201904291,-0.354588076049064,0.510158407210813,11
1.5999755859375,-0.585090398788452,2.65292930603027,1.51871812343597,-0.620126809287134,2.69899313873865,1.52674512586702,2285.202,2284.095,2289.095,2285.546,-0.05381237,-7.507641E-05,0.1280056,-0.792223811149597,-0.368146806955338,0.489216595888138,-0.835236272052476,-0.359378834064062,0.517051040221759,11
1.6199951171875,-0.601156055927277,2.64548873901367,1.52863597869873,-0.636958033083316,2.69175113334911,1.53716445517924,2288.114,2286.902,2284.533,2287.648,-0.05382355,-7.678325E-05,0.128275,-0.803283989429474,-0.372029483318329,0.495894223451614,-0.846214826007804,-0.364102599125749,0.523847288101157,11
1.63998413085938,-0.617439806461334,2.63797187805176,1.5386860370636,-0.653981118189727,2.68442657539777,1.54770255578211,2291.174,2290.129,2280.231,2288.913,-0.05390078,-7.762951E-05,0.1284924,-0.814188778400421,-0.375840455293655,0.50250506401062,-0.856999388527105,-0.368742895092007,0.53052344604056,11
1.65997314453125,-0.633938372135162,2.63037991523743,1.54886674880981,-0.671217966514002,2.67701004110563,1.55837298599979,2284.466,2285.317,2296.318,2286.942,-0.05390504,-7.968118E-05,0.1287645,-0.824928641319275,-0.379594355821609,0.509036183357239,-0.86760212115283,-0.373304954734798,0.537087042614082,11
1.67999267578125,-0.650648772716522,2.62271428108215,1.55917632579803,-0.688691692550512,2.66949158495151,1.56919005480539,2287.97,2285.954,2290.432,2290.985,-0.05386882,-8.079068E-05,0.1290232,-0.835517346858978,-0.383276462554932,0.51548171043396,-0.878034183119987,-0.377793579561193,0.543544985919778,11
1.69998168945313,-0.667567849159241,2.61497664451599,1.5696132183075,-0.706345246291743,2.66189575395985,1.5801184455266,2292.29,2288.209,2283.58,2293.568,-0.05385125,-7.992951E-05,0.129207,-0.8459552526474,-0.386879831552505,0.521844387054443,-0.88825927318574,-0.382193150160541,0.549874803759068,11
1.719970703125,-0.6846923828125,2.60716843605042,1.58017551898956,-0.724201244699276,2.65421281668394,1.59117215914002,2286.759,2283.554,2297.264,2291.722,-0.05373247,-8.017032E-05,0.129404,-0.85622775554657,-0.390409171581268,0.528112649917603,-0.898289055119065,-0.386508685126782,0.556083716560567,11
1.739990234375,-0.702019155025482,2.59929156303406,1.59086120128632,-0.74228345468553,2.64643254688532,1.60236590849663,2291.196,2285.475,2289.023,2294.958,-0.05357428,-7.971637E-05,0.1295395,-0.866340041160583,-0.393844544887543,0.534282445907593,-0.908134108040217,-0.390744736359816,0.562178273303667,12
1.75997924804688,-0.719544768333435,2.59134793281555,1.60166835784912,-0.760532711099173,2.63858040167573,1.61366306754931,2295.74,2289.467,2280.888,2295.924,-0.05346189,-7.817701E-05,0.1295619,-0.876282572746277,-0.397179663181305,0.540358126163483,-0.917760245372929,-0.394886594330938,0.568137310869129,12
1.77999877929688,-0.737265467643738,2.58333945274353,1.61259496212006,-0.779000609654483,2.63063418086074,1.62509557650306,2289.488,2286.172,2294.953,2292.115,-0.05328825,-7.862046E-05,0.1295825,-0.886032998561859,-0.400425344705582,0.546329021453857,-0.927192788821983,-0.398945154262308,0.57397650459845,12
1.79998779296875,-0.755177319049835,2.57526803016663,1.6236389875412,-0.797626646773287,2.62261991743975,1.63662598076079,2296.206,2292.458,2280.677,2294.122,-0.05318972,-7.840554E-05,0.1295116,-0.895594954490662,-0.403570711612701,0.552198708057404,-0.936399026186941,-0.402906341007953,0.579675604081262,12
1.81997680664063,-0.773276388645172,2.56713533401489,1.63479804992676,-0.816434558901977,2.61452739828301,1.64826897431355,2288.758,2287.581,2296.354,2290.854,-0.05303206,-7.996867E-05,0.1294643,-0.904951095581055,-0.40663269162178,0.557955980300903,-0.945389654806995,-0.406774757334075,0.585241231480109,12
1.83999633789063,-0.791558563709259,2.55894327163696,1.64607000350952,-0.835449117627072,2.60634596486888,1.66003989195343,2291.63,2289.148,2289.585,2292.986,-0.05286535,-8.122936E-05,0.1293859,-0.914109587669373,-0.409600436687469,0.563596606254578,-0.954174163352093,-0.410554485950274,0.590679260733698,12
1.8599853515625,-0.810019910335541,2.55069375038147,1.6574524641037,-0.854607925216182,2.59810246519841,1.67190010651166,2294.844,2291.887,2282.674,2293.79,-0.05275403,-8.097054E-05,0.1292325,-0.923068046569824,-0.412473887205124,0.569124937057495,-0.962722140342816,-0.41423244164655,0.595970865687568,12
1.87997436523438,-0.828656077384949,2.54238843917847,1.6689430475235,-0.873935340558452,2.5897864183221,1.683864697301,2287.492,2286.608,2297.801,2290.496,-0.05256601,-8.223085E-05,0.1291138,-0.931812763214111,-0.415265798568726,0.574529826641083,-0.971043628570469,-0.417812945555442,0.601122263307942,12
1.89999389648438,-0.847463250160217,2.53402924537659,1.68053925037384,-0.893456683142228,2.58138692997148,1.69594933829086,2290.638,2287.472,2290.028,2293.195,-0.05235029,-8.288996E-05,0.1289616,-0.940354645252228,-0.417961478233337,0.579807698726654,-0.979147395688901,-0.421299770153459,0.606138881190213,12
1.91998291015625,-0.866437077522278,2.52561807632446,1.69223856925964,-0.91310780215452,2.5729316024492,1.70811431707208,2294.155,2289.911,2282.113,2294.143,-0.05217718,-8.197785E-05,0.1287229,-0.948690891265869,-0.420557230710983,0.584963381290436,-0.98700543065471,-0.424680863071164,0.611003379164165,12
1.93997192382813,-0.885573089122772,2.51715683937073,1.70403826236725,-0.932913638115654,2.56440970454612,1.72037507301483,2286.98,2284.791,2296.345,2290.556,-0.05192259,-8.274661E-05,0.128504,-0.956805527210236,-0.423063188791275,0.589986681938171,-0.9946270711101,-0.427960242035134,0.615721537675136,12
1.95999145507813,-0.904867351055145,2.50864768028259,1.71593570709229,-0.952900013794853,2.55581012544606,1.73274759164336,2290.229,2286.046,2287.76,2292.729,-0.05164455,-8.290278E-05,0.1282368,-0.964706420898438,-0.425463825464249,0.594874680042267,-1.00202031904361,-0.431141350077486,0.620298310335216,12
1.97998046875,-0.92431503534317,2.50009250640869,1.72792840003967,-0.973001172086935,2.54716115859433,1.74519116617712,2293.593,2288.924,2279.472,2292.933,-0.05142244,-8.202918E-05,0.1278733,-0.972387969493866,-0.427756667137146,0.599633038043976,-1.0091596546337,-0.434213206731958,0.624717899159203,12
2,-0.943911790847778,2.49149346351624,1.74001348018646,-0.993273599084619,2.53843849960327,1.7577407641983,2285.893,2284.096,2293.89,2288.563,-0.05113216,-8.292111E-05,0.1275291,-0.979832530021667,-0.42995473742485,0.604251801967621,-1.01606400046349,-0.437183953857422,0.628992018127441,12
2.01998901367188,-0.963652670383453,2.48285245895386,1.75218820571899,-1.01365055070775,2.52967086658596,1.77035506794184,2292.122,2288.999,2278.466,2290.458,-0.05090845,-8.303044E-05,0.1271045,-0.987049221992493,-0.432045936584473,0.608735859394073,-1.02270954399163,-0.440043345582587,0.633105926142498,12
2.03997802734375,-0.983533203601837,2.47417163848877,1.76444971561432,-1.03415783849082,2.52084715356021,1.78305005597715,2283.773,2282.685,2293.584,2286.98,-0.05060805,-8.422162E-05,0.1267096,-0.994023978710175,-0.434045642614365,0.613075017929077,-1.02910434715509,-0.442794850733705,0.637064613927399,12
2.05999755859375,-1.00354850292206,2.4654529094696,1.7767950296402,-1.05482201812353,2.5119559343546,1.79584216754118,2286.479,2283.259,2285.159,2288.86,-0.05028528,-8.501008E-05,0.1262783,-1.00076711177826,-0.435939431190491,0.617266535758972,-1.03525504859546,-0.445441325732794,0.640872191117535,12
2.07998657226563,-1.02369403839111,2.45669841766357,1.78922140598297,-1.07557499515204,2.50302650811029,1.80868924892322,2289.542,2285.485,2276.597,2288.957,-0.05001363,-8.419136E-05,0.1257596,-1.00727605819702,-0.43772479891777,0.621316492557526,-1.04114045847258,-0.4479736531836,0.644515540192423,12
2.0999755859375,-1.04396486282349,2.44790983200073,1.80172574520111,-1.09644304044274,2.49404757120739,1.82160756304102,2281.387,2279.828,2290.833,2284.739,-0.04966369,-8.528391E-05,0.1252656,-1.01353549957275,-0.43941405415535,0.625215411186218,-1.04676782045836,-0.450394949835787,0.647999145330045,12
2.1199951171875,-1.06435585021973,2.43909025192261,1.81430494785309,-1.11745308225396,2.48500753716864,1.83461377976925,2284.047,2280.507,2281.939,2286.267,-0.04929511,-8.567375E-05,0.1247301,-1.01955497264862,-0.440992832183838,0.628961086273193,-1.0521429102862,-0.45270770082608,0.651326581984514,12
2.13998413085938,-1.08486247062683,2.43024110794067,1.82695615291595,-1.13853583516761,2.47593621757383,1.84766500813359,2286.986,2282.716,2273.052,2286.076,-0.04898352,-8.519062E-05,0.1241025,-1.02533090114594,-0.442459285259247,0.632559955120087,-1.05724722779031,-0.454903946049977,0.654486397671922,12
2.15997314453125,-1.10547947883606,2.42136454582214,1.83967626094818,-1.15971797923886,2.46682213274057,1.86077776435915,2278.397,2277.157,2287.375,2281.362,-0.04860056,-8.60177E-05,0.1235008,-1.03084743022919,-0.44382718205452,0.636002779006958,-1.06208716414724,-0.456986435452193,0.657482548835001,12
2.17999267578125,-1.12620162963867,2.41246294975281,1.85246205329895,-1.18102676265167,2.45765355853653,1.8739689163698,2280.775,2277.669,2278.479,2282.606,-0.04820322,-8.671558E-05,0.122861,-1.0361145734787,-0.445083379745483,0.63928747177124,-1.06666760390386,-0.458957270716794,0.660318059240953,12
2.19998168945313,-1.14702439308167,2.40353846549988,1.86531043052673,-1.20239187218348,2.44846074877705,1.8871949369313,2283.349,2279.643,2269.809,2282.073,-0.04786659,-8.616126E-05,0.1221362,-1.04112982749939,-0.44622740149498,0.642420589923859,-1.07097279461286,-0.460809674005774,0.6629831773745,12
2.219970703125,-1.16794180870056,2.39459276199341,1.87821829319,-1.22384034501537,2.43923207011845,1.90047256334669,2274.394,2273.643,2284.089,2277.497,-0.04745593,-8.727238E-05,0.1214429,-1.0458790063858,-0.447273552417755,0.645393133163452,-1.07500824518964,-0.462546015651526,0.665481313516697,12
2.239990234375,-1.18894922733307,2.38562893867493,1.89118230342865,-1.24539969505118,2.42995568409656,1.91381882803312,2276.66,2273.865,2275.035,2278.602,-0.04702929,-8.776267E-05,0.1207161,-1.05037343502045,-0.448208302259445,0.648203134536743,-1.07877792518082,-0.464168003639063,0.667814925005999,12
2.25997924804688,-1.21004152297974,2.37664842605591,1.90419948101044,-1.26699874763832,2.42066221517598,1.92718967049012,2279.147,2275.31,2266.167,2278.194,-0.04665698,-8.737864E-05,0.1199048,-1.05461192131042,-0.449030667543411,0.650857388973236,-1.08226887897249,-0.465670063529659,0.669975991700231,12
2.27999877929688,-1.23121297359467,2.36765336990356,1.91726636886597,-1.28869796983554,2.41132564607061,1.9406225227075,2270.08,2269.268,2280.033,2273.508,-0.04620798,-8.838139E-05,0.1191244,-1.05858039855957,-0.449753850698471,0.653347194194794,-1.08549040888332,-0.467056197851165,0.67197027217779,12
2.29998779296875,-1.25245881080627,2.35864591598511,1.930379986763,-1.31042570636616,2.40197680804417,1.95407302665558,2276.066,2272.943,2263.475,2274.607,-0.04581862,-8.816537E-05,0.1182681,-1.062291264534,-0.450364053249359,0.655678451061249,-1.08843144721369,-0.468321644481621,0.673790915005368,12
2.31997680664063,-1.27377355098724,2.34962868690491,1.94353687763214,-1.33220946960077,2.39260386329221,1.96755821380235,2266.662,2265.669,2277.426,2270.962,-0.04534192,-8.909317E-05,0.1174414,-1.06573259830475,-0.450875401496887,0.657842338085175,-1.09109597826566,-0.469468117754907,0.675440386655758,11
2.33999633789063,-1.29515171051025,2.34060335159302,1.95673358440399,-1.35407709248145,2.38319483607731,1.98109531406483,2269.124,2265.424,2267.618,2271.989,-0.04483751,-8.930021E-05,0.1165719,-1.06891560554504,-0.451271712779999,0.659837782382965,-1.09348640563071,-0.470496651869278,0.67692017506657,11
2.3599853515625,-1.31658852100372,2.33157229423523,1.96996700763702,-1.37595634130987,2.37378080654189,1.99463961134278,2271.741,2267.049,2258.047,2270.887,-0.04438744,-8.847407E-05,0.1156094,-1.07183718681335,-0.451549887657166,0.661672174930573,-1.09559452046326,-0.471403714787811,0.678225198571351,11
2.37997436523438,-1.33807802200317,2.32253789901733,1.98323369026184,-1.39787493938994,2.36434984612278,2.00820826768196,2262.473,2261.155,2271.085,2266.016,-0.04386386,-8.917445E-05,0.1146673,-1.07448196411133,-0.451723039150238,0.663337349891663,-1.09742336725307,-0.472190616469403,0.679357341854299,11
2.39999389648438,-1.35961532592773,2.31350231170654,1.99653029441833,-1.41986083522252,2.35488992936084,2.02181858453579,2264.575,2261.266,2261.423,2266.289,-0.0433307,-8.957462E-05,0.1136819,-1.07685959339142,-0.451778024435043,0.664832532405853,-1.09897439291323,-0.472857979480329,0.680317500623536,11
2.41998291015625,-1.38119459152222,2.30446791648865,2.00985360145569,-1.4418413890156,2.34543231112926,2.03542559441269,2266.57,2262.732,2252.504,2264.707,-0.04286304,-8.921276E-05,0.1126114,-1.0789669752121,-0.451715558767319,0.666164994239807,-1.10024227275454,-0.473403512755585,0.681102378642803,11
2.43997192382813,-1.40281045436859,2.29543685913086,2.02320003509521,-1.46384447819578,2.33596499655018,2.04904655476771,2256.752,2256.768,2265.725,2259.683,-0.04233041,-9.025896E-05,0.1115733,-1.08079087734222,-0.451551228761673,0.667326688766479,-1.10122909805959,-0.473828116115641,0.681713270515638,11
2.45999145507813,-1.42445743083954,2.28641128540039,2.03656625747681,-1.48589810917879,2.32647593524532,2.06269880290633,2258.352,2256.19,2256.677,2259.958,-0.04178713,-9.110677E-05,0.1105064,-1.08234357833862,-0.451273500919342,0.668316602706909,-1.10193535162022,-0.474131997292339,0.68215047511319,10
2.47998046875,-1.44612979888916,2.27739334106445,2.04994916915894,-1.50792940965705,2.3169964821328,2.07633722739875,2260.186,2256.989,2247.824,2258.573,-0.0413019,-9.098399E-05,0.1093654,-1.08362531661987,-0.450882852077484,0.669142067432404,-1.10235860927677,-0.474314113237503,0.682412491765153,10
2.5,-1.46782231330872,2.26838564872742,2.06334495544434,-1.52999999932945,2.30750012397766,2.08999997377396,2250.26,2250.54,2260.657,2253.983,-0.0407421,-9.186716E-05,0.1082616,-1.08462512493134,-0.450393259525299,0.669795095920563,-1.10250000050292,-0.474374949932098,0.682500019669533,10
2.51998901367188,-1.48952960968018,2.25938987731934,2.07675051689148,-1.5520369476803,2.29801824074336,2.10364189456856,2255.863,2252.947,2244.308,2254.351,-0.04023664,-9.177137E-05,0.1070888,-1.08535718917847,-0.449791431427002,0.670282185077667,-1.10235904000526,-0.474314298567936,0.682412758406603,10
2.53997802734375,-1.51124572753906,2.25040817260742,2.09016251564026,-1.57406826106879,2.28853878207593,2.11728032705303,2245.813,2245.475,2256.948,2250.75,-0.03964275,-9.223312E-05,0.1059476,-1.08581173419952,-0.449090719223022,0.670595705509186,-1.10193621258339,-0.474132367740737,0.682151008090402,9
2.55999755859375,-1.53296589851379,2.24144268035889,2.10357713699341,-1.59612191359838,2.27904971150017,2.13093258853001,2248.009,2244.572,2246.8,2250.972,-0.03902064,-9.230693E-05,0.1047661,-1.08600091934204,-0.448274850845337,0.670735418796539,-1.10123038958312,-0.473828671822132,0.681714070030222,9
2.57998657226563,-1.55468428134918,2.23249578475952,2.1169912815094,-1.61812503288753,2.26958238396605,2.14455356752391,2250.229,2245.296,2237.066,2249.289,-0.03844859,-9.144034E-05,0.1034936,-1.08592247962952,-0.44734063744545,0.670709073543549,-1.1002439936861,-0.473404253224357,0.681103443981416,9
2.5999755859375,-1.5763955116272,2.22356986999512,2.13040137290955,-1.64010562536668,2.26012474908893,2.15816060134934,2240.495,2239.551,2248.496,2244.371,-0.03780677,-9.165128E-05,0.1022383,-1.08556234836578,-0.446300536394119,0.670509874820709,-1.09897654259203,-0.472858904427064,0.680318831377119,8
2.6199951171875,-1.59809422492981,2.21466684341431,2.14380407333374,-1.66209156852628,2.2506648119635,2.17177094750084,2242.214,2239.045,2238.788,2243.762,-0.03715802,-9.20519E-05,0.10094,-1.08492982387543,-0.445142447948456,0.670137763023376,-1.09742594550583,-0.472191725819537,0.679358937915576,6
2.63998413085938,-1.61977458000183,2.20578980445862,2.15719604492188,-1.6840102224118,2.24123382753286,2.18533963838626,2243.778,2240.009,2229.82,2241.26,-0.03657798,-9.191095E-05,0.09956092,-1.08402252197266,-0.443867653608322,0.669600367546082,-1.09559752564474,-0.471405007833448,0.678227058921845,5
2.65997314453125,-1.64143109321594,2.19693994522095,2.17057394981384,-1.70588953556828,2.23181977031887,2.19888397548635,2233.319,2234.053,2241.678,2236.402,-0.03593989,-9.279427E-05,0.09821391,-1.08282864093781,-0.442492514848709,0.668890833854675,-1.09348983658457,-0.470498128112872,0.676922298990445,0
2.67999267578125,-1.66305828094482,2.18811988830566,2.18393421173096,-1.72775723139253,2.2224107117184,2.21242112090437,2234.435,2232.998,2232.847,2235.635,-0.03529647,-9.344692E-05,0.09684455,-1.08136081695557,-0.441007256507874,0.668009102344513,-1.09109983431736,-0.469469776906228,0.675442773735451,0
2.69998168945313,-1.68465065956116,2.1793315410614,2.19727349281311,-1.74954107593572,2.21303773198162,2.22590635838503,2235.752,2232.979,2224.184,2233.635,-0.03471164,-9.33383E-05,0.09541022,-1.07962083816528,-0.439413219690323,0.666962444782257,-1.08843572622736,-0.468323485621663,0.673793563918671,0
2.719970703125,-1.70620250701904,2.17057704925537,2.2105884552002,-1.77126890221328,2.20368885533958,2.23935691789074,2225.207,2226.503,2235.695,2229.331,-0.03405491,-9.404535E-05,0.09401661,-1.07760047912598,-0.437724679708481,0.665744304656982,-1.08549510920706,-0.467058220269158,0.671973181902092,0
2.739990234375,-1.72770893573761,2.16185855865479,2.22387552261353,-1.79296822271738,2.1943522439355,2.25278983096475,2226.699,2224.794,2226.289,2229.034,-0.0333774,-9.423585E-05,0.09259844,-1.07531416416168,-0.435928791761398,0.664354801177979,-1.08227399942825,-0.465672266718727,0.669979161506271,0
2.75997924804688,-1.74916410446167,2.15317797660828,2.23713159561157,-1.81456738183361,2.18505872917844,2.26616073936833,2228.333,2224.514,2217.162,2227.067,-0.03274623,-9.364229E-05,0.09110747,-1.07276296615601,-0.434023857116699,0.662801504135132,-1.07878346314437,-0.464170386470068,0.667818353269249,0
2.77999877929688,-1.77056288719177,2.14453744888306,2.25035309791565,-1.83612684690458,2.17578229366013,2.27950707526701,2218.202,2218.483,2227.479,2222.745,-0.03204209,-9.386682E-05,0.08964329,-1.0699371099472,-0.43202155828476,0.661078333854675,-1.07501419914593,-0.462548577472581,0.665484999299265,0
2.79998779296875,-1.79189968109131,2.13593935966492,2.26353693008423,-1.85757544288233,2.1665535620153,2.29278477791556,2223.579,2220.089,2211.778,2221.483,-0.03139441,-9.376857E-05,0.08810914,-1.06684863567352,-0.429909259080887,0.659192442893982,-1.07097916161324,-0.460812413548163,0.662987118851036,0
2.81997680664063,-1.8131697177887,2.12738537788391,2.2766797542572,-1.87894068379188,2.15736069572766,2.30601087980613,2213.115,2213.348,2222.147,2217.928,-0.03067269,-9.421349E-05,0.08659872,-1.06348836421967,-0.427700698375702,0.657137989997864,-1.0666743814704,-0.458960186914335,0.660322254877504,0
2.83999633789063,-1.83436703681946,2.11887741088867,2.28977799415588,-1.90024960698239,2.14819206138118,2.31920211834584,2214.627,2211.942,2212.724,2216.77,-0.02993499,-9.430152E-05,0.0850528,-1.0598669052124,-0.425382852554321,0.654915690422058,-1.06209435025759,-0.456989527434725,0.657486997379635,0
2.8599853515625,-1.85548686981201,2.11041831970215,2.30282855033875,-1.92143189875059,2.13907791299805,2.33231496600284,2216.219,2212.123,2203.528,2213.908,-0.02925642,-9.395489E-05,0.08343012,-1.055983543396,-0.422955214977264,0.652533411979675,-1.05725481901126,-0.454907212340279,0.654491096999312,0
2.87997436523438,-1.87652325630188,2.10201001167297,2.31582832336426,-1.94251480742951,2.13000652638179,2.34536629079331,2205.699,2206.452,2213.43,2209.527,-0.02851926,-9.450736E-05,0.08183219,-1.05182778835297,-0.420432031154633,0.649985730648041,-1.05215090364426,-0.452711140144745,0.65133153025393,0
2.89999389648438,-1.89747142791748,2.09365367889404,2.32877373695374,-1.96352501326936,2.1209664217661,2.35837260906308,2206.907,2205.13,2204.367,2207.959,-0.0277805,-9.488343E-05,0.08020582,-1.04741072654724,-0.417803466320038,0.647273540496826,-1.04677621342161,-0.450398561093403,0.648004340974112,0
2.91998291015625,-1.91832613945007,2.08535242080688,2.34166193008423,-1.98439323028747,2.1119874109737,2.37129102948832,2207.791,2204.93,2196.206,2204.89,-0.02710459,-9.482938E-05,0.07851826,-1.04273295402527,-0.415071874856949,0.644404470920563,-1.0411492471255,-0.447977434695422,0.644520980787238,0
2.93997192382813,-1.93908178806305,2.07710742950439,2.35448932647705,-2.00514638691846,2.10305790745146,2.38413822205285,2197.062,2199.035,2205.887,2200.922,-0.02637062,-9.535285E-05,0.07686741,-1.03778743743896,-0.412252068519592,0.641373157501221,-1.03526422946899,-0.445445276006189,0.640877874515594,0
2.95999145507813,-1.95973348617554,2.06892108917236,2.36725282669067,-2.02581075424974,2.0941666074844,2.39693044981124,2198.039,2197.108,2197.275,2199.527,-0.0256276,-9.557635E-05,0.07519965,-1.03258764743805,-0.409334361553192,0.638180732727051,-1.02911391720548,-0.442798968459032,0.637070538244476,0
2.97998046875,-1.98027610778809,2.06079435348511,2.37994956970215,-2.04631823718085,2.08534281049189,2.40962555865248,2199.107,2196.227,2188.928,2196.929,-0.02493624,-9.534794E-05,0.07347424,-1.02713632583618,-0.406319200992584,0.63483464717865,-1.0227194988233,-0.440047628868552,0.633112088657521,0
3,-2.00070452690125,2.05273032188416,2.39257621765137,-2.06672639957428,2.07656174835205,2.42225918334961,2188.563,2190.518,2197.953,2193.065,-0.0241799,-9.549662E-05,0.07178508,-1.02142715454102,-0.403219163417816,0.631330072879791,-1.01606400046349,-0.437183953857422,0.628992018127441,0
3.01998901367188,-2.02101421356201,2.04472970962524,2.4051296710968,-2.0869680292999,2.06785234056679,2.43478971639231,2193.541,2190.807,2183.63,2191.237,-0.0234747,-9.539907E-05,0.07004113,-1.01547372341156,-0.400023221969604,0.627674102783203,-1.00917036754089,-0.434217816196637,0.624724530959079,0
3.03997802734375,-2.04119944572449,2.03679490089417,2.41760683059692,-2.10706940546153,2.05920327997188,2.4472334257977,2182.948,2184.432,2192.414,2188.223,-0.02269759,-9.542419E-05,0.06832721,-1.00927019119263,-0.396743804216385,0.623862147331238,-1.00203140433628,-0.431146119769234,0.620305172659443,0
3.05999755859375,-2.06125593185425,2.02892732620239,2.43000483512878,-2.12705600675913,2.05060360379452,2.45960608409476,2184.53,2182.416,2183.173,2186.679,-0.02190503,-9.503395E-05,0.06658361,-1.00282847881317,-0.393368422985077,0.619896113872528,-0.994638524886308,-0.427965170275055,0.615728628108227,0
3.07998657226563,-2.08117914199829,2.02112936973572,2.44232058525085,-2.14686207530873,2.04208160581513,2.47186698402085,2185.781,2181.811,2174.719,2183.47,-0.02116308,-9.469928E-05,0.06477268,-0.996148526668549,-0.389896392822266,0.615783393383026,-0.987017247723776,-0.424685947625853,0.611010694492843,0
3.0999755859375,-2.10096335411072,2.01340270042419,2.45455098152161,-2.16651343412374,2.03362617511243,2.48403211125138,2175.592,2176.794,2182.482,2179.611,-0.02036839,-9.474127E-05,0.06298326,-0.989222049713135,-0.38633993268013,0.611520230770111,-0.979159571260203,-0.421305008961644,0.606146418448853,0
3.1199951171875,-2.12060499191284,2.0057487487793,2.46669316291809,-2.18603502400946,2.02522658035469,2.49611690533293,2176.69,2175.197,2173.948,2177.332,-0.01957743,-9.491869E-05,0.06116806,-0.982059180736542,-0.382690519094467,0.607108473777771,-0.971056158224178,-0.417818336715394,0.601130019760458,0
3.13998413085938,-2.14009785652161,1.99816977977753,2.47874426841736,-2.20536269329809,2.01691042421237,2.50808165332716,2177.213,2174.497,2166.519,2173.836,-0.01884772,-9.487822E-05,0.05929967,-0.974660634994507,-0.378951191902161,0.602555394172668,-0.962735018414262,-0.414237982720922,0.59597883782726,0
3.15997314453125,-2.15943837165833,1.99066722393036,2.49070143699646,-2.22452176174551,2.00866681230185,2.51994202936911,2166.829,2169.653,2174.135,2170.091,-0.01807541,-9.507983E-05,0.05746752,-0.967021048069,-0.375136226415634,0.597857594490051,-0.954187384555097,-0.410560174664568,0.590687445288169,0
3.17999267578125,-2.17862153053284,1.98324251174927,2.50256180763245,-2.24353658854737,2.00048526354177,2.53171311296128,2167.267,2167.258,2166.661,2168.17,-0.01730203,-9.520598E-05,0.05562727,-0.959153354167938,-0.37123915553093,0.593016803264618,-0.945403214201559,-0.406780591562751,0.585249625391267,0
3.19998168945313,-2.19764256477356,1.97589755058289,2.51432251930237,-2.26234477504321,1.99239262633251,2.54335627636037,2167.865,2166.02,2159.308,2165.029,-0.01658031,-9.513237E-05,0.05374689,-0.9510617852211,-0.367261618375778,0.588040173053741,-0.936412917636688,-0.402912318110697,0.579684203550396,0
3.219970703125,-2.21649742126465,1.96863293647766,2.52598094940186,-2.2809710931091,1.98437824202785,2.55488685453773,2157.695,2160.762,2166.371,2162.033,-0.01580426,-9.496487E-05,0.05190567,-0.942743420600891,-0.363215982913971,0.582924783229828,-0.927207006545169,-0.398951271751399,0.573985306046387,0
3.239990234375,-2.23518180847168,1.9614509344101,2.53753447532654,-2.2994392795179,1.97643189735754,2.5663195416865,2158.476,2158.24,2158.679,2160.128,-0.01501703,-9.479986E-05,0.0500555,-0.934211552143097,-0.359092980623245,0.5776726603508,-0.917774783907129,-0.394892849856044,0.568146310914365,0
3.25997924804688,-2.25369095802307,1.95435333251953,2.54898023605347,-2.31768882969315,1.96857962575054,2.57761688259161,2159.426,2156.727,2151.043,2157.208,-0.01427295,-9.428524E-05,0.04815847,-0.925469875335693,-0.354892462491989,0.572290897369385,-0.908148960779607,-0.390751127078637,0.562187467856884,0
3.27999877929688,-2.27202129364014,1.94734072685242,2.56031584739685,-2.33577134012187,1.96079922667992,2.58881081793642,2149.839,2152.022,2157.094,2154.133,-0.01347719,-9.406827E-05,0.04628864,-0.916513979434967,-0.350624710321426,0.566777050495148,-0.898304216251578,-0.386515208538549,0.556093102023818,0
3.29998779296875,-2.29016852378845,1.9404149055481,2.57153868675232,-2.35362764460945,1.95311615770631,2.59986472102797,2153.979,2151.776,2145.353,2150.89,-0.01273364,-9.372018E-05,0.04437788,-0.907354652881622,-0.346281468868256,0.561137974262238,-0.888274735793772,-0.382199803288803,0.549884375850026,0
3.31997680664063,-2.30812835693359,1.93357753753662,2.5826461315155,-2.37128151039117,1.94552019245235,2.61079330491711,2144.187,2146.627,2151.437,2148.478,-0.01194055,-9.361271E-05,0.04249559,-0.897988796234131,-0.341874718666077,0.555371403694153,-0.878049940595779,-0.377800359562814,0.543554740547926,0
3.33999633789063,-2.32589673995972,1.92682981491089,2.59363579750061,-2.38875555478454,1.93800159931817,2.62161057080077,2145.14,2144.401,2143.854,2146.113,-0.0111448,-9.319193E-05,0.04059741,-0.888427019119263,-0.3373963534832,0.549479961395264,-0.867618167158097,-0.373311858882592,0.53709697585572,0
3.3599853515625,-2.34347033500671,1.92017269134521,2.60450530052185,-2.40599272667425,1.93058492580486,2.63228120132087,2145.814,2143.329,2136.86,2142.513,-0.01040231,-9.293746E-05,0.03865622,-0.878671288490295,-0.332847684621811,0.543470680713654,-0.857015715678588,-0.368749920209162,0.530533553325099,0
3.37997436523438,-2.36084461212158,1.91360771656036,2.61525201797485,-2.42301614089521,1.92326022624472,2.64281950566132,2136.132,2139.206,2142.606,2139.431,-0.009623067,-9.271995E-05,0.03674794,-0.868717789649963,-0.328241050243378,0.537341892719269,-0.846231427202182,-0.364109742155906,0.523857565031302,0
3.39999389648438,-2.37801599502563,1.9071364402771,2.62587404251099,-2.43984769972619,1.91601807669906,2.65323904237604,2136.746,2136.998,2135.631,2136.924,-0.00885075,-9.258528E-05,0.03483412,-0.858577966690063,-0.323570668697357,0.531096339225769,-0.835253140422974,-0.35938609205264,0.51706148254665,0
3.41998291015625,-2.39498090744019,1.90075969696045,2.63636875152588,-2.45643259034873,1.90888206159239,2.66350587971929,2137.02,2135.573,2129.315,2133.547,-0.00813063,-9.235187E-05,0.03289029,-0.848255634307861,-0.318839460611343,0.524740815162659,-0.824119146742881,-0.354595445619869,0.510169010073001,0
3.43997192382813,-2.41173601150513,1.89447855949402,2.6467342376709,-2.47279324219826,1.90184253016523,2.67363390258008,2127.551,2131.449,2134.649,2130.844,-0.007375358,-9.204866E-05,0.03098709,-0.837749421596527,-0.314059466123581,0.518274188041687,-0.812817768079999,-0.3497327781052,0.503172918321354,0
3.45999145507813,-2.42827749252319,1.88829398155212,2.65696811676025,-2.48895081463434,1.8948903781363,2.68363620960993,2127.969,2128.855,2128.175,2128.609,-0.006620619,-9.158302E-05,0.02908623,-0.827071964740753,-0.309225022792816,0.511699318885803,-0.80133641229185,-0.344792671461508,0.496065412155666,0
3.47998046875,-2.44460248947144,1.88220727443695,2.66706848144531,-2.50485284867397,1.88804817714046,2.69348032619939,2128.344,2127.224,2121.986,2125.409,-0.005910087,-9.111705E-05,0.02716136,-0.816228210926056,-0.304337590932846,0.505022943019867,-0.789715229532172,-0.33979240117828,0.488871346433721,0
3.49996948242188,-2.46070671081543,1.87621927261353,2.67703342437744,-2.52052105914884,1.88130658389224,2.7031796948637,2119.46,2123.089,2126.524,2123.154,-0.005160674,-9.07306E-05,0.02527334,-0.805217683315277,-0.29940739274025,0.498244374990463,-0.777942088074629,-0.334726747312594,0.481583211039,0
3.51998901367188,-2.47658753395081,1.87033069133759,2.68686079978943,-2.53597583877076,1.87465682397749,2.71274693966292,2120.222,2120.751,2119.922,2120.688,-0.004413391,-9.028862E-05,0.02338402,-0.794051826000214,-0.294427901506424,0.491366595029831,-0.766004036374581,-0.329590137176618,0.474192988348404,0
3.53997802734375,-2.49224233627319,1.86454272270203,2.69654870033264,-2.55116718971613,1.86812041006291,2.72215110956251,2120.519,2119.227,2114.054,2117.38,-0.003710849,-8.996983E-05,0.02147032,-0.782734572887421,-0.289400994777679,0.484396517276764,-0.753942941956194,-0.324400585196356,0.466726596353819,0
3.55999755859375,-2.50766754150391,1.8588559627533,2.70609545707703,-2.56613872308604,1.86167857751006,2.73141920191151,2112.005,2115.587,2118.083,2115.041,-0.002978479,-8.95012E-05,0.01959155,-0.771265089511871,-0.284336656332016,0.477333724498749,-0.741727567798258,-0.319144650954242,0.459164697851087,0
3.57998657226563,-2.52286052703857,1.85327136516571,2.71549916267395,-2.58084213759183,1.85535210901407,2.74052131591136,2115.188,2114.665,2109.135,2111.508,-0.002296177,-8.910538E-05,0.01769747,-0.759654223918915,-0.279230147600174,0.470184713602066,-0.72940084364523,-0.31384080592,0.451533868397061,0
3.5999755859375,-2.53781890869141,1.84778940677643,2.72475814819336,-2.59529790318687,1.84913219692586,2.7494701234383,2106.727,2110.641,2113.064,2109.804,-0.001584048,-8.87228E-05,0.01584119,-0.747902691364288,-0.274092346429825,0.462949514389038,-0.716950039288888,-0.308483572640672,0.443826227386424,0
3.6199951171875,-2.55253934860229,1.84241104125977,2.7338707447052,-2.60952509409627,1.84301063413925,2.75827743234631,2107.096,2108.277,2107.366,2107.356,-0.0008751148,-8.819962E-05,0.01399114,-0.736021459102631,-0.268918454647064,0.455631762742996,-0.704361775018033,-0.303067194200314,0.436033492140578,0
3.63998413085938,-2.56701946258545,1.83713698387146,2.742835521698,-2.623478029369,1.83700707589127,2.76691496395061,2107.449,2106.758,2101.87,2104.126,-0.0002109224,-8.764732E-05,0.01212552,-0.724015414714813,-0.263710141181946,0.448237925767899,-0.691680442442073,-0.297610771068296,0.428183143180413,0
3.65997314453125,-2.58125734329224,1.8319673538208,2.7516508102417,-2.63717640706374,1.8311130466576,2.77539491228788,2099.628,2103.571,2105.117,2101.979,0.0004745203,-8.726303E-05,0.01029721,-0.711884796619415,-0.258477061986923,0.440768539905548,-0.678893054168409,-0.29210871513241,0.420267140691237,0
3.67999267578125,-2.59524989128113,1.82690334320068,2.76031541824341,-2.65063849381582,1.82532068681534,2.78372858527554,2099.805,2101.376,2099.901,2099.443,0.001149985,-8.673746E-05,0.008479544,-0.699640214443207,-0.253215909004211,0.43322741985321,-0.665986083416798,-0.286555206197011,0.41227711095171,0
3.69998168945313,-2.60899591445923,1.82194423675537,2.76882791519165,-2.66382131180924,1.81964848851807,2.79188937759817,2099.964,2099.86,2094.884,2096.296,0.0017785,-8.641112E-05,0.006653916,-0.687286853790283,-0.247929438948631,0.425620943307877,-0.653005218467595,-0.280969902652754,0.404241337183804,0
3.719970703125,-2.62249231338501,1.8170919418335,2.77718687057495,-2.67674377421065,1.81408831395855,2.7998889974069,2092.208,2096.948,2098.097,2094.245,0.00242436,-8.570506E-05,0.004873529,-0.674826145172119,-0.242627531290054,0.417950004339218,-0.639937296597115,-0.275347140947358,0.396151671034529,0
3.739990234375,-2.635737657547,1.81234562397003,2.78539133071899,-2.68942333385363,1.80863265367006,2.80773824883709,2092.639,2094.57,2092.924,2092.01,0.003057874,-8.519152E-05,0.003108112,-0.662269830703735,-0.237307414412498,0.410218685865402,-0.62676873176137,-0.26968107538565,0.387999702095468,0
3.75997924804688,-2.64873003959656,1.80770635604858,2.79344010353088,-2.70181978867538,1.80329880547712,2.81541224489679,2092.335,2093.087,2088.673,2088.948,0.003648997,-8.468787E-05,0.001345179,-0.649623394012451,-0.231972128152847,0.402433335781097,-0.6135463347885,-0.263991847359231,0.379814408499146,0
3.77999877929688,-2.66146755218506,1.80317366123199,2.80133199691772,-2.7139695770734,1.79807109095524,2.82293354268985,2085.495,2090.151,2091.03,2087.307,0.00425474,-8.406262E-05,-0.0003733752,-0.636889934539795,-0.226630344986916,0.394595295190811,-0.60023651686137,-0.258265004538452,0.371574997167698,0
3.79998779296875,-2.67394924163818,1.79874813556671,2.80906629562378,-2.72583438304408,1.79296599641037,2.83027842278479,2087.622,2088.884,2084.537,2084.141,0.00481801,-8.345941E-05,-0.002083657,-0.624080419540405,-0.221279636025429,0.386710971593857,-0.586886736182787,-0.252520966862155,0.36331084698941,0
3.81997680664063,-2.68617343902588,1.79442942142487,2.81664204597473,-2.73743179640664,1.78797595343468,2.83745777411762,2080.964,2085.646,2086.789,2083.046,0.005398825,-8.27792E-05,-0.003749198,-0.611198663711548,-0.215928584337234,0.378782093524933,-0.573483731835694,-0.246754028528195,0.355013748824923,0
3.83999633789063,-2.69813823699951,1.79021835327148,2.82405829429626,-2.74877791451009,1.78309403578861,2.84448156171422,2081.227,2083.59,2082.31,2080.751,0.005970122,-8.220419E-05,-0.005393967,-0.598255336284637,-0.210573986172676,0.370812892913818,-0.560014026276881,-0.240958390526246,0.346675359432959,0
3.8599853515625,-2.70984363555908,1.78611373901367,2.83131456375122,-2.75983729406747,1.77833549372837,2.85132784449154,2081.428,2082.068,2078.047,2078.034,0.006501155,-8.170072E-05,-0.007035539,-0.585256338119507,-0.20521804690361,0.362809807062149,-0.546525890176286,-0.235154822377061,0.338325560657667,0
3.87997436523438,-2.72128772735596,1.78211617469788,2.83841013908386,-2.77062673073895,1.77369310055059,2.85800701976334,2075.218,2079.891,2080.005,2076.248,0.007038417,-8.098585E-05,-0.008632903,-0.572203934192657,-0.19986866414547,0.354774862527847,-0.533006127404299,-0.22933764615472,0.329956183466192,0
