t,x_s1,x_s2,x_s3,x_s_d1,x_s_d2,x_s_d3,propellers_rpms1,propellers_rpms2,propellers_rpms3,propellers_rpms4,rollRad,pitchRad,yawRad,v_s1,v_s2,v_s3,v_s_d1,v_s_d2,v_s_d3,insideCount
0,-0.0599999986588955,2.94000005722046,1.17999994754791,-0.0599999986588955,2.94000005722046,1.17999994754791,0,0,0,0,0,0,0,0,0,0,-1.06581410364015E-15,4.44089209850063E-16,4.44089209850063E-16,0
0.0200042724609375,-0.0599999986588955,2.94000005722046,1.17811644077301,-0.0600018701838461,2.93999925195556,1.18000110611101,0,0,0,0,-0.01635288,0.0001297794,-0.01587137,-1.10653664009419E-09,-7.76775763711157E-08,-0.0941759571433067,-0.000280105751305916,-0.000120521679537258,0.00017339880334547,9
0.0399932861328125,-0.0599999986588955,2.94000005722046,1.17242503166199,-0.060014863945674,2.93999366110285,1.18000914986856,0,0,0,0,-0.03270202,0.0005238493,-0.03175127,-1.08383135799528E-09,-7.60859677484405E-08,-0.284568399190903,-0.00111059898697896,-0.000477859717552347,0.000687513678106196,9
0.05999755859375,-0.0599058829247952,2.93990302085876,1.16596519947052,-0.0600498857373401,2.93997859220429,1.18003083002592,1867.904,3252.744,3184.064,1722.533,-0.04942081,0.0003291642,-0.01369451,0.00470578344538808,-0.00484931888058782,-0.322993487119675,-0.00247936261166862,-0.00106680046642749,0.00153484356504269,9
0.0800018310546875,-0.0598203651607037,2.93960738182068,1.16000318527222,-0.0601175574246769,2.93994947496775,1.18007272202403,1925.689,2314.406,3251.882,2829.42,-0.07542925,-0.002135855,0.02094752,0.00427580904215574,-0.0147780273109674,-0.298102557659149,-0.00437268608126799,-0.00188144466206175,0.00270690098422899,9
0.0999908447265625,-0.0599374361336231,2.93904495239258,1.15498661994934,-0.0602281370710988,2.93990189563514,1.18014117609281,980.3461,1498.873,3914.857,3896.541,-0.1031932,-0.008062454,0.06330631,-0.00585355889052153,-0.0281156711280346,-0.250828981399536,-0.00677536694902951,-0.00291525111632684,0.0041942748969354,8
0.1199951171875,-0.060463834553957,2.93818354606628,1.15081334114075,-0.0603918861403606,2.93983143898525,1.18024254456713,346.1977,980.26,4173.206,4613.362,-0.1214295,-0.01542077,0.1040004,-0.0263199284672737,-0.0430677868425846,-0.20866422355175,-0.00967801353495435,-0.00416417885169243,0.00599115140585487,8
0.139999389648438,-0.0615635700523853,2.93704128265381,1.1472829580307,-0.0606185767455666,2.93973390035084,1.18038287685052,353.0333,747.2346,3975.123,4854.899,-0.1253987,-0.02116627,0.1351041,-0.0549868755042553,-0.0571124851703644,-0.176520496606827,-0.0130660253322238,-0.00562194567796536,0.00808849210174802,7
0.160003662109375,-0.0633407756686211,2.93568110466003,1.14427495002747,-0.0609177895434042,2.93960515744296,1.18056810382587,821.0941,815.0187,3462.568,4692.36,-0.118459,-0.02352317,0.1522677,-0.0888603180646896,-0.0680128633975983,-0.150397926568985,-0.0169265510445065,-0.00728302204135792,0.0104783414199936,7
0.17999267578125,-0.065846785902977,2.93417263031006,1.14182543754578,-0.0612985250199726,2.93944133760391,1.18080379722281,1348.71,1083.38,3006.764,4255.208,-0.1079832,-0.02277908,0.155776,-0.12530043721199,-0.0754290074110031,-0.122478008270264,-0.0212433804254414,-0.00914043312572283,0.0131506644458931,7
0.199996948242188,-0.0690848380327225,2.93255424499512,1.14006185531616,-0.0617704296168641,2.93923829023936,1.18109592864822,1636.077,1380.892,2919.077,3666.346,-0.09982806,-0.02030128,0.1501562,-0.16190280020237,-0.080915242433548,-0.0881805270910263,-0.0260104776919234,-0.0111915819022102,0.0161017247421801,7
0.220001220703125,-0.073010116815567,2.93082642555237,1.139035820961,-0.0623420644491781,2.93899233174064,1.18144979784016,1641.519,1580.823,3147.889,3113.139,-0.09583758,-0.01735475,0.1421895,-0.196263834834099,-0.086386151611805,-0.0512993223965168,-0.03121219533433,-0.0134297356845702,0.019321835755004,7
0.240005493164063,-0.0775497853755951,2.92897391319275,1.13863325119019,-0.0630219993990999,2.93869977472688,1.18187070996396,1524.439,1624.352,3417.368,2777.422,-0.09475687,-0.01467721,0.1377334,-0.226983532309532,-0.0926236659288406,-0.0201296862214804,-0.0368361158647881,-0.0158495515746756,0.0228033104678445,7
0.259994506835938,-0.0826386511325836,2.92699289321899,1.13863563537598,-0.0638179029240226,2.93835731967507,1.18236341216003,1439.019,1500.828,3533.26,2744.218,-0.09439415,-0.01258823,0.1393017,-0.254442930221558,-0.0990566089749336,0.000117845833301544,-0.0428651747123285,-0.0184436871643672,0.0265355850983733,7
0.279998779296875,-0.0882445201277733,2.92490124702454,1.13885247707367,-0.0647390625194898,2.93796097043536,1.18293365383054,1399.906,1275.629,3477.446,2977.811,-0.09321277,-0.01110645,0.1456856,-0.280293881893158,-0.104584880173206,0.0108429621905088,-0.0492963837173861,-0.0212108567320638,0.030516809833474,7
0.300003051757813,-0.0943702459335327,2.92273306846619,1.13920724391937,-0.0657927507678135,2.93750759781875,1.18358593705038,1350.737,1061.74,3344.76,3324.828,-0.09053096,-0.009935189,0.1533116,-0.306286245584488,-0.108407564461231,0.0177379548549652,-0.0561132031658829,-0.0241439437008635,0.0347367458022363,7
0.319992065429688,-0.101035505533218,2.92052626609802,1.13972520828247,-0.0669855955880233,2.93699435001684,1.18432436481717,1281.47,941.4073,3236.919,3590.35,-0.08597802,-0.008522648,0.1583586,-0.333262801170349,-0.110341787338257,0.0258954204618931,-0.0632980253096114,-0.0272353719486164,0.0391844929697465,7
0.339996337890625,-0.108251079916954,2.91831278800964,1.14046204090118,-0.068326768706371,2.93641728069206,1.18515461486636,1252.653,943.7963,3171.841,3649.898,-0.07944582,-0.006291984,0.158477,-0.360779285430908,-0.110679768025875,0.0368392579257488,-0.0708499516420146,-0.0304847548730522,0.0438594951176439,7
0.360000610351563,-0.116002589464188,2.91611552238464,1.14145302772522,-0.0698225328270578,2.93577369517774,1.1860805641102,1319.65,1047.289,3120.407,3498.322,-0.07154582,-0.002963033,0.1534734,-0.387575268745422,-0.109858393669128,0.0495484732091427,-0.0787518717320621,-0.0338847303337087,0.0487511600740379,8
0.3800048828125,-0.124250888824463,2.91395044326782,1.14270782470703,-0.0714797725314022,2.93506063123087,1.18710647443246,1455.911,1181.964,3090.262,3231.002,-0.0636144,0.001259794,0.1450354,-0.412415623664856,-0.108255825936794,0.0627416223287582,-0.0869921272359981,-0.0374302820709642,0.0538522707687797,8
0.399993896484375,-0.132942646741867,2.91182708740234,1.1442174911499,-0.0733036822025899,2.9342758538535,1.18823556140379,1579.593,1273.668,3104.89,2981.639,-0.05702467,0.005826743,0.1357448,-0.434588104486465,-0.106164380908012,0.0754813849925995,-0.0955525119207663,-0.0411135764513579,0.0591515566763244,8
0.419998168945313,-0.142023026943207,2.90975093841553,1.1459584236145,-0.0753034649285836,2.93341540321397,1.18947352217404,1630.257,1288.159,3160.202,2844.999,-0.0524435,0.01017421,0.1278591,-0.454019129276276,-0.103803545236588,0.0870460793375969,-0.104434660908044,-0.0449353170220673,0.0646500300148815,8
0.44000244140625,-0.151445388793945,2.9077250957489,1.14789605140686,-0.077483988232608,2.93247718495301,1.19082336997196,1607.052,1238.177,3218.854,2843.151,-0.04965464,0.0139745,0.122465,-0.471118450164795,-0.101292908191681,0.0968815684318542,-0.113620829717891,-0.048887868829098,0.0703367061060819,8
0.459991455078125,-0.161176040768623,2.90575242042542,1.1499969959259,-0.0798493430620752,2.93145943885026,1.19228763728888,1542.634,1158.54,3251.848,2937.769,-0.04788417,0.01718712,0.1193403,-0.486532479524612,-0.0986395254731178,0.105050176382065,-0.123092454730403,-0.0529632444654124,0.0762000931848968,8
0.479995727539063,-0.17119288444519,2.90383696556091,1.15223932266235,-0.0824088828700873,2.93035814037613,1.19387211435783,1473.519,1085.792,3249.2,3067.294,-0.04628893,0.0199863,0.1173801,-0.500841856002808,-0.0957778543233871,0.11211696267128,-0.132852887402757,-0.0571628859694044,0.0822422659629699,8
0.5,-0.181480273604393,2.90198421478271,1.15461587905884,-0.085166398670376,2.92917165836334,1.1955791479969,1431.4,1046.315,3216.165,3170.148,-0.04433258,0.02264308,0.1152249,-0.514370679855347,-0.0926394611597061,0.118827924132347,-0.142884000065179,-0.0614789935111996,0.0884520025491718,8
0.520004272460938,-0.192023456096649,2.90019965171814,1.15713477134705,-0.088127196023106,2.92789770997757,1.19741202260058,1424.496,1045.398,3176.855,3209.734,-0.04191869,0.02538016,0.1118818,-0.527158617973328,-0.0892268344759941,0.125942140817642,-0.153174893518032,-0.065906877469682,0.0948225558197254,9
0.539993286132813,-0.202803716063499,2.89848685264587,1.15981006622314,-0.091293865515634,2.92653518056143,1.19937234186584,1445.826,1073.486,3148.883,3184.275,-0.0392992,0.02828988,0.1070448,-0.539012968540192,-0.0856383442878723,0.133762404322624,-0.163706645289342,-0.0704383960337938,0.101342211863077,9
0.55999755859375,-0.213797017931938,2.89684629440308,1.1626535654068,-0.094676112580471,2.92507989413848,1.20146611391775,1482.732,1113.479,3140.051,3114.602,-0.03689117,0.03132627,0.1010609,-0.549665153026581,-0.0820334404706955,0.142174333333969,-0.17448465888317,-0.0750758741803766,0.108014315705644,9
0.580001831054688,-0.224975243210793,2.89527463912964,1.16566836833954,-0.0982762614093182,2.92353085067394,1.20369477754168,1521.193,1148.8,3145.18,3035.274,-0.0351239,0.03434502,0.09465823,-0.558911979198456,-0.0785792842507362,0.150739818811417,-0.185490414529404,-0.0798113433697334,0.11482740272751,9
0.599990844726563,-0.236309885978699,2.89376616477966,1.16885149478912,-0.102095761416081,2.92188742652551,1.20605922999388,1542.383,1167.359,3162.331,2978.102,-0.03428713,0.03716301,0.08861436,-0.566731333732605,-0.0754198953509331,0.15915684401989,-0.19670480600515,-0.0846365827279185,0.121769645266545,9
0.6199951171875,-0.247775197029114,2.89231276512146,1.17219495773315,-0.106144683970236,2.92014528826426,1.20856570593183,1533.579,1166.952,3183.274,2964.605,-0.03442136,0.03963097,0.08346194,-0.57326602935791,-0.0726655125617981,0.167170330882072,-0.208134604141382,-0.0895545055543457,0.128845234789665,9
0.639999389648438,-0.259350389242172,2.89090514183044,1.17568719387054,-0.110424235525481,2.91830391678686,1.21121495220784,1506.109,1156.305,3194.487,2987.861,-0.03534387,0.04169712,0.07930013,-0.578761041164398,-0.0703806206583977,0.174614325165749,-0.219761081350814,-0.0945570538913933,0.136042578028218,9
0.660003662109375,-0.271020174026489,2.88953328132629,1.17932045459747,-0.114938248900541,2.91636166293851,1.21400934151928,1468.353,1144.653,3196.954,3030.112,-0.03677772,0.04338701,0.07590038,-0.583488047122955,-0.0685952827334404,0.18166421353817,-0.231574097577923,-0.0996398647564507,0.143355397804799,9
0.67999267578125,-0.282773107290268,2.88818669319153,1.18308973312378,-0.119686638739014,2.91431856344567,1.21694882102647,1429.454,1139.773,3190.614,3074.944,-0.03845178,0.04477733,0.07287925,-0.587648034095764,-0.0673240050673485,0.188461810350418,-0.243554411173546,-0.104794659005432,0.150771782621969,9
0.699996948242188,-0.294600129127502,2.88685512542725,1.18699300289154,-0.124680083855354,2.91217002351282,1.22004000142426,1402.239,1145.918,3178.898,3102.884,-0.04017591,0.04596493,0.0698619,-0.591350734233856,-0.066576212644577,0.195164710283279,-0.255710395848158,-0.11002503961202,0.158296916205407,9
0.720001220703125,-0.306492388248444,2.88552784919739,1.19102895259857,-0.129918284978346,2.90991617190799,1.22328269744952,1393.765,1162.836,3162.743,3107.184,-0.04192774,0.04702041,0.06663217,-0.594612896442413,-0.0663624852895737,0.201797664165497,-0.268023157655716,-0.11532287703907,0.16591910230247,9
0.739990234375,-0.318440794944763,2.88419365882874,1.19519925117493,-0.135400001298574,2.90755754251682,1.2266761409821,1394.852,1185.404,3152.534,3092.314,-0.04382391,0.04795539,0.06321316,-0.597420275211334,-0.0667100325226784,0.208516135811806,-0.280473432677602,-0.12067988256057,0.173626415629864,9
0.759994506835938,-0.330435901880264,2.88284039497375,1.19950485229492,-0.14113644597991,2.90508931062815,1.2302272735046,1390.784,1207.385,3150.888,3075.367,-0.04600185,0.0487331,0.05981493,-0.599756300449371,-0.0676618367433548,0.215279415249825,-0.293070637251543,-0.126100107763583,0.181424685349205,9
0.779998779296875,-0.342468678951263,2.88145518302917,1.20394229888916,-0.147126184485884,2.90251209348295,1.23393520697061,1386.774,1226.4,3150.383,3060.217,-0.04853931,0.04931716,0.05665369,-0.601639807224274,-0.0692549794912338,0.221872478723526,-0.305795832832518,-0.131575403921268,0.189302187598958,9
0.800003051757813,-0.354531645774841,2.88002490997314,1.20850849151611,-0.153371683173492,2.89982482987671,1.2378014681726,1375.987,1240.87,3153.499,3052.878,-0.05146985,0.04966281,0.05392833,-0.603148996829987,-0.0715182721614838,0.228310614824295,-0.318639638509124,-0.13710173468952,0.197253115148089,9
0.819992065429688,-0.366619437932968,2.8785355091095,1.21319854259491,-0.159870162197751,2.89702871589906,1.2418243362541,1352.63,1251.004,3156.379,3061.968,-0.05475513,0.04973993,0.05175548,-0.604390144348145,-0.0744666755199432,0.234503373503685,-0.33158286215529,-0.142670842232658,0.205265587156312,9
0.839996337890625,-0.378729224205017,2.8769736289978,1.21800744533539,-0.166633637018892,2.89411858163313,1.24601124935738,1324.206,1259.299,3157.369,3079.222,-0.05826304,0.04955714,0.05010822,-0.60548996925354,-0.0780995786190033,0.240445718169212,-0.344636106234817,-0.148287288494656,0.213346167053785,8
0.860000610351563,-0.390860319137573,2.87532567977905,1.22292876243591,-0.173659158941841,2.89109569582005,1.2503603820997,1300.573,1268.989,3150.986,3097.67,-0.06187056,0.04915088,0.04886596,-0.606553375720978,-0.0823934674263,0.246065318584442,-0.357780475378537,-0.153942943326036,0.221483157706883,8
0.8800048828125,-0.403013646602631,2.87357926368713,1.22795987129211,-0.180948461186242,2.88795931270381,1.25487280742661,1280.411,1281.205,3144.478,3111.275,-0.06550418,0.0485576,0.04791198,-0.607668519020081,-0.0873249471187592,0.251553028821945,-0.371007022483504,-0.159633957038354,0.229671020432672,8
0.899993896484375,-0.415191292762756,2.87172198295593,1.2330983877182,-0.18849723509595,2.8847112861788,1.25954585807468,1259.409,1295.35,3138.396,3124.025,-0.06912554,0.04780643,0.04717882,-0.60888284444809,-0.092868335545063,0.256927967071533,-0.384296738353309,-0.165352150505452,0.237897987633041,8
0.919998168945313,-0.427395880222321,2.86974191665649,1.23834276199341,-0.196318384305134,2.8813460641717,1.26438752200817,1243.138,1310.563,3134.365,3129.713,-0.07268353,0.04692886,0.04662188,-0.610228180885315,-0.0989985689520836,0.26222026348114,-0.397661187980262,-0.171102499820431,0.246171218589148,8
0.94000244140625,-0.439630210399628,2.86762833595276,1.24368929862976,-0.204407453948074,2.87786556348678,1.26939504145298,1236.321,1326.438,3127.673,3129.05,-0.07618026,0.04594649,0.04623946,-0.611716747283936,-0.105677649378777,0.26732861995697,-0.411081631631503,-0.176876941799768,0.254479112513653,8
0.959991455078125,-0.451897740364075,2.86537075042725,1.24913704395294,-0.212759000778906,2.87427212620069,1.27456504678061,1230.498,1341.303,3124.813,3126.094,-0.07966314,0.04485577,0.04609438,-0.613376438617706,-0.112878136336803,0.272389471530914,-0.424539267042903,-0.182667386354485,0.262810029909387,8
0.979995727539063,-0.464202523231506,2.86295938491821,1.25468504428864,-0.22138664033507,2.87055989392801,1.27990596665734,1214.927,1353.385,3126.177,3131.832,-0.08314922,0.04364347,0.04627558,-0.615238845348358,-0.120573244988918,0.277402430772781,-0.438046240701377,-0.188479059778567,0.271171490030365,8
1,-0.476549386978149,2.86038494110107,1.26032936573029,-0.230284798736574,2.86673126495361,1.28541435058594,1204.459,1363.47,3124.206,3138.021,-0.08658896,0.0423254,0.04677727,-0.617343723773956,-0.128720685839653,0.282216340303421,-0.451584000205995,-0.194303979492187,0.279552008056641,8
1.02000427246094,-0.488944321870804,2.85763931274414,1.266068816185,-0.239454009753966,2.86278600961093,1.2910905289958,1194.717,1372.53,3123.833,3143.936,-0.08995679,0.04091052,0.04759457,-0.619746387004852,-0.137284874916077,0.286971062421799,-0.465144357597929,-0.200138622445408,0.287946515251652,8
1.03999328613281,-0.501394033432007,2.85471487045288,1.27190184593201,-0.248887339851819,2.85872711120656,1.2969302096982,1179.668,1380.344,3123.625,3156.644,-0.09322555,0.03940805,0.04871946,-0.622485876083374,-0.146221622824669,0.291649043560028,-0.478708875293167,-0.205975055460915,0.29634359787259,8
1.05999755859375,-0.513906061649323,2.85160517692566,1.27782738208771,-0.258599401509697,2.85454828239877,1.30294243851408,1166.234,1387.186,3124.219,3168.364,-0.09631801,0.03784535,0.05009129,-0.625600874423981,-0.155486226081848,0.296278387308121,-0.492290296490434,-0.211818761581115,0.30475114456651,8
1.08000183105469,-0.526488244533539,2.84830474853516,1.28384280204773,-0.268583149539609,2.85025255453512,1.30912285413647,1162.275,1394.626,3119.88,3175.886,-0.09919795,0.03625702,0.05163381,-0.629106521606445,-0.165016815066338,0.300773620605469,-0.50587040849135,-0.217661904390701,0.313157880805523,8
1.09999084472656,-0.539148688316345,2.84480929374695,1.28994929790497,-0.278830554044452,2.84584338265603,1.31546648567654,1160.667,1402.126,3118.36,3179.782,-0.1018872,0.03465831,0.05331951,-0.633022904396057,-0.174770459532738,0.305324286222458,-0.519431110871131,-0.223496695782555,0.321552601564445,7
1.1199951171875,-0.551895678043365,2.84111523628235,1.29614853858948,-0.289357002179081,2.84131414609862,1.32198285851614,1151.719,1408.192,3120.978,3188.849,-0.1043938,0.03305344,0.0551639,-0.637351512908936,-0.184706658124924,0.309962153434753,-0.532985466132485,-0.229328756186667,0.329943393154705,7
1.13999938964844,-0.564737439155579,2.83721995353699,1.30243933200836,-0.300154365346813,2.83666834237095,1.3286669406667,1152.25,1413.471,3120.17,3193.127,-0.1066846,0.03147022,0.0571196,-0.6420858502388,-0.194769069552422,0.314539223909378,-0.546515580872639,-0.235150386571708,0.338319178707607,7
1.16000366210938,-0.577682077884674,2.83312153816223,1.30882346630096,-0.311222084148811,2.83190621216671,1.33551838583369,1155.608,1418.148,3121.763,3194.104,-0.1087827,0.02991531,0.05918718,-0.64723539352417,-0.204918876290321,0.319206655025482,-0.560014026276883,-0.240958390526247,0.34667535943296,7
1.17999267578125,-0.590737998485565,2.82881927490234,1.31530261039734,-0.322550701230474,2.8270318247214,1.34253133946411,1153.407,1421.165,3125.125,3200.989,-0.1107124,0.02838566,0.06139389,-0.652795910835266,-0.2151138484478,0.323955088853836,-0.573463232144024,-0.246745208083563,0.355001058539242,7
1.19999694824219,-0.603913426399231,2.82431292533875,1.32187843322754,-0.334156660511822,2.8220381046756,1.34971598112778,1150.518,1422.234,3130.378,3208.768,-0.1124365,0.02689254,0.06372152,-0.65877228975296,-0.225315168499947,0.328789800405502,-0.58687652428584,-0.252516572968185,0.36330452533874,7
1.22000122070313,-0.617216527462006,2.81960368156433,1.32855033874512,-0.346030421585499,2.81692915700008,1.35706640485806,1155.957,1423.384,3130.401,3213.862,-0.1139407,0.02545797,0.06611734,-0.665155410766602,-0.235466033220291,0.333597332239151,-0.600236516861372,-0.258265004538453,0.371574997167698,7
1.239990234375,-0.630655586719513,2.81469297409058,1.33532154560089,-0.358161486344149,2.81170949873715,1.36457611182642,1161.729,1424.17,3132.89,3217.634,-0.1152584,0.02408667,0.06856213,-0.671953499317169,-0.245533809065819,0.338557600975037,-0.613526094901141,-0.263983138701136,0.379801879044709,7
1.25999450683594,-0.644238770008087,2.80958318710327,1.34219574928284,-0.3705671011502,2.80637170925886,1.37225577835275,1158.742,1423.415,3139.636,3227.427,-0.1163945,0.0227768,0.07106185,-0.679156422615051,-0.255490452051163,0.343708842992783,-0.626758665639206,-0.269676744214496,0.387993470686331,7
1.27999877929688,-0.657973527908325,2.80427742004395,1.34917330741882,-0.383236695417198,2.80092033679326,1.3800988607405,1165.014,1422.737,3141.586,3232.616,-0.1173128,0.02155539,0.07354978,-0.686737954616547,-0.265288144350052,0.348878741264343,-0.639917282339435,-0.275338529371412,0.396139281255613,8
1.30000305175781,-0.671867370605469,2.79877948760986,1.35625767707825,-0.396168722856641,2.79535604666509,1.38810440176341,1174.873,1422.183,3145.246,3233.331,-0.1180393,0.02042893,0.07600591,-0.694692015647888,-0.274900108575821,0.354218989610672,-0.652995275331231,-0.280965624398954,0.404235181908735,8
1.31999206542969,-0.685927212238312,2.79309344291687,1.36345219612122,-0.409351342777246,2.78968393359302,1.39626507146953,1179.309,1420.653,3150.747,3238.714,-0.1186113,0.0193898,0.07844992,-0.702992856502533,-0.284299343824387,0.359728991985321,-0.665976209205206,-0.286550957599616,0.412270998344359,8
1.33999633789063,-0.700159668922424,2.78722405433655,1.37076032161713,-0.422802873722428,2.78389611561957,1.40459220990988,1182.621,1417.638,3158.549,3244.114,-0.1190049,0.01844253,0.08086992,-0.711621701717377,-0.293464511632919,0.365409284830093,-0.678873453515705,-0.29210028151913,0.420255006953505,8
1.36000061035156,-0.714570462703705,2.78117704391479,1.37818264961243,-0.436511415158101,2.77799771321212,1.41307845008695,1194.238,1415.376,3160.437,3246.396,-0.1192233,0.01760213,0.08322553,-0.72054386138916,-0.302354663610458,0.37111684679985,-0.691670720740693,-0.297606588091785,0.42817712498415,8
1.3800048828125,-0.729165554046631,2.77495789527893,1.38572311401367,-0.450474904562636,2.77198961381608,1.4217225152016,1205.697,1412.816,3164.921,3247.212,-0.1193165,0.0168624,0.08551449,-0.729753077030182,-0.31095626950264,0.377025902271271,-0.704361775018035,-0.303067194200314,0.436033492140578,8
1.39999389648438,-0.743950009346008,2.76857280731201,1.393385887146,-0.464680216184654,2.76587746507559,1.43051627978847,1209.69,1409.095,3172.323,3253.312,-0.1193123,0.01621235,0.08775549,-0.739223539829254,-0.31925967335701,0.383138358592987,-0.716930938559026,-0.308475354130225,0.443814403124744,8
1.41999816894531,-0.758928537368774,2.76202774047852,1.40117430686951,-0.47914673136562,2.75965292774086,1.43947174182117,1212.518,1404.215,3181.581,3259.054,-0.1191642,0.0156574,0.08992954,-0.748931109905243,-0.327255636453629,0.389418363571167,-0.729391385793766,-0.313836736470737,0.451528013536465,8
1.44000244140625,-0.774105191230774,2.75532960891724,1.40908825397491,-0.493861275572861,2.75332167044526,1.4485807456364,1225.589,1400.882,3183.382,3260.248,-0.118867,0.01521426,0.09198783,-0.758833348751068,-0.334911167621613,0.395696848630905,-0.741727567798258,-0.319144650954242,0.459164697851088,8
1.45999145507813,-0.789483606815338,2.74848508834839,1.4171314239502,-0.508809800712713,2.74688973769103,1.45783459479497,1239.006,1397.631,3187.319,3259.497,-0.1184798,0.01487419,0.0939303,-0.768921256065369,-0.342220902442932,0.402158975601196,-0.753924423002454,-0.324392617007921,0.466715132239272,8
1.47999572753906,-0.805067002773285,2.74150133132935,1.42530846595764,-0.524012471663969,2.74034845309416,1.46724577231745,1241.151,1392.652,3196.765,3265.515,-0.118027,0.01461727,0.09579276,-0.779169142246246,-0.349191009998322,0.408854246139526,-0.765994882555672,-0.329586198544069,0.474187321698441,8
1.5,-0.820857584476471,2.7343852519989,1.43361985683441,-0.539455198877605,2.73370387899399,1.4768055561018,1250.42,1388.538,3200.498,3268.302,-0.1174816,0.01445896,0.09753051,-0.789530336856842,-0.355805575847626,0.415567278862,-0.777924000354858,-0.334718964672088,0.481572013878822,8
1.52000427246094,-0.836857497692108,2.72714400291443,1.44206845760345,-0.555135099954955,2.72695725560613,1.48651216180595,1262.595,1384.755,3205.604,3266.631,-0.1168664,0.01439627,0.09913414,-0.799992859363556,-0.362067699432373,0.422429233789444,-0.789706299681991,-0.339788558913217,0.48886581843107,8
1.53999328613281,-0.853067994117737,2.71978449821472,1.45065701007843,-0.571036956668503,2.72011513090874,1.49635616862212,1268.636,1380.329,3212.25,3269.59,-0.1162124,0.01441234,0.1006337,-0.810524046421051,-0.367981165647507,0.429425984621048,-0.801327600455846,-0.344788879974649,0.496059957209413,8
1.55999755859375,-0.869489908218384,2.71231341362,1.45938777923584,-0.587181951496087,2.71316839067337,1.50635068951315,1272.629,1374.918,3220.63,3272.875,-0.1154912,0.01450481,0.1020272,-0.821099162101746,-0.37355300784111,0.436540007591248,-0.812800388649436,-0.349725300221754,0.503162159625937,8
1.58000183105469,-0.886123478412628,2.7047381401062,1.46825993061066,-0.60355483331529,2.70612359703193,1.51648628330776,1284.833,1371.336,3221.562,3273.042,-0.1147082,0.01468364,0.1032784,-0.831675350666046,-0.378768771886826,0.443605095148087,-0.824110582941666,-0.354591760855452,0.510163708672098,8
1.59999084472656,-0.902968406677246,2.69706535339355,1.47727608680725,-0.620139554045575,2.69898765502515,1.52675301547962,1296.15,1367.786,3225.274,3271.494,-0.1139157,0.01493584,0.1043922,-0.842248439788818,-0.383640885353088,0.450806260108948,-0.835244706287931,-0.359382463079953,0.517056261415284,8
1.6199951171875,-0.920024335384369,2.68930149078369,1.48643958568573,-0.636958033083316,2.69175113334911,1.53716445517924,1296.043,1362.583,3234.62,3276.27,-0.1131199,0.01524043,0.1054077,-0.852794826030731,-0.388192504644394,0.458174884319305,-0.846214826007804,-0.364102599125749,0.523847288101157,8
1.63999938964844,-0.937289655208588,2.68145298957825,1.49574899673462,-0.653994195024907,2.68442094880091,1.54771065096602,1303.851,1358.902,3236.965,3277.422,-0.1122879,0.01561316,0.1062838,-0.86326664686203,-0.392420679330826,0.465468674898148,-0.857007552155828,-0.368746407673381,0.530528499715628,8
1.66000366210938,-0.954762756824493,2.67352628707886,1.50520551204681,-0.671244443874359,2.67699864863716,1.55838937674714,1314.92,1355.772,3240.219,3273.939,-0.1114432,0.01604871,0.1070161,-0.873657405376434,-0.396338075399399,0.472823649644852,-0.867618167158098,-0.373311858882592,0.53709697585572,8
1.67999267578125,-0.972441673278809,2.66552710533142,1.51481032371521,-0.688691692550512,2.66949158495151,1.56919005480539,1318.97,1352.06,3245.255,3275.576,-0.1106219,0.01652654,0.1076426,-0.883940756320953,-0.399960726499557,0.480237811803818,-0.878034183119987,-0.377793579561193,0.543544985919778,8
1.69999694824219,-0.990323603153229,2.65746092796326,1.52456426620483,-0.706358800111611,2.66188992212981,1.58012683598675,1319.924,1347.394,3252.481,3277.914,-0.1097893,0.01704253,0.1081681,-0.89409863948822,-0.403308540582657,0.487696468830109,-0.888267004546665,-0.382196476749158,0.549879589839776,8
1.72000122070313,-1.00840532779694,2.64933347702026,1.53446447849274,-0.724228658537036,2.6542010212754,1.5911891296115,1329.185,1344.877,3251.69,3277.116,-0.1089435,0.01760702,0.1085586,-0.904091715812683,-0.406377166509628,0.49501296877861,-0.898304216251578,-0.386515208538549,0.556093102023817,8
1.739990234375,-1.02668380737305,2.6411497592926,1.54451203346252,-0.74228345468553,2.64643254688532,1.60236590849663,1338.142,1342.532,3253.575,3273.954,-0.1081313,0.01820757,0.1088213,-0.913923919200897,-0.409185916185379,0.502375900745392,-0.908134108040217,-0.390744736359816,0.562178273303667,8
1.75999450683594,-1.04515540599823,2.63291454315186,1.55470836162567,-0.760546715064628,2.63857437616062,1.61367173667103,1335.102,1338.531,3261.22,3277.536,-0.1073558,0.01882153,0.1090035,-0.923579394817352,-0.411764830350876,0.509819090366364,-0.917767514700581,-0.394889722119545,0.568141810929231,8
1.77999877929688,-1.06381583213806,2.62463212013245,1.56505012512207,-0.779000609654483,2.63063418086074,1.62509557650306,1339.977,1336.266,3261.312,3277.811,-0.1065824,0.01946493,0.109067,-0.933016955852509,-0.414117485284805,0.517089664936066,-0.927192788821983,-0.398945154262308,0.57397650459845,8
1.80000305175781,-1.08266067504883,2.6163067817688,1.57553684711456,-0.797640935141499,2.62261376955408,1.63663482594136,1348.146,1334.576,3262.597,3273.151,-0.1058308,0.02013311,0.1090096,-0.942240655422211,-0.416261166334152,0.524338841438293,-0.936405971974637,-0.402909329586356,0.579679903854719,7
1.81999206542969,-1.10168528556824,2.60794234275818,1.58616805076599,-0.816448984455027,2.61452119137054,1.64827790441807,1348.677,1332.308,3265.831,3274.053,-0.1051325,0.02080532,0.1088747,-0.951232731342316,-0.418216317892075,0.531563103199005,-0.945396434568188,-0.406777674475912,0.585245428475252,7
1.83999633789063,-1.12088477611542,2.59954214096069,1.59694290161133,-0.835449117627072,2.60634596486888,1.66003989195343,1346.219,1329.15,3271.1,3275.648,-0.1044455,0.02147911,0.1086682,-0.959983706474304,-0.420005321502686,0.538742244243622,-0.954174163352093,-0.410554485950274,0.590679260733698,7
1.86000061035156,-1.14025413990021,2.59110975265503,1.60785663127899,-0.854622615239374,2.59809614449182,1.6719092003358,1352.552,1328.266,3267.905,3274.031,-0.1037647,0.02216712,0.108356,-0.968462646007538,-0.421625137329102,0.545685112476349,-0.962728579444532,-0.414235212212131,0.595974851798267,7
1.8800048828125,-1.159787774086,2.58264780044556,1.61890852451324,-0.873964974649439,2.58977366760063,1.68388304221498,1358.593,1327.567,3267.636,3269.917,-0.1031341,0.0228573,0.107947,-0.976683795452118,-0.423094868659973,0.552596628665924,-0.971056158224177,-0.417818336715394,0.601130019760457,7
1.89999389648438,-1.17948031425476,2.57415890693665,1.63009798526764,-0.893456683142228,2.58138692997148,1.69594933829086,1355.141,1326.003,3270.88,3271.746,-0.1025732,0.02353103,0.1074831,-0.984636008739471,-0.424440979957581,0.559475123882294,-0.979147395688901,-0.421299770153459,0.606138881190213,7
1.91999816894531,-1.19932663440704,2.56564521789551,1.64142322540283,-0.913122862707269,2.57292512231409,1.70812364027167,1349.68,1323.656,3275.907,3273.269,-0.1020166,0.02419161,0.1069651,-0.992310523986816,-0.425686120986938,0.566262900829315,-0.987011339258123,-0.424683405378145,0.611007036871143,7
1.94000244140625,-1.21932005882263,2.55710887908936,1.65287816524506,-0.932943991899774,2.5643966441608,1.72039386345315,1355.374,1323.807,3271.177,3270.424,-0.1014499,0.0248561,0.1063557,-0.999677181243896,-0.426821887493134,0.57274454832077,-0.994638524886308,-0.427965170275055,0.615728628108227,7
1.95999145507813,-1.2394552230835,2.54855155944824,1.66446113586426,-0.952900013794853,2.55581012544606,1.73274759164336,1361.676,1324.23,3269.01,3264.772,-0.1009285,0.02551163,0.1056677,-1.00675523281097,-0.427861422300339,0.579147636890411,-1.00202031904361,-0.431141350077486,0.620298310335216,7
1.97999572753906,-1.25972604751587,2.53997468948364,1.67617177963257,-0.973016570682103,2.54715453300902,1.74520069864106,1353.558,1322.777,3273.472,3267.868,-0.1004688,0.02613304,0.1049619,-1.01354444026947,-0.428832679986954,0.585532605648041,-1.00916501115878,-0.434215511495054,0.624721215103391,7
2,-1.28012645244598,2.53138017654419,1.68800461292267,-0.993273599084619,2.53843849960327,1.7577407641983,1352.832,1322.738,3270.821,3268.1,-0.100023,0.02673964,0.1041986,-1.02001881599426,-0.429738610982895,0.591639459133148,-1.01606400046349,-0.437183953857422,0.628992018127441,6
2.02000427246094,-1.30065035820007,2.52276825904846,1.69995701313019,-1.01366615605493,2.52966415204104,1.77036472839513,1356.15,1323.281,3269.392,3262.746,-0.0995969,0.02733228,0.1033706,-1.0261949300766,-0.430591553449631,0.597618937492371,-1.02271452148052,-0.440045487257004,0.633109007445237,6
2.03999328613281,-1.32129168510437,2.51414012908936,1.71202635765076,-1.03417354141348,2.52084039703127,1.78305977683431,1352.415,1323.342,3269.74,3262.67,-0.0992134,0.02789474,0.1025209,-1.03206694126129,-0.431405037641525,0.603468835353851,-1.02910913225408,-0.442796909628122,0.637067576131623,6
2.05999755859375,-1.34204435348511,2.50549626350403,1.72420978546143,-1.05482201812353,2.5119559343546,1.79584216754118,1345.975,1322.486,3271.853,3263.568,-0.09882884,0.02842776,0.1016563,-1.0376363992691,-0.432192265987396,0.609169960021973,-1.03525504859546,-0.445441325732794,0.640872191117535,6
2.08000183105469,-1.36290204524994,2.49683737754822,1.73650050163269,-1.07559088172821,2.50301967256038,1.80869908347065,1349.006,1323.672,3265.484,3261.115,-0.09843576,0.02894682,0.1007398,-1.04288530349731,-0.432941764593124,0.614538967609406,-1.04114485287423,-0.447975543971863,0.644518260536375,6
2.09999084472656,-1.3838586807251,2.48816418647766,1.74889659881592,-1.09645901288412,2.49404069871208,1.82161745074311,1351.644,1324.961,3262.637,3256.037,-0.09807836,0.02944292,0.09978139,-1.04783880710602,-0.433664590120316,0.619805991649628,-1.04677201701582,-0.450396755497224,0.648001743199023,5
2.1199951171875,-1.40490877628326,2.47947645187378,1.76139664649963,-1.11745308225396,2.48500753716864,1.83461377976925,1340.716,1324.563,3265.843,3259.249,-0.09775718,0.02989646,0.09883492,-1.05249881744385,-0.434381812810898,0.625003755092621,-1.0521429102862,-0.45270770082608,0.651326581984514,5
2.13999938964844,-1.42604565620422,2.47077465057373,1.77399396896362,-1.138551967509,2.47592927627801,1.8476749948214,1339.155,1325.503,3261.435,3258.429,-0.09741896,0.03033151,0.09785445,-1.05684423446655,-0.435087084770203,0.629868745803833,-1.05725102347782,-0.454905579228273,0.654488747383304,4
2.16000366210938,-1.44726347923279,2.46205902099609,1.78668534755707,-1.15975039167652,2.46680818657414,1.86079782920208,1342.084,1327.002,3258.292,3251.863,-0.09707755,0.030749,0.09683605,-1.06089532375336,-0.43578439950943,0.634571731090546,-1.0620943502576,-0.456989527434725,0.657486997379635,4
2.17999267578125,-1.46855664253235,2.45332932472229,1.79946768283844,-1.18102676265167,2.45765355853653,1.8739689163698,1336.887,1327.873,3257.041,3251.852,-0.09676542,0.03113174,0.09582714,-1.06465005874634,-0.436479717493057,0.639116764068604,-1.06666760390386,-0.458957270716794,0.660318059240953,3
2.19999694824219,-1.48991906642914,2.4445858001709,1.81233763694763,-1.20240821395574,2.44845371736898,1.88720505326679,1328.716,1327.583,3258.25,3252.72,-0.09643573,0.03148232,0.0948313,-1.06811618804932,-0.437181353569031,0.643499791622162,-1.07097597819164,-0.460811043810786,0.662985148161421,1
2.22000122070313,-1.5113445520401,2.43582844734192,1.82528817653656,-1.22387315175433,2.43921795429519,1.90049287228091,1330.157,1329.062,3251.113,3250.281,-0.096073,0.03181896,0.09380894,-1.0712788105011,-0.437872022390366,0.647525906562805,-1.07501419914593,-0.462548577472581,0.665484999299265,0
2.239990234375,-1.5328277349472,2.42705726623535,1.83831667900085,-1.24539969505118,2.42995568409656,1.91381882803312,1332.23,1330.688,3247.284,3244.494,-0.09571774,0.03213543,0.09276579,-1.07416439056396,-0.43855556845665,0.651425957679749,-1.07877792518082,-0.464168003639063,0.667814925005999,0
2.25999450683594,-1.55436325073242,2.41827249526978,1.85142135620117,-1.26701526177039,2.4206551096063,1.92719989352455,1320.68,1330.714,3249.241,3247.407,-0.09537473,0.03241339,0.09175614,-1.07677626609802,-0.43924468755722,0.655236005783081,-1.08227143928024,-0.465671165158559,0.669977576652695,0
2.27999877929688,-1.57594525814056,2.40947389602661,1.86459529399872,-1.28869796983554,2.41132564607061,1.9406225227075,1318.741,1331.731,3243.676,3246.436,-0.09499176,0.03267837,0.09073035,-1.07909727096558,-0.439926117658615,0.658695161342621,-1.08549040888332,-0.467056197851165,0.67197027217779,0
2.30000305175781,-1.59756815433502,2.40066194534302,1.87783515453339,-1.31044231452835,2.40196966201596,1.95408330789913,1321.322,1333.225,3239.925,3239.354,-0.09458323,0.03293164,0.08968239,-1.08114981651306,-0.440599292516708,0.661994338035583,-1.08843358680109,-0.468322565086307,0.673792239511894,0
2.31999206542969,-1.61922693252563,2.39183664321899,1.89113771915436,-1.33222611841886,2.3925966997709,1.96756852021384,1315.284,1334.075,3238.022,3239.424,-0.09418269,0.03315747,0.08865961,-1.08293128013611,-0.441264480352402,0.665128588676453,-1.09109790637238,-0.469468947365361,0.675441580245663,0
2.33999633789063,-1.64091575145721,2.38299822807312,1.90449953079224,-1.35407709248145,2.38319483607731,1.98109531406483,1307.019,1333.689,3238.449,3239.919,-0.09373954,0.03336092,0.08766021,-1.08445000648499,-0.441924124956131,0.668091714382172,-1.09348640563071,-0.470496651869278,0.67692017506657,0
2.36000061035156,-1.6626296043396,2.37414717674255,1.91791343688965,-1.37597305876702,2.37377361348711,1.99464996024512,1308.855,1334.853,3230.751,3236.738,-0.09323887,0.03356092,0.08664276,-1.08569300174713,-0.442555725574493,0.670695722103119,-1.09559602313537,-0.471404361345641,0.678226128796969,0
2.37998962402344,-1.68436336517334,2.36528396606445,1.93137693405151,-1.39789168475144,2.36434264106153,2.00821863385843,1311.105,1336.126,3226.375,3230.549,-0.09272541,0.03375103,0.08561409,-1.08668446540833,-0.443158656358719,0.673174321651459,-1.09742465646102,-0.47219117117957,0.679358139935436,0
2.39999389648438,-1.70611178874969,2.35640907287598,1.94488823413849,-1.41986083522252,2.35488992936084,2.02181858453579,1299.666,1335.856,3227.655,3233.269,-0.09220609,0.0339142,0.08462626,-1.0874274969101,-0.443740785121918,0.675564885139465,-1.09897439291323,-0.472857979480329,0.680317500623536,0
2.41999816894531,-1.7278698682785,2.34752345085144,1.95844042301178,-1.44185817738692,2.34542508756209,2.03543598721428,1298.084,1336.248,3221.847,3231.81,-0.09162819,0.03407566,0.08362692,-1.08790683746338,-0.444285571575165,0.677612066268921,-1.10024313330221,-0.473403883025206,0.681102911362803,0
2.44000244140625,-1.74963283538818,2.338627576828,1.97203052043915,-1.46387808506052,2.33595053645515,2.04906735901791,1301.043,1337.13,3217.703,3224.401,-0.09100661,0.0342378,0.08260849,-1.08814215660095,-0.44478902220726,0.679502725601196,-1.10123038958312,-0.473828671822132,0.681714070030222,0
2.45999145507813,-1.77139544487,2.32972288131714,1.98565530776978,-1.48589810917879,2.32647593524532,2.06269880290633,1295.538,1337.392,3215.477,3223.958,-0.09037597,0.03438531,0.08161628,-1.08813047409058,-0.445248514413834,0.681238412857056,-1.10193535162022,-0.474131997292339,0.68215047511319,0
2.47999572753906,-1.79315304756165,2.32080936431885,1.99931144714355,-1.50794623031618,2.31698924467309,2.07634764018804,1287.855,1336.389,3215.385,3224.162,-0.08968887,0.03452363,0.08064663,-1.08787822723389,-0.445663213729858,0.682807147502899,-1.10235882472314,-0.474314205938057,0.682412625136718,0
2.5,-1.81490039825439,2.31188917160034,2.01299214363098,-1.52999999932945,2.30750012397766,2.08999997377396,1290.49,1336.683,3207.778,3220.17,-0.08892987,0.03467133,0.07965672,-1.08737373352051,-0.446010172367096,0.684035420417786,-1.10250000050292,-0.474374949932098,0.682500019669533,0
2.52000427246094,-1.83663320541382,2.30296349525452,2.02669501304626,-1.55205376834272,2.29801100328223,2.10365230735988,1293.338,1337.145,3203.142,3213.664,-0.08814477,0.03482155,0.07865416,-1.08663630485535,-0.446286261081696,0.685143113136292,-1.10235882472314,-0.474314205938057,0.682412625136718,0
2.53999328613281,-1.85834646224976,2.29403352737427,2.04041767120361,-1.57408507527774,2.28853154739156,2.11729073584934,1286.213,1336.734,3201.608,3214.458,-0.08736074,0.03496088,0.0776777,-1.08566451072693,-0.446493685245514,0.686131298542023,-1.10193578218388,-0.474132182551855,0.682150741652607,0
2.55999755859375,-1.8800356388092,2.28510093688965,2.0541570186615,-1.59612191359838,2.27904971150017,2.13093258853001,1277.779,1335.15,3202.332,3214.624,-0.08651066,0.03509876,0.0767156,-1.08446276187897,-0.446634262800217,0.686965346336365,-1.10123038958312,-0.473828671822132,0.681714070030222,0
2.58000183105469,-1.90169596672058,2.27616739273071,2.06790590286255,-1.61814182127198,2.26957516039323,2.14456396033363,1281.39,1334.963,3194.513,3209.8,-0.08557056,0.03525602,0.0757218,-1.08301496505737,-0.446682721376419,0.687440931797028,-1.10024313330221,-0.473403883025206,0.681102911362804,0
2.59999084472656,-1.92332279682159,2.26723480224609,2.08166170120239,-1.64012239440973,2.26011753383818,2.15817098218581,1286.501,1335.069,3189.325,3201.594,-0.08459584,0.03542507,0.07470564,-1.08133828639984,-0.446633905172348,0.687795341014862,-1.09897546783438,-0.47285844198887,0.680318166050934,0
2.6199951171875,-1.94491159915924,2.25830459594727,2.09542346000671,-1.66209156852628,2.2506648119635,2.17177094750084,1277.008,1333.762,3189.664,3203.367,-0.0836142,0.03558531,0.07372455,-1.07943332195282,-0.446492969989777,0.688082575798035,-1.09742594550583,-0.472191725819537,0.679358937915576,0
2.63999938964844,-1.96645736694336,2.24937963485718,2.10918474197388,-1.68402693989188,2.24122663446822,2.18534998730279,1276.004,1332.519,3184.253,3201.556,-0.08257504,0.03575903,0.07272784,-1.07728862762451,-0.446247220039368,0.688067078590393,-1.09559602313537,-0.471404361345641,0.67822612879697,0
2.66000366210938,-1.98795557022095,2.24046206474304,2.12294316291809,-1.70592290617745,2.23180541187802,2.19890463348308,1279.29,1331.798,3180.437,3193.937,-0.0814874,0.03594872,0.07170446,-1.07491862773895,-0.445894360542297,0.687916338443756,-1.09348640563071,-0.470496651869278,0.67692017506657,0
2.67999267578125,-2.00940179824829,2.23155331611633,2.13669562339783,-1.72775723139253,2.2224107117184,2.21242112090437,1275.111,1330.703,3177.896,3192.665,-0.08038165,0.03614152,0.07069284,-1.07231760025024,-0.445431768894196,0.687619805335999,-1.09109983431736,-0.469469776906228,0.675442773735451,0
2.69999694824219,-2.03079175949097,2.22265625,2.15043926239014,-1.74955768413056,2.21303058593937,2.22591663964878,1269.342,1328.453,3177.526,3191.405,-0.07921466,0.03634178,0.06968803,-1.06949007511139,-0.444859325885773,0.687177538871765,-1.08843358680109,-0.468322565086308,0.673792239511893,0
2.72000122070313,-2.05212020874023,2.21377277374268,2.1641674041748,-1.77130202882336,2.20367460188472,2.23937742484041,1273.106,1327.231,3169.753,3186.898,-0.07797682,0.03656493,0.06865039,-1.06642305850983,-0.444156974554062,0.686410665512085,-1.08549040888332,-0.467056197851165,0.671970272177789,0
2.739990234375,-2.07338285446167,2.20490646362305,2.17787837982178,-1.79296822271738,2.1943522439355,2.25278983096475,1277.646,1326.295,3165.251,3178.904,-0.07671395,0.03680426,0.06758515,-1.0631320476532,-0.44332429766655,0.68555223941803,-1.08227399942825,-0.465672266718727,0.669979161506271,0
2.75999450683594,-2.09457516670227,2.19605922698975,2.19157075881958,-1.81458384274179,2.18505164650952,2.26617092945464,1268.104,1324.243,3165.485,3180.739,-0.07544629,0.03704199,0.06654359,-1.05961453914642,-0.442367970943451,0.684625148773193,-1.07878069424208,-0.464169195088763,0.667816639186824,0
2.77999877929688,-2.11569213867188,2.18723368644714,2.20523881912231,-1.83612684690458,2.17578229366013,2.27950707526701,1268.502,1322.209,3159.958,3177.665,-0.07411897,0.0373009,0.06547011,-1.05586004257202,-0.441278040409088,0.683400750160217,-1.07501419914593,-0.462548577472581,0.665484999299265,0
2.80000305175781,-2.13672971725464,2.17843270301819,2.21887993812561,-1.85759178470316,2.16654653058634,2.29279489428112,1273.068,1320.86,3156,3168.841,-0.07274744,0.03758117,0.06435947,-1.05187904834747,-0.440053671598434,0.682052671909332,-1.07097597819164,-0.460811043810786,0.662985148161422,0
2.81999206542969,-2.1576828956604,2.16965889930725,2.23249125480652,-1.87895695992541,2.1573536925621,2.30602095550813,1269.534,1319.152,3153.235,3167.068,-0.07136898,0.03786804,0.06325474,-1.04766452312469,-0.438694179058075,0.680566728115082,-1.06667099276523,-0.458958728849171,0.660320157107579,0
2.83999633789063,-2.17854738235474,2.1609148979187,2.24607014656067,-1.90024960698239,2.14819206138118,2.31920211834584,1264.486,1316.288,3152.495,3165.377,-0.0699442,0.03816466,0.06214985,-1.04322111606598,-0.437202334403992,0.678940892219543,-1.06209435025759,-0.456989527434725,0.657486997379635,0
2.86000061035156,-2.19931817054749,2.15220379829407,2.259610414505,-1.9214480311499,2.13907097167731,2.33232495272651,1268.497,1314.3,3145.152,3160.244,-0.06846135,0.03848518,0.06100691,-1.03853869438171,-0.435564070940018,0.677013695240021,-1.05725102347782,-0.454905579228273,0.654488747383304,0
2.87998962402344,-2.21999073028564,2.14352798461914,2.27311038970947,-1.94253086194772,2.12999961857111,2.34537622930486,1272.87,1312.708,3140.66,3152.248,-0.06696359,0.03882223,0.05983246,-1.0336287021637,-0.433780878782272,0.674995005130768,-1.05214690704168,-0.452709420518306,0.651329056166547,0
2.89999389648438,-2.24056100845337,2.13489055633545,2.2865686416626,-1.96352501326936,2.1209664217661,2.35837260906308,1264.273,1310.231,3140.689,3152.989,-0.06546902,0.03915932,0.05867414,-1.02848947048187,-0.431861340999603,0.672912538051605,-1.04677621342161,-0.450398561093403,0.648004340974112,0
2.91999816894531,-2.26102304458618,2.12629461288452,2.29997944831848,-1.98440911693069,2.11198057539494,2.37130086407726,1264.799,1307.63,3135.001,3149.756,-0.06392652,0.03951677,0.05748105,-1.02311217784882,-0.429799109697342,0.670535445213318,-1.04114485287423,-0.447975543971863,0.644518260536375,0
2.94000244140625,-2.28137302398682,2.11774301528931,2.31334018707275,-2.00517798053537,2.10304431360073,2.38415778000673,1270.046,1305.804,3130.708,3140.316,-0.06235046,0.0398948,0.05624474,-1.01750612258911,-0.427595227956772,0.668037712574005,-1.03525504859546,-0.445441325732794,0.640872191117535,0
2.95999145507813,-2.30160665512085,2.10923790931702,2.32664847373962,-2.02581075424974,2.0941666074844,2.39693044981124,1266.762,1303.806,3127.686,3138.119,-0.06078346,0.04027753,0.0550098,-1.01166498661041,-0.425252050161362,0.665412843227386,-1.02911391720548,-0.442798968459032,0.637070538244476,0
2.97999572753906,-2.32171845436096,2.1007821559906,2.33990168571472,-2.04633384260397,2.08533609591429,2.40963521915279,1261.593,1300.682,3126.904,3136.116,-0.05918556,0.04066771,0.05377159,-1.00559401512146,-0.422775864601135,0.662658512592316,-1.02271452148052,-0.440045487257004,0.633109007445237,0
3,-2.34170436859131,2.09237909317017,2.35309386253357,-2.06672639957428,2.07656174835205,2.42225918334961,1265.517,1298.277,3119.763,3130.51,-0.05754079,0.04107862,0.05249346,-0.999285161495209,-0.420157343149185,0.659608483314514,-1.01606400046349,-0.437183953857422,0.628992018127441,0
3.02000427246094,-2.36155891418457,2.08403134346008,2.36622309684753,-2.0869834279768,2.06784571494631,2.43479924890685,1270.176,1296.408,3115.032,3121.977,-0.05589017,0.0415029,0.05118239,-0.99274730682373,-0.417398869991302,0.656462430953979,-1.00916501115878,-0.434215511495054,0.624721215103391,0
3.03999328613281,-2.38127875328064,2.07574105262756,2.3792872428894,-2.10708469520508,2.05919670122237,2.4472428908773,1265.3,1294.185,3112.459,3120.784,-0.0542683,0.04192677,0.04987703,-0.985977828502655,-0.41450759768486,0.653212785720825,-1.00202586176059,-0.431143734953757,0.620301741541063,0
3.05999755859375,-2.4008584022522,2.06751155853271,2.39228391647339,-2.12705600675913,2.05060360379452,2.45960608409476,1258.95,1290.979,3112.032,3119.186,-0.05262087,0.04235511,0.04856639,-0.97898280620575,-0.411492764949799,0.649836599826813,-0.994638524886308,-0.427965170275055,0.615728628108227,0
3.08000183105469,-2.42029356956482,2.05934453010559,2.40520691871643,-2.14687713595163,2.04207512564123,2.47187630727625,1262.995,1288.528,3104.819,3113.087,-0.05092124,0.042804,0.04720993,-0.971754312515259,-0.408346325159073,0.64615398645401,-0.987011339258122,-0.424683405378145,0.611007036871143,0
3.09999084472656,-2.43957924842834,2.05124306678772,2.4180543422699,-2.16652837486666,2.03361974652815,2.48404136028297,1268.855,1286.773,3099.87,3103.103,-0.04921468,0.04326518,0.0458176,-0.964299201965332,-0.405069887638092,0.642374694347382,-0.979153483542501,-0.421302389586788,0.606142649861596,0
3.1199951171875,-2.45871186256409,2.04320955276489,2.43082475662231,-2.18603502400946,2.02522658035469,2.49611690533293,1261.385,1284.447,3098.474,3103.036,-0.04753689,0.04371982,0.04444451,-0.956616044044495,-0.401671469211578,0.638520836830139,-0.971056158224178,-0.417818336715394,0.601130019760458,0
3.13999938964844,-2.47768592834473,2.0352463722229,2.44351291656494,-2.20537738341953,2.01690410346351,2.50809074721212,1261.584,1281.519,3092.88,3099.49,-0.04584206,0.04418418,0.04304457,-0.948705017566681,-0.398152559995651,0.634403586387634,-0.962728579444533,-0.414235212212131,0.595974851798267,0
3.16000366210938,-2.49649739265442,2.02735590934753,2.45611643791199,-2.22455088103183,2.00865428308644,2.51996005559448,1265.19,1279.449,3088.953,3090.549,-0.04413817,0.04465787,0.04161186,-0.940574645996094,-0.394518136978149,0.630182147026062,-0.954174163352092,-0.410554485950274,0.590679260733698,0
3.17999267578125,-2.51514148712158,2.01954102516174,2.46863293647766,-2.24353658854737,2.00048526354177,2.53171311296128,1261.292,1277.403,3085.658,3088.218,-0.04245611,0.04512868,0.04018454,-0.932221651077271,-0.3907730281353,0.625827133655548,-0.945403214201559,-0.406780591562751,0.585249625391267,0
3.19999694824219,-2.53361463546753,2.01180243492126,2.48105955123901,-2.2623590635174,1.99238647840124,2.54336512160655,1257.049,1274.488,3083.644,3085.403,-0.04075702,0.04560032,0.03875292,-0.923652827739716,-0.386923611164093,0.621328890323639,-0.936405971974636,-0.402909329586355,0.579679903854719,0
3.22000122070313,-2.55191230773926,2.00414276123047,2.4933910369873,-2.28099938900442,1.98436606709459,2.55490437104486,1260.809,1272.117,3076.746,3078.943,-0.03902969,0.04608259,0.03728773,-0.914866149425507,-0.38296639919281,0.61657053232193,-0.927192788821982,-0.398945154262308,0.573976504598449,0
3.239990234375,-2.57002973556519,1.9965648651123,2.5056254863739,-2.2994392795179,1.97643189735754,2.5663195416865,1264.198,1270.353,3072.025,3070.727,-0.03731408,0.04656728,0.0358021,-0.905867278575897,-0.378904581069946,0.611720860004425,-0.917774783907129,-0.394892849856044,0.568146310914365,0
3.25999450683594,-2.58796286582947,1.98906993865967,2.51776123046875,-2.31770268688992,1.96857366338589,2.57762546085652,1256.692,1268.182,3070.19,3070.493,-0.03563096,0.0470418,0.03433566,-0.89665812253952,-0.374746918678284,0.60678893327713,-0.90814153446928,-0.390747931744771,0.562182870617026,0
3.27999877929688,-2.60570764541626,1.98165988922119,2.52979350090027,-2.33577134012187,1.96079922667992,2.58881081793642,1257.116,1265.49,3064.633,3066.109,-0.03393453,0.04752099,0.03284489,-0.887242376804352,-0.370496600866318,0.60161018371582,-0.898304216251578,-0.386515208538549,0.556093102023818,0
3.30000305175781,-2.62326002120972,1.97433686256409,2.54172015190125,-2.35364119854729,1.95311032582551,2.59987311156116,1260.25,1263.703,3060.481,3057.27,-0.0322365,0.04800311,0.03133001,-0.877626121044159,-0.366157710552216,0.596328914165497,-0.888267004546666,-0.382196476749158,0.549879589839776,0
3.31999206542969,-2.64061641693115,1.96710216999054,2.55353856086731,-2.37129490830989,1.94551442770222,2.61080159886703,1256.545,1261.927,3056.708,3054.715,-0.03056723,0.04847734,0.0298267,-0.867808401584625,-0.361734658479691,0.590915083885193,-0.878042061913513,-0.37779696958594,0.54354986326829,0
3.33999633789063,-2.65777206420898,1.95995736122131,2.56524610519409,-2.38875555478454,1.93800159931817,2.62161057080077,1252.399,1259.36,3054.485,3051.536,-0.02889263,0.04894661,0.02832731,-0.857798218727112,-0.357234388589859,0.585374772548676,-0.867618167158097,-0.373311858882592,0.53709697585572,0
3.36000061035156,-2.67472410202026,1.95290422439575,2.57683777809143,-2.406005803634,1.93057929915441,2.6322892965819,1255.245,1257.142,3047.676,3045.612,-0.02720153,0.04941928,0.02680633,-0.84759658575058,-0.352655291557312,0.579587280750275,-0.857007552155826,-0.36874640767338,0.530528499715627,0
3.37998962402344,-2.69146823883057,1.94594407081604,2.58831214904785,-2.42302905329872,1.92325467039821,2.6428274990542,1258.226,1255.567,3042.973,3037.469,-0.02552853,0.04988911,0.02527353,-0.837209224700928,-0.348000437021255,0.573717892169952,-0.846223126656603,-0.364106170663035,0.523852426598178,0
3.39999389648438,-2.70800137519836,1.93907868862152,2.5996675491333,-2.43984769972619,1.91601807669906,2.65323904237604,1250.711,1253.806,3040.893,3037.027,-0.02389282,0.05034399,0.0237682,-0.826639592647552,-0.343277364969254,0.567775249481201,-0.835253140422974,-0.35938609205264,0.51706148254665,0
3.41999816894531,-2.72431921958923,1.93230891227722,2.61089944839478,-2.45644516534361,1.90887665092339,2.66351366424015,1250.496,1251.3,3035.287,3033.154,-0.02225018,0.05079835,0.02224897,-0.815894842147827,-0.338490128517151,0.561596632003784,-0.824110582941664,-0.354591760855451,0.510163708672097,0
3.44000244140625,-2.74041867256165,1.92563629150391,2.62200593948364,-2.47281804716281,1.90183185728196,2.67364925803476,1253.741,1249.758,3031.061,3024.1,-0.02060861,0.05125155,0.02071276,-0.804980933666229,-0.333641827106476,0.555329024791718,-0.812800388649434,-0.349725300221754,0.503162159625937,0
3.45999145507813,-2.75629663467407,1.91906154155731,2.63298487663269,-2.48895081463434,1.8948903781363,2.68363620960993,1249.818,1248.37,3027.076,3021.724,-0.01900219,0.05169252,0.01919728,-0.793898284435272,-0.328736126422882,0.548942685127258,-0.80133641229185,-0.344792671461508,0.496065412155666,0
3.47999572753906,-2.77194976806641,1.91258597373962,2.64383363723755,-2.50486489870395,1.88804299234919,2.69348778574196,1245.78,1246.154,3024.612,3018.536,-0.01739843,0.05212473,0.01769387,-0.782657206058502,-0.323779433965683,0.54244339466095,-0.789706299681989,-0.339788558913217,0.488865818431069,0
3.5,-2.7873752117157,1.90621042251587,2.65454816818237,-2.5205447997813,1.88129636896134,2.70319439144611,1247.89,1244.158,3018.18,3013.002,-0.01578562,0.05255532,0.01618003,-0.771261751651764,-0.318771481513977,0.535724699497223,-0.777924000354857,-0.334718964672089,0.481572013878822,0
3.52000427246094,-2.80256938934326,1.89993607997894,2.66512680053711,-2.53598752699493,1.87465179486116,2.71275417523047,1250.403,1242.818,3013.655,3005.149,-0.01419145,0.05297959,0.01466448,-0.759716808795929,-0.313714206218719,0.528936684131622,-0.765994882555673,-0.32958619854407,0.474187321698442,0
3.53999328613281,-2.81752991676331,1.89376378059387,2.6755678653717,-2.55117869390181,1.86811546013321,2.72215823120146,1245.575,1241.447,3009.975,3003.637,-0.01264469,0.05338844,0.01317747,-0.748026549816132,-0.30861297249794,0.522054374217987,-0.753933682518821,-0.324396601119134,0.466720864320997,0
3.55999755859375,-2.83225417137146,1.8876941204071,2.68586921691895,-2.56613872308604,1.86167857751006,2.73141920191151,1240.722,1239.389,3007.726,3001.114,-0.01110325,0.05378706,0.01170577,-0.736202776432037,-0.303474932909012,0.515072584152222,-0.741727567798258,-0.319144650954242,0.459164697851087,0
3.58000183105469,-2.84673929214478,1.88172841072083,2.69602704048157,-2.58085326729328,1.85534732021446,2.74052820572674,1242.503,1237.546,3001.746,2995.542,-0.009547965,0.05418352,0.01022505,-0.724250495433807,-0.298300385475159,0.507887423038483,-0.729391385793765,-0.313836736470737,0.451528013536464,0
3.59999084472656,-2.86098265647888,1.87586641311646,2.70603966712952,-2.59530884290342,1.84912748987145,2.74947689564398,1245.409,1236.39,2996.989,2987.618,-0.008008125,0.0545741,0.008743916,-0.712172567844391,-0.29308956861496,0.500628650188446,-0.716940488958392,-0.308479463400265,0.4438203152769,0
3.6199951171875,-2.87498211860657,1.87010943889618,2.7159059047699,-2.60952509409627,1.84301063413925,2.75827743234631,1239.721,1235.242,2994.247,2986.162,-0.006509298,0.05494837,0.007299139,-0.699973344802856,-0.287846803665161,0.493315279483795,-0.704361775018033,-0.303067194200314,0.436033492140578,0
3.63999938964844,-2.88873529434204,1.86445808410645,2.7256224155426,-2.6234885835008,1.83700253474321,2.76692149746096,1239.11,1233.146,2989.103,2982.74,-0.005019526,0.05531546,0.005861507,-0.687663972377777,-0.282576560974121,0.485821098089218,-0.691670720740692,-0.297606588091786,0.428177124984152,0
3.66000366210938,-2.90224027633667,1.85891222953796,2.73518776893616,-2.63719712493647,1.83110413233575,2.77540773763803,1241.017,1231.847,2985.225,2975.278,-0.00354307,0.05567585,0.004427419,-0.67525041103363,-0.277281254529953,0.47826811671257,-0.678873453515702,-0.29210028151913,0.420255006953505,0
3.67999267578125,-2.91549491882324,1.85347318649292,2.74460053443909,-2.65063849381582,1.82532068681534,2.78372858527554,1237.089,1230.788,2981.596,2973.13,-0.00210443,0.05602163,0.003025938,-0.662736892700195,-0.271963953971863,0.47063285112381,-0.665986083416798,-0.286555206197011,0.41227711095171,0
3.69999694824219,-2.9284975528717,1.84814047813416,2.75385856628418,-2.66383127580226,1.81964420129024,2.79189554578451,1233.577,1229.022,2978.704,2970.426,-0.000674845,0.05635668,0.001646654,-0.650134325027466,-0.266629129648209,0.462904721498489,-0.65299527533123,-0.280965624398954,0.404235181908735,0
3.72000122070313,-2.941246509552,1.84291505813599,2.76295900344849,-2.6767633032417,1.81407991116207,2.79990108680742,1235.637,1227.374,2973.215,2964.836,0.000757452,0.05668713,0.0002702972,-0.637449443340302,-0.261277318000793,0.455024510622025,-0.639917282339434,-0.275338529371411,0.396139281255611,0
3.739990234375,-2.95374011993408,1.83779716491699,2.77190089225769,-2.68942333385363,1.80863265367006,2.80773824883709,1237.152,1226.378,2968.937,2958.506,0.002162727,0.05700817,-0.001091363,-0.624685108661652,-0.255908876657486,0.447099268436432,-0.62676873176137,-0.26968107538565,0.387999702095468,0
3.75999450683594,-2.96597719192505,1.83278632164001,2.78068351745605,-2.70182915057228,1.80329477731443,2.81541804035694,1231.76,1225.319,2966.17,2957.537,0.003525072,0.05731322,-0.002412291,-0.611848056316376,-0.250527769327164,0.439132958650589,-0.613536214864365,-0.263987493038594,0.379808143784027,0
3.77999877929688,-2.97795629501343,1.82788372039795,2.78930425643921,-2.7139695770734,1.79807109095524,2.82293354268985,1231.315,1223.479,2961.825,2953.865,0.004876934,0.05761069,-0.003720969,-0.598950445652008,-0.245138630270958,0.431035727262497,-0.60023651686137,-0.258265004538452,0.371574997167698,0
3.80000305175781,-2.98967623710632,1.82308876514435,2.79776215553284,-2.72584333814708,1.79296214327972,2.83028396642013,1232.665,1222.385,2958.036,2947.589,0.006211728,0.05790056,-0.00501633,-0.585996747016907,-0.239742606878281,0.422891139984131,-0.586876524285838,-0.252516572968186,0.363304525338741,0
3.81999206542969,-3.00113582611084,1.81840205192566,2.80605602264404,-2.73744054699573,1.78797218830065,2.83746319114912,1230.098,1221.444,2954.483,2944.937,0.007509531,0.05817729,-0.006278136,-0.572992205619812,-0.234342128038406,0.414689928293228,-0.573473482003301,-0.246749618311662,0.355007403690404,0
3.83999633789063,-3.0123348236084,1.81382322311401,2.81418466567993,-2.74877791451009,1.78309403578861,2.84448156171422,1227.301,1220.008,2951.691,2942.256,0.008787252,0.05844298,-0.007510114,-0.559946835041046,-0.228940814733505,0.406431972980499,-0.560014026276881,-0.240958390526246,0.346675359432959,0
3.86000061035156,-3.02327251434326,1.8093523979187,2.82214593887329,-2.75984563331209,1.77833190558438,2.85133300688122,1228.469,1218.517,2946.991,2937.762,0.0100535,0.0587016,-0.008726646,-0.546868801116943,-0.223540365695953,0.398066699504852,-0.546515580872635,-0.235150386571708,0.338319178707605,0
3.87998962402344,-3.03394770622253,1.80498933792114,2.82993960380554,-2.7706348636882,1.77368960116974,2.85801205444635,1229.55,1217.573,2943.368,2932.238,0.01128921,0.05895048,-0.009920275,-0.533761858940125,-0.218141511082649,0.389682710170746,-0.532995796775444,-0.22933320117373,0.329949788314816,0
3.89999389648438,-3.04436039924622,1.8007345199585,2.83756518363953,-2.78116151864576,1.76916027562219,2.86452855531919,1225.216,1216.659,2940.72,2931.106,0.01248106,0.05918425,-0.01107076,-0.520633220672607,-0.212747469544411,0.381277322769165,-0.519441457145543,-0.223501147495394,0.321559006401168,0
3.91999816894531,-3.05451011657715,1.79658734798431,2.84502077102661,-2.79141684911929,1.7647476934202,2.87087709341145,1225.1,1215.002,2936.659,2927.914,0.01365363,0.05941019,-0.01220047,-0.507495164871216,-0.207362577319145,0.372777342796326,-0.505870408491346,-0.2176619043907,0.313157880805522,0
