t,x_s1,x_s2,x_s3,x_s_d1,x_s_d2,x_s_d3,propellers_rpms1,propellers_rpms2,propellers_rpms3,propellers_rpms4,rollRad,pitchRad,yawRad,v_s1,v_s2,v_s3,v_s_d1,v_s_d2,v_s_d3,insideCount
0,-0.0599999986588955,2.94000005722046,1.17999994754791,-0.0599999986588955,2.94000005722046,1.17999994754791,0,0,0,0,0,0,0,0,0,0,-1.06581410364015E-15,4.44089209850063E-16,4.44089209850063E-16,0
0.0200042724609375,-0.0599999986588955,2.94000005722046,1.17811644077301,-0.0600018701838461,2.93999925195556,1.18000110611101,0,0,0,0,-0.01635288,0.0001297794,-0.01587137,-1.10653664009419E-09,-7.76775763711157E-08,-0.0941759571433067,-0.000280105751305916,-0.000120521679537258,0.00017339880334547,9
0.0399932861328125,-0.0599999986588955,2.94000005722046,1.17242503166199,-0.060014863945674,2.93999366110285,1.18000914986856,0,0,0,0,-0.03270202,0.0005238493,-0.03175127,-1.08383135799528E-09,-7.60859677484405E-08,-0.284568399190903,-0.00111059898697896,-0.000477859717552347,0.000687513678106196,9
0.05999755859375,-0.0599058829247952,2.93990302085876,1.16596519947052,-0.0600498857373401,2.93997859220429,1.18003083002592,1867.904,3252.744,3184.064,1722.533,-0.04942081,0.0003291642,-0.01369451,0.00470578344538808,-0.00484931888058782,-0.322993487119675,-0.00247936261166862,-0.00106680046642749,0.00153484356504269,9
0.0800018310546875,-0.0598203651607037,2.93960738182068,1.16000318527222,-0.0601175574246769,2.93994947496775,1.18007272202403,1925.689,2314.406,3251.882,2829.42,-0.07542925,-0.002135855,0.02094752,0.00427580904215574,-0.0147780273109674,-0.298102557659149,-0.00437268608126799,-0.00188144466206175,0.00270690098422899,9
0.100006103515625,-0.0599374361336231,2.93904495239258,1.15498661994934,-0.0602282404704493,2.93990185114529,1.18014124010193,980.3461,1498.873,3914.857,3896.541,-0.1031932,-0.008062454,0.06330631,-0.00585355889052153,-0.0281156711280346,-0.250828981399536,-0.00677739276378709,-0.00291612276782231,0.00419552897277328,8
0.1199951171875,-0.0604638308286667,2.93818354606628,1.15081322193146,-0.0603918861403606,2.93983143898525,1.18024254456713,346.4634,980.4227,4172.878,4613.283,-0.1214322,-0.01542023,0.1039995,-0.0263196937739849,-0.0430673956871033,-0.208668023347855,-0.00967801353495435,-0.00416417885169243,0.00599115140585487,8
0.139999389648438,-0.0615635961294174,2.93704128265381,1.1472829580307,-0.0606185767455666,2.93973390035084,1.18038287685052,352.6188,746.9421,3975.811,4854.936,-0.1254008,-0.0211668,0.1351052,-0.0549882985651493,-0.0571138560771942,-0.176511004567146,-0.0130660253322238,-0.00562194567796536,0.00808849210174802,7
0.160003662109375,-0.0633407980203629,2.93568110466003,1.14427495002747,-0.0609177895434042,2.93960515744296,1.18056810382587,821.0513,815.0817,3462.452,4692.405,-0.1184579,-0.0235237,0.15227,-0.0888602584600449,-0.0680143982172012,-0.150398463010788,-0.0169265510445065,-0.00728302204135792,0.0104783414199936,7
0.180007934570313,-0.0658467933535576,2.93417263031006,1.14182531833649,-0.0612988491946875,2.93944119812059,1.1808039979024,1348.888,1083.453,3006.435,4255.287,-0.1079816,-0.02277961,0.1557778,-0.125299856066704,-0.0754294916987419,-0.12248432636261,-0.0212468478482708,-0.00914192506089775,0.0131528109458008,7
0.199996948242188,-0.0690848380327225,2.93255424499512,1.14006149768829,-0.0617704296168641,2.93923829023936,1.18109592864822,1636.464,1381.162,2918.482,3666.344,-0.09983125,-0.02030074,0.1501551,-0.161902368068695,-0.0809141620993614,-0.0881882756948471,-0.0260104776919234,-0.0111915819022102,0.0161017247421801,7
0.220001220703125,-0.0730101838707924,2.93082642555237,1.139035820961,-0.0623420644491781,2.93899233174064,1.18144979784016,1640.947,1580.384,3148.98,3113.096,-0.09584077,-0.01735529,0.1421893,-0.196267277002335,-0.0863871052861214,-0.0512833558022976,-0.03121219533433,-0.0134297356845702,0.019321835755004,7
0.240005493164063,-0.0775498822331429,2.92897391319275,1.13863325119019,-0.0630219993990999,2.93869977472688,1.18187070996396,1524.232,1624.385,3417.413,2777.468,-0.09475527,-0.01467775,0.1377347,-0.226984977722168,-0.0926258414983749,-0.0201263148337603,-0.0368361158647881,-0.0158495515746756,0.0228033104678445,7
0.259994506835938,-0.0826387405395508,2.92699265480042,1.1386353969574,-0.0638179029240226,2.93835731967507,1.18236341216003,1439.419,1501.019,3532.74,2744.13,-0.09438989,-0.0125877,0.1393022,-0.254442811012268,-0.0990578308701515,0.000110011547803879,-0.0428651747123285,-0.0184436871643672,0.0265355850983733,7
0.279998779296875,-0.088244616985321,2.92490100860596,1.1388521194458,-0.0647390625194898,2.93796097043536,1.18293365383054,1400.136,1275.643,3477.279,2977.781,-0.09321064,-0.01110591,0.1456853,-0.280294328927994,-0.104584820568562,0.010838994756341,-0.0492963837173861,-0.0212108567320638,0.030516809833474,7
0.300003051757813,-0.0943703651428223,2.92273283004761,1.1392068862915,-0.0657927507678135,2.93750759781875,1.18358593705038,1350.6,1061.667,3344.89,3324.938,-0.09053096,-0.009935189,0.1533111,-0.306287437677383,-0.108407020568848,0.0177399422973394,-0.0561132031658829,-0.0241439437008635,0.0347367458022363,7
0.32000732421875,-0.10103565454483,2.92052602767944,1.1397248506546,-0.0669865614821475,2.93699393441958,1.18432496275165,1281.317,941.4003,3237.065,3590.359,-0.08597856,-0.008523181,0.1583578,-0.333264231681824,-0.110341623425484,0.0258999522775412,-0.0633036493784043,-0.0272377918282996,0.0391879745362408,7
0.339996337890625,-0.108251228928566,2.91831254959106,1.14046156406403,-0.068326768706371,2.93641728069206,1.18515461486636,1253.168,944.2242,3171.115,3649.705,-0.07945168,-0.006291452,0.158474,-0.36077892780304,-0.110679283738136,0.0368336550891399,-0.0708499516420146,-0.0304847548730522,0.0438594951176439,7
0.360000610351563,-0.116002812981606,2.91611528396606,1.14145290851593,-0.0698225328270578,2.93577369517774,1.1860805641102,1318.916,1046.76,3121.797,3498.223,-0.07155062,-0.002964098,0.1534746,-0.387579202651978,-0.109860263764858,0.0495697967708111,-0.0787518717320621,-0.0338847303337087,0.0487511600740379,8
0.3800048828125,-0.124251142144203,2.91395020484924,1.14270770549774,-0.0714797725314022,2.93506063123087,1.18710647443246,1455.52,1181.798,3090.29,3231.414,-0.0636112,0.001258592,0.1450407,-0.41241654753685,-0.108259297907352,0.0627403929829597,-0.0869921272359981,-0.0374302820709642,0.0538522707687797,8
0.399993896484375,-0.132942885160446,2.91182684898376,1.14421701431274,-0.0733036822025899,2.9342758538535,1.18823556140379,1580.427,1273.964,3103.943,2981.458,-0.05701775,0.00582731,0.1357473,-0.434587597846985,-0.106165915727615,0.0754657983779907,-0.0955525119207663,-0.0411135764513579,0.0591515566763244,8
0.419998168945313,-0.142023280262947,2.90975069999695,1.14595782756805,-0.0753034649285836,2.93341540321397,1.18947352217404,1630.588,1288.179,3159.924,2845.019,-0.0524403,0.01017486,0.1278592,-0.454019814729691,-0.103802502155304,0.0870397835969925,-0.104434660908044,-0.0449353170220673,0.0646500300148815,8
0.44000244140625,-0.151445686817169,2.90772485733032,1.1478955745697,-0.077483988232608,2.93247718495301,1.19082336997196,1606.636,1238.096,3219.197,2843.348,-0.0496557,0.01397438,0.1224638,-0.471120774745941,-0.101291231811047,0.096889391541481,-0.113620829717891,-0.048887868829098,0.0703367061060819,8
0.460006713867188,-0.161176383495331,2.90575218200684,1.14999675750732,-0.0798512213598696,2.93145863067119,1.19228880004469,1542.237,1158.541,3252.177,2937.802,-0.04788524,0.01718699,0.1193381,-0.486534923315048,-0.0986388996243477,0.105060420930386,-0.123099793815011,-0.0529664022684887,0.0762046364278779,8
0.479995727539063,-0.171193212270737,2.90383672714233,1.15223896503448,-0.0824088828700873,2.93035814037613,1.19387211435783,1474.531,1086.272,3248.246,3066.761,-0.04629373,0.01998788,0.117374,-0.500841736793518,-0.0957774743437767,0.112107917666435,-0.132852887402757,-0.0571628859694044,0.0822422659629699,8
0.5,-0.181480690836906,2.90198397636414,1.15461611747742,-0.085166398670376,2.92917165836334,1.1955791479969,1430.485,1045.896,3217.738,3169.96,-0.04433843,0.0226423,0.1152252,-0.514374256134033,-0.0926409587264061,0.118856467306614,-0.142884000065179,-0.0614789935111996,0.0884520025491718,8
0.520004272460938,-0.192023888230324,2.90019941329956,1.15713489055634,-0.088127196023106,2.92789770997757,1.19741202260058,1423.657,1045.105,3176.901,3210.66,-0.04191656,0.02537858,0.1118887,-0.527159154415131,-0.0892304182052612,0.125939205288887,-0.153174893518032,-0.065906877469682,0.0948225558197254,9
0.539993286132813,-0.202804133296013,2.89848661422729,1.15980970859528,-0.091293865515634,2.92653518056143,1.19937234186584,1447.174,1073.765,3147.823,3183.707,-0.03929068,0.02829096,0.107047,-0.539012670516968,-0.0856401920318604,0.133743464946747,-0.163706645289342,-0.0704383960337938,0.101342211863077,9
0.55999755859375,-0.213797450065613,2.8968460559845,1.16265308856964,-0.094676112580471,2.92507989413848,1.20146611391775,1483.152,1113.501,3139.76,3114.564,-0.03688744,0.03132686,0.1010612,-0.549665749073029,-0.0820324718952179,0.142167508602142,-0.17448465888317,-0.0750758741803766,0.108014315705644,9
0.580001831054688,-0.224975720047951,2.89527440071106,1.16566801071167,-0.0982762614093182,2.92353085067394,1.20369477754168,1520.557,1148.722,3145.517,3035.699,-0.03512656,0.03434438,0.09465836,-0.558913767337799,-0.0785774290561676,0.1507478505373,-0.185490414529404,-0.0798113433697334,0.11482740272751,9
0.600006103515625,-0.236310392618179,2.89376592636108,1.16885137557983,-0.102098762959148,2.92188613504538,1.20606108809202,1541.86,1167.364,3162.654,2978.253,-0.03428873,0.03716248,0.08861287,-0.566733539104462,-0.0754189640283585,0.159167394042015,-0.196713446836865,-0.0846403006364086,0.121774994352997,9
0.6199951171875,-0.247775703668594,2.89231252670288,1.172194480896,-0.106144683970236,2.92014528826426,1.20856570593183,1535.011,1167.385,3182.2,2963.825,-0.03442668,0.03963272,0.08345418,-0.573265969753265,-0.0726649388670921,0.167157456278801,-0.208134604141382,-0.0895545055543457,0.128845234789665,9
0.639999389648438,-0.259351015090942,2.89090490341187,1.17568755149841,-0.110424235525481,2.91830391678686,1.21121495220784,1504.837,1156.031,3196.332,2987.638,-0.0353524,0.04169613,0.07930046,-0.578764379024506,-0.0703820288181305,0.174652770161629,-0.219761081350814,-0.0945570538913933,0.136042578028218,9
0.660003662109375,-0.271020740270615,2.88953304290771,1.17932069301605,-0.114938248900541,2.91636166293851,1.21400934151928,1466.957,1144.312,3196.938,3031.648,-0.03677772,0.04338467,0.07590856,-0.583488643169403,-0.0685989558696747,0.181659311056137,-0.231574097577923,-0.0996398647564507,0.143355397804799,9
0.67999267578125,-0.282773703336716,2.88818645477295,1.1830894947052,-0.119686638739014,2.91431856344567,1.21694882102647,1431.583,1139.984,3189.536,3073.68,-0.03843953,0.04477908,0.072879,-0.587648689746857,-0.0673261731863022,0.188440203666687,-0.243554411173546,-0.104794659005432,0.150771782621969,9
0.699996948242188,-0.29460072517395,2.88685488700867,1.18699264526367,-0.124680083855354,2.91217002351282,1.22004000142426,1402.75,1145.975,3178.561,3102.795,-0.04017005,0.04596615,0.06986134,-0.591351449489594,-0.0665754824876785,0.195157051086426,-0.255710395848158,-0.11002503961202,0.158296916205407,9
0.720001220703125,-0.306493014097214,2.88552761077881,1.19102871417999,-0.129918284978346,2.90991617190799,1.22328269744952,1392.978,1162.775,3163.009,3107.825,-0.04193041,0.04701971,0.06663309,-0.594614088535309,-0.0663607269525528,0.201804652810097,-0.268023157655716,-0.11532287703907,0.16591910230247,9
0.740005493164063,-0.318441450595856,2.88419342041016,1.19519925117493,-0.13540428105644,2.90755570105657,1.22667879035609,1394.214,1185.394,3152.884,3092.569,-0.04382658,0.04795459,0.06321249,-0.597422063350677,-0.0667090117931366,0.208527445793152,-0.280482990349159,-0.120683994959631,0.173632332283853,9
0.759994506835938,-0.330436587333679,2.88284015655518,1.19950449466705,-0.14113644597991,2.90508931062815,1.2302272735046,1392.53,1207.733,3149.76,3074.415,-0.04600877,0.04873506,0.0598065,-0.599756300449371,-0.067660853266716,0.215263769030571,-0.293070637251543,-0.126100107763583,0.181424685349205,9
0.779998779296875,-0.342469453811646,2.8814549446106,1.20394289493561,-0.147126184485884,2.90251209348295,1.23393520697061,1385.031,1226.249,3152.489,3060.093,-0.04855049,0.04931561,0.05665525,-0.601643085479736,-0.069257415831089,0.221920326352119,-0.305795832832518,-0.131575403921268,0.189302187598958,9
0.800003051757813,-0.354532420635223,2.88002443313599,1.20850896835327,-0.153371683173492,2.89982482987671,1.2378014681726,1374.135,1240.513,3153.398,3054.907,-0.05147091,0.0496599,0.05393833,-0.60314953327179,-0.0715224295854568,0.22830393910408,-0.318639638509124,-0.13710173468952,0.197253115148089,9
0.82000732421875,-0.366620302200317,2.87853503227234,1.21319854259491,-0.159875221826383,2.89702653888221,1.24182746840525,1355.523,1251.114,3155.344,3059.989,-0.05473861,0.04974213,0.05175351,-0.604391574859619,-0.0744691118597984,0.234479486942291,-0.331592781842754,-0.14267511039705,0.205271727915392,9
0.839996337890625,-0.378730058670044,2.87697315216064,1.21800673007965,-0.166633637018892,2.89411858163313,1.24601124935738,1326.731,1259.685,3155.571,3078.363,-0.05826251,0.04955991,0.05010181,-0.605489552021027,-0.0780976042151451,0.240411028265953,-0.344636106234817,-0.148287288494656,0.213346167053785,8
0.860000610351563,-0.390861213207245,2.87532520294189,1.22292923927307,-0.173659158941841,2.89109569582005,1.2503603820997,1297.23,1268.787,3153.54,3098.861,-0.06189027,0.04914664,0.04887437,-0.606557667255402,-0.0823949947953224,0.246123686432838,-0.357780475378537,-0.153942943326036,0.221483157706883,8
0.8800048828125,-0.403014659881592,2.8735785484314,1.22796046733856,-0.180948461186242,2.88795931270381,1.25487280742661,1277.127,1280.794,3144.944,3114.125,-0.06551376,0.04855178,0.04792636,-0.607671916484833,-0.0873289704322815,0.251561731100082,-0.371007022483504,-0.159633957038354,0.229671020432672,8
0.899993896484375,-0.415192365646362,2.87172102928162,1.23309862613678,-0.18849723509595,2.8847112861788,1.25954585807468,1262.569,1295.484,3137.529,3121.469,-0.06910583,0.0478086,0.04717338,-0.608887672424316,-0.0928717255592346,0.25690945982933,-0.384296738353309,-0.165352150505452,0.237897987633041,8
0.919998168945313,-0.427396982908249,2.86974096298218,1.23834276199341,-0.196318384305134,2.8813460641717,1.26438752200817,1244.71,1310.892,3133.555,3128.781,-0.07266488,0.04693244,0.04661356,-0.610231101512909,-0.0989984720945358,0.262205302715302,-0.397661187980262,-0.171102499820431,0.246171218589148,8
0.94000244140625,-0.439631342887878,2.86762738227844,1.24368929862976,-0.204407453948074,2.87786556348678,1.26939504145298,1236.145,1326.458,3127.572,3129.46,-0.07617493,0.04594803,0.04623503,-0.611717939376831,-0.105675093829632,0.267327189445496,-0.411081631631503,-0.176876941799768,0.254479112513653,8
0.960006713867188,-0.451898872852325,2.86536979675293,1.24913728237152,-0.212765478812529,2.87426933888379,1.27456905699201,1229.637,1341.221,3125.275,3126.611,-0.07966687,0.04485575,0.04609281,-0.613377332687378,-0.112875774502754,0.272402256727219,-0.424549556012544,-0.182671813410681,0.262816399271726,8
0.979995727539063,-0.464203625917435,2.8629584312439,1.25468504428864,-0.22138664033507,2.87055989392801,1.27990596665734,1216.54,1353.577,3125.193,3131.04,-0.08316199,0.04364509,0.04626853,-0.615238130092621,-0.120570108294487,0.277388840913773,-0.438046240701377,-0.188479059778567,0.271171490030365,8
1,-0.47655063867569,2.86038398742676,1.26033055782318,-0.230284798736574,2.86673126495361,1.28541435058594,1201.614,1363.318,3126.833,3138.438,-0.0866076,0.04232187,0.04678431,-0.617347419261932,-0.128725320100784,0.282278507947922,-0.451584000205995,-0.194303979492187,0.279552008056641,8
1.02000427246094,-0.488945543766022,2.85763812065125,1.2660698890686,-0.239454009753966,2.86278600961093,1.2910905289958,1192.509,1372.135,3123.695,3146.275,-0.08995892,0.04090605,0.04760934,-0.619746625423431,-0.137289687991142,0.286963701248169,-0.465144357597929,-0.200138622445408,0.287946515251652,8
1.03999328613281,-0.501395285129547,2.85471367835999,1.27190220355988,-0.248887339851819,2.85872711120656,1.2969302096982,1183.606,1380.381,3122.253,3154.006,-0.09320159,0.03941065,0.04871678,-0.622487485408783,-0.14622300863266,0.291614085435867,-0.478708875293167,-0.205975055460915,0.29634359787259,8
1.05999755859375,-0.513907313346863,2.85160398483276,1.27782738208771,-0.258599401509697,2.85454828239877,1.30294243851408,1167.214,1387.497,3123.34,3168.196,-0.09630416,0.03784753,0.05008858,-0.625602543354034,-0.155483335256577,0.29626139998436,-0.492290296490434,-0.211818761581115,0.30475114456651,8
1.08000183105469,-0.526489496231079,2.84830379486084,1.28384304046631,-0.268583149539609,2.85025255453512,1.30912285413647,1161.103,1394.597,3120.188,3176.911,-0.09920062,0.03625672,0.05163401,-0.629108965396881,-0.165012940764427,0.300782203674316,-0.50587040849135,-0.217661904390701,0.313157880805523,8
1.10000610351563,-0.53914999961853,2.84480834007263,1.28994989395142,-0.278838480013141,2.84583997233313,1.31547139222872,1159.476,1402.053,3119.021,3180.33,-0.1018925,0.03465753,0.05331793,-0.633025884628296,-0.174768269062042,0.305342733860016,-0.519441457145546,-0.223501147495394,0.321559006401169,7
1.1199951171875,-0.551897048950195,2.84111428260803,1.29614877700806,-0.289357002179081,2.84131414609862,1.32198285851614,1154.24,1408.545,3119.73,3187.228,-0.1044018,0.03305657,0.0551512,-0.637351751327515,-0.18470299243927,0.309944897890091,-0.532985466132485,-0.229328756186667,0.329943393154705,7
1.13999938964844,-0.564738869667053,2.83721876144409,1.30244076251984,-0.300154365346813,2.83666834237095,1.3286669406667,1149.68,1413.322,3122.839,3193.271,-0.1066995,0.03146796,0.05712209,-0.642090320587158,-0.194774389266968,0.314600586891174,-0.546515580872639,-0.235150386571708,0.338319178707607,7
1.16000366210938,-0.577683568000793,2.83312034606934,1.30882477760315,-0.311222084148811,2.83190621216671,1.33551838583369,1153.46,1417.727,3121.711,3196.348,-0.1087821,0.02991147,0.05920086,-0.647234082221985,-0.204923614859581,0.319200128316879,-0.560014026276883,-0.240958390526247,0.34667535943296,7
1.17999267578125,-0.590739488601685,2.82881808280945,1.3153030872345,-0.322550701230474,2.8270318247214,1.34253133946411,1157.142,1421.174,3123.552,3198.785,-0.1106895,0.02838842,0.06139294,-0.65279495716095,-0.215113759040833,0.323915004730225,-0.573463232144024,-0.246745208083563,0.355001058539242,7
1.19999694824219,-0.603914976119995,2.82431197166443,1.32187855243683,-0.334156660511822,2.8220381046756,1.34971598112778,1151.463,1422.531,3129.499,3208.666,-0.1124259,0.02689421,0.06372016,-0.658772945404053,-0.225310817360878,0.328772753477097,-0.58687652428584,-0.252516572968185,0.36330452533874,7
1.22000122070313,-0.61721807718277,2.81960272789001,1.32855069637299,-0.346030421585499,2.81692915700008,1.35706640485806,1154.394,1423.333,3130.843,3215.152,-0.1139465,0.02545682,0.06611864,-0.665158033370972,-0.235461547970772,0.333609104156494,-0.600236516861372,-0.258265004538453,0.371574997167698,7
1.24000549316406,-0.630657255649567,2.81469202041626,1.33532226085663,-0.358170848086624,2.8117054706409,1.36458190719098,1160.53,1424.08,3133.736,3217.989,-0.1152637,0.02408565,0.06856006,-0.671957015991211,-0.24553208053112,0.338580042123795,-0.613536214864368,-0.263987493038594,0.379808143784027,7
1.25999450683594,-0.644240379333496,2.80958223342896,1.34219598770142,-0.3705671011502,2.80637170925886,1.37225577835275,1161.609,1423.913,3138.074,3225.623,-0.1164009,0.02278061,0.07104763,-0.679155588150024,-0.25548654794693,0.343687236309052,-0.626758665639206,-0.269676744214496,0.387993470686331,7
1.27999877929688,-0.657975196838379,2.80427646636963,1.3491747379303,-0.383236695417198,2.80092033679326,1.3800988607405,1162.595,1422.456,3144.409,3232.616,-0.1173261,0.02155361,0.0735515,-0.686742782592773,-0.265293896198273,0.348939955234528,-0.639917282339435,-0.275338529371412,0.396139281255613,8
1.30000305175781,-0.671869039535522,2.79877829551697,1.35625898838043,-0.396168722856641,2.79535604666509,1.38810440176341,1172.608,1421.734,3145.222,3235.697,-0.1180388,0.02042492,0.07602058,-0.694689631462097,-0.274905174970627,0.354212582111359,-0.652995275331231,-0.280965624398954,0.404235181908735,8
1.32000732421875,-0.685928821563721,2.79309225082397,1.36345279216766,-0.409361504843077,2.78967956113998,1.39627136227237,1182.945,1420.727,3149.053,3236.662,-0.118589,0.01939242,0.07845042,-0.702990353107452,-0.284298926591873,0.359687834978104,-0.6659860834168,-0.286555206197011,0.41227711095171,8
1.33999633789063,-0.700161218643188,2.78722310066223,1.37075996398926,-0.422802873722428,2.78389611561957,1.40459220990988,1186.274,1418.456,3155.708,3242.886,-0.1190081,0.01844691,0.08086139,-0.711619079113007,-0.293455600738525,0.365359425544739,-0.678873453515705,-0.29210028151913,0.420255006953505,8
1.36000061035156,-0.714572250843048,2.7811758518219,1.37818396091461,-0.436511415158101,2.77799771321212,1.41307845008695,1188.985,1414.785,3164.441,3248.498,-0.1192548,0.01759545,0.08323668,-0.720554530620575,-0.302357584238052,0.371201187372208,-0.691670720740693,-0.297606588091785,0.42817712498415,8
1.3800048828125,-0.729167401790619,2.77495646476746,1.3857250213623,-0.450474904562636,2.77198961381608,1.4217225152016,1201.441,1412.175,3166.341,3250.11,-0.1193261,0.0168544,0.08553261,-0.729758858680725,-0.310964465141296,0.377053469419479,-0.704361775018035,-0.303067194200314,0.436033492140578,8
1.39999389648438,-0.743951976299286,2.76857113838196,1.3933869600296,-0.464680216184654,2.76587746507559,1.43051627978847,1214.075,1409.401,3170.445,3250.239,-0.1192793,0.01621632,0.08774901,-0.739225327968597,-0.319263309240341,0.383098065853119,-0.716930938559026,-0.308475354130225,0.443814403124744,8
1.41999816894531,-0.758930563926697,2.76202607154846,1.40117454528809,-0.47914673136562,2.75965292774086,1.43947174182117,1215.707,1404.854,3179.662,3257.453,-0.1191354,0.01566458,0.08991571,-0.748931109905243,-0.327250957489014,0.389380514621735,-0.729391385793766,-0.313836736470737,0.451528013536465,8
1.44000244140625,-0.774107277393341,2.75532793998718,1.40908861160278,-0.493861275572861,2.75332167044526,1.4485807456364,1224.834,1400.941,3183.499,3261.147,-0.1188659,0.01521708,0.09198046,-0.758834660053253,-0.334903687238693,0.395700991153717,-0.741727567798258,-0.319144650954242,0.459164697851088,8
1.46000671386719,-0.78948575258255,2.74848365783691,1.4171324968338,-0.508821304757097,2.74688478782212,1.45784171634646,1236.772,1397.34,3188.732,3260.607,-0.118492,0.01487333,0.09392855,-0.768924117088318,-0.34221687912941,0.402192085981369,-0.753933682518823,-0.324396601119133,0.466720864320996,8
1.47999572753906,-0.805069029331207,2.74149990081787,1.42530930042267,-0.524012471663969,2.74034845309416,1.46724577231745,1243.093,1393.124,3195.408,3264.396,-0.1180446,0.0146197,0.09578272,-0.779166638851166,-0.349186539649963,0.408840656280518,-0.765994882555672,-0.329586198544069,0.474187321698441,8
1.5,-0.820859730243683,2.73438358306885,1.43362200260162,-0.539455198877605,2.73370387899399,1.4768055561018,1247.789,1387.898,3203.939,3268.156,-0.1174981,0.01445573,0.09753639,-0.789536595344543,-0.355812817811966,0.415636330842972,-0.777924000354858,-0.334718964672088,0.481572013878822,8
1.52000427246094,-0.836859524250031,2.7271420955658,1.44207036495209,-0.555135099954955,2.72695725560613,1.48651216180595,1260.643,1384.288,3205.421,3268.784,-0.1168606,0.01439158,0.09915311,-0.799989998340607,-0.362074911594391,0.422418355941772,-0.789706299681991,-0.339788558913217,0.48886581843107,8
1.53999328613281,-0.853069961071014,2.71978259086609,1.45065772533417,-0.571036956668503,2.72011513090874,1.49635616862212,1272.814,1380.636,3209.709,3267.626,-0.1161847,0.01441565,0.1006368,-0.810519576072693,-0.367979973554611,0.429368734359741,-0.801327600455846,-0.344788879974649,0.496059957209413,8
1.55999755859375,-0.869491994380951,2.71231174468994,1.45938801765442,-0.587181951496087,2.71316839067337,1.50635068951315,1273.739,1375.285,3219.469,3272.911,-0.1154811,0.01450719,0.1020259,-0.821099162101746,-0.373544901609421,0.436516791582108,-0.812800388649436,-0.349725300221754,0.503162159625937,8
1.58000183105469,-0.88612562417984,2.70473647117615,1.46826064586639,-0.60355483331529,2.70612359703193,1.51648628330776,1282.629,1371.233,3222.568,3274.488,-0.1147178,0.01468212,0.1032776,-0.831680536270142,-0.378761529922485,0.443629205226898,-0.824110582941666,-0.354591760855452,0.510163708672098,8
1.60000610351563,-0.902970731258392,2.6970636844635,1.47727739810944,-0.620152298932711,2.69898217125626,1.52676090517188,1294.527,1367.647,3226.62,3271.745,-0.113921,0.01493521,0.1043869,-0.842254281044006,-0.383638650178909,0.450839877128601,-0.835253140422976,-0.35938609205264,0.51706148254665,8
1.6199951171875,-0.920026481151581,2.68929982185364,1.48644030094147,-0.636958033083316,2.69175113334911,1.53716445517924,1299.637,1363.447,3232.399,3274.005,-0.1131252,0.01524664,0.1053882,-0.852791905403137,-0.388188064098358,0.45814573764801,-0.846214826007804,-0.364102599125749,0.523847288101157,8
1.63999938964844,-0.937291920185089,2.68145132064819,1.49575090408325,-0.653994195024907,2.68442094880091,1.54771065096602,1301.865,1358.288,3240.27,3276.895,-0.1122986,0.01561284,0.1062827,-0.863272130489349,-0.39242559671402,0.465531945228577,-0.857007552155828,-0.368746407673381,0.530528499715628,8
1.66000366210938,-0.954765021800995,2.67352437973022,1.50520718097687,-0.671244443874359,2.67699864863716,1.55838937674714,1312.306,1355.19,3240.303,3276.677,-0.1114416,0.01604445,0.1070344,-0.873653173446655,-0.396343529224396,0.472816854715347,-0.867618167158098,-0.373311858882592,0.53709697585572,8
1.67999267578125,-0.972443640232086,2.66552519798279,1.51481091976166,-0.688691692550512,2.66949158495151,1.56919005480539,1322.473,1352.253,3243.082,3274.004,-0.1106005,0.01652874,0.1076484,-0.883935213088989,-0.39995950460434,0.480188518762589,-0.878034183119987,-0.377793579561193,0.543544985919778,8
1.69999694824219,-0.990325570106506,2.6574592590332,1.52456438541412,-0.706358800111611,2.66188992212981,1.58012683598675,1320.893,1347.688,3251.449,3277.968,-0.1097819,0.01704399,0.1081697,-0.894097566604614,-0.403301060199738,0.487675726413727,-0.888267004546665,-0.382196476749158,0.549879589839776,8
1.72000122070313,-1.00840747356415,2.64933180809021,1.53446507453918,-0.724228658537036,2.6542010212754,1.5911891296115,1327.271,1344.79,3252.494,3278.428,-0.1089526,0.0176051,0.1085599,-0.904095768928528,-0.4063700735569,0.495032429695129,-0.898304216251578,-0.386515208538549,0.556093102023817,8
1.74000549316406,-1.02668607234955,2.64114809036255,1.54451310634613,-0.742297311768984,2.64642658456943,1.60237448669139,1336.726,1342.428,3254.715,3274.189,-0.1081355,0.01820647,0.1088175,-0.913929224014282,-0.409183025360107,0.502404630184174,-0.908141534469281,-0.390747931744771,0.562182870617028,8
1.75999450683594,-1.04515755176544,2.6329128742218,1.55470883846283,-0.760546715064628,2.63857437616062,1.61367173667103,1338.705,1339.461,3258.838,3275.391,-0.1073627,0.0188272,0.1089845,-0.923576414585114,-0.41175964474678,0.509787261486053,-0.917767514700581,-0.394889722119545,0.568141810929231,8
1.77999877929688,-1.06381797790527,2.62463045120239,1.5650520324707,-0.779000609654483,2.63063418086074,1.62509557650306,1337.707,1335.591,3264.972,3277.283,-0.1065952,0.01946386,0.1090661,-0.933023929595947,-0.414122045040131,0.517159938812256,-0.927192788821983,-0.398945154262308,0.57397650459845,8
1.80000305175781,-1.08266282081604,2.61630487442017,1.5755387544632,-0.797640935141499,2.62261376955408,1.63663482594136,1345.303,1333.981,3262.764,3276.006,-0.1058287,0.02012842,0.1090281,-0.942237436771393,-0.416267275810242,0.524333953857422,-0.936405971974637,-0.402909329586356,0.579679903854719,7
1.82000732421875,-1.10168731212616,2.6079409122467,1.58616900444031,-0.816463410111527,2.61451498441355,1.64828683458664,1352.571,1332.551,3263.483,3272.202,-0.105108,0.02080814,0.108879,-0.951227307319641,-0.418215602636337,0.531510293483734,-0.94540321420156,-0.406780591562751,0.585249625391268,7
1.83999633789063,-1.12088680267334,2.5995409488678,1.59694254398346,-0.835449117627072,2.60634596486888,1.66003989195343,1350.438,1330.289,3267.354,3274.52,-0.1044545,0.02148398,0.1086587,-0.959977686405182,-0.419993430376053,0.538678050041199,-0.954174163352093,-0.410554485950274,0.590679260733698,7
1.86000061035156,-1.14025640487671,2.59110856056213,1.60785841941833,-0.854622615239374,2.59809614449182,1.6719092003358,1346.586,1327.266,3273.327,3275.892,-0.1038036,0.02215865,0.1083663,-0.968477666378021,-0.421625465154648,0.545793354511261,-0.962728579444532,-0.414235212212131,0.595974851798267,7
1.8800048828125,-1.15979015827179,2.58264636993408,1.61891102790833,-0.873964974649439,2.58977366760063,1.68388304221498,1353.194,1326.766,3269.531,3273.486,-0.1031442,0.02284745,0.1079679,-0.976692020893097,-0.423104703426361,0.552632987499237,-0.971056158224177,-0.417818336715394,0.601130019760457,7
1.89999389648438,-1.17948293685913,2.57415747642517,1.63009941577911,-0.893456683142228,2.58138692997148,1.69594933829086,1360.662,1326.541,3268.223,3268.014,-0.1025317,0.02353702,0.107475,-0.984636843204498,-0.424446403980255,0.559420108795166,-0.979147395688901,-0.421299770153459,0.606138881190213,7
1.91999816894531,-1.19932913780212,2.56564378738403,1.6414235830307,-0.913122862707269,2.57292512231409,1.70812364027167,1353.86,1324.455,3273.338,3271.279,-0.101982,0.02420138,0.1069476,-0.99230819940567,-0.425680190324783,0.566210448741913,-0.987011339258123,-0.424683405378145,0.611007036871143,7
1.94000244140625,-1.21932280063629,2.55710744857788,1.65287864208221,-0.932943991899774,2.5643966441608,1.72039386345315,1354.325,1323.855,3271.493,3271.539,-0.1014521,0.02485895,0.1063465,-0.999677419662476,-0.426811516284943,0.572752475738525,-0.994638524886308,-0.427965170275055,0.615728628108227,7
1.96000671386719,-1.23945784568787,2.54855036735535,1.66446244716644,-0.952915303453826,2.55580354673295,1.73275705667061,1358.431,1323.822,3270.981,3266.428,-0.1009471,0.02550902,0.1056669,-1.00675821304321,-0.42785581946373,0.579192698001862,-1.00202586176059,-0.431143734953757,0.620301741541062,7
1.97999572753906,-1.25972878932953,2.53997373580933,1.67617273330688,-0.973016570682103,2.54715453300902,1.74520069864106,1355.625,1323.341,3271.901,3266.677,-0.1004907,0.0261346,0.1049507,-1.01354086399078,-0.428828626871109,0.585517168045044,-1.00916501115878,-0.434215511495054,0.624721215103391,7
2,-1.28012919425964,2.53137874603271,1.68800699710846,-0.993273599084619,2.53843849960327,1.7577407641983,1350.351,1321.997,3274.704,3267.458,-0.1000395,0.02673616,0.1042035,-1.02002573013306,-0.429746270179749,0.591715693473816,-1.01606400046349,-0.437183953857422,0.628992018127441,6
2.02000427246094,-1.30065310001373,2.52276682853699,1.69995903968811,-1.01366615605493,2.52966415204104,1.77036472839513,1354.015,1322.781,3269.026,3265.259,-0.09958838,0.02732751,0.1033915,-1.02619135379791,-0.43060028553009,0.597602248191833,-1.02271452148052,-0.440045487257004,0.633109007445237,6
2.03999328613281,-1.32129430770874,2.51413869857788,1.71202707290649,-1.03417354141348,2.52084039703127,1.78305977683431,1357.25,1323.672,3266.767,3260.484,-0.09918198,0.02789864,0.1025241,-1.03206121921539,-0.431404620409012,0.603400528430939,-1.02910913225408,-0.442796909628122,0.637067576131623,6
2.05999755859375,-1.34204685688019,2.50549507141113,1.72421002388,-1.05482201812353,2.5119559343546,1.79584216754118,1347.193,1322.875,3270.675,3263.558,-0.09881872,0.02843001,0.1016548,-1.03763556480408,-0.432183772325516,0.609146058559418,-1.03525504859546,-0.445441325732794,0.640872191117535,6
2.08000183105469,-1.3629047870636,2.4968364238739,1.73650133609772,-1.07559088172821,2.50301967256038,1.80869908347065,1346.239,1323.571,3266.697,3262.918,-0.09844854,0.02894413,0.10074,-1.0428900718689,-0.432933956384659,0.614568710327148,-1.04114485287423,-0.447975543971863,0.644518260536375,6
2.10000610351563,-1.38386154174805,2.48816323280334,1.74889814853668,-1.09647498538954,2.49403382618922,1.82162733848484,1349.678,1324.822,3264.066,3256.501,-0.09808582,0.02944113,0.09977622,-1.04784452915192,-0.433662265539169,0.619842290878296,-1.04677621342161,-0.450398561093403,0.648004340974112,5
2.1199951171875,-1.40491151809692,2.47947573661804,1.76139748096466,-1.11745308225396,2.48500753716864,1.83461377976925,1344.905,1325.453,3263.381,3256.594,-0.09776198,0.02990295,0.09881164,-1.05249559879303,-0.434378117322922,0.624969124794006,-1.0521429102862,-0.45270770082608,0.651326581984514,5
2.13999938964844,-1.42604851722717,2.47077393531799,1.77399623394012,-1.138551967509,2.47592927627801,1.8476749948214,1337.112,1324.977,3265.04,3257.61,-0.09743121,0.03033129,0.09785073,-1.05684947967529,-0.435092628002167,0.629940450191498,-1.05725102347782,-0.454905579228273,0.654488747383304,4
2.16000366210938,-1.44726634025574,2.46205806732178,1.78668749332428,-1.15975039167652,2.46680818657414,1.86079782920208,1338.891,1326.39,3258.328,3255.216,-0.09707755,0.03074436,0.09685478,-1.06089043617249,-0.435791343450546,0.634563446044922,-1.0620943502576,-0.456989527434725,0.657486997379635,4
2.17999267578125,-1.46855926513672,2.45332837104797,1.79946875572205,-1.18102676265167,2.45765355853653,1.8739689163698,1341.044,1327.95,3254.856,3249.744,-0.09674145,0.03113455,0.0958309,-1.06464409828186,-0.436480551958084,0.639063894748688,-1.06666760390386,-0.458957270716794,0.660318059240953,3
2.19999694824219,-1.48992145061493,2.44458484649658,1.81233835220337,-1.20240821395574,2.44845371736898,1.88720505326679,1329.821,1327.901,3257.146,3252.714,-0.09642667,0.03148364,0.09483252,-1.06811368465424,-0.437175720930099,0.643477261066437,-1.07097597819164,-0.460811043810786,0.662985148161421,1
2.22000122070313,-1.51134717464447,2.4358274936676,1.82528924942017,-1.22387315175433,2.43921795429519,1.90049287228091,1328.063,1329.006,3251.886,3251.781,-0.09608259,0.03181635,0.09381174,-1.07128095626831,-0.437866240739822,0.647545516490936,-1.07501419914593,-0.462548577472581,0.665484999299265,0
2.24000549316406,-1.53283047676086,2.42705631256104,1.83831834793091,-1.24541615591711,2.42994860144581,1.91382901809327,1330.516,1330.589,3248.385,3245.047,-0.09572413,0.03213349,0.09276391,-1.07416820526123,-0.438553541898727,0.651454210281372,-1.07878069424208,-0.464169195088763,0.667816639186824,0
2.25999450683594,-1.55436587333679,2.41827154159546,1.85142230987549,-1.26701526177039,2.4206551096063,1.92719989352455,1324.553,1331.513,3246.848,3245.118,-0.09538218,0.03241876,0.0917362,-1.0767730474472,-0.43924081325531,0.655200719833374,-1.08227143928024,-0.465671165158559,0.669977576652695,0
2.27999877929688,-1.57594776153564,2.40947294235229,1.8645977973938,-1.28869796983554,2.41132564607061,1.9406225227075,1316.25,1331.269,3247.495,3245.77,-0.09500667,0.03267685,0.09072864,-1.07910335063934,-0.43993216753006,0.658773720264435,-1.08549040888332,-0.467056197851165,0.67197027217779,0
2.30000305175781,-1.5975706577301,2.40066075325012,1.87783753871918,-1.31044231452835,2.40196966201596,1.95408330789913,1317.983,1332.662,3239.969,3242.747,-0.0945827,0.03292675,0.08970076,-1.0811460018158,-0.44060692191124,0.661987125873566,-1.08843358680109,-0.468322565086307,0.673792239511894,0
2.31999206542969,-1.61922919750214,2.3918354511261,1.89113903045654,-1.33222611841886,2.3925966997709,1.96756852021384,1320.001,1334.152,3235.783,3236.805,-0.09415446,0.0331613,0.08866018,-1.08292615413666,-0.441265910863876,0.665072977542877,-1.09109790637238,-0.469468947365361,0.675441580245663,0
2.33999633789063,-1.64091813564301,2.38299703598022,1.90450036525726,-1.35407709248145,2.38319483607731,1.98109531406483,1308.398,1334.066,3237.241,3239.719,-0.09372729,0.03336329,0.08765901,-1.08444726467133,-0.441918641328812,0.668066680431366,-1.09348640563071,-0.470496651869278,0.67692017506657,0
2.36000061035156,-1.66263198852539,2.37414598464966,1.91791462898254,-1.37597305876702,2.37377361348711,1.99464996024512,1306.611,1334.788,3231.539,3238.411,-0.09324899,0.03355839,0.08664553,-1.08569407463074,-0.442549854516983,0.670715034008026,-1.09559602313537,-0.471404361345641,0.678226128796969,0
2.3800048828125,-1.68436574935913,2.36528277397156,1.93137872219086,-1.39790843013262,2.36433543599182,2.00822900004707,1309.227,1335.988,3227.553,3231.226,-0.09273393,0.03374856,0.0856134,-1.08668732643127,-0.443156689405441,0.673203706741333,-1.09742594550583,-0.472191725819537,0.679358937915576,0
2.39999389648438,-1.70611417293549,2.35640811920166,1.94488930702209,-1.41986083522252,2.35488992936084,2.02181858453579,1303.445,1336.552,3225.406,3231.011,-0.09221461,0.03391856,0.08460815,-1.08742415904999,-0.443737268447876,0.675530612468719,-1.09897439291323,-0.472857979480329,0.680317500623536,0
2.41999816894531,-1.72787237167358,2.34752225875854,1.95844304561615,-1.44185817738692,2.34542508756209,2.03543598721428,1295.543,1335.871,3225.479,3231.28,-0.09164363,0.03407373,0.08362668,-1.08791208267212,-0.444291621446609,0.67768782377243,-1.10024313330221,-0.473403883025206,0.681102911362803,0
2.44000244140625,-1.74963521957397,2.33862638473511,1.97203290462494,-1.46387808506052,2.33595053645515,2.04906735901791,1297.744,1336.58,3217.759,3227.732,-0.09100607,0.03423262,0.0826272,-1.08813869953156,-0.444796621799469,0.679495215415955,-1.10123038958312,-0.473828671822132,0.681714070030222,0
2.46000671386719,-1.77139759063721,2.32972121238708,1.98565649986267,-1.48591492338117,2.32646870056377,2.06270921169857,1300.298,1337.418,3213.264,3221.322,-0.09034721,0.03438897,0.08161645,-1.08812606334686,-0.445250064134598,0.681181490421295,-1.10193578218388,-0.474132182551855,0.682150741652607,0
2.47999572753906,-1.79315519332886,2.32080841064453,1.99931132793427,-1.50794623031618,2.31698924467309,2.07634764018804,1292.707,1337.363,3211.924,3222.323,-0.08969101,0.03452871,0.08063528,-1.08787274360657,-0.445654690265656,0.682743608951569,-1.10235882472314,-0.474314205938057,0.682412625136718,0
2.5,-1.81490290164948,2.31188821792603,2.01299405097961,-1.52999999932945,2.30750012397766,2.08999997377396,1283.817,1336.13,3212.584,3222.931,-0.08897088,0.03466202,0.07967152,-1.08738315105438,-0.446011543273926,0.684139430522919,-1.10250000050292,-0.474374949932098,0.682500019669533,0
2.52000427246094,-1.83663558959961,2.30296206474304,2.02669763565063,-1.55205376834272,2.29801100328223,2.10365230735988,1287.388,1336.397,3204.789,3217.98,-0.08816182,0.03481053,0.07867827,-1.08664226531982,-0.446295320987701,0.685175061225891,-1.10235882472314,-0.474314205938057,0.682412625136718,0
2.53999328613281,-1.85834908485413,2.29403233528137,2.04041934013367,-1.57408507527774,2.28853154739156,2.11729073584934,1291.925,1336.918,3199.668,3210.158,-0.08732026,0.03496576,0.07766806,-1.08566808700562,-0.446500360965729,0.686084389686584,-1.10193578218388,-0.474132182551855,0.682150741652607,0
2.55999755859375,-1.88003826141357,2.28509974479675,2.05415773391724,-1.59612191359838,2.27904971150017,2.13093258853001,1281.944,1335.917,3199.961,3212.435,-0.08647231,0.03510762,0.07669673,-1.08446228504181,-0.446631401777267,0.686915814876556,-1.10123038958312,-0.473828671822132,0.681714070030222,0
2.58000183105469,-1.90169858932495,2.27616620063782,2.06790661811829,-1.61814182127198,2.26957516039323,2.14456396033363,1280.847,1335.122,3194.487,3210.635,-0.08556736,0.03525956,0.07571162,-1.08301377296448,-0.446675062179565,0.68744158744812,-1.10024313330221,-0.473403883025206,0.681102911362804,0
2.60000610351563,-1.92332530021667,2.2672336101532,2.08166337013245,-1.64013916343638,2.26011031859448,2.15818136301212,1283.517,1334.801,3190.901,3203.3,-0.08461289,0.03542335,0.07470476,-1.08133816719055,-0.446629047393799,0.687832772731781,-1.09897439291323,-0.472857979480329,0.680317500623536,0
2.6199951171875,-1.94491374492645,2.25830388069153,2.09542465209961,-1.66209156852628,2.2506648119635,2.17177094750084,1278.846,1334.027,3188.485,3202.337,-0.0836371,0.03558662,0.07371463,-1.07942950725555,-0.446489542722702,0.688068747520447,-1.09742594550583,-0.472191725819537,0.679358937915576,0
2.63999938964844,-1.96645975112915,2.24937868118286,2.10918760299683,-1.68402693989188,2.24122663446822,2.18534998730279,1273.019,1332.121,3187.885,3201.309,-0.08259688,0.03575495,0.07273448,-1.07729268074036,-0.446254730224609,0.688145816326141,-1.09559602313537,-0.471404361345641,0.67822612879697,0
2.66000366210938,-1.98795795440674,2.24046063423157,2.12294554710388,-1.70592290617745,2.23180541187802,2.19890463348308,1276.776,1331.318,3180.089,3196.756,-0.08148368,0.03594373,0.07172478,-1.074915766716,-0.445903271436691,0.687900066375732,-1.09348640563071,-0.470496651869278,0.67692017506657,0
2.67999267578125,-2.00940442085266,2.23155164718628,2.13669657707214,-1.72775723139253,2.2224107117184,2.21242112090437,1280.558,1330.731,3175.524,3189.548,-0.08034704,0.03614578,0.07069255,-1.07231473922729,-0.445434063673019,0.687556862831116,-1.09109983431736,-0.469469776906228,0.675442773735451,0
2.69999694824219,-2.03079414367676,2.22265481948853,2.15043950080872,-1.74955768413056,2.21303058593937,2.22591663964878,1270.707,1328.899,3176.25,3191.282,-0.07919922,0.03634408,0.0696869,-1.06948888301849,-0.444854199886322,0.687150835990906,-1.08843358680109,-0.468322565086308,0.673792239511893,0
2.72000122070313,-2.05212259292603,2.21377182006836,2.16416811943054,-1.77130202882336,2.20367460188472,2.23937742484041,1270.658,1327.228,3170.46,3188.822,-0.07798694,0.03656262,0.06865336,-1.06642472743988,-0.444150567054749,0.686429381370544,-1.08549040888332,-0.467056197851165,0.671970272177789,0
2.74000549316406,-2.07338523864746,2.20490550994873,2.17787981033325,-1.79298473688851,2.19434513834902,2.25280005402337,1275.573,1326.187,3166.444,3179.743,-0.0767246,0.0368023,0.06758319,-1.06313538551331,-0.443321466445923,0.685583233833313,-1.08227143928024,-0.465671165158559,0.669977576652695,0
2.75999450683594,-2.09457731246948,2.19605827331543,2.1915717124939,-1.81458384274179,2.18505164650952,2.26617092945464,1271.691,1324.761,3163.752,3178.312,-0.07545374,0.0370468,0.06652349,-1.05961334705353,-0.442365050315857,0.684599220752716,-1.07878069424208,-0.464169195088763,0.667816639186824,0
2.77999877929688,-2.11569452285767,2.18723249435425,2.20524120330811,-1.83612684690458,2.17578229366013,2.27950707526701,1266.215,1322.082,3163.219,3176.973,-0.07413175,0.03730028,0.06546752,-1.05586361885071,-0.441283285617828,0.683473885059357,-1.07501419914593,-0.462548577472581,0.665484999299265,0
2.80000305175781,-2.13673210144043,2.17843103408813,2.21888208389282,-1.85759178470316,2.16654653058634,2.29279489428112,1270.068,1320.351,3155.867,3172.056,-0.07274637,0.03757756,0.06437598,-1.0518753528595,-0.44006010890007,0.682041168212891,-1.07097597819164,-0.460811043810786,0.662985148161422,0
2.81999206542969,-2.15768551826477,2.1696572303772,2.23249244689941,-1.87895695992541,2.1573536925621,2.30602095550813,1274.327,1318.974,3151.418,3164.242,-0.07134023,0.03787171,0.06325511,-1.04766094684601,-0.438695907592773,0.680514454841614,-1.06667099276523,-0.458958728849171,0.660320157107579,0
2.83999633789063,-2.17854976654053,2.16091322898865,2.24607086181641,-1.90024960698239,2.14819206138118,2.31920211834584,1265.536,1316.63,3151.371,3165.44,-0.06993195,0.0381664,0.06215166,-1.0432186126709,-0.437197893857956,0.678917288780212,-1.06209435025759,-0.456989527434725,0.657486997379635,0
2.86000061035156,-2.1993203163147,2.15220212936401,2.25961136817932,-1.9214480311499,2.13907097167731,2.33232495272651,1266.373,1314.27,3145.727,3161.959,-0.06846987,0.03848268,0.0610127,-1.038538813591,-0.435558319091797,0.677028834819794,-1.05725102347782,-0.454905579228273,0.654488747383304,0
2.8800048828125,-2.21999287605286,2.14352679252625,2.27311182022095,-1.94254691640495,2.12999271078668,2.34538616777867,1271.068,1312.624,3141.647,3153.007,-0.06697211,0.03881973,0.05983394,-1.03363084793091,-0.433777749538422,0.675021111965179,-1.0521429102862,-0.45270770082608,0.651326581984514,0
2.89999389648438,-2.24056267738342,2.13488960266113,2.28656935691833,-1.96352501326936,2.1209664217661,2.35837260906308,1267.632,1310.678,3138.824,3151.002,-0.06547541,0.03916313,0.05865766,-1.02848827838898,-0.431857466697693,0.672881543636322,-1.04677621342161,-0.450398561093403,0.648004340974112,0
2.91999816894531,-2.26102495193481,2.12629365921021,2.29998159408569,-1.98440911693069,2.11198057539494,2.37130086407726,1262.659,1307.628,3138.056,3149.015,-0.06393983,0.03951605,0.05747835,-1.0231157541275,-0.429802119731903,0.670606732368469,-1.04114485287423,-0.447975543971863,0.644518260536375,0
2.94000244140625,-2.28137493133545,2.11774158477783,2.31334233283997,-2.00517798053537,2.10304431360073,2.38415778000673,1266.733,1305.371,3130.726,3143.628,-0.06235259,0.0398912,0.05625903,-1.01750385761261,-0.427599996328354,0.668031632900238,-1.03525504859546,-0.445441325732794,0.640872191117535,0
2.96000671386719,-2.30160808563232,2.10923671722412,2.32664966583252,-2.02582645724542,2.09415985092405,2.3969401707136,1271.444,1303.587,3126.192,3135.094,-0.06075629,0.04028177,0.05500671,-1.01166307926178,-0.425253689289093,0.665367424488068,-1.02910913225408,-0.442796909628122,0.637067576131623,0
2.97999572753906,-2.32172012329102,2.10078096389771,2.33990168571472,-2.04633384260397,2.08533609591429,2.40963521915279,1266.029,1301.368,3123.833,3134.502,-0.0591845,0.0406727,0.05376142,-1.00558960437775,-0.422769874334335,0.662597715854645,-1.02271452148052,-0.440045487257004,0.633109007445237,0
3,-2.34170579910278,2.09237813949585,2.3530957698822,-2.06672639957428,2.07656174835205,2.42225918334961,1259.833,1298.124,3123.642,3132.801,-0.05757701,0.04107147,0.05250875,-0.999289035797119,-0.420156836509705,0.659699380397797,-1.01606400046349,-0.437183953857422,0.628992018127441,0
3.02000427246094,-2.3615608215332,2.08402991294861,2.36622548103333,-2.0869834279768,2.06784571494631,2.43479924890685,1264.189,1295.775,3116.206,3126.78,-0.05591147,0.04149324,0.05120835,-0.992751061916351,-0.417404055595398,0.656485319137573,-1.00916501115878,-0.434215511495054,0.624721215103391,0
3.03999328613281,-2.38128018379211,2.07573986053467,2.37928891181946,-2.10708469520508,2.05919670122237,2.4472428908773,1270.369,1294.056,3111.244,3116.753,-0.05423581,0.04193031,0.04986991,-0.985983848571777,-0.414512813091278,0.653176665306091,-1.00202586176059,-0.431143734953757,0.620301741541063,0
3.05999755859375,-2.40085983276367,2.06751012802124,2.39228487014771,-2.12705600675913,2.05060360379452,2.45960608409476,1262.598,1291.663,3110.108,3117.06,-0.05258625,0.04236274,0.04855016,-0.978985249996185,-0.411491394042969,0.649797022342682,-0.994638524886308,-0.427965170275055,0.615728628108227,0
3.08000183105469,-2.42029500007629,2.0593433380127,2.40520787239075,-2.14687713595163,2.04207512564123,2.47187630727625,1262.851,1288.73,3104.674,3113.52,-0.05091431,0.04280737,0.04720118,-0.971753835678101,-0.408340364694595,0.646152019500732,-0.987011339258122,-0.424683405378145,0.611007036871143,0
3.10000610351563,-2.43958115577698,2.05124187469482,2.41805577278137,-2.16654331551667,2.03361331798384,2.48405060925705,1266.464,1286.624,3100.862,3104.698,-0.049228,0.04326434,0.04581753,-0.964298129081726,-0.405064404010773,0.642398834228516,-0.979147395688901,-0.421299770153459,0.606138881190213,0
3.1199951171875,-2.45871353149414,2.04320883750916,2.43082594871521,-2.18603502400946,2.02522658035469,2.49611690533293,1262.819,1284.483,3097.701,3102.274,-0.0475566,0.04372106,0.0444369,-0.956613957881927,-0.401667505502701,0.638509094715118,-0.971056158224178,-0.417818336715394,0.601130019760458,0
3.13999938964844,-2.47768759727478,2.03524565696716,2.44351530075073,-2.20537738341953,2.01690410346351,2.50809074721212,1258.647,1281.464,3095.791,3099.571,-0.04586336,0.04418103,0.04305055,-0.948707282543182,-0.398155510425568,0.634473085403442,-0.962728579444533,-0.414235212212131,0.595974851798267,0
3.16000366210938,-2.49649906158447,2.0273551940918,2.4561185836792,-2.22455088103183,2.00865428308644,2.51996005559448,1262.838,1279.055,3088.644,3093.144,-0.04413817,0.04465469,0.04162692,-0.940574705600739,-0.394523531198502,0.630168080329895,-0.954174163352092,-0.410554485950274,0.590679260733698,0
3.17999267578125,-2.51514339447021,2.01953959465027,2.46863412857056,-2.24353658854737,2.00048526354177,2.53171311296128,1266.41,1277.238,3083.973,3084.94,-0.04242469,0.04513341,0.04017919,-0.932222664356232,-0.390775203704834,0.62577623128891,-0.945403214201559,-0.406780591562751,0.585249625391267,0
3.19999694824219,-2.53361654281616,2.01180100440979,2.48106026649475,-2.2623590635174,1.99238647840124,2.54336512160655,1258.387,1274.922,3082.737,3084.887,-0.0407405,0.04560326,0.03874952,-0.923652470111847,-0.38692033290863,0.621310710906982,-0.936405971974636,-0.402909329586355,0.579679903854719,0
3.22000122070313,-2.55191373825073,2.00414180755615,2.49339175224304,-2.28099938900442,1.98436606709459,2.55490437104486,1258.663,1272.121,3077.115,3080.857,-0.03903662,0.04608083,0.03729217,-0.914865434169769,-0.38296103477478,0.616580307483673,-0.927192788821982,-0.398945154262308,0.573976504598449,0
3.24000549316406,-2.57003092765808,1.99656391143799,2.50562644004822,-2.29945328359428,1.9764258717947,2.56632821087688,1262.762,1270.235,3072.748,3071.463,-0.03732367,0.04656549,0.03580321,-0.905868113040924,-0.378900676965714,0.611738979816437,-0.91776751470058,-0.394889722119544,0.568141810929231,0
3.25999450683594,-2.58796405792236,1.98906898498535,2.51776194572449,-2.31770268688992,1.96857366338589,2.57762546085652,1259.311,1268.404,3069.061,3068.746,-0.03563895,0.04704415,0.0343229,-0.89665824174881,-0.3747438788414,0.606769621372223,-0.90814153446928,-0.390747931744771,0.562182870617026,0
3.27999877929688,-2.60570883750916,1.98165917396545,2.5297954082489,-2.33577134012187,1.96079922667992,2.58881081793642,1254.738,1265.676,3067.112,3065.919,-0.03394891,0.04751908,0.03284564,-0.887244164943695,-0.370498031377792,0.60167270898819,-0.898304216251578,-0.386515208538549,0.556093102023818,0
3.30000305175781,-2.62326169013977,1.97433578968048,2.5417218208313,-2.35364119854729,1.95311032582551,2.59987311156116,1257.63,1263.322,3060.211,3060.161,-0.03223863,0.0480002,0.03134212,-0.877625823020935,-0.366161018610001,0.596315979957581,-0.888267004546666,-0.382196476749158,0.549879589839776,0
3.31999206542969,-2.64061784744263,1.96710121631622,2.55353927612305,-2.37129490830989,1.94551442770222,2.61080159886703,1261.03,1261.646,3055.628,3051.585,-0.03054166,0.04848107,0.02982117,-0.867809534072876,-0.361736387014389,0.59087723493576,-0.878042061913513,-0.37779696958594,0.54354986326829,0
3.33999633789063,-2.65777349472046,1.959956407547,2.56524634361267,-2.38875555478454,1.93800159931817,2.62161057080077,1253.384,1259.737,3053.562,3051.372,-0.02887985,0.04894873,0.02832486,-0.857797384262085,-0.357231795787811,0.585356473922729,-0.867618167158097,-0.373311858882592,0.53709697585572,0
3.36000061035156,-2.67472553253174,1.95290350914001,2.57683825492859,-2.406005803634,1.93057929915441,2.6322892965819,1253.735,1257.131,3047.996,3046.944,-0.02720792,0.04941778,0.02680983,-0.84759533405304,-0.352651059627533,0.579595506191254,-0.857007552155826,-0.36874640767338,0.530528499715627,0
3.3800048828125,-2.69146943092346,1.94594371318817,2.58831286430359,-2.42304196557559,1.92324911460621,2.64283549236868,1256.664,1255.485,3043.64,3038.369,-0.02553812,0.04988705,0.02527608,-0.837209284305573,-0.34799736738205,0.573735237121582,-0.846214826007803,-0.364102599125748,0.523847288101157,0
3.39999389648438,-2.70800256729126,1.93907809257507,2.59966802597046,-2.43984769972619,1.91601807669906,2.65323904237604,1253.031,1253.906,3039.804,3035.649,-0.02390027,0.05034588,0.02375772,-0.826639652252197,-0.343275278806686,0.567754089832306,-0.835253140422974,-0.35938609205264,0.51706148254665,0
3.41999816894531,-2.72432017326355,1.93230819702148,2.61090111732483,-2.45644516534361,1.90887665092339,2.66351366424015,1248.585,1251.573,3037.492,3032.692,-0.02226296,0.05079713,0.02224896,-0.815895915031433,-0.338491410017014,0.561654686927795,-0.824110582941664,-0.354591760855451,0.510163708672097,0
3.44000244140625,-2.74042010307312,1.92563533782959,2.6220076084137,-2.47281804716281,1.90183185728196,2.67364925803476,1251.113,1249.455,3030.839,3026.907,-0.02061127,0.0512489,0.02072384,-0.804980933666229,-0.333645015954971,0.555319130420685,-0.812800388649434,-0.349725300221754,0.503162159625937,0
3.46000671386719,-2.75629782676697,1.91906070709229,2.63298583030701,-2.4889630419904,1.89488511704659,2.68364377892579,1253.958,1248.037,3026.162,3018.813,-0.01897822,0.05169584,0.01919182,-0.793899774551392,-0.328738301992416,0.548908293247223,-0.801327600455845,-0.344788879974649,0.496059957209413,0
3.47999572753906,-2.77195119857788,1.91258502006531,2.64383387565613,-2.50486489870395,1.88804299234919,2.69348778574196,1249.045,1246.56,3022.566,3017.236,-0.01739257,0.05212802,0.01768502,-0.782655894756317,-0.323777318000793,0.542400300502777,-0.789706299681989,-0.339788558913217,0.488865818431069,0
3.5,-2.78737616539001,1.90620970726013,2.65454959869385,-2.5205447997813,1.88129636896134,2.70319439144611,1243.745,1244.364,3020.568,3014.806,-0.01581012,0.05255068,0.01619131,-0.771260797977448,-0.318769991397858,0.535787522792816,-0.777924000354857,-0.334718964672089,0.481572013878822,0
3.52000427246094,-2.80257081985474,1.89993524551392,2.66512846946716,-2.53598752699493,1.87465179486116,2.71275417523047,1245.864,1242.393,3014.248,3009.081,-0.01421063,0.05297294,0.01468325,-0.759718477725983,-0.313716143369675,0.528948128223419,-0.765994882555673,-0.32958619854407,0.474187321698442,0
3.53999328613281,-2.8175311088562,1.89376306533813,2.6755690574646,-2.55117869390181,1.86811546013321,2.72215823120146,1249.227,1241.173,3009.546,3000.491,-0.01262392,0.05339041,0.01317061,-0.74803215265274,-0.30861634016037,0.522035241127014,-0.753933682518821,-0.324396601119134,0.466720864320997,0
3.55999755859375,-2.83225536346436,1.88769364356995,2.68587017059326,-2.56613872308604,1.86167857751006,2.73141920191151,1242.969,1239.892,3006.606,2999.644,-0.01107928,0.05379108,0.01169354,-0.736205518245697,-0.303475201129913,0.515051305294037,-0.741727567798258,-0.319144650954242,0.459164697851087,0
3.58000183105469,-2.84674024581909,1.88172745704651,2.6960277557373,-2.58085326729328,1.85534732021446,2.74052820572674,1242.667,1237.663,3001.459,2995.747,-0.009540509,0.0541861,0.01021756,-0.724249601364136,-0.298297613859177,0.507880628108978,-0.729391385793765,-0.313836736470737,0.451528013536464,0
3.60000610351563,-2.86098337173462,1.8758659362793,2.70604062080383,-2.59531978247425,1.84912278287974,2.74948366775945,1244.336,1236.342,2997.616,2988.182,-0.008014517,0.05457426,0.008742714,-0.712170124053955,-0.293086290359497,0.500643849372864,-0.716930938559024,-0.308475354130224,0.443814403124743,0
3.6199951171875,-2.87498331069946,1.87010884284973,2.71590662002563,-2.60952509409627,1.84301063413925,2.75827743234631,1240.344,1235.128,2993.66,2986.203,-0.006523679,0.05494849,0.007296327,-0.699970960617065,-0.28784453868866,0.493302196264267,-0.704361775018033,-0.303067194200314,0.436033492140578,0
3.63999938964844,-2.88873624801636,1.86445713043213,2.72562408447266,-2.6234885835008,1.83700253474321,2.76692149746096,1237,1233.292,2991.046,2982.779,-0.005037103,0.05531278,0.005867805,-0.687662780284882,-0.282577216625214,0.485871702432632,-0.691670720740692,-0.297606588091786,0.428177124984152,0
3.66000366210938,-2.90224123001099,1.85891151428223,2.73518919944763,-2.63719712493647,1.83110413233575,2.77540773763803,1238.771,1231.595,2985.054,2977.606,-0.003547331,0.05567272,0.004440278,-0.675251245498657,-0.277284234762192,0.478260159492493,-0.678873453515702,-0.29210028151913,0.420255006953505,0
3.67999267578125,-2.91549587249756,1.85347247123718,2.74460124969482,-2.65063849381582,1.82532068681534,2.78372858527554,1240.953,1230.475,2980.667,2970.475,-0.002081527,0.05602418,0.003021505,-0.662739992141724,-0.271966487169266,0.470598340034485,-0.665986083416798,-0.286555206197011,0.41227711095171,0
3.69999694824219,-2.9284987449646,1.84813976287842,2.75385904312134,-2.66383127580226,1.81964420129024,2.79189554578451,1234.846,1229.403,2977.926,2969.794,-0.0006604639,0.05635854,0.001642658,-0.650134921073914,-0.266628235578537,0.462889641523361,-0.65299527533123,-0.280965624398954,0.404235181908735,0
3.72000122070313,-2.9412477016449,1.84291422367096,2.76295971870422,-2.6767633032417,1.81407991116207,2.79990108680742,1234.264,1227.432,2973.381,2966.107,0.0007539083,0.05668617,0.0002725914,-0.637448251247406,-0.261274456977844,0.45502957701683,-0.639917282339434,-0.275338529371411,0.396139281255611,0
3.74000549316406,-2.95374131202698,1.8377959728241,2.77190208435059,-2.6894328975087,1.80862853869646,2.80774416919516,1235.937,1226.294,2969.531,2959.159,0.002155568,0.05700663,-0.001089233,-0.624684572219849,-0.255906492471695,0.447113633155823,-0.626758665639204,-0.269676744214497,0.387993470686332,0
3.75999450683594,-2.96597814559937,1.8327853679657,2.78068447113037,-2.70182915057228,1.80329477731443,2.81541804035694,1233.068,1225.306,2965.729,2956.62,0.00352127,0.057314,-0.002418683,-0.611848413944244,-0.250526458024979,0.439123600721359,-0.613536214864365,-0.263987493038594,0.379808143784027,0
3.77999877929688,-2.97795724868774,1.82788276672363,2.78930568695068,-2.7139695770734,1.79807109095524,2.82293354268985,1230.208,1223.753,2962.909,2953.653,0.004870839,0.0576101,-0.003720969,-0.59894996881485,-0.245138362050056,0.431066870689392,-0.60023651686137,-0.258265004538452,0.371574997167698,0
3.80000305175781,-2.98967742919922,1.8230881690979,2.79776334762573,-2.72584333814708,1.79296214327972,2.83028396642013,1231.356,1222.193,2957.781,2949.157,0.006211551,0.0578995,-0.005011004,-0.585996985435486,-0.239743441343307,0.422880977392197,-0.586876524285838,-0.252516572968186,0.363304525338741,0
3.81999206542969,-3.00113725662231,1.81840109825134,2.80605673789978,-2.73744054699573,1.78797218830065,2.83746319114912,1232.645,1221.191,2954.006,2943.137,0.007524109,0.05817943,-0.00628293,-0.572993338108063,-0.234342634677887,0.414669096469879,-0.573473482003301,-0.246749618311662,0.355007403690404,0
3.83999633789063,-3.01233625411987,1.8138222694397,2.81418538093567,-2.74877791451009,1.78309403578861,2.84448156171422,1227.641,1220.265,2951.418,2942.082,0.00879418,0.05844396,-0.007511712,-0.55994588136673,-0.228939354419708,0.406428396701813,-0.560014026276881,-0.240958390526246,0.346675359432959,0
3.86000061035156,-3.02327346801758,1.80935168266296,2.82214665412903,-2.75984563331209,1.77833190558438,2.85133300688122,1227.418,1218.488,2947.081,2938.785,0.0100508,0.05870092,-0.008723983,-0.546866953372955,-0.223538041114807,0.398068457841873,-0.546515580872635,-0.235150386571708,0.338319178707605,0
3.8800048828125,-3.03394889831543,1.80498886108398,2.82994031906128,-2.77064299647982,1.77368610185671,2.85801708903178,1229.285,1217.482,2943.582,2932.346,0.01128659,0.0589499,-0.009919742,-0.533760666847229,-0.218139469623566,0.389686644077301,-0.532985466132484,-0.229328756186666,0.329943393154704,0
3.89999389648438,-3.04436159133911,1.80073380470276,2.83756566047668,-2.78116151864576,1.76916027562219,2.86452855531919,1226.303,1216.677,2940.237,2930.485,0.01247781,0.05918524,-0.01107555,-0.52063250541687,-0.212745919823647,0.381266802549362,-0.519441457145543,-0.223501147495394,0.321559006401168,0
3.91999816894531,-3.0545117855072,1.79658651351929,2.84502172470093,-2.79141684911929,1.7647476934202,2.87087709341145,1223.831,1215.273,2937.726,2927.895,0.01364572,0.05940929,-0.01219941,-0.507493376731873,-0.20736163854599,0.372808545827866,-0.505870408491346,-0.2176619043907,0.313157880805522,0
