t,x_s1,x_s2,x_s3,x_s_d1,x_s_d2,x_s_d3,propellers_rpms1,propellers_rpms2,propellers_rpms3,propellers_rpms4,rollRad,pitchRad,yawRad,v_s1,v_s2,v_s3,v_s_d1,v_s_d2,v_s_d3,insideCount
0,-0.0599999986588955,2.94000005722046,1.17999994754791,-0.0599999986588955,2.94000005722046,1.17999994754791,0,0,0,0,0,45.0048027038574,0,0,0,0,-1.06581410364015E-15,4.44089209850063E-16,-7.105427357601E-16,0
0.019989013671875,-0.0599999986588955,2.94000005722046,1.1790189743042,-0.0600018659130177,2.93999925379318,1.18000108822432,0,0,0,0,0.00112506025470793,44.8630180358887,0.909283995628357,-3.60929135467813E-08,2.95208444356376E-08,-0.0490499772131443,-0.000279680311988734,-0.000120338624884473,0.000170852338267345,5
0.0399932861328125,-0.0599999986588955,2.94000005722046,1.17411398887634,-0.060014863945674,2.93999366110285,1.18000902851964,0,0,0,0,0.00304076820611954,44.7212371826172,1.81856417655945,-3.62307304158094E-08,2.93641413406931E-08,-0.245249927043915,-0.00111059898697896,-0.000477859717552347,0.000678447590588643,6
0.05999755859375,-0.0600350871682167,2.94003486633301,1.16684281826019,-0.0600498857373401,2.93997859220429,1.18003042278566,2307.214,2000.318,2127.489,3382.293,-0.00213747564703226,44.8046226501465,1.28313136100769,-0.00175436097197235,0.00174318393692374,-0.363556146621704,-0.00247936261166862,-0.00106680046642749,0.00151460392977639,6
0.079986572265625,-0.0601342283189297,2.9401330947876,1.15967166423798,-0.0601174907153006,2.93994950367094,1.18007172161174,2848.286,2759.992,2606.547,2299.076,359.914093017578,44.8777122497559,0.620032489299774,-0.00495709478855133,0.00491350051015615,-0.358560144901276,-0.00437104534358026,-0.00188073869847162,0.0026702033915743,6
0.0999908447265625,-0.0602753050625324,2.94026303291321,1.1533819437027,-0.0602281370710988,2.93990189563514,1.1801393137439,2871.649,2897.36,2628.339,2213.585,359.724304199219,44.9188232421875,0.190323501825333,-0.0070538567379117,0.00649292720481753,-0.314488589763641,-0.00677536694902951,-0.00291525111632684,0.00413896594164447,5
0.1199951171875,-0.0604445114731789,2.94038772583008,1.14806056022644,-0.0603918861403606,2.93983143898525,1.18023934549506,2725.774,2926.586,2634.792,2219.291,359.427459716797,44.9351387023926,0.0503475740551949,-0.00846035964787006,0.00623316550627351,-0.266069740056992,-0.00967801353495435,-0.00416417885169243,0.00591214744607921,5
0.139999389648438,-0.0606514662504196,2.94048070907593,1.1437304019928,-0.0606185767455666,2.93973390035084,1.18037782724834,2551.861,2770.028,2667.472,2379.42,359.090576171875,44.9478797912598,0.14410300552845,-0.0103477714583278,0.00464715529233217,-0.21650855243206,-0.0130660253322238,-0.00562194567796536,0.00798183098414958,5
0.159988403320313,-0.0609214007854462,2.94052791595459,1.14032292366028,-0.0609175312885481,2.93960526856281,1.18056045391355,2443.507,2553.64,2687.003,2529.319,358.804534912109,44.9653053283691,0.340571284294128,-0.0134967844933271,0.00235523609444499,-0.170373916625977,-0.0169234294955564,-0.00728167892605071,0.0103382589939246,5
0.17999267578125,-0.0612811110913754,2.94052505493164,1.13772797584534,-0.0612985250199726,2.93944133760391,1.18079319703879,2417.1,2394.901,2654.953,2596.57,358.625640869141,44.9839057922363,0.518666684627533,-0.0179854594171047,-0.000146498903632164,-0.129746660590172,-0.0212433804254414,-0.00914043312572283,0.0129772496054864,5
0.199996948242188,-0.0617489628493786,2.94047331809998,1.13583743572235,-0.0617704296168641,2.93923829023936,1.1810814761931,2450.979,2338.009,2561.596,2580.066,358.551483154297,44.9966316223145,0.617815017700195,-0.0233925599604845,-0.00259224674664438,-0.0945246368646622,-0.0260104776919234,-0.0111915819022102,0.0158893949364944,5
0.219985961914063,-0.0623327493667603,2.94037485122681,1.13456809520721,-0.0623415882203848,2.93899253664859,1.18143038807124,2497.158,2360.058,2442.63,2516.162,358.526153564453,44.9992408752441,0.641125679016113,-0.0291893184185028,-0.00492268614470959,-0.0634661167860031,-0.031208065114187,-0.0134279585662277,0.019064519986003,5
0.239990234375,-0.063033752143383,2.94023013114929,1.13386452198029,-0.0630214373585105,2.93870001655724,1.18184569730089,2511.465,2408.023,2348.698,2446.636,358.476898193359,44.9927253723145,0.627692937850952,-0.0350503288209438,-0.00723012629896402,-0.0351811274886131,-0.0368316683029241,-0.015847637913056,0.0224998914194052,5
0.259994506835938,-0.063852958381176,2.94003629684448,1.13368904590607,-0.0638179029240226,2.93835731967507,1.18233224568626,2475.53,2437.296,2311.542,2396.867,358.356048583984,44.9817581176758,0.619154632091522,-0.0409604609012604,-0.00969110429286957,-0.00877610221505165,-0.0428651747123285,-0.0184436871643672,0.0261856663338995,4
0.279998779296875,-0.0647956505417824,2.93978643417358,1.13400995731354,-0.0647390625194898,2.93796097043536,1.18289496770872,2398.762,2429.068,2331.1,2372.531,358.163024902344,44.9715042114258,0.638275444507599,-0.0471346825361252,-0.0124889342114329,0.0160466860979795,-0.0492963837173861,-0.0212108567320638,0.0301143915580518,4
0.29998779296875,-0.065872348845005,2.93947172164917,1.13479280471802,-0.0657918945890516,2.93750796620855,1.18353812639089,2313.817,2391.29,2375.416,2363.962,357.940155029297,44.9649963378906,0.685097217559814,-0.0538347586989403,-0.0157371740788221,0.0391417220234871,-0.0561078595514081,-0.0241416444928383,0.0342754158540715,4
0.319992065429688,-0.0670963302254677,2.93908309936523,1.13599848747253,-0.0669855955880233,2.93699435001684,1.18426733970383,2254.146,2343.173,2405.059,2359.005,357.744354248047,44.9626960754395,0.745565116405487,-0.0611990243196487,-0.0194303561002016,0.0602862909436226,-0.0632980253096114,-0.0272353719486164,0.0386677759154339,4
0.339996337890625,-0.0684798136353493,2.93861413002014,1.13758552074432,-0.068326768706371,2.93641728069206,1.18508664143323,2239.705,2303.547,2392.37,2348.176,357.614959716797,44.9632186889648,0.803787708282471,-0.0691743642091751,-0.0234488118439913,0.0793516859412193,-0.0708499516420146,-0.0304847548730522,0.0432811298664125,4
0.360000610351563,-0.0700312480330467,2.93806171417236,1.13951456546783,-0.0698225328270578,2.93577369517774,1.18600038039362,2262.168,2279.445,2340.662,2330.667,357.552734375,44.9647331237793,0.850386679172516,-0.0775717124342918,-0.0276184491813183,0.0964546948671341,-0.0787518717320621,-0.0338847303337087,0.0481082895423912,4
0.379989624023438,-0.0717549473047256,2.9374258518219,1.14175081253052,-0.0714784451857985,2.93506120235061,1.18701195141357,2297.407,2269.481,2273.304,2308.692,357.525085449219,44.9657516479492,0.884514987468719,-0.086185023188591,-0.0317947082221508,0.111811630427837,-0.0869857157641562,-0.0374275233937465,0.0531382163749952,4
0.399993896484375,-0.0736529305577278,2.93670725822449,1.14426469802856,-0.0733036822025899,2.9342758538535,1.18812696022487,2316.285,2265.824,2221.872,2287.11,357.486846923828,44.9656524658203,0.911162078380585,-0.094899021089077,-0.0359250456094742,0.125696882605553,-0.0955525119207663,-0.0411135764513579,0.0583715384648505,4
0.419998168945313,-0.0757274776697159,2.93590593338013,1.1470308303833,-0.0753034649285836,2.93341540321397,1.18934859628618,2305.051,2262.24,2203.326,2268.162,357.407043457031,44.9645881652832,0.9368537068367,-0.103727579116821,-0.040060393512249,0.138304948806763,-0.104434660908044,-0.0449353170220673,0.0637975046779765,4
0.439987182617188,-0.0779830887913704,2.93501973152161,1.15002703666687,-0.0774822545706558,2.93247793089932,1.19067958487918,2264.509,2253.334,2219.188,2254.32,357.282470703125,44.9632759094238,0.965941369533539,-0.112780421972275,-0.044313121587038,0.149812161922455,-0.113613709720558,-0.0488848052931553,0.0694048423613094,4
0.459991455078125,-0.0804267153143883,2.93404388427734,1.15323281288147,-0.0798493430620752,2.93145943885026,1.1921256023009,2213.862,2239.653,2250.463,2244.223,357.137939453125,44.9624824523926,0.998900473117828,-0.122181214392185,-0.0487891137599945,0.160291388630867,-0.123092454730403,-0.0529632444654124,0.0751952597749251,4
0.479995727539063,-0.0830664783716202,2.93297338485718,1.15662825107574,-0.0824088828700873,2.93035814037613,1.19368918522879,2178.286,2225.724,2270.205,2235.091,357.009521484375,44.9625778198242,1.03376770019531,-0.131988182663918,-0.0535276532173157,0.169772565364838,-0.132852887402757,-0.0571628859694044,0.0811577557859174,4
0.5,-0.0859098136425018,2.93180370330811,1.16019558906555,-0.085166398670376,2.92917165836334,1.195373708601,2168.318,2213.129,2265.944,2227.335,356.921508789063,44.9636497497559,1.06789803504944,-0.142166629433632,-0.0584827736020088,0.178364709019661,-0.142884000065179,-0.0614789935111996,0.0872856059789651,5
0.519989013671875,-0.0889620706439018,2.93053269386292,1.16391837596893,-0.0881248588203387,2.92789871561062,1.19718098574075,2183.06,2204.418,2237.272,2219.451,356.876495361328,44.9653739929199,1.09929502010345,-0.152612864971161,-0.0635539367794991,0.186139538884163,-0.153166947611899,-0.0659034585682559,0.0935672981730243,5
0.539993286132813,-0.0922263860702515,2.92915987968445,1.16778266429901,-0.091293865515634,2.92653518056143,1.19911688247953,2206.864,2198.917,2199.769,2212.062,356.855346679688,44.9672698974609,1.12741804122925,-0.163215607404709,-0.0686416998505592,0.193212792277336,-0.163706645289342,-0.0704383960337938,0.100005835015435,5
0.55999755859375,-0.0957045704126358,2.92768597602844,1.17177581787109,-0.094676112580471,2.92507989413848,1.20118304443252,2225.035,2196.758,2168.729,2204.222,356.8310546875,44.9688682556152,1.15329122543335,-0.173909351229668,-0.0736960470676422,0.199658006429672,-0.17448465888317,-0.0750758741803766,0.106589955332319,5
0.579986572265625,-0.0993986204266548,2.92611122131348,1.17588806152344,-0.0982734311149,2.92353206847056,1.20338059019015,2222.834,2194.029,2160.282,2198.255,356.782012939453,44.9700317382813,1.17854869365692,-0.184702888131142,-0.0787339583039284,0.205613747239113,-0.185481935470438,-0.0798076950675377,0.113308019990364,5
0.599990844726563,-0.103311806917191,2.92443490028381,1.18011093139648,-0.102095761416081,2.92188742652551,1.20571559212485,2201.438,2189.891,2174.009,2193.659,356.705413818359,44.9709091186523,1.20398044586182,-0.19565948843956,-0.0838205516338348,0.211144655942917,-0.19670480600515,-0.0846365827279185,0.120163896470579,5
0.6199951171875,-0.107448786497116,2.92265439033508,1.18443655967712,-0.106144683970236,2.92014528826426,1.208189015731,2175.493,2186.179,2194.687,2189.084,356.616760253906,44.9717254638672,1.2297614812851,-0.206849157810211,-0.0890245661139488,0.216281622648239,-0.208134604141382,-0.0895545055543457,0.127146181793521,5
0.639999389648438,-0.111814945936203,2.92076683044434,1.18885910511017,-0.110424235525481,2.91830391678686,1.21080332699501,2155.132,2181.638,2211.585,2186.249,356.536529541016,44.9728355407715,1.255495429039,-0.218307748436928,-0.0943773835897446,0.22112675011158,-0.219761081350814,-0.0945570538913933,0.134248615293163,5
0.659988403320313,-0.116415247321129,2.9187695980072,1.19337344169617,-0.114934715429503,2.91636318329238,1.21355870878373,2150.811,2178.142,2213.135,2183.96,356.481140136719,44.9743843078613,1.28021252155304,-0.230015471577644,-0.0998586118221283,0.225716441869736,-0.231565018351745,-0.0996359582190702,0.141459456210227,5
0.67999267578125,-0.121253475546837,2.91666150093079,1.19797575473785,-0.119686638739014,2.91431856344567,1.2164615845812,2160.762,2175.778,2200.548,2182.522,356.453216552734,44.976318359375,1.30303537845612,-0.241911306977272,-0.105410486459732,0.230115234851837,-0.243554411173546,-0.104794659005432,0.14878358919428,5
0.699996948242188,-0.126331925392151,2.91444206237793,1.20266258716583,-0.124680083855354,2.91217002351282,1.2195120022816,2180.548,2176.534,2177.803,2180.303,356.442779541016,44.9782829284668,1.32392358779907,-0.253923088312149,-0.110969856381416,0.234340161085129,-0.255710395848158,-0.11002503961202,0.1562094905416,5
0.719985961914063,-0.13165208697319,2.91211199760437,1.20743238925934,-0.129914195341611,2.90991793156443,1.22270943931186,2194.425,2177.205,2161.61,2179.471,356.43115234375,44.9800643920898,1.34356832504272,-0.266008347272873,-0.116500928997993,0.238491430878639,-0.2680137084949,-0.11531881132915,0.163725392248088,5
0.739990234375,-0.137215465307236,2.90967178344727,1.21228432655334,-0.135400001298574,2.90755754251682,1.22606063256665,2195.395,2177.21,2159.696,2179.357,356.405059814453,44.9815444946289,1.36231303215027,-0.278168678283691,-0.122010588645935,0.242598071694374,-0.280473432677602,-0.12067988256057,0.171336843321139,5
0.759994506835938,-0.143024206161499,2.90712094306946,1.21721732616425,-0.14113644597991,2.90508931062815,1.22956493710703,2187.716,2178.353,2167.66,2178.314,356.36328125,44.9826545715332,1.38060867786407,-0.2904372215271,-0.127536714076996,0.246651977300644,-0.293070637251543,-0.126100107763583,0.179032279019858,5
0.779998779296875,-0.149081364274025,2.90445852279663,1.22223210334778,-0.147126184485884,2.90251209348295,1.2332239748923,2173.188,2177.91,2184,2178.735,356.312652587891,44.9836502075195,1.39874792098999,-0.302856951951981,-0.133121609687805,0.250737547874451,-0.305795832832518,-0.131575403921268,0.186805902427515,5
0.79998779296875,-0.155390337109566,2.90168285369873,1.22732925415039,-0.153366821193532,2.89982692185086,1.23703628247379,2162.377,2177.412,2197.438,2179.353,356.266815185547,44.9847602844238,1.41626441478729,-0.315449595451355,-0.138787820935249,0.254855990409851,-0.318629798715703,-0.137097500901303,0.194645971915464,5
0.819992065429688,-0.161954417824745,2.8987922668457,1.23251008987427,-0.159870162197751,2.89702871589906,1.24100907201063,2159.639,2176.807,2203.092,2180.629,356.236389160156,44.9861145019531,1.43239104747772,-0.32820400595665,-0.144525960087776,0.259040743112564,-0.33158286215529,-0.142670842232658,0.202558796242139,5
0.839996337890625,-0.168775960803032,2.89578628540039,1.23777556419373,-0.166633637018892,2.89411858163313,1.24514077323692,2170.051,2179.03,2194.824,2180.663,356.22509765625,44.9875984191895,1.446861743927,-0.341077119112015,-0.150300562381744,0.263271063566208,-0.344636106234817,-0.148287288494656,0.210532819358465,5
0.860000610351563,-0.175856411457062,2.89266490936279,1.24312818050385,-0.173659158941841,2.89109569582005,1.24943255494854,2183.217,2180.795,2183.619,2182.171,356.224700927734,44.9891090393066,1.45998907089233,-0.354022890329361,-0.15607076883316,0.26763254404068,-0.357780475378537,-0.153942943326036,0.218562509354528,5
0.879989624023438,-0.183196619153023,2.88942861557007,1.24857044219971,-0.18094280014554,2.88796174849148,1.2538820177009,2193.903,2182.949,2174.98,2183.595,356.224487304688,44.9904594421387,1.47193038463593,-0.367009937763214,-0.161812350153923,0.272111088037491,-0.370996904517929,-0.159629603560431,0.226636219677473,5
0.899993896484375,-0.190797343850136,2.88607811927795,1.25410509109497,-0.18849723509595,2.8847112861788,1.25849690412748,2195.634,2184.176,2175.989,2185.592,356.215972900391,44.9915771484375,1.48275876045227,-0.380036473274231,-0.167528539896011,0.276730984449387,-0.384296738353309,-0.165352150505452,0.234760880627692,5
0.919998168945313,-0.198659688234329,2.88261318206787,1.25973415374756,-0.196318384305134,2.8813460641717,1.26327472213274,2193.646,2187.006,2180.929,2186.119,356.198791503906,44.992374420166,1.4927773475647,-0.393117874860764,-0.173241659998894,0.281451255083084,-0.397661187980262,-0.171102499820431,0.242925014356675,5
0.939987182617188,-0.206785261631012,2.87903356552124,1.26546096801758,-0.204401181418416,2.87786826238106,1.26821237675968,2186.025,2188.076,2192.337,2187.983,356.176025390625,44.9930534362793,1.50238645076752,-0.406278252601624,-0.178977236151695,0.286342322826385,-0.411071375662203,-0.176872528942697,0.25111708874972,5
0.959991455078125,-0.215175837278366,2.87533855438232,1.27128875255585,-0.212759000778906,2.87427212620069,1.27331803818581,2178.743,2188.12,2203.884,2190.293,356.156005859375,44.9937934875488,1.5110445022583,-0.419529914855957,-0.184749945998192,0.291391938924789,-0.424539267042903,-0.182667386354485,0.259344413431889,5
0.979995727539063,-0.223833039402962,2.87152743339539,1.27721977233887,-0.22138664033507,2.87055989392801,1.27858852855901,2180.903,2190.53,2205.322,2190.982,356.147094726563,44.9945945739746,1.51847660541534,-0.432860434055328,-0.19055387377739,0.296550840139389,-0.438046240701377,-0.188479059778567,0.267595612867683,5
1,-0.232757925987244,2.86760020256042,1.28325760364532,-0.230284798736574,2.86673126495361,1.28402427467346,2186.677,2191.94,2202.933,2193.061,356.14892578125,44.9955062866211,1.52481985092163,-0.446244031190872,-0.196366623044014,0.301892787218094,-0.451584000205995,-0.194303979492187,0.275865618896484,5
1.01998901367188,-0.241950899362564,2.86355686187744,1.28940534591675,-0.239446912293295,2.86278906344998,1.2896212668733,2195.273,2193.761,2197.305,2194.911,356.157897949219,44.9964218139648,1.5298935174942,-0.45964914560318,-0.202163144946098,0.307387322187424,-0.46513400752272,-0.200134169097193,0.284143106922576,5
1.03999328613281,-0.251411974430084,2.85939836502075,1.29566621780396,-0.248887339851819,2.85872711120656,1.29538827675384,2200.561,2194.909,2195.007,2197.172,356.167785644531,44.9972610473633,1.53351604938507,-0.473055392503738,-0.207929059863091,0.313045531511307,-0.478708875293167,-0.205975055460915,0.292435781811908,5
1.05999755859375,-0.261141031980515,2.85512518882751,1.30204248428345,-0.258599401509697,2.85454828239877,1.3013212236669,2205.837,2198.253,2192.146,2197.665,356.175201416016,44.9978370666504,1.53597867488861,-0.486453205347061,-0.213664129376411,0.318812161684036,-0.492290296490434,-0.211818761581115,0.30073246008742,5
1.07998657226563,-0.271138072013855,2.85073757171631,1.30853760242462,-0.268575430648764,2.85025587575821,1.30741542419509,2204.154,2199.689,2196.732,2199.55,356.176635742188,44.998218536377,1.53790032863617,-0.499850273132324,-0.219379380345345,0.324755996465683,-0.50586005237609,-0.217657448443621,0.309022012206103,5
1.09999084472656,-0.281403213739395,2.84623575210571,1.31515455245972,-0.278830554044452,2.84584338265603,1.31368011904947,2198.243,2199.836,2206.002,2201.724,356.174774169922,44.9985656738281,1.53895592689514,-0.513258576393127,-0.225090384483337,0.330849677324295,-0.519431110871131,-0.223496695782555,0.317312360068532,5
1.1199951171875,-0.291936844587326,2.84161972999573,1.32189512252808,-0.289357002179081,2.84131414609862,1.32011056195293,2197.421,2202.161,2209.594,2202.041,356.176361083984,44.9988403320313,1.53907382488251,-0.526679992675781,-0.230805799365044,0.337030649185181,-0.532985466132485,-0.229328756186667,0.32559250418615,5
1.13999938964844,-0.302738964557648,2.83688926696777,1.32876253128052,-0.300154365346813,2.83666834237095,1.32670650262257,2197.2,2202.829,2212.63,2203.845,356.183258056641,44.999195098877,1.53846752643585,-0.540108382701874,-0.236521378159523,0.34337055683136,-0.546515580872639,-0.235150386571708,0.333857840147634,5
1.15998840332031,-0.313809454441071,2.83204483985901,1.33575904369354,-0.31121353909136,2.83190988886621,1.33346237928811,2200.369,2203.766,2211.893,2205.226,356.196990966797,44.9996032714844,1.5368332862854,-0.553525328636169,-0.242224261164665,0.349823921918869,-0.560003743914979,-0.240953966313175,0.342097548471566,6
1.17999267578125,-0.325147688388824,2.82708692550659,1.34288704395294,-0.322550701230474,2.8270318247214,1.34038807472597,2203.275,2203.859,2211.241,2207.147,356.215789794922,45.0000648498535,1.53375101089478,-0.566911995410919,-0.247900247573853,0.356402277946472,-0.573463232144024,-0.246745208083563,0.350319739799517,6
1.19999694824219,-0.336752623319626,2.82201623916626,1.35014772415161,-0.334156660511822,2.8220381046756,1.34747797414352,2210.358,2206.72,2205.423,2206.925,356.238098144531,45.0003776550293,1.52936935424805,-0.580247163772583,-0.253538191318512,0.363034129142761,-0.58687652428584,-0.252516572968185,0.358513710658656,6
1.21998596191406,-0.348623126745224,2.81683349609375,1.35754370689392,-0.34602126278068,2.81693309777792,1.3547258745261,2212.361,2207.722,2204.831,2208.252,356.258209228516,45.0005569458008,1.52434194087982,-0.593523740768433,-0.259134650230408,0.369796931743622,-0.600226348268632,-0.258260629277074,0.366668909809849,6
1.239990234375,-0.360757946968079,2.81153964996338,1.3650768995285,-0.358161486344149,2.81170949873715,1.36214214765657,2209.448,2207.42,2209.435,2209.878,356.275024414063,45.0006866455078,1.51839792728424,-0.606743335723877,-0.264695852994919,0.376657783985138,-0.613526094901141,-0.263983138701136,0.374793517489195,6
1.25999450683594,-0.373156100511551,2.80613493919373,1.37274777889252,-0.3705671011502,2.80637170925886,1.36972054415578,2209.525,2209.469,2210.421,2209.401,356.291870117188,45.0006828308105,1.51161694526672,-0.619907259941101,-0.27023047208786,0.383544027805328,-0.626758665639206,-0.269676744214496,0.382877088462885,6
1.27999877929688,-0.385816484689713,2.80062007904053,1.38055837154388,-0.383236695417198,2.80092033679326,1.37746020158837,2206.852,2209.504,2214.407,2210.502,356.30908203125,45.0006866455078,1.50439357757568,-0.633018255233765,-0.275742530822754,0.390531629323959,-0.639917282339435,-0.275338529371412,0.39091548206889,6
1.29998779296875,-0.398737877607346,2.79499554634094,1.38850975036621,-0.396158759015336,2.79536033382764,1.38535408859565,2205.862,2209.482,2216.508,2211.246,356.32958984375,45.000732421875,1.49642324447632,-0.646071076393127,-0.281230896711349,0.397571891546249,-0.652985332144132,-0.280961346123326,0.398898549771684,6
1.31999206542969,-0.411919057369232,2.78926181793213,1.39660310745239,-0.409351342777246,2.78968393359302,1.39341323214959,2204.693,2208.482,2218.738,2212.466,356.354827880859,45.0008697509766,1.48717331886292,-0.659055769443512,-0.286689281463623,0.404670685529709,-0.665976209205206,-0.286550957599616,0.406834473849655,6
1.33999633789063,-0.425358027219772,2.78341960906982,1.40483808517456,-0.422802873722428,2.78389611561957,1.401630562497,2210.142,2210.538,2213.254,2211.353,356.38623046875,45.0009269714355,1.47670161724091,-0.671952426433563,-0.292106956243515,0.411751836538315,-0.678873453515705,-0.29210028151913,0.41471319914141,6
1.36000061035156,-0.439052999019623,2.77747011184692,1.41321611404419,-0.436511415158101,2.77799771321212,1.41000489654248,2212.648,2210.746,2210.709,2211.942,356.419006347656,45.0009536743164,1.46563279628754,-0.684747815132141,-0.297473758459091,0.418900996446609,-0.691670720740693,-0.297606588091785,0.422530849991739,6
1.37998962402344,-0.453001648187637,2.77141427993774,1.42173755168915,-0.450464156928423,2.77199423822282,1.41852840876173,2213.613,2210.759,2209.585,2212.233,356.450958251953,45.0009307861328,1.45393240451813,-0.697433769702911,-0.302786499261856,0.426069140434265,-0.704352136620515,-0.303063047067127,0.430277729063129,6
1.39999389648438,-0.467201858758926,2.76525330543518,1.4304027557373,-0.464680216184654,2.76587746507559,1.42721277752413,2210.167,2209.453,2213.118,2213.054,356.481109619141,45.0008926391602,1.4412522315979,-0.710011184215546,-0.308048993349075,0.433260887861252,-0.716930938559026,-0.308475354130225,0.437961922879032,6
1.41999816894531,-0.481651425361633,2.75898790359497,1.43921065330505,-0.47914673136562,2.75965292774086,1.43605014590267,2210.934,2210.948,2211.645,2211.521,356.512542724609,45.0007171630859,1.4276967048645,-0.722477197647095,-0.313266098499298,0.440397053956985,-0.729391385793766,-0.313836736470737,0.445573815653291,6
1.43998718261719,-0.496348023414612,2.75261902809143,1.44816195964813,-0.49384995777978,2.75332654017544,1.44503211747976,2208.587,2210.328,2213.498,2211.779,356.544311523438,45.000560760498,1.4137852191925,-0.734831690788269,-0.31843900680542,0.447565376758575,-0.741718206886022,-0.319140623215221,0.4531040783023,6
1.45999145507813,-0.511289417743683,2.74614763259888,1.45725655555725,-0.508809800712713,2.74688973769103,1.45417085208374,2204.951,2208.504,2216.763,2212.399,356.578247070313,45.00048828125,1.39898455142975,-0.747070848941803,-0.323566973209381,0.45473039150238,-0.753924423002454,-0.324392617007921,0.460560665253582,6
1.47999572753906,-0.526473045349121,2.73957467079163,1.46649277210236,-0.524012471663969,2.74034845309416,1.46345792653486,2207.993,2209.701,2212.455,2210.579,356.617401123047,45.0003623962402,1.38330101966858,-0.759182214736938,-0.328644812107086,0.461811602115631,-0.765994882555672,-0.329586198544069,0.467934320638836,6
1.5,-0.541896164417267,2.73290133476257,1.47587084770203,-0.539455198877605,2.73370387899399,1.47289164761066,2208.575,2208.875,2210.686,2210.638,356.658477783203,45.0002632141113,1.36721587181091,-0.771155953407288,-0.33366397023201,0.468902260065079,-0.777924000354858,-0.334718964672088,0.475221632552146,6
1.51998901367188,-0.557555794715881,2.72612905502319,1.48538982868195,-0.555123050061237,2.72696244033876,1.48246289340675,2208.981,2208.088,2208.947,2210.247,356.700500488281,45.0001640319824,1.35054564476013,-0.782983005046844,-0.33861917257309,0.475947558879852,-0.789697369743256,-0.339784716610053,0.482413800191712,6
1.53999328613281,-0.573449075222015,2.7192587852478,1.49504899978638,-0.571036956668503,2.72011513090874,1.49218445062151,2205.931,2206.046,2210.805,2210.518,356.742523193359,45.0000953674316,1.33283460140228,-0.794660329818726,-0.343509793281555,0.482960283756256,-0.801327600455846,-0.344788879974649,0.489518526647862,6
1.55999755859375,-0.589572608470917,2.71229195594788,1.50484609603882,-0.587181951496087,2.71316839067337,1.50204717602401,2207.832,2207.231,2206.9,2208.108,356.786682128906,44.9998893737793,1.31425094604492,-0.806180536746979,-0.348336637020111,0.489853292703629,-0.812800388649436,-0.349725300221754,0.496527073925997,6
1.57998657226563,-0.605923414230347,2.70522999763489,1.51478064060211,-0.603542258451077,2.7061290076447,1.51204143224525,2205.907,2206.192,2206.992,2207.765,356.830413818359,44.9996795654297,1.29544055461884,-0.817541897296906,-0.35309886932373,0.49672994017601,-0.82410201904291,-0.354588076049064,0.503431063574906,6
1.59999084472656,-0.622498333454132,2.69807410240173,1.52485167980194,-0.620139554045575,2.69898765502515,1.52218046112824,2201.491,2203.767,2209.806,2207.912,356.874664306641,44.9995422363281,1.27589046955109,-0.828742980957031,-0.35779732465744,0.503554046154022,-0.835244706287931,-0.359382463079953,0.510237957334684,5
1.6199951171875,-0.639293730258942,2.69082546234131,1.53505647182465,-0.636958033083316,2.69175113334911,1.53245460752521,2203.272,2204.503,2205.701,2205.388,356.922546386719,44.9993324279785,1.25565242767334,-0.839776039123535,-0.362430721521378,0.510237693786621,-0.846214826007804,-0.364102599125749,0.516939432286212,5
1.63999938964844,-0.656306564807892,2.68348550796509,1.5453941822052,-0.653994195024907,2.68442094880091,1.54286173301126,2202.087,2203.087,2204.706,2204.925,356.971496582031,44.9991569519043,1.23523259162903,-0.850635945796967,-0.366993933916092,0.516884922981262,-0.857007552155828,-0.368746407673381,0.523532540272869,5
1.65998840332031,-0.673532903194427,2.67605590820313,1.55586302280426,-0.67123120513297,2.67700434489773,1.55339155350804,2201.104,2201.625,2203.449,2204.087,357.021606445313,44.9990119934082,1.21438539028168,-0.861316859722137,-0.371483683586121,0.523440957069397,-0.867610144209785,-0.373308406832068,0.530009498308446,5
1.67999267578125,-0.690969228744507,2.66853785514832,1.56646144390106,-0.688691692550512,2.66949158495151,1.56405789280588,2197.386,2198.984,2205.071,2203.908,357.07275390625,44.9989395141602,1.19255900382996,-0.871815502643585,-0.375898361206055,0.529918611049652,-0.878034183119987,-0.377793579561193,0.536377381014768,5
1.69999694824219,-0.708611607551575,2.66093301773071,1.57718598842621,-0.706358800111611,2.66188992212981,1.57485045312518,2199.802,2199.818,2199.769,2200.876,357.127258300781,44.9987373352051,1.16993129253387,-0.88212251663208,-0.380236059427261,0.536228477954865,-0.888267004546665,-0.382196476749158,0.542628451944297,5
1.71998596191406,-0.726456224918365,2.65324306488037,1.58803570270538,-0.724214951560321,2.65420691900456,1.58575849740545,2198.418,2198.364,2198.385,2200.142,357.181762695313,44.9985466003418,1.1471643447876,-0.892233490943909,-0.384492814540863,0.542485654354095,-0.898296635743475,-0.386511946857687,0.54875539713312,5
1.739990234375,-0.744499266147614,2.64546966552734,1.59900867938995,-0.74228345468553,2.64643254688532,1.59679626401121,2194.103,2195.542,2200.196,2199.906,357.236267089844,44.998420715332,1.12373638153076,-0.902146339416504,-0.388668298721313,0.548651397228241,-0.908134108040217,-0.390744736359816,0.554764955448471,5
1.75999450683594,-0.762736320495605,2.63761448860168,1.61010134220123,-0.760546715064628,2.63857437616062,1.60795300478424,2195.732,2195.984,2195.465,2196.864,357.29345703125,44.9982070922852,1.09974884986877,-0.911855340003967,-0.392762452363968,0.554635584354401,-0.917767514700581,-0.394889722119545,0.560649853250941,4
1.77999877929688,-0.781163454055786,2.62967896461487,1.62131237983704,-0.779000609654483,2.63063418086074,1.61922620102184,2193.608,2194.158,2194.65,2196.084,357.350494384766,44.9980239868164,1.07571697235107,-0.921357989311218,-0.396772444248199,0.560552000999451,-0.927192788821983,-0.398945154262308,0.566407606133204,4
1.79998779296875,-0.799776494503021,2.62166500091553,1.63263916969299,-0.797626646773287,2.62261991743975,1.63060455644414,2191.473,2192.365,2193.885,2194.81,357.408020019531,44.9978675842285,1.05140566825867,-0.930651962757111,-0.400697380304337,0.566340386867523,-0.936399026186941,-0.402906341007953,0.572031552878955,4
1.81999206542969,-0.818571269512177,2.61357426643372,1.64407956600189,-0.816448984455027,2.61452119137054,1.64210282881713,2186.66,2189.265,2195.953,2194.404,357.466613769531,44.997802734375,1.02622032165527,-0.939736664295197,-0.404537439346313,0.572022318840027,-0.945396434568188,-0.406777674475912,0.57752792925727,3
1.83999633789063,-0.837543308734894,2.60540843009949,1.65562963485718,-0.835449117627072,2.60634596486888,1.6537097136807,2188.936,2189.787,2190.261,2190.94,357.529266357422,44.9976348876953,1.00032496452332,-0.948603272438049,-0.408290565013885,0.577500939369202,-0.954174163352093,-0.410554485950274,0.582890106797601,3
1.8599853515625,-0.85668820142746,2.59716939926147,1.66728758811951,-0.854607925216182,2.59810246519841,1.66541353026959,2187.682,2188.041,2188.152,2189.918,357.592529296875,44.9974632263184,0.974373638629913,-0.957245528697968,-0.411950558423996,0.582900583744049,-0.962722140342816,-0.41423244164655,0.588111932552683,0
1.87998962402344,-0.876001417636871,2.58885908126831,1.67905128002167,-0.873950157556149,2.58978004298193,1.67722939817649,2183.596,2184.934,2189.128,2189.456,357.655975341797,44.9973907470703,0.947815001010895,-0.965660452842712,-0.415515601634979,0.588183104991913,-0.971049893464309,-0.417815641164241,0.593199226982579,0
1.89999389648438,-0.895478188991547,2.58047938346863,1.69091629981995,-0.893456683142228,2.58138692997148,1.6891456302637,2185.633,2185.231,2183.509,2185.986,357.721893310547,44.9971961975098,0.92081207036972,-0.973842442035675,-0.418985158205032,0.593253493309021,-0.979147395688901,-0.421299770153459,0.598145864732551,0
1.91999816894531,-0.915113985538483,2.57203221321106,1.70288097858429,-0.913122862707269,2.57292512231409,1.7011593924753,2183.263,2183.153,2182.41,2185.028,357.786865234375,44.9970436096191,0.893894672393799,-0.981789827346802,-0.422356575727463,0.598237037658691,-0.987011339258123,-0.424683405378145,0.60294982514457,0
1.93998718261719,-0.934904038906097,2.56351947784424,1.71494233608246,-0.932928814964021,2.56440317437226,1.71325853964316,2180.547,2181.076,2181.781,2183.568,357.851440429688,44.9969139099121,0.866799294948578,-0.989502847194672,-0.425630956888199,0.60306978225708,-0.994632798067981,-0.427962706185118,0.607605655400993,0
1.95999145507813,-0.954843699932098,2.55494332313538,1.72709774971008,-0.952900013794853,2.55581012544606,1.7254586333645,2174.863,2177.759,2184.286,2182.955,357.916564941406,44.996883392334,0.838898122310638,-0.996983170509338,-0.428810268640518,0.60777360200882,-1.00202031904361,-0.431141350077486,0.612118576685011,0
1.97999572753906,-0.974928200244904,2.54630541801453,1.73934280872345,-0.973016570682103,2.54715453300902,1.73774752405424,2176.776,2178.097,2178.655,2179.185,357.98583984375,44.9967193603516,0.81039297580719,-1.00422430038452,-0.431893706321716,0.612250924110413,-1.00916501115878,-0.434215511495054,0.616483157607448,0
2,-0.995152592658997,2.5376079082489,1.75167548656464,-0.993273599084619,2.53843849960327,1.75012222660065,2175.279,2176.14,2176.419,2178.023,358.055938720703,44.99658203125,0.781919300556183,-1.01121962070465,-0.434874713420868,0.616633832454681,-1.01606400046349,-0.437183953857422,0.620697642517089,0
2.01998901367188,-1.01551187038422,2.52885293960571,1.76409268379211,-1.01365055070775,2.52967086658596,1.76257018837116,2173.979,2174.157,2174.099,2176.415,358.126556396484,44.9964828491211,0.753327369689941,-1.01796531677246,-0.437750339508057,0.620858550071716,-1.02270954399163,-0.440043345582587,0.624757301356767,0
2.03999328613281,-1.03600108623505,2.52004265785217,1.77659165859222,-1.03417354141348,2.52084039703127,1.77510736313833,2169.252,2170.81,2175.387,2175.785,358.197204589844,44.9964599609375,0.724037408828735,-1.02446091175079,-0.440520107746124,0.624949336051941,-1.02910913225408,-0.442796909628122,0.628666709962695,0
2.05999755859375,-1.05661523342133,2.51117897033691,1.78916776180267,-1.05482201812353,2.5119559343546,1.78772119534738,2171.306,2171.078,2169.502,2171.902,358.270568847656,44.9963035583496,0.694285333156586,-1.03070175647736,-0.443184405565262,0.628803670406342,-1.03525504859546,-0.445441325732794,0.632421154350513,0
2.07998657226563,-1.07734882831573,2.50226426124573,1.80181896686554,-1.07557499515204,2.50302650811029,1.80039886517028,2168.928,2168.97,2168.025,2170.754,358.343139648438,44.9961776733398,0.664671063423157,-1.03668475151062,-0.445739656686783,0.632558643817902,-1.04114045847258,-0.4479736531836,0.636016459404434,0
2.09999084472656,-1.09819710254669,2.49330043792725,1.81454241275787,-1.09645901288412,2.49404069871208,1.81315658571413,2163.596,2165.554,2169.782,2170.134,358.415313720703,44.9961471557617,0.634557485580444,-1.04241132736206,-0.44818714261055,0.636170744895935,-1.04677201701582,-0.450396755497224,0.639456690639761,0
2.1199951171875,-1.11915469169617,2.48428988456726,1.8273332118988,-1.11745308225396,2.48500753716864,1.82598153508617,2165.131,2165.621,2164.435,2166.273,358.490203857422,44.9960098266602,0.604139566421509,-1.04787874221802,-0.450528055429459,0.639541268348694,-1.0521429102862,-0.45270770082608,0.642737685527497,0
2.13999938964844,-1.14021635055542,2.47523474693298,1.84018933773041,-1.138551967509,2.47592927627801,1.83887051484687,2162.712,2163.323,2162.976,2165.198,358.564788818359,44.9959030151367,0.573901295661926,-1.05308389663696,-0.452758193016052,0.642808973789215,-1.05725102347782,-0.454905579228273,0.645858152165725,0
2.15998840332031,-1.161376953125,2.46613717079163,1.85310745239258,-1.15973418543027,2.46681515966915,1.85181040123298,2160.476,2161.104,2161.507,2163.531,358.639495849609,44.9958457946777,0.543574273586273,-1.05802655220032,-0.454877257347107,0.645903766155243,-1.06209075728,-0.456987981476842,0.64881467002292,0
2.17999267578125,-1.18263101577759,2.4569993019104,1.86608457565308,-1.18102676265167,2.45765355853653,1.86481770439342,2155.171,2157.662,2163.209,2162.838,358.714660644531,44.9958763122559,0.512504875659943,-1.06270730495453,-0.456885665655136,0.648853480815887,-1.06666760390386,-0.458957270716794,0.65161059420515,0
2.19999694824219,-1.20397353172302,2.44782376289368,1.87911558151245,-1.20240821395574,2.44845371736898,1.8778792993441,2157.52,2157.968,2156.987,2158.674,358.793334960938,44.9957542419434,0.481006741523743,-1.06712114810944,-0.458783328533173,0.651552081108093,-1.07097597819164,-0.460811043810786,0.654242512826705,0
2.21998596191406,-1.22539865970612,2.43861246109009,1.89219856262207,-1.22385674836213,2.4392250122166,1.89098187431519,2155.791,2155.801,2154.666,2157.56,358.871826171875,44.9956588745117,0.449682205915451,-1.07126235961914,-0.460564136505127,0.65414971113205,-1.07501122224684,-0.462547296596067,0.65670758045128,0
2.239990234375,-1.24690127372742,2.429368019104,1.90533041954041,-1.24539969505118,2.42995568409656,1.90414212427648,2150.998,2152.445,2155.705,2156.84,358.949768066406,44.9956588745117,0.417912930250168,-1.07513105869293,-0.46222797036171,0.656593978404999,-1.07877792518082,-0.464168003639063,0.659008600495412,0
2.25999450683594,-1.26847577095032,2.42009258270264,1.91850614547729,-1.26701526177039,2.4206551096063,1.91734673668097,2152.952,2152.445,2149.918,2152.889,359.029815673828,44.9955444335938,0.385956197977066,-1.07872605323792,-0.463776558637619,0.658789396286011,-1.08227143928024,-0.465671165158559,0.661142733743536,0
2.27999877929688,-1.29011678695679,2.41078853607178,1.93172371387482,-1.28869796983554,2.41132564607061,1.93059236468599,2150.246,2150.127,2148.643,2151.791,359.108520507813,44.9954605102539,0.354278653860092,-1.0820449590683,-0.46520659327507,0.660876870155334,-1.08549040888332,-0.467056197851165,0.663109152043028,0
2.29998779296875,-1.31181871891022,2.40145778656006,1.944979429245,-1.31042570636616,2.40197680804417,1.9438654998779,2147.392,2147.829,2147.743,2150.126,359.1865234375,44.9954071044922,0.322601407766342,-1.08509087562561,-0.466520339250565,0.66278600692749,-1.08843144721369,-0.468321644481621,0.664905786465049,0
2.31999206542969,-1.33357608318329,2.39210367202759,1.95827031135559,-1.33222611841886,2.3925966997709,1.95718303141218,2141.432,2144.443,2150.007,2149.375,359.264678955078,44.9954681396484,0.290262907743454,-1.08786654472351,-0.467719882726669,0.664543151855469,-1.09109790637238,-0.469468947365361,0.666534684755819,0
2.33999633789063,-1.35538327693939,2.38272762298584,1.97159123420715,-1.35407709248145,2.38319483607731,1.97053145048929,2143.692,2144.542,2143.949,2145.279,359.346618652344,44.9953842163086,0.257569342851639,-1.09036898612976,-0.468806028366089,0.666046977043152,-1.09348640563071,-0.470496651869278,0.667993781680938,0
2.3599853515625,-1.37723505496979,2.37333226203918,1.98494005203247,-1.37595634130987,2.37378080654189,1.98389714217962,2142.087,2142.519,2141.488,2143.984,359.428680419922,44.9953079223633,0.225113585591316,-1.09259045124054,-0.469771474599838,0.667439699172974,-1.09559452046326,-0.471403714787811,0.669281596135657,0
2.37998962402344,-1.39912581443787,2.36391997337341,1.99831366539001,-1.39789168475144,2.36434264106153,1.9972971011938,2137.645,2139.099,2142.09,2143.419,359.510437011719,44.9953384399414,0.192272394895554,-1.09453117847443,-0.470615327358246,0.668682634830475,-1.09742465646102,-0.47219117117957,0.670399597657984,0
2.39999389648438,-1.42104935646057,2.35449314117432,2.01170706748962,-1.41986083522252,2.35488992936084,2.01071771239474,2140.058,2139.098,2135.968,2139.335,359.594177246094,44.9952430725098,0.159330919384956,-1.09619045257568,-0.471338927745819,0.669667184352875,-1.09897439291323,-0.472857979480329,0.671346307473475,0
2.41999816894531,-1.44300079345703,2.34505438804626,2.02511787414551,-1.44185817738692,2.34542508756209,2.02415554546122,2137.6,2136.848,2134.421,2138.234,359.676147460938,44.995189666748,0.126757353544235,-1.0975649356842,-0.471938610076904,0.670543491840363,-1.10024313330221,-0.473403883025206,0.672121361178802,0
2.43998718261719,-1.46497392654419,2.33560609817505,2.03854274749756,-1.46386128162322,2.33595776650478,2.03759689848751,2134.628,2134.497,2133.653,2136.665,359.756683349609,44.995174407959,0.0942616984248161,-1.09865987300873,-0.472417682409286,0.671241581439972,-1.10122974390336,-0.473828394004169,0.672724066199287,0
2.45999145507813,-1.48696351051331,2.32615041732788,2.05197834968567,-1.48589810917879,2.32647593524532,2.05105885256329,2128.453,2131.147,2136.109,2135.967,359.836791992188,44.9952583312988,0.0611370168626308,-1.09947955608368,-0.472779721021652,0.671784818172455,-1.10193535162022,-0.474131997292339,0.673155110942729,0
2.47999572753906,-1.50896382331848,2.31668996810913,2.06541967391968,-1.50794623031618,2.31698924467309,2.06452770571198,2130.264,2131.334,2130.667,2131.708,359.920288085938,44.9951858520508,0.0277725141495466,-1.1000235080719,-0.473027288913727,0.672068178653717,-1.10235882472314,-0.474314205938057,0.673413804053135,0
2.5,-1.53096961975098,2.30722689628601,2.07886457443237,-1.52999999932945,2.30750012397766,2.0780000090599,2128.546,2129.256,2128.332,2130.592,0.00394830340519547,44.9951362609863,-0.0052756848745048,-1.10028398036957,-0.47315326333046,0.672247171401978,-1.10250000050292,-0.474374949932098,0.673500046133994,0
2.51998901367188,-1.55297493934631,2.29776382446289,2.09230947494507,-1.5520369476803,2.29801824074336,2.09146203692764,2127.127,2127.132,2126.01,2128.895,0.0875202491879463,44.9951133728027,359.961822509766,-1.10026168823242,-0.473156452178955,0.672245979309082,-1.10235904000526,-0.474314298567936,0.67341393556562,0
2.53999328613281,-1.5749739408493,2.28830289840698,2.10575127601624,-1.57408507527774,2.28853154739156,2.10493089402267,2122.382,2123.832,2127.021,2128.289,0.170601069927216,44.9951934814453,359.928436279297,-1.09995758533478,-0.47303706407547,0.672095477581024,-1.10193578218388,-0.474132182551855,0.673155373967352,0
2.55999755859375,-1.59696137905121,2.27884721755981,2.11918497085571,-1.59612191359838,2.27904971150017,2.11839285467467,2124.784,2124.013,2121.124,2124.007,0.255724459886551,44.9951210021973,359.894989013672,-1.09937250614166,-0.472797721624374,0.671683430671692,-1.10123038958312,-0.473828671822132,0.672724460634977,0
2.57998657226563,-1.61893129348755,2.26939845085144,2.13260841369629,-1.61812503288753,2.26958238396605,2.1318342168965,2122.523,2121.776,2119.395,2123.113,0.339238792657852,44.9950828552246,359.861877441406,-1.09850132465363,-0.472433686256409,0.67117315530777,-1.1002439936861,-0.473404253224357,0.672121886773894,0
2.59999084472656,-1.6408783197403,2.25995945930481,2.14601850509644,-1.64012239440973,2.26011753383818,2.14527206178836,2117.056,2118.577,2121.117,2122.473,0.421377301216125,44.9951591491699,359.828521728516,-1.09734952449799,-0.471948266029358,0.670502960681915,-1.09897546783438,-0.47285844198887,0.671346964126033,0
2.6199951171875,-1.66279673576355,2.25053262710571,2.15940999984741,-1.66209156852628,2.2506648119635,2.15869268743396,2118.684,2118.486,2116.099,2118.47,0.505303859710693,44.9950981140137,359.795166015625,-1.09592080116272,-0.47134593129158,0.669578373432159,-1.09742594550583,-0.472191725819537,0.67040038511534,0
2.63999938964844,-1.68468105792999,2.24112010002136,2.17278099060059,-1.68402693989188,2.24122663446822,2.17209266350648,2116.124,2116.289,2114.776,2117.523,0.588094532489777,44.9950790405273,359.762268066406,-1.09421038627625,-0.470622092485428,0.668549120426178,-1.09559602313537,-0.471404361345641,0.669282514094601,0
2.65998840332031,-1.70652556419373,2.23172450065613,2.18612766265869,-1.70590622088595,2.23181259109281,2.18545837484632,2113.833,2114.183,2113.503,2115.877,0.670293688774109,44.9950981140137,359.7294921875,-1.09222304821014,-0.469778835773468,0.667338669300079,-1.09348812118877,-0.470497390025984,0.667994829688588,0
2.67999267578125,-1.72832477092743,2.2223482131958,2.19944739341736,-1.72775723139253,2.2224107117184,2.19880681618649,2108.721,2111.038,2114.968,2115.32,0.752347826957703,44.9952087402344,359.696258544922,-1.08996081352234,-0.468817293643951,0.665981233119965,-1.09109983431736,-0.469469776906228,0.666535862507326,0
2.69999694824219,-1.75007331371307,2.21299338340759,2.21273469924927,-1.74955768413056,2.21303058593937,2.21212437257479,2111.322,2111.175,2109.112,2111.14,0.837151527404785,44.9951629638672,359.662994384766,-1.08742463588715,-0.467739790678024,0.664366960525513,-1.08843358680109,-0.468322565086308,0.664907093505606,0
2.71998596191406,-1.77176547050476,2.20366263389587,2.22598767280579,-1.77128546553625,2.20368172860443,2.22539753518019,2109.749,2109.225,2106.826,2110.141,0.920982718467712,44.9951210021973,359.630157470703,-1.08460628986359,-0.466539114713669,0.662653207778931,-1.08549275912543,-0.467057209094684,0.663110587769255,0
2.739990234375,-1.79339575767517,2.19435834884644,2.23920345306396,-1.79296822271738,2.1943522439355,2.23864319318939,2105.267,2106.122,2107.652,2109.678,1.00352919101715,44.9951972961426,359.597106933594,-1.08151018619537,-0.465216994285583,0.660789906978607,-1.08227399942825,-0.465672266718727,0.661144297698006,0
2.75999450683594,-1.81495845317841,2.18508291244507,2.25237703323364,-1.81458384274179,2.18505164650952,2.2518478381572,2107.346,2106.054,2102.47,2105.704,1.08712458610535,44.9951477050781,359.564270019531,-1.07814121246338,-0.463777959346771,0.658673882484436,-1.07878069424208,-0.464169195088763,0.659010292071722,0
2.77999877929688,-1.83644843101501,2.17583847045898,2.26550626754761,-1.83612684690458,2.17578229366013,2.2650081232283,2104.767,2103.971,2101.328,2104.846,1.16857528686523,44.9951438903809,359.531921386719,-1.07449495792389,-0.462218105792999,0.656459033489227,-1.07501419914593,-0.462548577472581,0.656709398992482,0
2.79998779296875,-1.85785984992981,2.16662764549255,2.27858757972717,-1.85757544288233,2.1665535620153,2.27811073581237,2102.022,2101.926,2100.69,2103.336,1.24851393699646,44.9951858520508,359.499847412109,-1.07057976722717,-0.460542172193527,0.654069423675537,-1.07097916161324,-0.460812413548163,0.654244457529281,0
2.81999206542969,-1.87918794155121,2.15745234489441,2.29161834716797,-1.87895695992541,2.1573536925621,2.29117237092199,2096.523,2098.976,2102.683,2102.84,1.3278694152832,44.9953231811523,359.467376708984,-1.06639969348907,-0.458753019571304,0.651536762714386,-1.06667099276523,-0.458958728849171,0.651612664407684,0
2.83999633789063,-1.90042698383331,2.1483154296875,2.30459356307983,-1.90024960698239,2.14819206138118,2.30417971674389,2098.66,2099.088,2097.575,2098.815,1.40993678569794,44.9952926635742,359.434997558594,-1.06195783615112,-0.456854194402695,0.648755669593811,-1.06209435025759,-0.456989527434725,0.648816864916866,0
2.8599853515625,-1.92157185077667,2.13921880722046,2.31751108169556,-1.92143189875059,2.13907791299805,2.31711964824194,2097.415,2097.228,2095.168,2097.936,1.49152767658234,44.9952659606934,359.403076171875,-1.05724489688873,-0.454837679862976,0.645880818367004,-1.05725481901126,-0.454907212340279,0.645860470797877,0
2.87998962402344,-1.94261693954468,2.13016438484192,2.33036828041077,-1.94253086194772,2.12999961857111,2.33000867561624,2093.555,2094.352,2095.558,2097.508,1.57213258743286,44.9953575134277,359.371063232422,-1.05226469039917,-0.452704161405563,0.642861068248749,-1.05214690704168,-0.452709420518306,0.642740127083052,0
2.89999389648438,-1.96355760097504,2.12115526199341,2.3431601524353,-1.96352501326936,2.1209664217661,2.34283367505136,2096.062,2094.387,2090.268,2093.574,1.65361857414246,44.9953079223633,359.339385986328,-1.04702234268188,-0.450457572937012,0.639596104621887,-1.04677621342161,-0.450398561093403,0.639459254158576,0
2.91999816894531,-1.98438787460327,2.11219334602356,2.35588502883911,-1.98440911693069,2.11198057539494,2.35559144808806,2093.86,2092.261,2088.966,2093.025,1.73255670070648,44.9953155517578,359.308258056641,-1.04151272773743,-0.448093414306641,0.63624632358551,-1.04114485287423,-0.447975543971863,0.636019143875825,0
2.93998718261719,-2.00510287284851,2.10328102111816,2.36853957176208,-2.00516218376194,2.10305111051103,2.36826917277004,2091.314,2090.424,2088.404,2091.496,1.80934166908264,44.9953727722168,359.277465820313,-1.0357460975647,-0.445617616176605,0.632722616195679,-1.03525963910674,-0.445443300901551,0.632423958622216,0
2.95999145507813,-2.02569723129272,2.09442019462585,2.38112092018127,-2.02581075424974,2.0941666074844,2.38088306226645,2085.751,2087.694,2090.642,2091.122,1.88484942913055,44.9955253601074,359.246398925781,-1.02972757816315,-0.443034142255783,0.629067182540894,-1.02911391720548,-0.442798968459032,0.628669633014836,0
2.97999572753906,-2.04616641998291,2.08561325073242,2.3936243057251,-2.04633384260397,2.08533609591429,2.39342029668558,2087.549,2087.901,2086.19,2087.202,1.96250951290131,44.9955024719238,359.215515136719,-1.02346324920654,-0.440348356962204,0.625172436237335,-1.02271452148052,-0.440045487257004,0.624760342027062,0
3,-2.06650519371033,2.07686233520508,2.40604829788208,-2.06672639957428,2.07656174835205,2.40587779151916,2086.064,2086.154,2084.255,2086.511,2.03957271575928,44.995491027832,359.185211181641,-1.0169438123703,-0.437552660703659,0.621195316314697,-1.01606400046349,-0.437183953857422,0.620697642517089,0
3.01998901367188,-2.08670902252197,2.06816935539246,2.41838932037354,-2.0869680292999,2.06785234056679,2.41824308725414,2085.105,2084.415,2082.233,2085.103,2.11584091186523,44.9955215454102,359.155395507813,-1.01017498970032,-0.434648364782333,0.617056369781494,-1.00917036754089,-0.434217816196637,0.616486429737696,0
3.03999328613281,-2.10677194595337,2.05953645706177,2.43064522743225,-2.10708469520508,2.05919670122237,2.43053204454123,2081.124,2081.792,2083.081,2084.766,2.19084787368774,44.9956436157227,359.125396728516,-1.00315892696381,-0.431635916233063,0.612790286540985,-1.00202586176059,-0.431143734953757,0.612121962644322,0
3.05999755859375,-2.12668991088867,2.05096626281738,2.44281101226807,-2.12705600675913,2.05060360379452,2.44273220712343,2083.575,2081.961,2078.247,2080.953,2.26671552658081,44.9956245422363,359.095764160156,-0.995902538299561,-0.428520441055298,0.608292937278748,-0.994638524886308,-0.427965170275055,0.607609153824944,0
3.07998657226563,-2.1464581489563,2.04246020317078,2.45488548278809,-2.14686207530873,2.04208160581513,2.45483142533277,2081.733,2080.171,2076.867,2080.451,2.34023904800415,44.9956321716309,359.066772460938,-0.988398969173431,-0.425296753644943,0.603721618652344,-0.987017247723776,-0.424685947625853,0.602953434534038,0
3.09999084472656,-2.16607117652893,2.0340211391449,2.46686577796936,-2.16652837486666,2.03361974652815,2.46684526084616,2077.122,2077.684,2078.405,2080.128,2.41162753105164,44.9957580566406,359.037811279297,-0.980657935142517,-0.42196998000145,0.599016070365906,-0.979153483542501,-0.421302389586788,0.598149583707317,0
3.1199951171875,-2.18552494049072,2.02565026283264,2.47874760627747,-2.18603502400946,2.02522658035469,2.47876156841225,2078.787,2077.648,2074.49,2076.663,2.48357844352722,44.9957504272461,359.009246826172,-0.972688376903534,-0.418546766042709,0.594091236591339,-0.971056158224178,-0.417818336715394,0.593203054026623,0
3.13999938964844,-2.20481491088867,2.01734972000122,2.49052929878235,-2.20537738341953,2.01690410346351,2.49057751394429,2076.575,2076.043,2073.63,2076.072,2.55364012718201,44.995777130127,358.981384277344,-0.964484393596649,-0.415022373199463,0.589088320732117,-0.962728579444533,-0.414235212212131,0.588115866099442,0
3.15998840332031,-2.22393608093262,2.00912141799927,2.50220799446106,-2.22453632143911,2.00866054767245,2.50228141021112,2074.796,2074.429,2072.737,2074.879,2.62240815162659,44.9958419799805,358.954010009766,-0.956055343151093,-0.411401152610779,0.583938419818878,-0.954180774018563,-0.410557330335374,0.582894145150591,0
3.17999267578125,-2.24288415908813,2.00096774101257,2.51378130912781,-2.24353658854737,2.00048526354177,2.51388837689424,2070.816,2072.196,2073.873,2074.522,2.69027328491211,44.9959907531738,358.926605224609,-0.947404444217682,-0.407684475183487,0.578669607639313,-0.945403214201559,-0.406780591562751,0.577532070829503,0
3.19999694824219,-2.2616548538208,1.99289059638977,2.52524518966675,-2.2623590635174,1.99238647840124,2.5253867331345,2073.315,2072.23,2069.334,2071.195,2.7594850063324,44.995979309082,358.899597167969,-0.938538014888763,-0.403876513242722,0.573195219039917,-0.936405971974636,-0.402909329586355,0.572035795952272,0
3.21998596191406,-2.28024339675903,1.98489117622375,2.53659820556641,-2.280985241111,1.98437215453788,2.53676517437065,2072.333,2070.756,2067.477,2070.638,2.82694435119629,44.9959907531738,358.873291015625,-0.929447948932648,-0.399970442056656,0.567649185657501,-0.927199897745278,-0.398948213033402,0.566411948863512,0
3.239990234375,-2.29864645004272,1.97697162628174,2.54783797264099,-2.2994392795179,1.97643189735754,2.54803845846384,2068.91,2068.677,2068.175,2070.29,2.8922712802887,44.9960899353027,358.847198486328,-0.920142471790314,-0.395969957113266,0.561983287334442,-0.917774783907129,-0.394892849856044,0.560654293895788,0
3.25999450683594,-2.31685924530029,1.96913397312164,2.55896043777466,-2.31770268688992,1.96857366338589,2.55919528903255,2070.572,2068.546,2064.618,2067.3,2.9572741985321,44.9961051940918,358.821655273438,-0.910630941390991,-0.391881257295609,0.556125462055206,-0.90814153446928,-0.390747931744771,0.554769492138098,0
3.27999877929688,-2.33487749099731,1.96138000488281,2.56996440887451,-2.33577134012187,1.96079922667992,2.57023314733618,2068.611,2067.082,2063.929,2066.833,3.01965713500977,44.996150970459,358.796875,-0.900909662246704,-0.387701272964478,0.550197541713715,-0.898304216251578,-0.386515208538549,0.548760027947228,0
3.29998779296875,-2.35269737243652,1.95371103286743,2.58084726333618,-2.35362764460945,1.95311615770631,2.58114128510551,2066.699,2065.714,2063.542,2065.757,3.07998156547546,44.9962310791016,358.772644042969,-0.890989899635315,-0.383435755968094,0.544137716293335,-0.888274735793772,-0.382199803288803,0.542633174842512,0
3.31999206542969,-2.37031483650208,1.946129322052,2.59160685539246,-2.37129490830989,1.94551442770222,2.59193394080789,2062.607,2063.798,2065.11,2065.53,3.13891983032227,44.9963836669922,358.748474121094,-0.880876421928406,-0.379087716341019,0.537975907325745,-0.878042061913513,-0.37779696958594,0.536382194046788,0
3.33999633789063,-2.38772630691528,1.938636302948,2.60223937034607,-2.38875555478454,1.93800159931817,2.60260037727124,2064.674,2063.908,2061.367,2062.531,3.19895958900452,44.9963836669922,358.724853515625,-0.870577335357666,-0.37466225028038,0.53163069486618,-0.867618167158097,-0.373311858882592,0.530014399402376,0
3.3599853515625,-2.40492796897888,1.93123316764832,2.61274385452271,-2.40599272667425,1.93058492580486,2.6131302965979,2063.885,2062.683,2059.704,2062.097,3.25754547119141,44.996410369873,358.702026367188,-0.86008483171463,-0.370152711868286,0.525226712226868,-0.857015715678588,-0.368749920209162,0.523537527241535,0
3.37998962402344,-2.42191576957703,1.92392194271088,2.62311816215515,-2.42302905329872,1.92325467039821,2.62353752268616,2061.206,2060.845,2060.058,2061.914,3.31429266929626,44.996509552002,358.679504394531,-0.849406599998474,-0.365561753511429,0.518721282482147,-0.846223126656603,-0.364106170663035,0.516944503023036,0
3.39999389648438,-2.43868684768677,1.91670417785645,2.6333589553833,-2.43984769972619,1.91601807669906,2.63381177133889,2063.362,2060.847,2056.463,2059.144,3.37053370475769,44.9965133666992,358.65771484375,-0.838551938533783,-0.360894769430161,0.512043952941895,-0.835253140422974,-0.35938609205264,0.510243109616171,0
3.41999816894531,-2.45523738861084,1.90958094596863,2.64346528053284,-2.45644516534361,1.90887665092339,2.64395090408624,2061.805,2059.513,2055.783,2058.945,3.42374181747437,44.9965629577637,358.63671875,-0.827516913414001,-0.356148272752762,0.505316436290741,-0.824110582941664,-0.354591760855451,0.503436295127018,0
3.43998718261719,-2.4715633392334,1.90255451202393,2.65343475341797,-2.47280564474684,1.90183719369507,2.65394526565342,2060.02,2058.408,2055.692,2058.001,3.47430062294006,44.9966506958008,358.616394042969,-0.816314518451691,-0.351329267024994,0.498473107814789,-0.812809078412023,-0.349729039183832,0.496532382366361,0
3.45999145507813,-2.48766231536865,1.89562582969666,2.66326570510864,-2.48895081463434,1.8948903781363,2.66380809799729,2056.424,2056.8,2057.208,2057.881,3.52295684814453,44.9968070983887,358.596282958984,-0.804950714111328,-0.346441566944122,0.491546750068665,-0.80133641229185,-0.344792671461508,0.489523909660973,0
3.47999572753906,-2.50353097915649,1.88879609107971,2.67295503616333,-2.50486489870395,1.88804299234919,2.67352976362102,2057.872,2056.96,2054.449,2055.333,3.57195734977722,44.9968414306641,358.576812744141,-0.793434977531433,-0.341491162776947,0.484465569257736,-0.789706299681989,-0.339788558913217,0.482419255351936,0
3.49998474121094,-2.5191662311554,1.88206648826599,2.68250179290771,-2.52053292953407,1.8813014763971,2.68310111916035,2057.062,2056.047,2053.25,2054.977,3.61945056915283,44.9968681335449,358.558166503906,-0.781761586666107,-0.33647295832634,0.47733810544014,-0.777933044257461,-0.334722856010721,0.475227157331119,0
3.51998901367188,-2.53456521034241,1.87543857097626,2.69190430641174,-2.53597583877076,1.87465682397749,2.69253495143119,2054.909,2054.542,2053.519,2054.922,3.66526818275452,44.9969673156738,358.540008544922,-0.769938111305237,-0.331389367580414,0.470130831003189,-0.766004036374581,-0.329590137176618,0.467939912563966,0
3.53999328613281,-2.54972457885742,1.8689136505127,2.70115995407104,-2.55117869390181,1.86811546013321,2.70182213839487,2057.078,2054.55,2050.327,2052.634,3.71047377586365,44.9969749450684,358.522644042969,-0.757973670959473,-0.326245069503784,0.462781965732574,-0.753933682518821,-0.324396601119134,0.46056632174764,0
3.55999755859375,-2.56464195251465,1.86249279975891,2.7102677822113,-2.56613872308604,1.86167857751006,2.71096098677687,2056.232,2053.587,2049.458,2052.412,3.75271034240723,44.9970321655273,358.506195068359,-0.745865285396576,-0.321036756038666,0.455393582582474,-0.741727567798258,-0.319144650954242,0.45310979673751,0
3.57998657226563,-2.57931423187256,1.85617756843567,2.71922612190247,-2.58084213759183,1.85535210901407,2.7199430732562,2054.948,2052.636,2049.318,2051.803,3.79196834564209,44.9971313476563,358.490539550781,-0.733624994754791,-0.31577056646347,0.447919130325317,-0.72940084364523,-0.31384080592,0.445579593307163,0
3.59999084472656,-2.59373950958252,1.84996867179871,2.72803378105164,-2.59530884290342,1.84912748987145,2.72878055778257,2051.871,2051.358,2050.813,2051.786,3.82874917984009,44.9972953796387,358.475219726563,-0.72126042842865,-0.310451149940491,0.440379828214645,-0.716940488958392,-0.308479463400265,0.437967757068975,0
3.6199951171875,-2.60791540145874,1.84386694431305,2.73668813705444,-2.60952509409627,1.84301063413925,2.73746504379605,2052.95,2051.605,2048.847,2049.682,3.86506366729736,44.9973526000977,358.460632324219,-0.708782017230988,-0.305085182189941,0.432717084884644,-0.704361775018033,-0.303067194200314,0.43028361700977,0
3.63999938964844,-2.62183904647827,1.8378734588623,2.74518871307373,-2.6234885835008,1.83700253474321,2.74599512157732,2052.101,2050.971,2048.177,2049.488,3.89957237243652,44.9973945617676,358.446929931641,-0.696186482906342,-0.299669325351715,0.425025820732117,-0.691670720740692,-0.297606588091786,0.422530849991739,0
3.65998840332031,-2.63550853729248,1.83198940753937,2.75353384017944,-2.63718676607487,1.8311085894645,2.7543631275559,2051.862,2050.338,2047.268,2048.862,3.9323558807373,44.9974479675293,358.434143066406,-0.683483064174652,-0.294207096099854,0.417261838912964,-0.678883253871145,-0.292104498338286,0.414719186025619,0
3.67999267578125,-2.64892196655273,1.8262152671814,2.76172280311584,-2.65063849381582,1.82532068681534,2.76258057812278,2050.176,2049.192,2047.694,2048.989,3.9631199836731,44.9975624084473,358.421936035156,-0.670676231384277,-0.28869953751564,0.409451216459274,-0.665986083416798,-0.286555206197011,0.406840505851433,0
3.69999694824219,-2.6620774269104,1.82055234909058,2.76975345611572,-2.66383127580226,1.81964420129024,2.77063984276899,2051.988,2049.408,2045.343,2047.152,3.99279069900513,44.9976081848145,358.410583496094,-0.657776117324829,-0.28315195441246,0.40153506398201,-0.65299527533123,-0.280965624398954,0.398904623909523,0
