t,x_s1,x_s2,x_s3,x_s_d1,x_s_d2,x_s_d3,propellers_rpms1,propellers_rpms2,propellers_rpms3,propellers_rpms4,rollRad,pitchRad,yawRad,v_s1,v_s2,v_s3,v_s_d1,v_s_d2,v_s_d3,insideCount
0,-0.0599999986588955,2.94000005722046,1.17999994754791,-0.0599999986588955,2.94000005722046,1.17999994754791,0,0,0,0,0,45.0048027038574,0,0,0,0,-1.06581410364015E-15,4.44089209850063E-16,4.44089209850063E-16,0
0.0200042724609375,-0.0599999986588955,2.94000005722046,1.17705690860748,-0.0600018701838461,2.93999925195556,1.18000110611101,0,0,0,0,0.937003672122955,44.8630027770996,-0.00115976633969694,3.71994488546079E-08,3.50004931704007E-08,-0.147149950265884,-0.000280105751305916,-0.000120521679537258,0.00017339880334547,5
0.0399932861328125,-0.0599999986588955,2.94000005722046,1.17018985748291,-0.060014863945674,2.93999366110285,1.18000914986856,0,0,0,0,1.87400352954865,44.7211418151855,-0.00311126722954214,3.70364325874561E-08,3.5142885934647E-08,-0.343349903821945,-0.00111059898697896,-0.000477859717552347,0.000687513678106196,6
0.05999755859375,-0.0599062256515026,2.94009447097778,1.16346514225006,-0.0600498857373401,2.93997859220429,1.18003083002592,3197.287,2848.743,1517.526,2782.492,1.40367555618286,44.7413673400879,0.0288227610290051,0.00468872301280499,0.0047188950702548,-0.336236536502838,-0.00247936261166862,-0.00106680046642749,0.00153484356504269,6
0.0800018310546875,-0.0597377680242062,2.94026732444763,1.1572380065918,-0.0601175574246769,2.93994947496775,1.18007272202403,2865.965,2651.979,2344.623,2562.269,0.339742511510849,44.8158340454102,0.0997416973114014,0.0084229614585638,0.00864502694457769,-0.311356902122498,-0.00437268608126799,-0.00188144466206175,0.00270690098422899,6
0.100006103515625,-0.0595562532544136,2.94046425819397,1.15152084827423,-0.0602282404704493,2.93990185114529,1.18014124010193,2240.186,2528.35,3138.084,2508.781,359.321655273438,44.9191246032715,0.178506880998611,0.00907573569566011,0.00984961912035942,-0.28585746884346,-0.00677739276378709,-0.00291612276782231,0.00419552897277328,5
0.1199951171875,-0.059424314647913,2.94063234329224,1.14657151699066,-0.0603918861403606,2.93983143898525,1.18024254456713,2124.081,2455.03,3352.06,2464.714,358.749969482422,44.9999046325684,0.253318637609482,0.00659698341041803,0.00839899759739637,-0.247468858957291,-0.00967801353495435,-0.00416417885169243,0.00599115140585487,5
0.139999389648438,-0.0593828670680523,2.94074034690857,1.1425746679306,-0.0606185767455666,2.93973390035084,1.18038287685052,2312.194,2456.758,3069.828,2463.796,358.636169433594,45.0327186584473,0.326279491186142,0.00207236967980862,0.00539923738688231,-0.19983971118927,-0.0130660253322238,-0.00562194567796536,0.00808849210174802,5
0.160003662109375,-0.0594432018697262,2.94078588485718,1.1395308971405,-0.0609177895434042,2.93960515744296,1.18056810382587,2537.171,2487.207,2635.683,2492.072,358.757080078125,45.0250396728516,0.398128837347031,-0.0030167093500495,0.00227918825112283,-0.152189284563065,-0.0169265510445065,-0.00728302204135792,0.0104783414199936,5
0.17999267578125,-0.0595998913049698,2.94078183174133,1.1373188495636,-0.0612985250199726,2.93944133760391,1.18080379722281,2666.958,2506.469,2302.834,2513.611,358.864379882813,44.9986000061035,0.467313855886459,-0.00783452205359936,-0.000198137015104294,-0.110600307583809,-0.0212433804254414,-0.00914043312572283,0.0131506644458931,5
0.199996948242188,-0.0598474256694317,2.94074010848999,1.13577437400818,-0.0617704296168641,2.93923829023936,1.18109592864822,2653.605,2500.379,2184.096,2509.158,358.817260742188,44.9744720458984,0.532721817493439,-0.0123767480254173,-0.00209196284413338,-0.0772222504019737,-0.0260104776919234,-0.0111915819022102,0.0161017247421801,5
0.220001220703125,-0.0601893328130245,2.9406623840332,1.13476359844208,-0.0623420644491781,2.93899233174064,1.18144979784016,2541.179,2471.113,2245.897,2479.212,358.612854003906,44.9637298583984,0.594410419464111,-0.0170954149216413,-0.00388219673186541,-0.0505392886698246,-0.03121219533433,-0.0134297356845702,0.019321835755004,5
0.240005493164063,-0.0606385581195354,2.94054174423218,1.13421726226807,-0.0630219993990999,2.93869977472688,1.18187070996396,2412.364,2430.275,2374.496,2437.831,358.335021972656,44.9659614562988,0.65255069732666,-0.0224613659083843,-0.00603253953158855,-0.0273138899356127,-0.0368361158647881,-0.0158495515746756,0.0228033104678445,5
0.259994506835938,-0.0612128973007202,2.94036626815796,1.1341210603714,-0.0638179029240226,2.93835731967507,1.18236341216003,2330.214,2392.52,2463.05,2399.133,358.076599121094,44.9739303588867,0.707693099975586,-0.0287170484662056,-0.00876943673938513,-0.00481022149324417,-0.0428651747123285,-0.0184436871643672,0.0265355850983733,4
0.279998779296875,-0.0619294196367264,2.94012522697449,1.13447856903076,-0.0647390625194898,2.93796097043536,1.18293365383054,2305.754,2365.408,2471.269,2371.446,357.887451171875,44.9804077148438,0.760310649871826,-0.03582613915205,-0.0120575567707419,0.0178740750998259,-0.0492963837173861,-0.0212108567320638,0.030516809833474,4
0.300003051757813,-0.0628009736537933,2.93981099128723,1.13528311252594,-0.0657927507678135,2.93750759781875,1.18358593705038,2318.477,2349.047,2416.083,2353.819,357.765625,44.9818534851074,0.811083078384399,-0.0435778461396694,-0.0157087240368128,0.0402299426496029,-0.0561132031658829,-0.0241439437008635,0.0347367458022363,4
0.319992065429688,-0.0638358145952225,2.93942046165466,1.13650608062744,-0.0669855955880233,2.93699435001684,1.18432436481717,2335.587,2337.207,2343.11,2342.29,357.679290771484,44.9789009094238,0.859860956668854,-0.0517420135438442,-0.0195263866335154,0.0611509755253792,-0.0632980253096114,-0.0272353719486164,0.0391844929697465,4
0.339996337890625,-0.0650394782423973,2.93895244598389,1.13810396194458,-0.068326768706371,2.93641728069206,1.18515461486636,2338.014,2325.122,2287.933,2330.975,357.59521484375,44.974235534668,0.90621155500412,-0.0601831004023552,-0.023406071588397,0.0798936486244202,-0.0708499516420146,-0.0304847548730522,0.0438594951176439,4
0.360000610351563,-0.0664170309901237,2.93840551376343,1.14003133773804,-0.0698225328270578,2.93577369517774,1.1860805641102,2323.458,2311.548,2261.994,2316.353,357.495513916016,44.9703483581543,0.950480699539185,-0.0688775926828384,-0.027344623580575,0.0963664501905441,-0.0787518717320621,-0.0338847303337087,0.0487511600740379,4
0.3800048828125,-0.0679743438959122,2.93777775764465,1.1422483921051,-0.0714797725314022,2.93506063123087,1.18710647443246,2296.319,2295.157,2261.445,2300.297,357.380645751953,44.9685974121094,0.992463827133179,-0.0778656601905823,-0.0313915275037289,0.110852271318436,-0.0869921272359981,-0.0374302820709642,0.0538522707687797,4
0.399993896484375,-0.0697183236479759,2.93706583976746,1.14472675323486,-0.0733036822025899,2.9342758538535,1.18823556140379,2269.371,2278.558,2269.24,2283.652,357.262268066406,44.9688034057617,1.03218376636505,-0.0871989727020264,-0.0356000661849976,0.123918704688549,-0.0955525119207663,-0.0411135764513579,0.0591515566763244,4
0.419998168945313,-0.0716562196612358,2.93626594543457,1.14744639396667,-0.0753034649285836,2.93341540321397,1.18947352217404,2248.991,2263.326,2272.685,2268.744,357.152770996094,44.9700088500977,1.06954336166382,-0.0968947857618332,-0.0399909764528275,0.135979145765305,-0.104434660908044,-0.0449353170220673,0.0646500300148815,4
0.44000244140625,-0.073794886469841,2.93537497520447,1.15039241313934,-0.077483988232608,2.93247718495301,1.19082336997196,2239.239,2251.657,2263.952,2255.491,357.058013916016,44.9711151123047,1.10527205467224,-0.106933236122131,-0.0445513166487217,0.147299140691757,-0.113620829717891,-0.048887868829098,0.0703367061060819,4
0.459991455078125,-0.0761402025818825,2.9343900680542,1.15354835987091,-0.0798493430620752,2.93145943885026,1.19228763728888,2233.261,2241.327,2249.21,2245.693,356.976776123047,44.971736907959,1.13916289806366,-0.117265827953815,-0.049244474619627,0.157797873020172,-0.123092454730403,-0.0529632444654124,0.0762000931848968,4
0.479995727539063,-0.0786971598863602,2.93330931663513,1.1568968296051,-0.0824088828700873,2.93035814037613,1.19387211435783,2228.085,2232.347,2234.038,2237.337,356.904846191406,44.971996307373,1.17094230651855,-0.12784805893898,-0.0540382191538811,0.167421832680702,-0.132852887402757,-0.0571628859694044,0.0822422659629699,4
0.5,-0.0814701914787292,2.93213105201721,1.16042149066925,-0.085166398670376,2.92917165836334,1.1955791479969,2224.026,2225.385,2219.726,2228.777,356.837310791016,44.9720497131348,1.20128607749939,-0.138651624321938,-0.0589148551225662,0.176230266690254,-0.142884000065179,-0.0614789935111996,0.0884520025491718,5
0.520004272460938,-0.0844633430242538,2.93085384368896,1.16410505771637,-0.088127196023106,2.92789770997757,1.19741202260058,2216.176,2217.8,2211.978,2221.776,356.771362304688,44.9723472595215,1.22991895675659,-0.149657219648361,-0.0638649240136147,0.184177979826927,-0.153174893518032,-0.065906877469682,0.0948225558197254,5
0.539993286132813,-0.0876806005835533,2.92947602272034,1.16793346405029,-0.091293865515634,2.92653518056143,1.19937234186584,2207.969,2210.805,2208.167,2214.794,356.707153320313,44.973014831543,1.25682711601257,-0.160863220691681,-0.0688919723033905,0.191422030329704,-0.163706645289342,-0.0704383960337938,0.101342211863077,5
0.55999755859375,-0.0911259204149246,2.92799615859985,1.17189502716064,-0.094676112580471,2.92507989413848,1.20146611391775,2199.592,2204.104,2206.958,2208.66,356.646697998047,44.9740829467773,1.28176748752594,-0.172265693545341,-0.073997974395752,0.198075518012047,-0.17448465888317,-0.0750758741803766,0.108014315705644,5
0.580001831054688,-0.0948031395673752,2.92641258239746,1.1759819984436,-0.0982762614093182,2.92353085067394,1.20369477754168,2195.698,2199.627,2202.549,2202.325,356.591217041016,44.9751815795898,1.30555415153503,-0.183861017227173,-0.0791831240057945,0.204348623752594,-0.185490414529404,-0.0798113433697334,0.11482740272751,5
0.600006103515625,-0.098715752363205,2.92472386360168,1.1801860332489,-0.102098762959148,2.92188613504538,1.20606108809202,2191.165,2194.854,2199.153,2198.26,356.540740966797,44.9763412475586,1.32788276672363,-0.195630699396133,-0.0844365507364273,0.210199400782585,-0.196713446836865,-0.0846403006364086,0.121774994352997,5
0.6199951171875,-0.102867007255554,2.92292881011963,1.18450045585632,-0.106144683970236,2.92014528826426,1.20856570593183,2188.225,2191.138,2195.42,2194.56,356.495086669922,44.9774780273438,1.3487514257431,-0.207563310861588,-0.0897514671087265,0.215721517801285,-0.208134604141382,-0.0895545055543457,0.128845234789665,5
0.639999389648438,-0.1072598695755,2.92102646827698,1.18891894817352,-0.110424235525481,2.91830391678686,1.21121495220784,2184.895,2187.652,2193.126,2191.843,356.454040527344,44.9786567687988,1.36782717704773,-0.219643339514732,-0.0951196476817131,0.220927089452744,-0.219761081350814,-0.0945570538913933,0.136042578028218,5
0.660003662109375,-0.111897140741348,2.91901564598083,1.19343817234039,-0.114938248900541,2.91636166293851,1.21400934151928,2185.024,2186.344,2188.327,2188.421,356.416595458984,44.979679107666,1.38602590560913,-0.231863304972649,-0.100537776947021,0.225963696837425,-0.231574097577923,-0.0996398647564507,0.143355397804799,5
0.67999267578125,-0.116781264543533,2.91689562797546,1.19805300235748,-0.119686638739014,2.91431856344567,1.21694882102647,2182.602,2184.064,2186.767,2186.981,356.381652832031,44.9807548522949,1.40297544002533,-0.244206115603447,-0.105996616184711,0.230739071965218,-0.243554411173546,-0.104794659005432,0.150771782621969,5
0.699996948242188,-0.121914595365524,2.91466569900513,1.20275950431824,-0.124680083855354,2.91217002351282,1.22004000142426,2179.767,2181.833,2187.44,2185.831,356.349792480469,44.9819717407227,1.41820776462555,-0.256666630506516,-0.111494787037373,0.235326483845711,-0.255710395848158,-0.11002503961202,0.158296916205407,5
0.720001220703125,-0.127299457788467,2.91232514381409,1.20755743980408,-0.129918284978346,2.90991617190799,1.22328269744952,2180.789,2181.9,2185.021,2183.611,356.320861816406,44.983081817627,1.43271720409393,-0.269243270158768,-0.117033563554287,0.239894986152649,-0.268023157655716,-0.11532287703907,0.16591910230247,5
0.740005493164063,-0.132937863469124,2.90987300872803,1.21244418621063,-0.13540428105644,2.90755570105657,1.22667879035609,2179.426,2180.792,2185.192,2183.475,356.294372558594,44.9842224121094,1.44607853889465,-0.281920373439789,-0.122604519128799,0.244340181350708,-0.280482990349159,-0.120683994959631,0.173632332283853,5
0.759994506835938,-0.13883176445961,2.90730881690979,1.21741926670074,-0.14113644597991,2.90508931062815,1.2302272735046,2179.046,2180.393,2185.57,2183.092,356.270629882813,44.9853897094727,1.45828473567963,-0.294694811105728,-0.128206863999367,0.248755365610123,-0.293070637251543,-0.126100107763583,0.181424685349205,5
0.779998779296875,-0.144982904195786,2.90463209152222,1.22248208522797,-0.147126184485884,2.90251209348295,1.23393520697061,2177.901,2179.728,2187.371,2183.447,356.250244140625,44.9866027832031,1.46889972686768,-0.30755677819252,-0.133836850523949,0.25313937664032,-0.305795832832518,-0.131575403921268,0.189302187598958,5
0.800003051757813,-0.151392996311188,2.90184211730957,1.22763502597809,-0.153371683173492,2.89982482987671,1.2378014681726,2180.952,2181.404,2185.169,2182.563,356.232666015625,44.9876098632813,1.47903335094452,-0.320504009723663,-0.139494329690933,0.257647454738617,-0.318639638509124,-0.13710173468952,0.197253115148089,5
0.819992065429688,-0.158063352108002,2.89893865585327,1.23287761211395,-0.159870162197751,2.89702871589906,1.2418243362541,2180.914,2181.527,2185.915,2183.8,356.216979980469,44.9886016845703,1.48819637298584,-0.333518624305725,-0.145169287919998,0.262130349874496,-0.33158286215529,-0.142670842232658,0.205265587156312,5
0.839996337890625,-0.164995282888412,2.89592146873474,1.23821032047272,-0.166633637018892,2.89411858163313,1.24601124935738,2180.226,2181.426,2188.593,2185.052,356.203796386719,44.9896774291992,1.49580538272858,-0.34659668803215,-0.1508609354496,0.266636610031128,-0.344636106234817,-0.148287288494656,0.213346167053785,5
0.860000610351563,-0.172190055251122,2.89279007911682,1.24363684654236,-0.173659158941841,2.89109569582005,1.2503603820997,2183.73,2183.771,2187.227,2184.701,356.192779541016,44.9905662536621,1.50302934646606,-0.359738647937775,-0.156571388244629,0.271327048540115,-0.357780475378537,-0.153942943326036,0.221483157706883,5
0.8800048828125,-0.179648622870445,2.88954424858093,1.24915766716003,-0.180948461186242,2.88795931270381,1.25487280742661,2183.903,2184.353,2188.901,2186.469,356.183197021484,44.9914588928223,1.50934886932373,-0.372927725315094,-0.162291765213013,0.276040852069855,-0.371007022483504,-0.159633957038354,0.229671020432672,5
0.899993896484375,-0.187371894717216,2.8861837387085,1.25477492809296,-0.18849723509595,2.8847112861788,1.25954585807468,2184.893,2185.408,2190.69,2187.668,356.175415039063,44.9923629760742,1.51470351219177,-0.386163711547852,-0.168023198843002,0.280864894390106,-0.384296738353309,-0.165352150505452,0.237897987633041,5
0.919998168945313,-0.195360660552979,2.88270854949951,1.26049041748047,-0.196318384305134,2.8813460641717,1.26438752200817,2184.602,2185.94,2194.073,2189.356,356.170288085938,44.9933166503906,1.51859438419342,-0.399438112974167,-0.173762902617455,0.285772085189819,-0.397661187980262,-0.171102499820431,0.246171218589148,5
0.94000244140625,-0.203615665435791,2.87911820411682,1.26630890369415,-0.204407453948074,2.87786556348678,1.26939504145298,2189.027,2188.889,2192.512,2189.413,356.167388916016,44.9940147399902,1.52227866649628,-0.412751436233521,-0.179512470960617,0.290926158428192,-0.411081631631503,-0.176876941799768,0.254479112513653,5
0.959991455078125,-0.212137371301651,2.875412940979,1.2722315788269,-0.212759000778906,2.87427212620069,1.27456504678061,2189.647,2189.838,2194.145,2191.67,356.165740966797,44.9947052001953,1.52518117427826,-0.426084637641907,-0.18526129424572,0.29613122344017,-0.424539267042903,-0.182667386354485,0.262810029909387,5
0.979995727539063,-0.220926076173782,2.87159276008606,1.27826011180878,-0.22138664033507,2.87055989392801,1.27990596665734,2189.399,2190.294,2197.711,2193.776,356.166198730469,44.9954948425293,1.52658987045288,-0.439435184001923,-0.191009446978569,0.301426380872726,-0.438046240701377,-0.188479059778567,0.271171490030365,5
1,-0.229982167482376,2.86765766143799,1.28439962863922,-0.230284798736574,2.86673126495361,1.28541435058594,2193.817,2193.456,2196.38,2193.792,356.168365478516,44.9960327148438,1.52787184715271,-0.45280522108078,-0.196760132908821,0.306978076696396,-0.451584000205995,-0.194303979492187,0.279552008056641,5
1.02000427246094,-0.239305704832077,2.86360764503479,1.29065132141113,-0.239454009753966,2.86278600961093,1.2910905289958,2194.216,2194.343,2198.402,2196.138,356.171478271484,44.9965972900391,1.52838480472565,-0.466176569461823,-0.202503532171249,0.312583029270172,-0.465144357597929,-0.200138622445408,0.287946515251652,5
1.03999328613281,-0.248896718025208,2.85944271087646,1.29701781272888,-0.248887339851819,2.85872711120656,1.2969302096982,2195.39,2195.654,2200.429,2197.629,356.175933837891,44.9971618652344,1.5280544757843,-0.479550629854202,-0.208241671323776,0.318326503038406,-0.478708875293167,-0.205975055460915,0.29634359787259,5
1.05999755859375,-0.258755087852478,2.85516333580017,1.30350112915039,-0.258599401509697,2.85454828239877,1.30294243851408,2194.931,2196.223,2204.193,2199.528,356.182800292969,44.9978103637695,1.52630650997162,-0.492918968200684,-0.213971987366676,0.324163764715195,-0.492290296490434,-0.211818761581115,0.30475114456651,5
1.08000183105469,-0.268880754709244,2.85076928138733,1.3101065158844,-0.268583149539609,2.85025255453512,1.30912285413647,2199.765,2199.397,2202.178,2199.459,356.191619873047,44.998176574707,1.52455186843872,-0.506283640861511,-0.21969710290432,0.330271810293198,-0.50587040849135,-0.217661904390701,0.313157880805523,5
1.10000610351563,-0.279273271560669,2.84626126289368,1.31683480739594,-0.278838480013141,2.84583997233313,1.31547139222872,2200.111,2200.193,2203.745,2201.766,356.201354980469,44.9985389709473,1.52212512493134,-0.51962411403656,-0.225405350327492,0.336414992809296,-0.519441457145546,-0.223501147495394,0.321559006401169,5
1.1199951171875,-0.289932072162628,2.84163928031921,1.32368838787079,-0.289357002179081,2.84131414609862,1.32198285851614,2201.231,2201.264,2205.331,2203.216,356.212219238281,44.9988975524902,1.51886427402496,-0.532942116260529,-0.23109869658947,0.34268045425415,-0.532985466132485,-0.229328756186667,0.329943393154705,5
1.13999938964844,-0.300856649875641,2.8369038105011,1.33066868782043,-0.300154365346813,2.83666834237095,1.3286669406667,2200.375,2201.612,2208.988,2204.907,356.225219726563,44.9993705749512,1.51418924331665,-0.546229124069214,-0.236774861812592,0.349012434482574,-0.546515580872639,-0.235150386571708,0.338319178707607,5
1.16000366210938,-0.312046468257904,2.83205509185791,1.33778059482574,-0.311222084148811,2.83190621216671,1.33551838583369,2205.026,2204.648,2206.657,2204.459,356.239990234375,44.9995651245117,1.50961339473724,-0.559488296508789,-0.242437064647675,0.355598330497742,-0.560014026276883,-0.240958390526247,0.34667535943296,6
1.17999267578125,-0.323500394821167,2.82709360122681,1.3450243473053,-0.322550701230474,2.8270318247214,1.34253133946411,2204.949,2205.044,2208.073,2206.586,356.255523681641,44.9997673034668,1.50437748432159,-0.572699189186096,-0.248073756694794,0.362190634012222,-0.573463232144024,-0.246745208083563,0.355001058539242,6
1.19999694824219,-0.335217624902725,2.82201981544495,1.35240089893341,-0.334156660511822,2.8220381046756,1.34971598112778,2203.777,2204.874,2211.602,2208.272,356.27294921875,45.0001182556152,1.49768126010895,-0.585860788822174,-0.253685891628265,0.368827491998672,-0.58687652428584,-0.252516572968185,0.36330452533874,6
1.22000122070313,-0.347197115421295,2.81683421134949,1.35991477966309,-0.346030421585499,2.81692915700008,1.35706640485806,2208.127,2207.72,2209.112,2207.458,356.291900634766,45.0001945495605,1.49111437797546,-0.598976731300354,-0.259277492761612,0.375696837902069,-0.600236516861372,-0.258265004538453,0.371574997167698,6
1.24000549316406,-0.359437674283981,2.81153750419617,1.36756575107574,-0.358170848086624,2.8117054706409,1.36458190719098,2207.619,2207.814,2210.472,2209.305,356.311492919922,45.000316619873,1.48390769958496,-0.612027227878571,-0.264837354421616,0.382546842098236,-0.613536214864368,-0.263987493038594,0.379808143784027,6
1.25999450683594,-0.371937930583954,2.80613017082214,1.37535512447357,-0.3705671011502,2.80637170925886,1.37225577835275,2207.993,2208.28,2211.721,2210.11,356.332214355469,45.0004577636719,1.47591805458069,-0.625014901161194,-0.270368099212646,0.389471054077148,-0.626758665639206,-0.269676744214496,0.387993470686331,6
1.27999877929688,-0.384696573019028,2.80061292648315,1.38328325748444,-0.383236695417198,2.80092033679326,1.3800988607405,2206.348,2207.895,2214.97,2211.258,356.355255126953,45.0007171630859,1.46648359298706,-0.637931227684021,-0.275867253541946,0.396409213542938,-0.639917282339435,-0.275338529371412,0.396139281255613,6
1.30000305175781,-0.397712111473083,2.79498624801636,1.39135444164276,-0.396168722856641,2.79535604666509,1.38810440176341,2210.818,2210.497,2211.501,2210.003,356.380157470703,45.0006790161133,1.45727920532227,-0.65077930688858,-0.281337916851044,0.403561860322952,-0.652995275331231,-0.280965624398954,0.404235181908735,6
1.31999206542969,-0.410982847213745,2.78925085067749,1.39956748485565,-0.409351342777246,2.78968393359302,1.39626507146953,2210.022,2210.205,2212.155,2211.576,356.405700683594,45.000675201416,1.44748771190643,-0.663537442684174,-0.286767393350601,0.410652309656143,-0.665976209205206,-0.286550957599616,0.412270998344359,6
1.33999633789063,-0.424506932497025,2.78340768814087,1.40792191028595,-0.422802873722428,2.78389611561957,1.40459220990988,2207.942,2209.226,2215.222,2212.703,356.43310546875,45.0008239746094,1.43620145320892,-0.676205098628998,-0.29215669631958,0.417720019817352,-0.678873453515705,-0.29210028151913,0.420255006953505,6
1.36000061035156,-0.438282668590546,2.77745747566223,1.41642141342163,-0.436511415158101,2.77799771321212,1.41307845008695,2211.969,2211.567,2211.704,2211.023,356.461944580078,45.0006980895996,1.42516434192657,-0.688786685466766,-0.297510266304016,0.42497307062149,-0.691670720740693,-0.297606588091785,0.42817712498415,6
1.3800048828125,-0.452307969331741,2.77140116691589,1.42506408691406,-0.450474904562636,2.77198961381608,1.4217225152016,2210.568,2210.881,2212.5,2212.293,356.491271972656,45.0006484985352,1.41351997852325,-0.7012619972229,-0.302816718816757,0.432133823633194,-0.704361775018035,-0.303067194200314,0.436033492140578,6
1.39999389648438,-0.466580599546432,2.76523947715759,1.43385028839111,-0.464680216184654,2.76587746507559,1.43051627978847,2210.173,2210.655,2213.185,2212.364,356.521636962891,45.0006256103516,1.40114378929138,-0.713634788990021,-0.308079034090042,0.439307659864426,-0.716930938559026,-0.308475354130225,0.443814403124744,6
1.41999816894531,-0.481098562479019,2.75897359848022,1.44277894496918,-0.47914673136562,2.75965292774086,1.43947174182117,2207.618,2209.489,2216.003,2212.87,356.554443359375,45.0007705688477,1.38731408119202,-0.725896835327148,-0.313294798135757,0.44643098115921,-0.729391385793766,-0.313836736470737,0.451528013536465,6
1.44000244140625,-0.495859563350677,2.75260424613953,1.45185339450836,-0.493861275572861,2.75332167044526,1.4485807456364,2211.78,2211.527,2211.507,2210.793,356.589111328125,45.0005874633789,1.37381708621979,-0.738051354885101,-0.318467080593109,0.45372211933136,-0.741727567798258,-0.319144650954242,0.459164697851088,6
1.45999145507813,-0.510861098766327,2.74613261222839,1.4610710144043,-0.508809800712713,2.74688973769103,1.45783459479497,2210.198,2210.507,2211.496,2211.782,356.624389648438,45.0004425048828,1.35977339744568,-0.750076532363892,-0.323582798242569,0.460881352424622,-0.753924423002454,-0.324392617007921,0.466715132239272,6
1.47999572753906,-0.526100516319275,2.73955965042114,1.47043013572693,-0.524012471663969,2.74034845309416,1.46724577231745,2207.268,2208.752,2214.082,2212.328,356.661499023438,45.0004844665527,1.34419119358063,-0.761972427368164,-0.328643023967743,0.467953741550446,-0.765994882555672,-0.329586198544069,0.474187321698441,6
1.5,-0.541575372219086,2.73288655281067,1.47993338108063,-0.539455198877605,2.73370387899399,1.4768055561018,2210.939,2210.623,2209.654,2209.771,356.699981689453,45.0002517700195,1.32898914813995,-0.773743569850922,-0.333652555942535,0.475163280963898,-0.777924000354858,-0.334718964672088,0.481572013878822,6
1.52000427246094,-0.557282745838165,2.72611451148987,1.48957765102386,-0.555135099954955,2.72695725560613,1.48651216180595,2208.75,2209.2,2209.893,2210.513,356.738891601563,45.0001029968262,1.3132221698761,-0.785370230674744,-0.338599622249603,0.482214152812958,-0.789706299681991,-0.339788558913217,0.48886581843107,6
1.53999328613281,-0.573219954967499,2.71924471855164,1.49936211109161,-0.571036956668503,2.72011513090874,1.49635616862212,2207.701,2208.33,2210.007,2209.943,356.778747558594,45.0000038146973,1.29676282405853,-0.796856820583344,-0.343487679958344,0.489222466945648,-0.801327600455846,-0.344788879974649,0.496059957209413,6
1.55999755859375,-0.589383780956268,2.71227836608887,1.50928449630737,-0.587181951496087,2.71316839067337,1.50635068951315,2204.317,2206.423,2212.448,2209.938,356.821105957031,45.0000801086426,1.27879226207733,-0.808195471763611,-0.348314315080643,0.49612095952034,-0.812800388649436,-0.349725300221754,0.503162159625937,6
1.58000183105469,-0.605771601200104,2.70521664619446,1.51934742927551,-0.60355483331529,2.70612359703193,1.51648628330776,2208.254,2208.105,2207.05,2206.988,356.865325927734,44.9998207092285,1.26131844520569,-0.819389343261719,-0.353082627058029,0.503146767616272,-0.824110582941666,-0.354591760855452,0.510163708672098,6
1.59999084472656,-0.622379958629608,2.69806098937988,1.52954697608948,-0.620139554045575,2.69898765502515,1.52675301547962,2205.958,2206.364,2206.515,2207.583,356.910003662109,44.9996109008789,1.24332094192505,-0.830417513847351,-0.357779383659363,0.50997930765152,-0.835244706287931,-0.359382463079953,0.517056261415284,5
1.6199951171875,-0.639205515384674,2.69081282615662,1.53988039493561,-0.636958033083316,2.69175113334911,1.53716445517924,2202.293,2203.995,2208.737,2207.603,356.95654296875,44.9996223449707,1.22377121448517,-0.841280400753021,-0.362405955791473,0.516671180725098,-0.846214826007804,-0.364102599125749,0.523847288101157,5
1.63999938964844,-0.656245172023773,2.68347358703613,1.55034959316254,-0.653994195024907,2.68442094880091,1.54771065096602,2205.766,2205.44,2203.5,2204.345,357.004425048828,44.9993209838867,1.20470583438873,-0.851982533931732,-0.366967082023621,0.52346271276474,-0.857007552155828,-0.368746407673381,0.530528499715628,5
1.66000366210938,-0.673495352268219,2.67604446411133,1.56095039844513,-0.671244443874359,2.67699864863716,1.55838937674714,2202.904,2203.437,2203.295,2204.668,357.052551269531,44.9991302490234,1.18510901927948,-0.862505257129669,-0.37145122885704,0.530039668083191,-0.867618167158098,-0.373311858882592,0.53709697585572,5
1.67999267578125,-0.690952360630035,2.66852712631226,1.57168090343475,-0.688691692550512,2.66949158495151,1.56919005480539,2201.281,2202.078,2203.028,2203.552,357.1015625,44.9990005493164,1.16488003730774,-0.872853457927704,-0.375861972570419,0.536527872085571,-0.878034183119987,-0.377793579561193,0.543544985919778,5
1.69999694824219,-0.70861279964447,2.66092324256897,1.58253812789917,-0.706358800111611,2.66188992212981,1.58012683598675,2197.304,2199.639,2205.12,2203.113,357.153076171875,44.9990768432617,1.14315712451935,-0.883020222187042,-0.380197286605835,0.542862474918365,-0.888267004546665,-0.382196476749158,0.549879589839776,5
1.72000122070313,-0.726472973823547,2.65323400497437,1.59352397918701,-0.724228658537036,2.6542010212754,1.5911891296115,2201.076,2200.882,2199.04,2199.625,357.206390380859,44.9987831115723,1.12199079990387,-0.893007934093475,-0.384460061788559,0.549291133880615,-0.898304216251578,-0.386515208538549,0.556093102023817,5
1.74000549316406,-0.744528830051422,2.64546132087708,1.60463356971741,-0.742297311768984,2.64642658456943,1.60237448669139,2198.239,2198.761,2198.093,2199.768,357.260070800781,44.9985542297363,1.10039103031158,-0.902797222137451,-0.388637453317642,0.555479824542999,-0.908141534469281,-0.390747931744771,0.562182870617028,5
1.75999450683594,-0.762776732444763,2.63760662078857,1.61586463451385,-0.760546715064628,2.63857437616062,1.61367173667103,2196.592,2197.135,2197.249,2198.566,357.314392089844,44.9983978271484,1.0781774520874,-0.912392556667328,-0.392732322216034,0.561554431915283,-0.917767514700581,-0.394889722119545,0.568141810929231,4
1.77999877929688,-0.781212449073792,2.6296718120575,1.62721347808838,-0.779000609654483,2.63063418086074,1.62509557650306,2192.176,2194.458,2199.287,2197.966,357.370941162109,44.9984512329102,1.05445516109467,-0.921787679195404,-0.396743297576904,0.567443192005157,-0.927192788821983,-0.398945154262308,0.57397650459845,4
1.80000305175781,-0.799832165241241,2.62165832519531,1.63868165016174,-0.797640935141499,2.62261376955408,1.63663482594136,2195.811,2195.584,2193.057,2194.102,357.429016113281,44.9981575012207,1.03138339519501,-0.930985629558563,-0.40067383646965,0.573410332202911,-0.936405971974637,-0.402909329586356,0.579679903854719,4
1.81999206542969,-0.818631589412689,2.61356806755066,1.65026390552521,-0.816448984455027,2.61452119137054,1.64827790441807,2192.59,2193.173,2192.149,2194.132,357.4873046875,44.9979515075684,1.00789844989777,-0.939969003200531,-0.404511958360672,0.579115927219391,-0.945396434568188,-0.406777674475912,0.585245428475252,3
1.83999633789063,-0.837606370449066,2.60540294647217,1.66195642948151,-0.835449117627072,2.60634596486888,1.66003989195343,2188.031,2190.06,2194.13,2193.663,357.547424316406,44.997989654541,0.982864439487457,-0.948739469051361,-0.408259481191635,0.584623694419861,-0.954174163352093,-0.410554485950274,0.590679260733698,3
1.86000061035156,-0.856752336025238,2.59716463088989,1.67376029491425,-0.854622615239374,2.59809614449182,1.6719092003358,2191.403,2191.056,2188.033,2189.586,357.608734130859,44.9976997375488,0.958472967147827,-0.957300245761871,-0.411920815706253,0.590194582939148,-0.962728579444532,-0.414235212212131,0.595974851798267,0
1.8800048828125,-0.876065075397491,2.58885502815247,1.6856701374054,-0.873964974649439,2.58977366760063,1.68388304221498,2187.86,2188.512,2187.312,2189.459,357.670104980469,44.9975166320801,0.933673858642578,-0.96563583612442,-0.415485292673111,0.595492660999298,-0.971056158224177,-0.417818336715394,0.601130019760457,0
1.89999389648438,-0.895540177822113,2.58047580718994,1.6976832151413,-0.893456683142228,2.58138692997148,1.69594933829086,2185.767,2186.567,2186.514,2187.894,357.732177734375,44.9974060058594,0.908304810523987,-0.973751187324524,-0.418956428766251,0.600655496120453,-0.979147395688901,-0.421299770153459,0.606138881190213,0
1.91999816894531,-0.91517299413681,2.57202911376953,1.7097954750061,-0.913122862707269,2.57292512231409,1.70812364027167,2181.036,2183.63,2188.356,2187.023,357.796661376953,44.9975128173828,0.881478726863861,-0.981640875339508,-0.422332882881165,0.605613589286804,-0.987011339258123,-0.424683405378145,0.611007036871143,0
1.94000244140625,-0.93495911359787,2.56351685523987,1.722008228302,-0.932943991899774,2.5643966441608,1.72039386345315,2184.818,2184.555,2181.527,2182.806,357.862701416016,44.9972305297852,0.855415403842926,-0.989305973052979,-0.425616800785065,0.610635638237,-0.994638524886308,-0.427965170275055,0.615728628108227,0
1.95999145507813,-0.954893589019775,2.55494093894958,1.7343156337738,-0.952900013794853,2.55581012544606,1.73274759164336,2181.414,2181.881,2180.172,2182.734,357.928771972656,44.9970283508301,0.828985273838043,-0.996731221675873,-0.428796827793121,0.615369081497192,-1.00202031904361,-0.431141350077486,0.620298310335216,0
1.97999572753906,-0.974972069263458,2.54630351066589,1.74671316146851,-0.973016570682103,2.54715453300902,1.74520069864106,2176.544,2178.595,2181.937,2182.052,357.996459960938,44.9970741271973,0.801069259643555,-1.00391864776611,-0.431875020265579,0.619877696037292,-1.00916501115878,-0.434215511495054,0.624721215103391,0
2,-0.995189487934113,2.53760647773743,1.75920176506042,-0.993273599084619,2.53843849960327,1.7577407641983,2179.828,2179.35,2175.623,2177.696,358.065063476563,44.9967842102051,0.773871779441833,-1.01087045669556,-0.434855312108994,0.624429523944855,-1.01606400046349,-0.437183953857422,0.628992018127441,0
2.02000427246094,-1.01554083824158,2.5288519859314,1.77177548408508,-1.01366615605493,2.52966415204104,1.77036472839513,2175.98,2176.63,2174.794,2177.388,358.133514404297,44.9966239929199,0.74634712934494,-1.0175746679306,-0.437728703022003,0.62868720293045,-1.02271452148052,-0.440045487257004,0.633109007445237,0
2.03999328613281,-1.03602159023285,2.52004194259644,1.78443133831024,-1.03417354141348,2.52084039703127,1.78305977683431,2173.687,2174.505,2173.879,2175.618,358.202453613281,44.9965438842773,0.71834522485733,-1.02403628826141,-0.44049870967865,0.632792532444,-1.02910913225408,-0.442796909628122,0.637067576131623,0
2.05999755859375,-1.05662667751312,2.51117873191833,1.7971647977829,-1.05482201812353,2.5119559343546,1.79584216754118,2168.642,2171.33,2175.683,2174.684,358.273681640625,44.9966888427734,0.688903331756592,-1.03025102615356,-0.443164497613907,0.63667494058609,-1.03525504859546,-0.445441325732794,0.640872191117535,0
2.08000183105469,-1.07735109329224,2.50226426124573,1.80997705459595,-1.07559088172821,2.50301967256038,1.80869908347065,2172.503,2172.127,2168.597,2170.179,358.346343994141,44.9964179992676,0.660305738449097,-1.03621852397919,-0.445727646350861,0.640611350536346,-1.04114485287423,-0.447975543971863,0.644518260536375,0
2.09999084472656,-1.09818959236145,2.49330067634583,1.82286190986633,-1.09645901288412,2.49404069871208,1.82161745074311,2168.886,2169.354,2167.104,2169.984,358.418853759766,44.9962463378906,0.631436765193939,-1.04192686080933,-0.448178172111511,0.644241511821747,-1.04677201701582,-0.450396755497224,0.648001743199023,0
2.1199951171875,-1.11913704872131,2.48429036140442,1.83581459522247,-1.11745308225396,2.48500753716864,1.83461377976925,2163.808,2165.909,2168.781,2169.245,358.492828369141,44.9963264465332,0.601135492324829,-1.04737842082977,-0.450518161058426,0.647632300853729,-1.0521429102862,-0.45270770082608,0.651326581984514,0
2.13999938964844,-1.14018869400024,2.47523546218872,1.84883570671082,-1.138551967509,2.47592927627801,1.8476749948214,2167.216,2166.589,2162.219,2164.623,358.567504882813,44.9960517883301,0.5716832280159,-1.05257380008698,-0.452750861644745,0.651057481765747,-1.05725102347782,-0.454905579228273,0.654488747383304,0
2.16000366210938,-1.16133880615234,2.46613812446594,1.86191916465759,-1.15975039167652,2.46680818657414,1.86079782920208,2163.103,2163.659,2161.371,2164.37,358.641754150391,44.9959182739258,0.541924655437469,-1.05750477313995,-0.454868912696838,0.654171228408813,-1.0620943502576,-0.456989527434725,0.657486997379635,0
2.17999267578125,-1.18258213996887,2.4570004940033,1.8750616312027,-1.18102676265167,2.45765355853653,1.8739689163698,2160.701,2161.507,2160.407,2162.412,358.716339111328,44.9958686828613,0.511777281761169,-1.06217586994171,-0.456875801086426,0.657122731208801,-1.06666760390386,-0.458957270716794,0.660318059240953,0
2.19999694824219,-1.20391392707825,2.44782495498657,1.88825845718384,-1.20240821395574,2.44845371736898,1.88720505326679,2155.559,2158.297,2162.094,2161.392,358.793029785156,44.9960517883301,0.480303555727005,-1.06658434867859,-0.458771288394928,0.659843146800995,-1.07097597819164,-0.460811043810786,0.662985148161421,0
2.22000122070313,-1.22532844543457,2.43861389160156,1.90151059627533,-1.22387315175433,2.43921795429519,1.90049287228091,2159.416,2158.923,2154.976,2156.788,358.870910644531,44.9958152770996,0.449750453233719,-1.07072794437408,-0.46055606007576,0.662606298923492,-1.07501419914593,-0.462548577472581,0.665484999299265,0
2.24000549316406,-1.2468204498291,2.42936944961548,1.91481173038483,-1.24541615591711,2.42994860144581,1.91382901809327,2155.745,2156.094,2153.365,2156.558,358.948455810547,44.9956550598145,0.418997704982758,-1.07459914684296,-0.46222198009491,0.665056824684143,-1.07878069424208,-0.464169195088763,0.667816639186824,0
2.25999450683594,-1.26838445663452,2.42009401321411,1.92815828323364,-1.26701526177039,2.4206551096063,1.92719989352455,2153.399,2153.869,2152.084,2154.737,359.026000976563,44.9955749511719,0.387873262166977,-1.0782014131546,-0.463771730661392,0.667328894138336,-1.08227143928024,-0.465671165158559,0.669977576652695,0
2.27999877929688,-1.2900151014328,2.41078996658325,1.9415454864502,-1.28869796983554,2.41132564607061,1.9406225227075,2148.164,2150.653,2153.744,2153.725,359.105255126953,44.9957389831543,0.355432718992233,-1.08153343200684,-0.465206056833267,0.669358968734741,-1.08549040888332,-0.467056197851165,0.67197027217779,0
2.30000305175781,-1.31170678138733,2.40145945549011,1.95497393608093,-1.31044231452835,2.40196966201596,1.95408330789913,2151.933,2151.293,2146.794,2148.958,359.185302734375,44.9955024719238,0.323995590209961,-1.08459270000458,-0.466526001691818,0.671424269676208,-1.08843358680109,-0.468322565086307,0.673792239511894,0
2.31999206542969,-1.33345437049866,2.3921046257019,1.96843731403351,-1.33222611841886,2.3925966997709,1.96756852021384,2147.997,2148.427,2145.474,2148.714,359.264831542969,44.9953765869141,0.292434900999069,-1.08737456798553,-0.467725098133087,0.673171877861023,-1.09109790637238,-0.469468947365361,0.675441580245663,0
2.33999633789063,-1.35525190830231,2.38272905349731,1.98193073272705,-1.35407709248145,2.38319483607731,1.98109531406483,2142.632,2144.877,2147.302,2147.985,359.345611572266,44.9955253601074,0.259543776512146,-1.08988189697266,-0.468805551528931,0.674671113491058,-1.09348640563071,-0.470496651869278,0.67692017506657,0
2.36000061035156,-1.37709426879883,2.37333345413208,1.99545478820801,-1.37597305876702,2.37377361348711,1.99464996024512,2146.38,2145.357,2140.529,2143.24,359.426788330078,44.9952926635742,0.227560773491859,-1.09211218357086,-0.469769358634949,0.676204562187195,-1.09559602313537,-0.471404361345641,0.678226128796969,0
2.3800048828125,-1.39897537231445,2.36392116546631,2.00900292396545,-1.39790843013262,2.36433543599182,2.00822900004707,2142.007,2142.662,2139.706,2142.795,359.50732421875,44.9951972961426,0.195519894361496,-1.09406316280365,-0.470611691474915,0.677412331104279,-1.09742594550583,-0.472191725819537,0.679358937915576,0
2.39999389648438,-1.42089021205902,2.35449457168579,2.02257204055786,-1.41986083522252,2.35488992936084,2.02181858453579,2139.746,2140.312,2138.562,2140.957,359.587829589844,44.9951820373535,0.16320164501667,-1.09573841094971,-0.471335232257843,0.678455531597137,-1.09897439291323,-0.472857979480329,0.680317500623536,0
2.41999816894531,-1.44283294677734,2.34505581855774,2.03615713119507,-1.44185817738692,2.34542508756209,2.03543598721428,2134.522,2137.064,2140.148,2140.064,359.670135498047,44.9953994750977,0.129599869251251,-1.09713733196259,-0.471940726041794,0.679259121417999,-1.10024313330221,-0.473403883025206,0.681102911362803,0
2.44000244140625,-1.46479797363281,2.33560705184937,2.04975914955139,-1.46387808506052,2.33595053645515,2.04906735901791,2138.519,2137.758,2133.063,2135.168,359.753143310547,44.9951820373535,0.0971060246229172,-1.09825468063354,-0.472427874803543,0.680096685886383,-1.10123038958312,-0.473828671822132,0.681714070030222,0
2.45999145507813,-1.48677980899811,2.3261513710022,2.06337141990662,-1.48589810917879,2.32647593524532,2.06269880290633,2134.649,2134.949,2131.588,2134.988,359.83544921875,44.9950675964355,0.0645954161882401,-1.09908974170685,-0.472791582345963,0.680614650249481,-1.10193535162022,-0.474131997292339,0.68215047511319,0
2.47999572753906,-1.50877261161804,2.31669068336487,2.07698917388916,-1.50794623031618,2.31698924467309,2.07634764018804,2129.488,2131.379,2133.147,2134.405,359.918701171875,44.9952125549316,0.0307912975549698,-1.09964525699615,-0.473034024238586,0.680885136127472,-1.10235882472314,-0.474314205938057,0.682412625136718,0
2.5,-1.53077101707458,2.30722761154175,2.0906126499176,-1.52999999932945,2.30750012397766,2.08999997377396,2133.023,2132.024,2126.708,2129.439,0.00198449450545013,44.995002746582,-0.00190793396905065,-1.09991705417633,-0.473156571388245,0.681174159049988,-1.10250000050292,-0.474374949932098,0.682500019669533,0
2.52000427246094,-1.55276918411255,2.29776453971863,2.10423564910889,-1.55205376834272,2.29801100328223,2.10365230735988,2128.808,2129.112,2125.826,2129.271,0.0843554213643074,44.994930267334,359.96533203125,-1.09990763664246,-0.473156362771988,0.681146919727325,-1.10235882472314,-0.474314205938057,0.682412625136718,0
2.53999328613281,-1.57476139068604,2.2883038520813,2.11785459518433,-1.57408507527774,2.28853154739156,2.11729073584934,2126.417,2126.908,2124.864,2127.365,0.166467055678368,44.9949531555176,359.932373046875,-1.09961974620819,-0.473036229610443,0.68094938993454,-1.10193578218388,-0.474132182551855,0.682150741652607,0
2.55999755859375,-1.59674263000488,2.27884793281555,2.13146495819092,-1.59612191359838,2.27904971150017,2.13093258853001,2121.304,2123.85,2126.405,2126.405,0.250146090984344,44.9951858520508,359.898315429688,-1.09905421733856,-0.472797483205795,0.680518507957458,-1.10123038958312,-0.473828671822132,0.681714070030222,0
2.58000183105469,-1.61870658397675,2.26939916610718,2.14506721496582,-1.61814182127198,2.26957516039323,2.14456396033363,2125.276,2124.323,2119.548,2121.699,0.334322273731232,44.9949989318848,359.865386962891,-1.09820401668549,-0.472438752651215,0.680115938186646,-1.10024313330221,-0.473403883025206,0.681102911362804,0
2.59999084472656,-1.64064800739288,2.25995993614197,2.15865516662598,-1.64012239440973,2.26011753383818,2.15817098218581,2121.577,2121.669,2117.992,2121.5,0.417605638504028,44.9948959350586,359.83251953125,-1.09707272052765,-0.471956938505173,0.679402768611908,-1.09897546783438,-0.47285844198887,0.680318166050934,0
2.6199951171875,-1.66256141662598,2.25053286552429,2.1722240447998,-1.66209156852628,2.2506648119635,2.17177094750084,2116.417,2118.292,2119.563,2120.924,0.50158417224884,44.9950675964355,359.798522949219,-1.09566295146942,-0.471354246139526,0.678441643714905,-1.09742594550583,-0.472191725819537,0.679358937915576,0
2.63999938964844,-1.68444061279297,2.24112010002136,2.18577408790588,-1.68402693989188,2.24122663446822,2.18534998730279,2120.013,2118.731,2113.311,2116.151,0.58536571264267,44.9948806762695,359.765625,-1.09396874904633,-0.470630943775177,0.67749696969986,-1.09559602313537,-0.471404361345641,0.67822612879697,0
2.66000366210938,-1.70628070831299,2.23172426223755,2.19929885864258,-1.70592290617745,2.23180541187802,2.19890463348308,2115.926,2116.112,2112.403,2115.861,0.667997479438782,44.9948272705078,359.732849121094,-1.09199655056,-0.469786286354065,0.676243901252747,-1.09348640563071,-0.470496651869278,0.67692017506657,0
2.67999267578125,-1.72807550430298,2.22234797477722,2.21279525756836,-1.72775723139253,2.2224107117184,2.21242112090437,2113.535,2113.831,2111.559,2114.183,0.750132918357849,44.9948616027832,359.699920654297,-1.08974862098694,-0.468822509050369,0.674820005893707,-1.09109983431736,-0.469469776906228,0.675442773735451,0
2.69999694824219,-1.74982011318207,2.21299314498901,2.22625875473022,-1.74955768413056,2.21303058593937,2.22591663964878,2108.656,2110.941,2112.973,2113.257,0.83354926109314,44.9951057434082,359.666015625,-1.08722698688507,-0.467741698026657,0.673172354698181,-1.08843358680109,-0.468322565086308,0.673792239511893,0
2.72000122070313,-1.77150845527649,2.20366239547729,2.23968958854675,-1.77130202882336,2.20367460188472,2.23937742484041,2112.538,2111.434,2106.438,2108.585,0.917156338691711,44.9949378967285,359.63330078125,-1.08442330360413,-0.466541886329651,0.67154598236084,-1.08549040888332,-0.467056197851165,0.671970272177789,0
2.74000549316406,-1.79313540458679,2.19435787200928,2.25308203697205,-1.79298473688851,2.19434513834902,2.25280005402337,2108.927,2108.837,2104.976,2108.505,0.99966961145401,44.9948577880859,359.600738525391,-1.08134496212006,-0.46522182226181,0.669619143009186,-1.08227143928024,-0.465671165158559,0.669977576652695,0
2.75999450683594,-1.81469535827637,2.18508219718933,2.26643228530884,-1.81458384274179,2.18505164650952,2.26617092945464,2106.746,2106.746,2103.855,2106.835,1.08140599727631,44.9948577880859,359.568115234375,-1.07799363136292,-0.463783293962479,0.66751629114151,-1.07878069424208,-0.464169195088763,0.667816639186824,0
2.77999877929688,-1.83618271350861,2.17583727836609,2.27973604202271,-1.83612684690458,2.17578229366013,2.27950707526701,2101.861,2103.882,2105.297,2106.048,1.1640237569809,44.9950866699219,359.534606933594,-1.07437264919281,-0.462228804826736,0.665185153484344,-1.07501419914593,-0.462548577472581,0.665484999299265,0
2.80000305175781,-1.85759246349335,2.16662645339966,2.29299354553223,-1.85759178470316,2.16654653058634,2.29279489428112,2105.663,2104.407,2099.059,2101.354,1.24647879600525,44.9949226379395,359.502380371094,-1.07047319412231,-0.460556715726852,0.662872433662415,-1.07097597819164,-0.460811043810786,0.662985148161422,0
2.81999206542969,-1.87891840934753,2.15745115280151,2.30619883537292,-1.87895695992541,2.1573536925621,2.30602095550813,2101.989,2101.663,2097.84,2101.51,1.32764613628387,44.9948577880859,359.47021484375,-1.06630563735962,-0.458767026662827,0.66026496887207,-1.06667099276523,-0.458958728849171,0.660320157107579,0
2.83999633789063,-1.90015578269958,2.14831399917603,2.3193473815918,-1.90024960698239,2.14819206138118,2.31920211834584,2097.132,2098.837,2099.376,2100.746,1.40912997722626,44.995059967041,359.437225341797,-1.06187236309052,-0.456862539052963,0.657427728176117,-1.06209435025759,-0.456989527434725,0.657486997379635,0
2.86000061035156,-1.92129921913147,2.13921713829041,2.33243942260742,-1.9214480311499,2.13907097167731,2.33232495272651,2100.627,2099.126,2093.667,2096.278,1.49006009101868,44.9949150085449,359.405456542969,-1.05716550350189,-0.454842090606689,0.654602468013763,-1.05725102347782,-0.454905579228273,0.654488747383304,0
2.8800048828125,-1.94234311580658,2.13016271591187,2.3454692363739,-1.94254691640495,2.12999271078668,2.34538616777867,2096.745,2096.646,2092.884,2096.208,1.56963849067688,44.9948883056641,359.373901367188,-1.05219686031342,-0.452707350254059,0.651489555835724,-1.0521429102862,-0.45270770082608,0.651326581984514,0
2.89999389648438,-1.96328246593475,2.12115383148193,2.35843372344971,-1.96352501326936,2.1209664217661,2.35837260906308,2094.707,2094.749,2091.999,2094.494,1.64841997623444,44.9949493408203,359.342437744141,-1.0469673871994,-0.450460016727448,0.648220241069794,-1.04677621342161,-0.450398561093403,0.648004340974112,0
2.91999816894531,-1.98411202430725,2.11219167709351,2.37132859230042,-1.98440911693069,2.11198057539494,2.37130086407726,2090.212,2091.97,2093.238,2093.928,1.72799265384674,44.995189666748,359.310119628906,-1.0414811372757,-0.448102563619614,0.644741356372833,-1.04114485287423,-0.447975543971863,0.644518260536375,0
2.94000244140625,-2.00482678413391,2.10327911376953,2.3841540813446,-2.00517798053537,2.10304431360073,2.38415778000673,2093.967,2092.553,2087.285,2089.386,1.80724155902863,44.995044708252,359.279174804688,-1.03572809696198,-0.445632427930832,0.641277134418488,-1.03525504859546,-0.445441325732794,0.640872191117535,0
2.95999145507813,-2.02542090415955,2.09441804885864,2.39690470695496,-2.02581075424974,2.0941666074844,2.39693044981124,2090.554,2090.087,2086.05,2089.542,1.88505518436432,44.9949989318848,359.248443603516,-1.0297212600708,-0.443051069974899,0.637534499168396,-1.02911391720548,-0.442798968459032,0.637070538244476,0
2.97999572753906,-2.04589033126831,2.08561086654663,2.40957617759705,-2.04633384260397,2.08533609591429,2.40963521915279,2086.098,2087.412,2087.369,2088.954,1.9628529548645,44.9951858520508,359.217071533203,-1.02346336841583,-0.440360724925995,0.633575916290283,-1.02271452148052,-0.440045487257004,0.633109007445237,0
3,-2.06622910499573,2.07685971260071,2.42216873168945,-2.06672639957428,2.07656174835205,2.42225918334961,2089.398,2087.593,2082.13,2084.809,2.03975462913513,44.9950561523438,359.186859130859,-1.01694595813751,-0.437560200691223,0.629622280597687,-1.01606400046349,-0.437183953857422,0.628992018127441,0
3.02000427246094,-2.08643293380737,2.06816673278809,2.43467688560486,-2.0869834279768,2.06784571494631,2.43479924890685,2085.818,2085.443,2081.389,2084.653,2.11503672599792,44.9950485229492,359.157012939453,-1.01018345355988,-0.434652805328369,0.62540203332901,-1.00916501115878,-0.434215511495054,0.624721215103391,0
3.03999328613281,-2.10649657249451,2.05953359603882,2.44709753990173,-2.10708469520508,2.05919670122237,2.4472428908773,2083.81,2083.555,2080.72,2083.231,2.18925404548645,44.9951286315918,359.127288818359,-1.00317692756653,-0.431640028953552,0.621031701564789,-1.00202586176059,-0.431143734953757,0.620301741541063,0
3.05999755859375,-2.12641477584839,2.05096340179443,2.45942687988281,-2.12705600675913,2.05060360379452,2.45960608409476,2079.529,2081.257,2082.021,2082.506,2.26399993896484,44.9953880310059,359.097045898438,-0.995931327342987,-0.428524971008301,0.616466999053955,-0.994638524886308,-0.427965170275055,0.615728628108227,0
3.08000183105469,-2.14618396759033,2.04245734214783,2.47166538238525,-2.14687713595163,2.04207512564123,2.47187630727625,2083.442,2081.526,2076.292,2078.476,2.33811497688293,44.9952583312988,359.068084716797,-0.988436102867126,-0.425304174423218,0.611924469470978,-0.987011339258122,-0.424683405378145,0.611007036871143,0
3.09999084472656,-2.16579794883728,2.03401780128479,2.48380756378174,-2.16652837486666,2.03361974652815,2.48404136028297,2079.971,2079.38,2075.372,2078.669,2.41061449050903,44.9952278137207,359.039428710938,-0.980707466602325,-0.4219810962677,0.607113659381866,-0.979153483542501,-0.421302389586788,0.606142649861596,0
3.1199951171875,-2.18525290489197,2.02564668655396,2.49584984779358,-2.18603502400946,2.02522658035469,2.49611690533293,2076.045,2076.987,2076.506,2078.101,2.48282313346863,44.995418548584,359.010284423828,-0.972747325897217,-0.418557733297348,0.602111518383026,-0.971056158224178,-0.417818336715394,0.601130019760458,0
3.13999938964844,-2.20454406738281,2.01734614372253,2.5077919960022,-2.20537738341953,2.01690410346351,2.50809074721212,2079.183,2077.21,2071.714,2074.217,2.55384969711304,44.9953079223633,358.982421875,-0.964547514915466,-0.415032595396042,0.597111523151398,-0.962728579444533,-0.414235212212131,0.595974851798267,0
3.16000366210938,-2.22366666793823,2.00911784172058,2.51962924003601,-2.22455088103183,2.00865428308644,2.51996005559448,2075.817,2075.148,2071.136,2074.28,2.62307381629944,44.9953193664551,358.954956054688,-0.956124663352966,-0.411410182714462,0.591865718364716,-0.954174163352092,-0.410554485950274,0.590679260733698,0
3.17999267578125,-2.24261593818665,2.00096392631531,2.53135895729065,-2.24353658854737,2.00048526354177,2.53171311296128,2074.076,2073.611,2070.53,2072.838,2.69100761413574,44.9954032897949,358.927795410156,-0.947479426860809,-0.407691836357117,0.586485862731934,-0.945403214201559,-0.406780591562751,0.585249625391267,0
3.19999694824219,-2.26138830184937,1.99288630485535,2.54297757148743,-2.2623590635174,1.99238647840124,2.54336512160655,2070.288,2071.48,2071.633,2072.323,2.75905299186707,44.9956550598145,358.900299072266,-0.938617825508118,-0.403880745172501,0.580931842327118,-0.936405971974636,-0.402909329586355,0.579679903854719,0
3.22000122070313,-2.27997899055481,1.98488688468933,2.55448532104492,-2.28099938900442,1.98436606709459,2.55490437104486,2073.68,2071.695,2066.712,2068.702,2.82619214057922,44.9955596923828,358.874053955078,-0.929530143737793,-0.399973928928375,0.575390458106995,-0.927192788821982,-0.398945154262308,0.573976504598449,0
3.239990234375,-2.29838395118713,1.97696733474731,2.56587767601013,-2.2994392795179,1.97643189735754,2.5663195416865,2070.824,2069.883,2065.722,2068.793,2.89152574539185,44.9955444335938,358.848266601563,-0.920233428478241,-0.395975649356842,0.569617867469788,-0.917774783907129,-0.394892849856044,0.568146310914365,0
3.25999450683594,-2.31659865379333,1.96912956237793,2.57715106010437,-2.31770268688992,1.96857366338589,2.57762546085652,2067.063,2067.662,2066.927,2068.511,2.9562726020813,44.9957427978516,358.822143554688,-0.910730957984924,-0.391888111829758,0.563665866851807,-0.90814153446928,-0.390747931744771,0.562182870617026,0
3.27999877929688,-2.33461856842041,1.96137523651123,2.58830547332764,-2.33577134012187,1.96079922667992,2.58881081793642,2070.168,2067.976,2062.563,2064.851,3.01958894729614,44.995662689209,358.797332763672,-0.901013910770416,-0.387709587812424,0.557723343372345,-0.898304216251578,-0.386515208538549,0.556093102023818,0
3.30000305175781,-2.35244083404541,1.95370626449585,2.59933662414551,-2.35364119854729,1.95311032582551,2.59987311156116,2067.183,2066.266,2062.026,2064.909,3.08087372779846,44.9956817626953,358.773101806641,-0.891100823879242,-0.383445382118225,0.551560997962952,-0.888267004546666,-0.382196476749158,0.549879589839776,0
3.31999206542969,-2.37006068229675,1.94612431526184,2.61024212837219,-2.37129490830989,1.94551442770222,2.61080159886703,2065.537,2064.663,2061.646,2063.948,3.14061379432678,44.995777130127,358.749176025391,-0.880992949008942,-0.379096955060959,0.545276939868927,-0.878042061913513,-0.37779696958594,0.54354986326829,0
3.33999633789063,-2.38747429847717,1.93863105773926,2.62101888656616,-2.38875555478454,1.93800159931817,2.62161057080077,2062.219,2062.958,2062.677,2063.391,3.20010852813721,44.9960174560547,358.725067138672,-0.870696365833282,-0.374667942523956,0.538843274116516,-0.867618167158097,-0.373311858882592,0.53709697585572,0
3.36000061035156,-2.40467858314514,1.93122792243958,2.63166737556458,-2.406005803634,1.93057929915441,2.6322892965819,2065.455,2063.286,2058.267,2060.05,3.25837397575378,44.9959487915039,358.702331542969,-0.860202431678772,-0.370155483484268,0.532425820827484,-0.857007552155826,-0.36874640767338,0.530528499715627,0
3.3800048828125,-2.42166900634766,1.92391657829285,2.64218330383301,-2.42304196557559,1.92324911460621,2.64283549236868,2062.777,2061.613,2057.563,2060.368,3.31465601921082,44.9959526062012,358.680145263672,-0.849529683589935,-0.3655646443367,0.525801599025726,-0.846214826007803,-0.364102599125748,0.523847288101157,0
3.39999389648438,-2.43844246864319,1.91669893264771,2.65256476402283,-2.43984769972619,1.91601807669906,2.65323904237604,2061.64,2060.454,2056.856,2059.213,3.36914658546448,44.9960136413574,358.658447265625,-0.838678777217865,-0.360896557569504,0.51906943321228,-0.835253140422974,-0.35938609205264,0.51706148254665,0
3.41999816894531,-2.45499563217163,1.90957570075989,2.6628086566925,-2.45644516534361,1.90887665092339,2.66351366424015,2058.461,2058.692,2057.878,2059.013,3.42293357849121,44.9962272644043,358.636657714844,-0.827657639980316,-0.356155276298523,0.512190639972687,-0.824110582941664,-0.354591760855451,0.510163708672097,0
3.44000244140625,-2.4713249206543,1.90254878997803,2.67291522026062,-2.47281804716281,1.90183185728196,2.67364925803476,2061.262,2059.093,2054.127,2055.844,3.47522687911987,44.9961814880371,358.6162109375,-0.816458404064178,-0.351338893175125,0.505323827266693,-0.812800388649434,-0.349725300221754,0.503162159625937,0
3.45999145507813,-2.4874267578125,1.89561986923218,2.68288064002991,-2.48895081463434,1.8948903781363,2.68363620960993,2058.914,2057.602,2053.529,2056.104,3.52541637420654,44.9962043762207,358.596435546875,-0.805099368095398,-0.346452504396439,0.498276472091675,-0.80133641229185,-0.344792671461508,0.496065412155666,0
3.47999572753906,-2.50329875946045,1.88878989219666,2.69270253181458,-2.50486489870395,1.88804299234919,2.69348778574196,2056.058,2055.881,2054.507,2055.975,3.57449793815613,44.9963912963867,358.576599121094,-0.79358434677124,-0.341498494148254,0.491095393896103,-0.789706299681989,-0.339788558913217,0.488865818431069,0
3.5,-2.5189368724823,1.88206028938293,2.70238089561462,-2.5205447997813,1.88129636896134,2.70319439144611,2058.539,2056.148,2051.244,2053.145,3.62179923057556,44.9963569641113,358.558074951172,-0.781907320022583,-0.336475849151611,0.48392328619957,-0.777924000354857,-0.334718964672089,0.481572013878822,0
3.52000427246094,-2.53433847427368,1.87543249130249,2.71191263198853,-2.53598752699493,1.87465179486116,2.71275417523047,2056.316,2054.942,2050.853,2053.231,3.66686940193176,44.9964141845703,358.540252685547,-0.770086169242859,-0.331390410661697,0.476587980985641,-0.765994882555673,-0.32958619854407,0.474187321698442,0
3.53999328613281,-2.54950094223022,1.86890733242035,2.72129583358765,-2.55117869390181,1.86811546013321,2.72215823120146,2055.236,2053.86,2050.521,2052.473,3.71001362800598,44.9965133666992,358.523010253906,-0.758123219013214,-0.326243698596954,0.469165623188019,-0.753933682518821,-0.324396601119134,0.466720864320997,0
3.55999755859375,-2.5644211769104,1.86248683929443,2.73052835464478,-2.56613872308604,1.86167857751006,2.73141920191151,2052.564,2052.563,2051.523,2052.262,3.75226211547852,44.9967422485352,358.505920410156,-0.746026277542114,-0.32103955745697,0.461628943681717,-0.741727567798258,-0.319144650954242,0.459164697851087,0
3.58000183105469,-2.57909727096558,1.8561714887619,2.73961067199707,-2.58085326729328,1.85534732021446,2.74052820572674,2055.44,2052.807,2048.09,2049.75,3.79278326034546,44.9967041015625,358.490142822266,-0.733788728713989,-0.315775960683823,0.454118698835373,-0.729391385793765,-0.313836736470737,0.451528013536464,0
3.59999084472656,-2.59352588653564,1.84996223449707,2.748539686203,-2.59530884290342,1.84912748987145,2.74947689564398,2053.328,2051.716,2047.725,2050.088,3.83099937438965,44.9967384338379,358.475036621094,-0.721429526805878,-0.310459077358246,0.446453601121902,-0.716940488958392,-0.308479463400265,0.4438203152769,0
3.6199951171875,-2.60770463943481,1.84386038780212,2.75731348991394,-2.60952509409627,1.84301063413925,2.75827743234631,2051.022,2050.509,2048.654,2049.904,3.86776971817017,44.9969253540039,358.460205078125,-0.7089524269104,-0.305091261863708,0.438685446977615,-0.704361775018033,-0.303067194200314,0.436033492140578,0
3.63999938964844,-2.62163162231445,1.83786702156067,2.76593232154846,-2.6234885835008,1.83700253474321,2.76692149746096,2053.397,2050.779,2045.889,2047.605,3.90244746208191,44.9969024658203,358.446716308594,-0.696353375911713,-0.299671679735184,0.430937111377716,-0.691670720740692,-0.297606588091786,0.428177124984152,0
3.66000366210938,-2.63530492782593,1.83198261260986,2.7743935585022,-2.63719712493647,1.83110413233575,2.77540773763803,2051.454,2049.702,2045.779,2048.004,3.93467950820923,44.9969787597656,358.433929443359,-0.683650612831116,-0.294206619262695,0.423056066036224,-0.678873453515702,-0.29210028151913,0.420255006953505,0
3.67999267578125,-2.64872169494629,1.82620906829834,2.78269577026367,-2.65063849381582,1.82532068681534,2.78372858527554,2050.554,2049.013,2045.752,2047.36,3.96481251716614,44.9971008300781,358.421875,-0.670846939086914,-0.288697957992554,0.415112763643265,-0.665986083416798,-0.286555206197011,0.41227711095171,0
3.69999694824219,-2.66188097000122,1.82054603099823,2.79083776473999,-2.66383127580226,1.81964420129024,2.79189554578451,2048.805,2047.996,2046.424,2047.295,3.99360609054565,44.9972991943359,358.410125732422,-0.657949686050415,-0.283149391412735,0.40709587931633,-0.65299527533123,-0.280965624398954,0.404235181908735,0
