t,x_s1,x_s2,x_s3,x_s_d1,x_s_d2,x_s_d3,propellers_rpms1,propellers_rpms2,propellers_rpms3,propellers_rpms4,rollRad,pitchRad,yawRad,v_s1,v_s2,v_s3,v_s_d1,v_s_d2,v_s_d3,insideCount
0,-0.0599999986588955,2.94000005722046,1.17999994754791,-0.0599999986588955,2.94000005722046,1.17999994754791,0,0,0,0,0,45.0048027038574,0,0,0,0,-1.06581410364015E-15,4.44089209850063E-16,-7.105427357601E-16,0
0.0200042724609375,-0.0599999986588955,2.94000005722046,1.1790189743042,-0.0600018701838461,2.93999925195556,1.1800010908333,0,0,0,0,0.00112506025470793,44.8630180358887,0.909283995628357,-3.60929135467813E-08,2.95208444356376E-08,-0.0490499772131443,-0.000280105751305916,-0.000120521679537258,0.000171112232507361,5
0.0399932861328125,-0.0599999986588955,2.94000005722046,1.17411398887634,-0.060014863945674,2.93999366110285,1.18000902851964,0,0,0,0,0.00304076820611954,44.7212371826172,1.81856417655945,-3.62307304158094E-08,2.93641413406931E-08,-0.245249927043915,-0.00111059898697896,-0.000477859717552347,0.000678447590588643,6
0.05999755859375,-0.0600350871682167,2.94003486633301,1.16684293746948,-0.0600498857373401,2.93997859220429,1.18003042278566,2306.864,2000.105,2127.934,3382.411,-0.00213763583451509,44.804630279541,1.28308069705963,-0.00175442243926227,0.00174324470572174,-0.363553434610367,-0.00247936261166862,-0.00106680046642749,0.00151460392977639,6
0.0800018310546875,-0.0601342283189297,2.9401330947876,1.15967166423798,-0.0601175574246769,2.93994947496775,1.18007176236346,2848.435,2760.085,2606.389,2298.976,359.914459228516,44.8777122497559,0.61988353729248,-0.00495698023587465,0.00491337990388274,-0.358562439680099,-0.00437268608126799,-0.00188144466206175,0.00267120569262453,6
0.100006103515625,-0.06027527526021,2.94026303291321,1.15338182449341,-0.0602282404704493,2.93990185114529,1.18013937690895,2872.154,2897.593,2627.794,2213.418,359.724884033203,44.9187850952148,0.190187379717827,-0.00705227255821228,0.0064934641122818,-0.314492702484131,-0.00677739276378709,-0.00291612276782231,0.00414020348026766,5
0.1199951171875,-0.0604444108903408,2.94038772583008,1.14806044101715,-0.0603918861403606,2.93983143898525,1.18023934549506,2725.875,2926.6,2634.639,2219.366,359.427795410156,44.9351043701172,0.0502913519740105,-0.00845671817660332,0.0062350588850677,-0.266067713499069,-0.00967801353495435,-0.00416417885169243,0.00591214744607921,5
0.139999389648438,-0.0606512725353241,2.94048070907593,1.1437304019928,-0.0606185767455666,2.93973390035084,1.18037782724834,2551.496,2769.872,2667.824,2379.58,359.090545654297,44.9478645324707,0.144063994288445,-0.0103431111201644,0.00464984681457281,-0.216503694653511,-0.0130660253322238,-0.00562194567796536,0.00798183098414958,5
0.160003662109375,-0.0609211139380932,2.94052791595459,1.14032292366028,-0.0609177895434042,2.93960515744296,1.18056061167741,2443.444,2553.679,2687.09,2529.233,358.804443359375,44.9652862548828,0.340520292520523,-0.0134920692071319,0.00235773762688041,-0.170374974608421,-0.0169265510445065,-0.00728302204135792,0.0103401658994673,5
0.17999267578125,-0.0612807311117649,2.94052505493164,1.13772797584534,-0.0612985250199726,2.93944133760391,1.18079319703879,2417.387,2395.088,2654.659,2596.417,358.625579833984,44.9838676452637,0.51868611574173,-0.0179808102548122,-0.000144363380968571,-0.129749849438667,-0.0212433804254414,-0.00914043312572283,0.0129772496054864,5
0.199996948242188,-0.0617484971880913,2.94047331809998,1.13583767414093,-0.0617704296168641,2.93923829023936,1.1810814761931,2450.422,2337.742,2562.158,2580.344,358.551208496094,44.9966087341309,0.617865025997162,-0.0233883988112211,-0.00259033683687449,-0.09451724588871,-0.0260104776919234,-0.0111915819022102,0.0158893949364944,5
0.220001220703125,-0.0623322129249573,2.94037485122681,1.13456833362579,-0.0623420644491781,2.93899233174064,1.18143067899198,2497.223,2360.087,2442.588,2516.071,358.526123046875,44.9992294311523,0.641130805015564,-0.0291858520358801,-0.00492143863812089,-0.0634668618440628,-0.03121219533433,-0.0134297356845702,0.0190670430730375,5
0.240005493164063,-0.0630331486463547,2.94023036956787,1.13386464118958,-0.0630219993990999,2.93869977472688,1.18184604064271,2512.037,2408.271,2348.102,2446.44,358.477081298828,44.9926986694336,0.627750396728516,-0.0350468270480633,-0.00722894165664911,-0.0351851508021355,-0.0368361158647881,-0.0158495515746756,0.0225026083655451,5
0.259994506835938,-0.0638522878289223,2.94003653526306,1.13368928432465,-0.0638179029240226,2.93835731967507,1.18233224568626,2475.52,2437.176,2311.539,2397.046,358.355926513672,44.9817390441895,0.61929327249527,-0.0409568399190903,-0.00968941766768694,-0.00877077877521515,-0.0428651747123285,-0.0184436871643672,0.0261856663338995,4
0.279998779296875,-0.0647949203848839,2.93978667259216,1.13401031494141,-0.0647390625194898,2.93796097043536,1.18289496770872,2398.127,2428.774,2331.787,2372.743,358.16259765625,44.9715042114258,0.638353288173676,-0.0471318252384663,-0.0124872345477343,0.0160538107156754,-0.0492963837173861,-0.0212108567320638,0.0301143915580518,4
0.300003051757813,-0.0658715814352036,2.93947196006775,1.1347930431366,-0.0657927507678135,2.93750759781875,1.18353864941714,2313.85,2391.399,2375.409,2363.788,357.940002441406,44.9649810791016,0.685063362121582,-0.0538329817354679,-0.0157363228499889,0.0391393080353737,-0.0561132031658829,-0.0241439437008635,0.0342786801847687,4
0.319992065429688,-0.0670955255627632,2.93908333778381,1.13599860668182,-0.0669855955880233,2.93699435001684,1.18426733970383,2254.812,2343.543,2404.34,2358.73,357.744476318359,44.9626541137695,0.74558424949646,-0.0611973479390144,-0.0194298923015594,0.0602806061506271,-0.0632980253096114,-0.0272353719486164,0.0386677759154339,4
0.339996337890625,-0.068478986620903,2.93861436843872,1.13758587837219,-0.068326768706371,2.93641728069206,1.18508664143323,2239.032,2303.175,2393.039,2348.579,357.61474609375,44.9632034301758,0.803845107555389,-0.0691729560494423,-0.0234482567757368,0.0793625563383102,-0.0708499516420146,-0.0304847548730522,0.0432811298664125,4
0.360000610351563,-0.0700303986668587,2.93806195259094,1.1395149230957,-0.0698225328270578,2.93577369517774,1.18600038039362,2262.325,2279.513,2340.522,2330.525,357.552764892578,44.9647216796875,0.850385308265686,-0.0775705426931381,-0.0276180598884821,0.0964535772800446,-0.0787518717320621,-0.0338847303337087,0.0481082895423912,4
0.3800048828125,-0.0717540755867958,2.93742609024048,1.14175117015839,-0.0714797725314022,2.93506063123087,1.18701276226829,2297.518,2269.526,2273.18,2308.66,357.525238037109,44.9657363891602,0.884497165679932,-0.0861838385462761,-0.0317942947149277,0.111811846494675,-0.0869921272359981,-0.0374302820709642,0.0531421330430943,4
0.399993896484375,-0.0736520141363144,2.93670749664307,1.14426505565643,-0.0733036822025899,2.9342758538535,1.18812696022487,2317.088,2266.186,2221.006,2286.846,357.486999511719,44.9656066894531,0.911260783672333,-0.094897136092186,-0.0359243042767048,0.125691875815392,-0.0955525119207663,-0.0411135764513579,0.0583715384648505,4
0.419998168945313,-0.0757265388965607,2.93590641021729,1.14703142642975,-0.0753034649285836,2.93341540321397,1.18934859628618,2304.019,2261.695,2204.416,2268.67,357.406494140625,44.9645767211914,0.937003374099731,-0.103726260364056,-0.0400593541562557,0.138318553566933,-0.104434660908044,-0.0449353170220673,0.0637975046779765,4
0.44000244140625,-0.0779821425676346,2.93502020835876,1.15002763271332,-0.077483988232608,2.93247718495301,1.19068064394622,2264.479,2253.356,2219.256,2254.187,357.282135009766,44.963264465332,0.965968489646912,-0.112780317664146,-0.0443128570914268,0.14981135725975,-0.113620829717891,-0.048887868829098,0.0694091918565748,4
0.460006713867188,-0.0804257765412331,2.9340443611145,1.15323328971863,-0.0798512213598696,2.93145863067119,1.19212674972372,2214.619,2240.122,2249.652,2243.851,357.137847900391,44.9624481201172,0.99897313117981,-0.122181713581085,-0.0487895607948303,0.160283356904984,-0.123099793815011,-0.0529664022684887,0.0751997431071877,4
0.479995727539063,-0.0830655694007874,2.93297386169434,1.15662884712219,-0.0824088828700873,2.93035814037613,1.19368918522879,2178.029,2225.568,2270.458,2235.332,357.008972167969,44.9625549316406,1.03398191928864,-0.131989806890488,-0.0535284504294395,0.169779568910599,-0.132852887402757,-0.0571628859694044,0.0811577557859174,4
0.5,-0.0859089717268944,2.93180418014526,1.16019642353058,-0.085166398670376,2.92917165836334,1.195373708601,2167.235,2212.573,2267.145,2227.732,356.920776367188,44.9636611938477,1.06801640987396,-0.142170339822769,-0.0584845133125782,0.178377076983452,-0.142884000065179,-0.0614789935111996,0.0872856059789651,5
0.520004272460938,-0.0889613255858421,2.93053293228149,1.16391909122467,-0.088127196023106,2.92789770997757,1.19718241350145,2183.296,2204.604,2237.063,2219.167,356.876556396484,44.9653739929199,1.09920406341553,-0.152617841959,-0.0635568425059319,0.18613512814045,-0.153174893518032,-0.065906877469682,0.0935721522030874,5
0.539993286132813,-0.0922257304191589,2.92916011810303,1.16778314113617,-0.091293865515634,2.92653518056143,1.19911688247953,2208.18,2199.585,2198.319,2211.592,356.856018066406,44.9672355651855,1.1273980140686,-0.163219839334488,-0.0686445683240891,0.19320248067379,-0.163706645289342,-0.0704383960337938,0.100005835015435,5
0.55999755859375,-0.0957039892673492,2.92768621444702,1.17177665233612,-0.094676112580471,2.92507989413848,1.20118304443252,2224.125,2196.11,2169.678,2204.874,356.831115722656,44.9688606262207,1.1533454656601,-0.173913270235062,-0.0736980438232422,0.199675142765045,-0.17448465888317,-0.0750758741803766,0.106589955332319,5
0.580001831054688,-0.0993981063365936,2.92611145973206,1.17588889598846,-0.0982762614093182,2.92353085067394,1.20338231917284,2223.106,2194.148,2160.012,2198.038,356.782257080078,44.9700164794922,1.17849600315094,-0.184705808758736,-0.078735314309597,0.20561195909977,-0.185490414529404,-0.0798113433697334,0.113313199715174,5
0.600006103515625,-0.103311330080032,2.92443513870239,1.18011164665222,-0.102098762959148,2.92188613504538,1.20571742572067,2202.498,2190.477,2172.83,2193.248,356.705627441406,44.9708595275879,1.20404839515686,-0.195661291480064,-0.0838212743401527,0.211136221885681,-0.196713446836865,-0.0846403006364086,0.120169175019836,5
0.6199951171875,-0.107448369264603,2.92265462875366,1.18443751335144,-0.106144683970236,2.92014528826426,1.208189015731,2174.96,2185.903,2195.243,2189.427,356.615936279297,44.9716987609863,1.23005092144012,-0.206851616501808,-0.08902508020401,0.216291815042496,-0.208134604141382,-0.0895545055543457,0.127146181793521,5
0.639999389648438,-0.111814633011818,2.92076706886292,1.18886041641235,-0.110424235525481,2.91830391678686,1.21080332699501,2153.409,2180.858,2213.518,2186.755,356.53515625,44.9728546142578,1.25567281246185,-0.218313246965408,-0.0943793579936028,0.221142634749413,-0.219761081350814,-0.0945570538913933,0.134248615293163,5
0.660003662109375,-0.116415098309517,2.91876983642578,1.19337463378906,-0.114938248900541,2.91636166293851,1.21356086732604,2150.836,2178.35,2213.157,2183.608,356.480865478516,44.9743843078613,1.28009748458862,-0.23002353310585,-0.0998629629611969,0.225710913538933,-0.231574097577923,-0.0996398647564507,0.141465002567821,5
0.67999267578125,-0.121253482997417,2.91666150093079,1.19797670841217,-0.119686638739014,2.91431856344567,1.2164615845812,2162.391,2176.595,2198.732,2181.967,356.453979492188,44.9762725830078,1.30295598506927,-0.241919443011284,-0.105415694415569,0.230102762579918,-0.243554411173546,-0.104794659005432,0.14878358919428,5
0.699996948242188,-0.126332104206085,2.91444206237793,1.20266389846802,-0.124680083855354,2.91217002351282,1.2195120022816,2179.548,2175.791,2178.879,2181.015,356.443084716797,44.9782867431641,1.32391953468323,-0.253930956125259,-0.110974319279194,0.234358787536621,-0.255710395848158,-0.11002503961202,0.1562094905416,5
0.720001220703125,-0.131652384996414,2.91211199760437,1.20743370056152,-0.129918284978346,2.90991617190799,1.22271193760712,2195.015,2177.389,2160.974,2179.222,356.431915283203,44.9800567626953,1.34343206882477,-0.266014128923416,-0.116504020988941,0.238489016890526,-0.268023157655716,-0.11532287703907,0.163731164592979,5
0.740005493164063,-0.137215822935104,2.90967178344727,1.21228539943695,-0.13540428105644,2.90755570105657,1.22606324700395,2196.914,2177.952,2157.986,2178.87,356.40576171875,44.9814872741699,1.36233246326447,-0.278171718120575,-0.122011885046959,0.242587894201279,-0.280482990349159,-0.120683994959631,0.171342681953548,5
0.759994506835938,-0.143024623394012,2.90712094306946,1.21721863746643,-0.14113644597991,2.90508931062815,1.22956493710703,2187.111,2178.01,2168.302,2178.729,356.362487792969,44.9826164245605,1.38092041015625,-0.290439903736115,-0.127536818385124,0.246664106845856,-0.293070637251543,-0.126100107763583,0.179032279019858,5
0.779998779296875,-0.149081870913506,2.90445852279663,1.22223377227783,-0.147126184485884,2.90251209348295,1.2332239748923,2170.968,2176.942,2186.503,2179.341,356.310913085938,44.9836692810059,1.39894497394562,-0.302862823009491,-0.133123189210892,0.2507563829422,-0.305795832832518,-0.131575403921268,0.186805902427515,5
0.800003051757813,-0.155391037464142,2.90168261528015,1.22733080387115,-0.153371683173492,2.89982482987671,1.23703925258147,2162.182,2177.652,2197.693,2178.937,356.266174316406,44.9847602844238,1.41611576080322,-0.315458685159683,-0.138792499899864,0.254849076271057,-0.318639638509124,-0.13710173468952,0.194651982891718,5
0.819992065429688,-0.161955311894417,2.89879202842712,1.23251128196716,-0.159870162197751,2.89702871589906,1.24100907201063,2161.396,2177.802,2201.108,2179.95,356.237091064453,44.9860763549805,1.43228995800018,-0.328213721513748,-0.144532278180122,0.259024977684021,-0.33158286215529,-0.142670842232658,0.202558796242139,5
0.839996337890625,-0.16877706348896,2.89578580856323,1.23777711391449,-0.166633637018892,2.89411858163313,1.24514077323692,2168.901,2178.071,2196.093,2181.559,356.225463867188,44.9876098632813,1.44684600830078,-0.341087311506271,-0.150306522846222,0.2632936835289,-0.344636106234817,-0.148287288494656,0.210532819358465,5
0.860000610351563,-0.175857663154602,2.89266419410706,1.24312961101532,-0.173659158941841,2.89109569582005,1.24943255494854,2184.014,2181.062,2182.768,2181.821,356.225830078125,44.9891128540039,1.4598023891449,-0.354030311107635,-0.156075045466423,0.267627865076065,-0.357780475378537,-0.153942943326036,0.218562509354528,5
0.8800048828125,-0.183197945356369,2.88942790031433,1.24857175350189,-0.180948461186242,2.88795931270381,1.25388547594233,2194.395,2183.115,2174.406,2183.51,356.225646972656,44.9904479980469,1.47172367572784,-0.367014318704605,-0.161814376711845,0.272109657526016,-0.371007022483504,-0.159633957038354,0.226642400584755,5
0.899993896484375,-0.190798670053482,2.88607740402222,1.25410616397858,-0.18849723509595,2.8847112861788,1.25849690412748,2197.322,2185.016,2174.04,2185.087,356.216644287109,44.9915199279785,1.48282015323639,-0.380036920309067,-0.167527958750725,0.276720196008682,-0.384296738353309,-0.165352150505452,0.234760880627692,5
0.919998168945313,-0.198661029338837,2.88261270523071,1.25973570346832,-0.196318384305134,2.8813460641717,1.26327472213274,2191.135,2185.706,2183.73,2187.165,356.197418212891,44.992374420166,1.49301278591156,-0.393119156360626,-0.173240274190903,0.281477957963943,-0.397661187980262,-0.171102499820431,0.242925014356675,5
0.94000244140625,-0.206786692142487,2.87903308868408,1.26546251773834,-0.204407453948074,2.87786556348678,1.26821620855017,2185.529,2188.135,2192.919,2187.686,356.174926757813,44.9930381774902,1.50237154960632,-0.406281530857086,-0.178977847099304,0.286338716745377,-0.411081631631503,-0.176876941799768,0.251123353961324,5
0.959991455078125,-0.21517738699913,2.87533807754517,1.27129006385803,-0.212759000778906,2.87427212620069,1.27331803818581,2180.05,2189.062,2202.408,2189.609,356.155700683594,44.9937400817871,1.51109898090363,-0.419535011053085,-0.184752956032753,0.291375696659088,-0.424539267042903,-0.182667386354485,0.259344413431889,5
0.979995727539063,-0.22383476793766,2.87152695655823,1.27722156047821,-0.22138664033507,2.87055989392801,1.27858852855901,2178.872,2189.332,2207.62,2191.971,356.146301269531,44.9946098327637,1.51857316493988,-0.432869136333466,-0.190558731555939,0.29657506942749,-0.438046240701377,-0.188479059778567,0.267595612867683,5
1,-0.232759803533554,2.86759948730469,1.28325927257538,-0.230284798736574,2.86673126495361,1.28402427467346,2187.342,2192.222,2202.238,2192.663,356.149566650391,44.9955139160156,1.52462220191956,-0.446252852678299,-0.196372285485268,0.301886290311813,-0.451584000205995,-0.194303979492187,0.275865618896484,5
1.02000427246094,-0.241952940821648,2.8635561466217,1.28940689563751,-0.239454009753966,2.86278600961093,1.28962560260127,2196.088,2194.036,2196.386,2194.743,356.159393310547,44.9964141845703,1.52959358692169,-0.459655940532684,-0.202167719602585,0.307382941246033,-0.465144357597929,-0.200138622445408,0.284149429622012,5
1.03999328613281,-0.251414060592651,2.85939764976501,1.29566752910614,-0.248887339851819,2.85872711120656,1.29538827675384,2203.047,2195.969,2192.157,2196.573,356.169372558594,44.9971961975098,1.53348922729492,-0.473057001829147,-0.207930356264114,0.313031703233719,-0.478708875293167,-0.205975055460915,0.292435781811908,5
1.05999755859375,-0.261143118143082,2.85512447357178,1.30204439163208,-0.258599401509697,2.85454828239877,1.3013212236669,2203.525,2196.844,2194.741,2198.837,356.174530029297,44.9978256225586,1.53616976737976,-0.486453652381897,-0.213662818074226,0.318841636180878,-0.492290296490434,-0.211818761581115,0.30073246008742,5
1.08000183105469,-0.2711401283741,2.85073685646057,1.30853939056396,-0.268583149539609,2.85025255453512,1.30742013954506,2203.758,2199.821,2197.178,2199.197,356.175842285156,44.9982032775879,1.53786242008209,-0.499850660562515,-0.219378262758255,0.324751257896423,-0.50587040849135,-0.217661904390701,0.309028338595312,5
1.10000610351563,-0.281405329704285,2.84623503684998,1.31515598297119,-0.278838480013141,2.84583997233313,1.31368496090006,2199.543,2200.861,2204.494,2201.011,356.174255371094,44.9984931945801,1.53905189037323,-0.513260066509247,-0.22509104013443,0.330832570791245,-0.519441457145546,-0.223501147495394,0.317318680446121,5
1.1199951171875,-0.29193902015686,2.84161877632141,1.32189691066742,-0.289357002179081,2.84131414609862,1.32011056195293,2196.487,2201.677,2210.651,2202.571,356.174835205078,44.9988136291504,1.53950953483582,-0.526685118675232,-0.230808421969414,0.337044358253479,-0.532985466132485,-0.229328756186667,0.32559250418615,5
1.13999938964844,-0.302741408348083,2.83688831329346,1.32876479625702,-0.300154365346813,2.83666834237095,1.32670650262257,2194.728,2201.554,2215.513,2204.614,356.181671142578,44.9992370605469,1.5387054681778,-0.540118992328644,-0.236527025699615,0.343393296003342,-0.546515580872639,-0.235150386571708,0.333857840147634,5
1.16000366210938,-0.313812166452408,2.83204364776611,1.33576107025146,-0.311222084148811,2.83190621216671,1.33346759933036,2201.075,2204.166,2211.167,2204.698,356.197631835938,44.9996376037598,1.53655993938446,-0.55353844165802,-0.242232397198677,0.349814265966415,-0.560014026276883,-0.240958390526247,0.342103829805999,6
1.17999267578125,-0.325150609016418,2.82708549499512,1.342888712883,-0.322550701230474,2.8270318247214,1.34038807472597,2206.457,2205.313,2207.645,2206.232,356.218048095703,45.0000343322754,1.53353202342987,-0.566921949386597,-0.247907087206841,0.356380492448807,-0.573463232144024,-0.246745208083563,0.350319739799517,6
1.19999694824219,-0.336755722761154,2.82201457023621,1.35014998912811,-0.334156660511822,2.8220381046756,1.34747797414352,2208.857,2205.462,2207.096,2208.085,356.238983154297,45.0003890991211,1.52932250499725,-0.580254197120667,-0.253541231155396,0.363063484430313,-0.58687652428584,-0.252516572968185,0.358513710658656,6
1.22000122070313,-0.34862619638443,2.8168318271637,1.35754585266113,-0.346030421585499,2.81692915700008,1.35473146949704,2212.953,2208.056,2204.141,2207.834,356.259185791016,45.0005569458008,1.52411282062531,-0.593526065349579,-0.259134531021118,0.369791924953461,-0.600236516861372,-0.258265004538453,0.366675121644476,6
1.24000549316406,-0.360760986804962,2.81153798103333,1.36507868766785,-0.358170848086624,2.8117054706409,1.36214786659896,2211.348,2208.586,2207.218,2209.14,356.275482177734,45.0006217956543,1.51844668388367,-0.606741964817047,-0.26469361782074,0.376641452312469,-0.613536214864368,-0.263987493038594,0.374799699616811,6
1.25999450683594,-0.373159170150757,2.80613350868225,1.37274992465973,-0.3705671011502,2.80637170925886,1.36972054415578,2208.145,2208.85,2211.941,2210.055,356.289947509766,45.0006446838379,1.51215600967407,-0.619907140731812,-0.270227909088135,0.383562296628952,-0.626758665639206,-0.269676744214496,0.382877088462885,6
1.27999877929688,-0.385819673538208,2.80061864852905,1.38056111335754,-0.383236695417198,2.80092033679326,1.37746020158837,2203.297,2207.902,2218.469,2211.475,356.306091308594,45.0007171630859,1.50474011898041,-0.633024990558624,-0.275743752717972,0.39056071639061,-0.639917282339435,-0.275338529371412,0.39091548206889,6
1.30000305175781,-0.39874130487442,2.79499387741089,1.38851225376129,-0.396168722856641,2.79535604666509,1.38536017535082,2205.775,2209.878,2216.67,2210.589,356.328918457031,45.0007514953613,1.49617898464203,-0.64608359336853,-0.281237602233887,0.397560030221939,-0.652995275331231,-0.280965624398954,0.398904623909522,6
1.31999206542969,-0.411922663450241,2.7892599105835,1.39660513401031,-0.409351342777246,2.78968393359302,1.39341323214959,2207.797,2210.049,2215.238,2211.436,356.356567382813,45.0008277893066,1.48694968223572,-0.659068584442139,-0.286697894334793,0.404645800590515,-0.665976209205206,-0.286550957599616,0.406834473849655,6
1.33999633789063,-0.425361961126328,2.78341770172119,1.40484082698822,-0.422802873722428,2.78389611561957,1.401630562497,2208.749,2209.182,2214.826,2212.613,356.387451171875,45.0009613037109,1.47662234306335,-0.67196387052536,-0.292113244533539,0.411783248186111,-0.678873453515705,-0.29210028151913,0.41471319914141,6
1.36000061035156,-0.439057022333145,2.77746820449829,1.41321873664856,-0.436511415158101,2.77799771321212,1.41000489654248,2214.007,2211.119,2209.212,2211.509,356.421051025391,45.0009613037109,1.4653092622757,-0.684753656387329,-0.297476291656494,0.418895721435547,-0.691670720740693,-0.297606588091785,0.422530849991739,6
1.3800048828125,-0.453005701303482,2.77141261100769,1.42174005508423,-0.450474904562636,2.77198961381608,1.41853497432376,2214.219,2210.996,2208.852,2212.106,356.452514648438,45.0009117126465,1.453577876091,-0.697433888912201,-0.30278480052948,0.426066786050797,-0.704361775018035,-0.303067194200314,0.43028361700977,6
1.39999389648438,-0.467205792665482,2.76525163650513,1.43040490150452,-0.464680216184654,2.76587746507559,1.42721277752413,2212.306,2210.668,2210.617,2212.304,356.481628417969,45.0008010864258,1.44129133224487,-0.710005581378937,-0.308043867349625,0.433244198560715,-0.716930938559026,-0.308475354130225,0.437961922879032,6
1.41999816894531,-0.481655269861221,2.7589864730835,1.43921363353729,-0.47914673136562,2.75965292774086,1.43605014590267,2206.896,2209.072,2216.124,2213.006,356.509979248047,45.0007171630859,1.4280047416687,-0.722473680973053,-0.313260972499847,0.440434277057648,-0.729391385793766,-0.313836736470737,0.445573815653291,6
1.44000244140625,-0.496351897716522,2.75261759757996,1.44816482067108,-0.493861275572861,2.75332167044526,1.44503903134294,2207.672,2210.422,2214.543,2211.33,356.542419433594,45.0005569458008,1.41375780105591,-0.734832763671875,-0.318438470363617,0.447558701038361,-0.741727567798258,-0.319144650954242,0.453109796737511,6
1.45999145507813,-0.511293411254883,2.7461462020874,1.45725893974304,-0.508809800712713,2.74688973769103,1.45417085208374,2206.926,2209.807,2214.564,2211.444,356.577880859375,45.0004272460938,1.39907193183899,-0.747075617313385,-0.323570907115936,0.454706519842148,-0.753924423002454,-0.324392617007921,0.460560665253582,6
1.47999572753906,-0.5264772772789,2.73957324028015,1.46649587154388,-0.524012471663969,2.74034845309416,1.46345792653486,2205.389,2207.998,2215.405,2212.014,356.61669921875,45.0004005432129,1.38343822956085,-0.759191513061523,-0.328650891780853,0.461845457553864,-0.765994882555672,-0.329586198544069,0.467934320638836,6
1.5,-0.54190057516098,2.7328999042511,1.47587370872498,-0.539455198877605,2.73370387899399,1.47289164761066,2209.842,2209.281,2209.368,2210.068,356.659912109375,45.0002937316895,1.36692535877228,-0.77116471529007,-0.333670318126678,0.468891561031342,-0.777924000354858,-0.334718964672088,0.475221632552146,6
1.52000427246094,-0.557560324668884,2.72612738609314,1.48539257049561,-0.555135099954955,2.72695725560613,1.48247025449879,2210.329,2208.448,2207.438,2210.052,356.702941894531,45.000171661377,1.35008358955383,-0.782987654209137,-0.338622719049454,0.475940823554993,-0.789706299681991,-0.339788558913217,0.482419255351937,6
1.53999328613281,-0.573453366756439,2.71925711631775,1.49505126476288,-0.571036956668503,2.72011513090874,1.49218445062151,2209.309,2207.564,2206.985,2209.57,356.744689941406,45.0000114440918,1.3327648639679,-0.794656753540039,-0.343508064746857,0.482936918735504,-0.801327600455846,-0.344788879974649,0.489518526647862,6
1.55999755859375,-0.589576840400696,2.7122905254364,1.50484907627106,-0.587181951496087,2.71316839067337,1.50204717602401,2204.388,2205.346,2210.656,2209.759,356.785400390625,44.9998893737793,1.31450664997101,-0.80617493391037,-0.348331183195114,0.489893108606339,-0.812800388649436,-0.349725300221754,0.496527073925997,6
1.58000183105469,-0.605927586555481,2.70522856712341,1.51478350162506,-0.60355483331529,2.70612359703193,1.51204911403357,2205.114,2206.296,2207.88,2207.329,356.828887939453,44.9996719360352,1.29540753364563,-0.817537605762482,-0.353094935417175,0.49672332406044,-0.824110582941666,-0.354591760855452,0.503436295127019,6
1.60000610351563,-0.622502386569977,2.69807267189026,1.52485406398773,-0.620152298932711,2.69898217125626,1.52218824678091,2203.084,2205.105,2208.015,2206.906,356.873596191406,44.9994773864746,1.2760466337204,-0.828741490840912,-0.357796937227249,0.503528594970703,-0.835253140422976,-0.35938609205264,0.510243109616171,5
1.6199951171875,-0.639298021793365,2.69082403182983,1.53505921363831,-0.636958033083316,2.69175113334911,1.53245460752521,2202.028,2203.867,2207.082,2206.119,356.920471191406,44.9993171691895,1.25625145435333,-0.83977997303009,-0.362433612346649,0.510255038738251,-0.846214826007804,-0.364102599125749,0.516939432286212,5
1.63999938964844,-0.656310975551605,2.68348407745361,1.54539752006531,-0.653994195024907,2.68442094880091,1.54286173301126,2198.932,2201.363,2208.319,2206.065,356.969543457031,44.9992446899414,1.23551154136658,-0.850647449493408,-0.367000937461853,0.516916573047638,-0.857007552155828,-0.368746407673381,0.523532540272869,5
1.66000366210938,-0.673537611961365,2.67605423927307,1.5558660030365,-0.671244443874359,2.67699864863716,1.55339964084857,2202.311,2202.242,2202.242,2203.264,357.022796630859,44.9990653991699,1.21396684646606,-0.861331343650818,-0.37149378657341,0.523424208164215,-0.867618167158098,-0.373311858882592,0.530014399402375,5
1.67999267578125,-0.690974116325378,2.66853618621826,1.56646370887756,-0.688691692550512,2.66949158495151,1.56405789280588,2201.773,2200.882,2200.214,2202.658,357.075988769531,44.9988899230957,1.19224381446838,-0.871825277805328,-0.375906199216843,0.529887497425079,-0.878034183119987,-0.377793579561193,0.536377381014768,5
1.69999694824219,-0.708616673946381,2.66093134880066,1.57718908786774,-0.706358800111611,2.66188992212981,1.57485045312518,2197.819,2198.188,2201.854,2202.516,357.128509521484,44.9987754821777,1.16982054710388,-0.882127046585083,-0.380238056182861,0.536268532276154,-0.888267004546665,-0.382196476749158,0.542628451944297,5
1.72000122070313,-0.726461291313171,2.6532416343689,1.58803868293762,-0.724228658537036,2.6542010212754,1.58576687078363,2199.096,2198.763,2197.652,2199.555,357.182800292969,44.99853515625,1.14681875705719,-0.892232239246368,-0.384491086006165,0.542477309703827,-0.898304216251578,-0.386515208538549,0.548760027947228,5
1.74000549316406,-0.74450409412384,2.64546823501587,1.59901118278503,-0.742297311768984,2.64642658456943,1.59680472908726,2196.371,2196.981,2197.635,2198.903,357.236450195313,44.9983367919922,1.12375617027283,-0.902140974998474,-0.38866463303566,0.548628151416779,-0.908141534469281,-0.390747931744771,0.554769492138099,5
1.75999450683594,-0.762741148471832,2.63761305809021,1.61010432243347,-0.760546715064628,2.63857437616062,1.60795300478424,2193.743,2195.254,2197.569,2197.702,357.290649414063,44.9981651306152,1.10038459300995,-0.911851763725281,-0.39275923371315,0.554658055305481,-0.917767514700581,-0.394889722119545,0.560649853250941,4
1.77999877929688,-0.781168401241302,2.62967753410339,1.62131607532501,-0.779000609654483,2.63063418086074,1.61922620102184,2188.903,2192.227,2199.859,2197.358,357.346557617188,44.9980812072754,1.07611000537872,-0.921363711357117,-0.39677482843399,0.560589075088501,-0.927192788821983,-0.398945154262308,0.566407606133204,4
1.80000305175781,-0.799781680107117,2.62166333198547,1.63264262676239,-0.797640935141499,2.62261376955408,1.63061328498531,2191.498,2192.832,2193.981,2193.986,357.407287597656,44.9979019165039,1.05108964443207,-0.930666208267212,-0.400707632303238,0.566325008869171,-0.936405971974637,-0.402909329586356,0.572035795952272,4
1.81999206542969,-0.818576753139496,2.61357235908508,1.64408242702484,-0.816448984455027,2.61452119137054,1.64210282881713,2190.856,2191.147,2191.388,2193.058,357.469085693359,44.9977493286133,1.02597153186798,-0.939751207828522,-0.404550164937973,0.571989476680756,-0.945396434568188,-0.406777674475912,0.57752792925727,3
1.83999633789063,-0.837548971176147,2.60540628433228,1.65563333034515,-0.835449117627072,2.60634596486888,1.6537097136807,2187.319,2188.134,2191.938,2192.645,357.531127929688,44.9976806640625,1.00021171569824,-0.948614239692688,-0.408299088478088,0.577542543411255,-0.954174163352093,-0.410554485950274,0.582890106797601,3
1.86000061035156,-0.856693983078003,2.59716725349426,1.66729116439819,-0.854622615239374,2.59809614449182,1.66542250417552,2189.5,2188.538,2186.256,2189.238,357.59521484375,44.9974822998047,0.973985493183136,-0.957249283790588,-0.411953806877136,0.582890212535858,-0.962728579444532,-0.414235212212131,0.588115866099442,0
1.8800048828125,-0.87600702047348,2.5888569355011,1.6790543794632,-0.873964974649439,2.58977366760063,1.67723844970756,2186.97,2186.47,2185.431,2188.39,357.657867431641,44.9973182678223,0.947821617126465,-0.965655922889709,-0.415512889623642,0.588158190250397,-0.971056158224177,-0.417818336715394,0.593203054026622,0
1.89999389648438,-0.895483791828156,2.58047747612,1.69091999530792,-0.893456683142228,2.58138692997148,1.6891456302637,2183.914,2184.488,2185.261,2186.922,357.719848632813,44.9971656799316,0.921464860439301,-0.973835289478302,-0.418978601694107,0.593278229236603,-0.979147395688901,-0.421299770153459,0.598145864732551,0
1.91999816894531,-0.915119588375092,2.57203030586243,1.70288550853729,-0.913122862707269,2.57292512231409,1.7011593924753,2177.957,2181.146,2188.161,2186.418,357.782409667969,44.9971084594727,0.894279479980469,-0.981789946556091,-0.422353684902191,0.59827709197998,-0.987011339258123,-0.424683405378145,0.60294982514457,0
1.94000244140625,-0.934909760951996,2.56351757049561,1.71494650840759,-0.932943991899774,2.5643966441608,1.71326781099638,2179.715,2181.586,2182.779,2182.631,357.849456787109,44.996940612793,0.866465210914612,-0.989512741565704,-0.425637274980545,0.603051602840424,-0.994638524886308,-0.427965170275055,0.607609153824943,0
1.95999145507813,-0.954849779605865,2.55494117736816,1.72710132598877,-0.952900013794853,2.55581012544606,1.7254586333645,2178.458,2179.646,2180.384,2181.551,357.917877197266,44.9968070983887,0.838665783405304,-0.996996521949768,-0.428821951150894,0.607738375663757,-1.00202031904361,-0.431141350077486,0.612118576685011,0
1.97999572753906,-0.97493439912796,2.54630303382874,1.73934721946716,-0.973016570682103,2.54715453300902,1.73774752405424,2174.75,2176.365,2180.703,2181.01,357.987121582031,44.9967613220215,0.810280680656433,-1.00423669815063,-0.431903958320618,0.612294316291809,-1.00916501115878,-0.434215511495054,0.616483157607448,0
2,-0.995158851146698,2.53760552406311,1.75167965888977,-0.993273599084619,2.53843849960327,1.75012222660065,2177.487,2176.646,2174.188,2177.262,358.059020996094,44.9966049194336,0.781517624855042,-1.01122653484344,-0.434881180524826,0.616620421409607,-1.01606400046349,-0.437183953857422,0.620697642517089,0
2.02000427246094,-1.01551818847656,2.52885055541992,1.76409673690796,-1.01366615605493,2.52966415204104,1.76257972143423,2175.386,2174.415,2172.555,2176.296,358.129425048828,44.996467590332,0.752903640270233,-1.01796388626099,-0.437750339508057,0.620853960514069,-1.02271452148052,-0.440045487257004,0.624760342027063,0
2.03999328613281,-1.03600716590881,2.52004027366638,1.77659523487091,-1.03417354141348,2.52084039703127,1.77510736313833,2172.449,2172.251,2171.937,2174.71,358.198608398438,44.9963607788086,0.72416353225708,-1.02445065975189,-0.440513730049133,0.62492311000824,-1.02910913225408,-0.442796909628122,0.628666709962695,0
2.05999755859375,-1.05662095546722,2.5111768245697,1.78917229175568,-1.05482201812353,2.5119559343546,1.78772119534738,2166.124,2168.853,2174.859,2174.028,358.267578125,44.9963455200195,0.69466245174408,-1.03069078922272,-0.443175256252289,0.628853917121887,-1.03525504859546,-0.445441325732794,0.632421154350513,0
2.08000183105469,-1.07735466957092,2.50226211547852,1.80182325839996,-1.07559088172821,2.50301967256038,1.80040857003175,2167.495,2169.121,2169.678,2170.076,358.340362548828,44.9961967468262,0.664643347263336,-1.03668034076691,-0.445736199617386,0.63254576921463,-1.04114485287423,-0.447975543971863,0.636019143875825,0
2.10000610351563,-1.09820282459259,2.49329805374146,1.81454598903656,-1.09647498538954,2.49403382618922,1.81316634306845,2165.593,2167.042,2167.687,2168.896,358.414123535156,44.9960823059082,0.634719610214233,-1.04241299629211,-0.448190361261368,0.63613760471344,-1.04677621342161,-0.450398561093403,0.639459254158576,0
2.1199951171875,-1.11916053295135,2.48428750038147,1.82733714580536,-1.11745308225396,2.48500753716864,1.82598153508617,2164.302,2165.046,2165.24,2167.132,358.488830566406,44.9959945678711,0.604756712913513,-1.04788517951965,-0.45053431391716,0.639559745788574,-1.0521429102862,-0.45270770082608,0.642737685527497,0
2.13999938964844,-1.14022254943848,2.47523212432861,1.84019410610199,-1.138551967509,2.47592927627801,1.83887051484687,2159.855,2161.527,2166.079,2166.6,358.563903808594,44.9960136413574,0.574127495288849,-1.05309569835663,-0.452766537666321,0.642845749855042,-1.05725102347782,-0.454905579228273,0.645858152165725,0
2.16000366210938,-1.16138339042664,2.46613430976868,1.853111743927,-1.15975039167652,2.46680818657414,1.85182030137592,2162.338,2161.787,2159.738,2162.504,358.641754150391,44.9958877563477,0.543084442615509,-1.05803954601288,-0.454886555671692,0.645881056785583,-1.0620943502576,-0.456989527434725,0.648816864916866,0
2.17999267578125,-1.18263757228851,2.45699644088745,1.86608803272247,-1.18102676265167,2.45765355853653,1.86481770439342,2160.184,2159.647,2157.901,2161.343,358.718444824219,44.995777130127,0.512231349945068,-1.06271314620972,-0.456890434026718,0.64881443977356,-1.06666760390386,-0.458957270716794,0.65161059420515,0
2.19999694824219,-1.20397996902466,2.44782090187073,1.87911999225616,-1.20240821395574,2.44845371736898,1.8778792993441,2154.68,2156.195,2159.696,2160.716,358.794128417969,44.9957695007324,0.480919539928436,-1.06711900234222,-0.458780229091644,0.651599287986755,-1.07097597819164,-0.460811043810786,0.654242512826705,0
2.22000122070313,-1.22540521621704,2.43860960006714,1.8922027349472,-1.22387315175433,2.43921795429519,1.89099189489151,2156.011,2156.196,2154.543,2156.775,358.872039794922,44.9956436157227,0.449362248182297,-1.07125663757324,-0.460558742284775,0.654135048389435,-1.07501419914593,-0.462548577472581,0.656709398992482,0
2.24000549316406,-1.24690771102905,2.42936539649963,1.90533399581909,-1.24541615591711,2.42994860144581,1.90415217996261,2153.135,2153.901,2153.465,2155.646,358.949310302734,44.9955635070801,0.418039739131927,-1.07512366771698,-0.462222635746002,0.656563103199005,-1.07878069424208,-0.464169195088763,0.659010292071722,0
2.25999450683594,-1.26848208904266,2.42008972167969,1.91851031780243,-1.26701526177039,2.4206551096063,1.91734673668097,2150.711,2151.606,2152.133,2154.002,359.026702880859,44.9955177307129,0.386673897504807,-1.07872128486633,-0.463772535324097,0.658815324306488,-1.08227143928024,-0.465671165158559,0.661142733743536,0
2.27999877929688,-1.29012298583984,2.41078567504883,1.93172860145569,-1.28869796983554,2.41132564607061,1.93059236468599,2145.327,2148.254,2153.84,2153.201,359.104736328125,44.9955673217773,0.354625731706619,-1.08204984664917,-0.465208500623703,0.66091513633728,-1.08549040888332,-0.467056197851165,0.663109152043028,0
2.30000305175781,-1.31182503700256,2.40145516395569,1.94498383998871,-1.31044231452835,2.40196966201596,1.94387564554502,2147.99,2148.412,2147.333,2149.101,359.186492919922,44.9954681396484,0.322218328714371,-1.08510506153107,-0.46653026342392,0.662763714790344,-1.08843358680109,-0.468322565086307,0.664907093505606,0
2.31999206542969,-1.3335827589035,2.39210057258606,1.95827388763428,-1.33222611841886,2.3925966997709,1.95718303141218,2146.482,2146.305,2144.768,2147.891,359.267974853516,44.9953842163086,0.290033400058746,-1.08787965774536,-0.467730671167374,0.66450434923172,-1.09109790637238,-0.469468947365361,0.666534684755819,0
2.33999633789063,-1.3553900718689,2.38272428512573,1.97159576416016,-1.35407709248145,2.38319483607731,1.97053145048929,2141.788,2142.889,2145.645,2147.277,359.348724365234,44.9954147338867,0.257433325052261,-1.09037446975708,-0.468809813261032,0.666092932224274,-1.09348640563071,-0.470496651869278,0.667993781680938,0
2.36000061035156,-1.37724184989929,2.37332892417908,1.9849442243576,-1.37597305876702,2.37377361348711,1.98390735461333,2143.821,2142.981,2139.86,2143.129,359.43115234375,44.995304107666,0.224731922149658,-1.0925897359848,-0.469770133495331,0.667423069477081,-1.09559602313537,-0.471404361345641,0.669282514094601,0
2.3800048828125,-1.3991322517395,2.36391663551331,1.9983172416687,-1.39790843013262,2.36433543599182,1.99730733068585,2140.937,2140.575,2138.725,2142.182,359.511840820313,44.9952430725098,0.192370980978012,-1.09452331066132,-0.470608800649643,0.668650567531586,-1.09742594550583,-0.472191725819537,0.67040038511534,0
2.39999389648438,-1.42105579376221,2.35449004173279,2.01171112060547,-1.41986083522252,2.35488992936084,2.01071771239474,2137.894,2138.333,2138.035,2140.446,359.591552734375,44.9952239990234,0.160064786672592,-1.09617984294891,-0.471328973770142,0.669693052768707,-1.09897439291323,-0.472857979480329,0.671346307473475,0
2.41999816894531,-1.44300711154938,2.34505128860474,2.02512288093567,-1.44185817738692,2.34542508756209,2.02415554546122,2131.853,2134.892,2140.348,2139.828,359.671356201172,44.9953079223633,0.127119913697243,-1.0975626707077,-0.471933245658875,0.670586109161377,-1.10024313330221,-0.473403883025206,0.672121361178802,0
2.44000244140625,-1.46498048305511,2.33560276031494,2.03854727745056,-1.46387808506052,2.33595053645515,2.03760716344514,2134.002,2135.072,2134.523,2135.569,359.754852294922,44.995231628418,0.0938863232731819,-1.09866976737976,-0.472422957420349,0.671217918395996,-1.10123038958312,-0.473828671822132,0.672724460634977,0
2.45999145507813,-1.48697030544281,2.32614684104919,2.05198216438293,-1.48589810917879,2.32647593524532,2.05105885256329,2132.54,2133.016,2131.914,2134.397,359.838623046875,44.9951667785645,0.0609405413269997,-1.09949278831482,-0.472790241241455,0.671743810176849,-1.10193535162022,-0.474131997292339,0.673155110942729,0
2.47999572753906,-1.50897097587585,2.31668615341187,2.06542444229126,-1.50794623031618,2.31698924467309,2.06452770571198,2128.337,2129.691,2132.286,2133.804,359.922088623047,44.9952125549316,0.0276577509939671,-1.10003209114075,-0.473034054040909,0.672116100788116,-1.10235882472314,-0.474314205938057,0.673413804053135,0
2.5,-1.53097677230835,2.30722308158875,2.07886910438538,-1.52999999932945,2.30750012397766,2.0780000090599,2130.96,2129.651,2126.084,2129.731,0.00729913450777531,44.9951362609863,-0.00564207509160042,-1.10028779506683,-0.473155856132507,0.672230303287506,-1.10250000050292,-0.474374949932098,0.673500046133994,0
2.52000427246094,-1.55298185348511,2.29776000976563,2.09231376647949,-1.55205376834272,2.29801100328223,2.09147231240783,2128.502,2127.361,2124.579,2128.741,0.0903666913509369,44.9950866699219,359.961456298828,-1.10025644302368,-0.47315189242363,0.672238528728485,-1.10235882472314,-0.474314205938057,0.673413804053136,0
2.53999328613281,-1.57498073577881,2.28829956054688,2.1057550907135,-1.57408507527774,2.28853154739156,2.10493089402267,2125.509,2125.169,2123.902,2127.057,0.171708554029465,44.9950904846191,359.928649902344,-1.09994459152222,-0.473026543855667,0.672063589096069,-1.10193578218388,-0.474132182551855,0.673155373967352,0
2.55999755859375,-1.59696781635284,2.27884387969971,2.11918997764587,-1.59612191359838,2.27904971150017,2.11839285467467,2119.188,2121.842,2126.506,2126.493,0.252343863248825,44.9952011108398,359.895324707031,-1.09935712814331,-0.472783923149109,0.671739816665649,-1.10123038958312,-0.473828671822132,0.672724460634977,0
2.58000183105469,-1.6189376115799,2.26939535140991,2.13261294364929,-1.61814182127198,2.26957516039323,2.13184447265859,2120.934,2122.031,2121.282,2122.216,0.336201429367065,44.9951438903809,359.86181640625,-1.09849524497986,-0.47242745757103,0.671154022216797,-1.10024313330221,-0.473403883025206,0.672121361178803,0
2.59999084472656,-1.64088463783264,2.25995635986328,2.1460223197937,-1.64012239440973,2.26011753383818,2.14527206178836,2119.185,2120.006,2119.04,2121.154,0.420213639736176,44.9950904846191,359.828674316406,-1.09735059738159,-0.471949636936188,0.670466244220734,-1.09897546783438,-0.47285844198887,0.671346964126033,0
2.6199951171875,-1.66280341148376,2.25052928924561,2.15941476821899,-1.66209156852628,2.2506648119635,2.15869268743396,2115.054,2116.765,2119.409,2120.638,0.504163503646851,44.9951705932617,359.795257568359,-1.09592437744141,-0.4713494181633,0.669625699520111,-1.09742594550583,-0.472191725819537,0.67040038511534,0
2.63999938964844,-1.68468761444092,2.24111676216125,2.17278528213501,-1.68402693989188,2.24122663446822,2.17209266350648,2117.94,2116.696,2113.194,2116.587,0.590030193328857,44.9951019287109,359.761932373047,-1.09421753883362,-0.470628350973129,0.668527841567993,-1.09559602313537,-0.471404361345641,0.669282514094601,0
2.66000366210938,-1.70653223991394,2.23172092437744,2.18613171577454,-1.70592290617745,2.23180541187802,2.18546856763052,2115.995,2114.55,2111.292,2115.605,0.673809885978699,44.9950675964355,359.729064941406,-1.0922247171402,-0.469781190156937,0.667325854301453,-1.09348640563071,-0.470496651869278,0.667993781680938,0
2.67999267578125,-1.72833120822906,2.22234487533569,2.19945073127747,-1.72775723139253,2.2224107117184,2.19880681618649,2113.277,2112.388,2110.469,2114.048,0.755520522594452,44.9950942993164,359.696411132813,-1.08995318412781,-0.468812316656113,0.665946304798126,-1.09109983431736,-0.469469776906228,0.666535862507326,0
2.69999694824219,-1.75007939338684,2.21299028396606,2.21273922920227,-1.74955768413056,2.21303058593937,2.21212437257479,2107.234,2109.218,2112.885,2113.536,0.835997819900513,44.9952201843262,359.663269042969,-1.08740854263306,-0.46772637963295,0.664419531822205,-1.08843358680109,-0.468322565086308,0.664907093505606,0
2.72000122070313,-1.77177131175995,2.20365953445435,2.22599196434021,-1.77130202882336,2.20367460188472,2.22540765343382,2108.718,2109.405,2108.17,2109.329,0.918962776660919,44.995174407959,359.630065917969,-1.08459460735321,-0.46652814745903,0.66263473033905,-1.08549040888332,-0.467056197851165,0.663109152043028,0
2.74000549316406,-1.79340136051178,2.19435548782349,2.23920702934265,-1.79298473688851,2.19434513834902,2.23865328143884,2106.713,2107.481,2106.32,2108.359,1.00168764591217,44.9951438903809,359.597320556641,-1.08150351047516,-0.465211182832718,0.660752475261688,-1.08227143928024,-0.465671165158559,0.661142733743536,0
2.75999450683594,-1.8149641752243,2.18508005142212,2.25238084793091,-1.81458384274179,2.18505164650952,2.2518478381572,2105.413,2105.464,2104.148,2106.804,1.08424127101898,44.9951477050781,359.564880371094,-1.07813847064972,-0.463775545358658,0.658695816993713,-1.07878069424208,-0.464169195088763,0.659010292071722,0
2.77999877929688,-1.83645415306091,2.17583560943604,2.26551079750061,-1.83612684690458,2.17578229366013,2.2650081232283,2101.007,2102.457,2105.014,2106.276,1.16624093055725,44.9952583312988,359.532073974609,-1.07450044155121,-0.462221056222916,0.656494677066803,-1.07501419914593,-0.462548577472581,0.656709398992482,0
2.80000305175781,-1.85786604881287,2.16662454605103,2.27859163284302,-1.85759178470316,2.16654653058634,2.2781207187757,2103.676,2102.554,2099.324,2102.187,1.25000500679016,44.9952087402344,359.499389648438,-1.07059252262115,-0.460550934076309,0.654042184352875,-1.07097597819164,-0.460811043810786,0.654242512826704,0
2.81999206542969,-1.87919414043427,2.15744924545288,2.2916214466095,-1.87895695992541,2.1573536925621,2.29117237092199,2101.754,2100.586,2097.541,2101.34,1.33185577392578,44.9951934814453,359.467193603516,-1.06640791893005,-0.458759486675262,0.65149587392807,-1.06667099276523,-0.458958728849171,0.651612664407684,0
2.83999633789063,-1.90043330192566,2.14831209182739,2.3045973777771,-1.90024960698239,2.14819206138118,2.30417971674389,2096.794,2097.624,2098.976,2100.905,1.41185545921326,44.9952926635742,359.434906005859,-1.06195414066315,-0.456850737333298,0.648801743984222,-1.06209435025759,-0.456989527434725,0.648816864916866,0
2.86000061035156,-1.92157793045044,2.13921570777893,2.31751465797424,-1.9214480311499,2.13907097167731,2.31712950327294,2098.35,2097.522,2094.524,2097.076,1.49281525611877,44.9952659606934,359.402801513672,-1.05723798274994,-0.454830557107925,0.645862400531769,-1.05725102347782,-0.454905579228273,0.645858152165725,0
2.8800048828125,-1.94262290000916,2.13016176223755,2.33037114143372,-1.94254691640495,2.12999271078668,2.33001848303364,2095.843,2095.516,2093.456,2096.313,1.5720921754837,44.9952697753906,359.371246337891,-1.05225443840027,-0.452694773674011,0.642828464508057,-1.0521429102862,-0.45270770082608,0.642737685527497,0
2.89999389648438,-1.96356308460236,2.12115287780762,2.34316349029541,-1.96352501326936,2.1209664217661,2.34283367505136,2093.536,2093.661,2092.544,2094.783,1.65031969547272,44.9953155517578,359.339996337891,-1.04701101779938,-0.450447231531143,0.639622509479523,-1.04677621342161,-0.450398561093403,0.639459254158576,0
2.91999816894531,-1.9843932390213,2.11219120025635,2.35588908195496,-1.98440911693069,2.11198057539494,2.35559144808806,2088.693,2090.852,2094.008,2094.385,1.7281140089035,44.9954566955566,359.308441162109,-1.04151058197021,-0.448089331388474,0.636281907558441,-1.04114485287423,-0.447975543971863,0.636019143875825,0
2.94000244140625,-2.00510835647583,2.10327863693237,2.36854314804077,-2.00517798053537,2.10304431360073,2.36827882277243,2091.266,2090.965,2088.715,2090.465,1.80824649333954,44.9954376220703,359.277038574219,-1.03575670719147,-0.445624440908432,0.632699549198151,-1.03525504859546,-0.445441325732794,0.632421154350513,0
2.95999145507813,-2.02570343017578,2.09441781044006,2.38112378120422,-2.02581075424974,2.0941666074844,2.38088306226645,2090.025,2089.257,2086.487,2089.616,1.88725829124451,44.9954071044922,359.246215820313,-1.02974021434784,-0.443044811487198,0.629027962684631,-1.02911391720548,-0.442798968459032,0.628669633014836,0
2.97999572753906,-2.04617261886597,2.08561086654663,2.39362812042236,-2.04633384260397,2.08533609591429,2.39342029668558,2086.134,2086.458,2087.069,2089.337,1.96471416950226,44.9955024719238,359.215362548828,-1.02346682548523,-0.440352499485016,0.625220835208893,-1.02271452148052,-0.440045487257004,0.624760342027062,0
3,-2.06651163101196,2.07685971260071,2.40605163574219,-2.06672639957428,2.07656174835205,2.40587779151916,2088.357,2086.464,2082.322,2085.557,2.04258370399475,44.9954795837402,359.184875488281,-1.01694405078888,-0.437552899122238,0.621175944805145,-1.01606400046349,-0.437183953857422,0.620697642517089,0
3.02000427246094,-2.08671474456787,2.06816697120667,2.41839265823364,-2.0869834279768,2.06784571494631,2.41825249406557,2085.896,2084.587,2081.456,2084.969,2.11779761314392,44.9955024719238,359.155029296875,-1.01016688346863,-0.43464207649231,0.617048978805542,-1.00916501115878,-0.434215511495054,0.616483157607448,0
3.03999328613281,-2.10677766799927,2.05953431129456,2.43064785003662,-2.10708469520508,2.05919670122237,2.43053204454123,2083.479,2082.822,2080.946,2083.609,2.19105863571167,44.9955635070801,359.125610351563,-1.00314617156982,-0.431626170873642,0.612760245800018,-1.00202586176059,-0.431143734953757,0.612121962644322,0
3.05999755859375,-2.12669563293457,2.05096435546875,2.44281482696533,-2.12705600675913,2.05060360379452,2.44273220712343,2078.273,2080.286,2083.006,2083.281,2.26320743560791,44.9957122802734,359.096008300781,-0.99588668346405,-0.428508341312408,0.60834527015686,-0.994638524886308,-0.427965170275055,0.607609153824944,0
3.08000183105469,-2.14646339416504,2.04245853424072,2.45488905906677,-2.14687713595163,2.04207512564123,2.45484062564451,2080.331,2080.324,2078.561,2079.698,2.3374388217926,44.9957122802734,359.066619873047,-0.988394618034363,-0.425293564796448,0.603706061840057,-0.987011339258122,-0.424683405378145,0.60294982514457,0
3.09999084472656,-2.16607666015625,2.03401899337769,2.46686863899231,-2.16652837486666,2.03361974652815,2.46684526084616,2079.224,2078.892,2076.5,2078.848,2.410893201828,44.9957008361816,359.037872314453,-0.980660617351532,-0.421974092721939,0.598981618881226,-0.979153483542501,-0.421302389586788,0.598149583707317,0
3.1199951171875,-2.18553042411804,2.02564787864685,2.47875142097473,-2.18603502400946,2.02522658035469,2.47876156841225,2075.946,2076.414,2076.739,2078.621,2.48315167427063,44.9957885742188,359.009246826172,-0.972689747810364,-0.418550997972488,0.594134330749512,-0.971056158224178,-0.417818336715394,0.593203054026623,0
3.13999938964844,-2.20482015609741,2.01734733581543,2.49053287506104,-2.20537738341953,2.01690410346351,2.49057751394429,2078.51,2076.345,2072.018,2075.189,2.55575728416443,44.9957695007324,358.981140136719,-0.964489459991455,-0.415028750896454,0.589069128036499,-0.962728579444533,-0.414235212212131,0.588115866099442,0
3.16000366210938,-2.22394156455994,2.00911903381348,2.50221133232117,-2.22455088103183,2.00865428308644,2.50229030443911,2076.731,2074.633,2070.838,2074.688,2.62550759315491,44.9958000183105,358.953765869141,-0.956054449081421,-0.411402881145477,0.583928883075714,-0.954174163352092,-0.410554485950274,0.582890106797601,0
3.17999267578125,-2.24288940429688,2.00096559524536,2.51378417015076,-2.24353658854737,2.00048526354177,2.51388837689424,2074.417,2073.019,2070.548,2073.517,2.69266533851624,44.9958724975586,358.926818847656,-0.947396397590637,-0.407679855823517,0.578641951084137,-0.945403214201559,-0.406780591562751,0.577532070829503,0
3.19999694824219,-2.26165986061096,1.99288821220398,2.52524900436401,-2.2623590635174,1.99238647840124,2.5253867331345,2069.661,2070.794,2072.494,2073.222,2.75812339782715,44.9960403442383,358.899810791016,-0.938521504402161,-0.403864204883575,0.573239147663116,-0.936405971974636,-0.402909329586355,0.572035795952272,0
3.22000122070313,-2.28024840354919,1.98488926887512,2.53660154342651,-2.28099938900442,1.98436606709459,2.53677381709797,2071.151,2070.986,2068.952,2069.847,2.82482814788818,44.9960479736328,358.873199462891,-0.92943811416626,-0.399962186813354,0.567630767822266,-0.927192788821982,-0.398945154262308,0.566407606133204,0
3.24000549316406,-2.29865145683289,1.9769698381424,2.54784059524536,-2.29945328359428,1.9764258717947,2.54804701333557,2069.953,2069.607,2067.315,2069.305,2.89056658744812,44.9960556030273,358.847320556641,-0.920137941837311,-0.395967125892639,0.561954617500305,-0.91776751470058,-0.394889722119544,0.560649853250941,0
3.25999450683594,-2.31686401367188,1.9691321849823,2.55896353721619,-2.31770268688992,1.96857366338589,2.55919528903255,2069.07,2068.2,2065.776,2068.18,2.95514822006226,44.9960899353027,358.822021484375,-0.910628437995911,-0.391881108283997,0.556142926216125,-0.90814153446928,-0.390747931744771,0.554769492138098,0
3.27999877929688,-2.33488202095032,1.96137809753418,2.5699679851532,-2.33577134012187,1.96079922667992,2.57023314733618,2065.998,2066.131,2066.297,2067.906,3.01828241348267,44.9962196350098,358.796875,-0.900912523269653,-0.387705028057098,0.550224244594574,-0.898304216251578,-0.386515208538549,0.548760027947228,0
3.30000305175781,-2.35270190238953,1.9537091255188,2.58085036277771,-2.35364119854729,1.95311032582551,2.58114956499463,2068.305,2066.196,2062.25,2064.787,3.081547498703,44.9962196350098,358.772277832031,-0.890998661518097,-0.383443832397461,0.544114768505096,-0.888267004546666,-0.382196476749158,0.542628451944297,0
3.31999206542969,-2.37031960487366,1.94612741470337,2.59160923957825,-2.37129490830989,1.94551442770222,2.59193394080789,2066.801,2064.818,2061.185,2064.396,3.14215040206909,44.9962463378906,358.748474121094,-0.880881190299988,-0.379093140363693,0.537944912910461,-0.878042061913513,-0.37779696958594,0.536382194046788,0
3.33999633789063,-2.38773107528687,1.93863427639008,2.60224270820618,-2.38875555478454,1.93800159931817,2.60260037727124,2063.084,2062.763,2062.448,2064.308,3.20028591156006,44.9963836669922,358.724853515625,-0.870570719242096,-0.374658524990082,0.531669557094574,-0.867618167158097,-0.373311858882592,0.530014399402376,0
3.36000061035156,-2.40493297576904,1.93123126029968,2.61274695396423,-2.406005803634,1.93057929915441,2.61313828510855,2064.4,2062.853,2059.529,2061.354,3.25813937187195,44.9964065551758,358.701843261719,-0.860078155994415,-0.370147198438644,0.525210201740265,-0.857007552155826,-0.36874640767338,0.523532540272868,0
3.3800048828125,-2.42192101478577,1.92392015457153,2.62312078475952,-2.42304196557559,1.92324911460621,2.6235454105946,2062.567,2061.596,2058.944,2061.029,3.31385445594788,44.996452331543,358.679626464844,-0.849398612976074,-0.365555465221405,0.518696010112762,-0.846214826007803,-0.364102599125748,0.516939432286212,0
3.39999389648438,-2.43869185447693,1.91670250892639,2.63336205482483,-2.43984769972619,1.91601807669906,2.63381177133889,2061.294,2060.435,2058.212,2060.036,3.36797595024109,44.9965171813965,358.658050537109,-0.838542759418488,-0.360888123512268,0.512062251567841,-0.835253140422974,-0.35938609205264,0.510243109616171,0
3.41999816894531,-2.45524191856384,1.90957963466644,2.64346885681152,-2.45644516534361,1.90887665092339,2.64395090408624,2058.164,2058.679,2059.143,2059.93,3.42074394226074,44.996654510498,358.63671875,-0.827514171600342,-0.356146693229675,0.505341112613678,-0.824110582941664,-0.354591760855451,0.503436295127018,0
3.44000244140625,-2.47156834602356,1.90255272388458,2.6534378528595,-2.47281804716281,1.90183185728196,2.6539528420958,2060.363,2058.856,2055.587,2057.149,3.47394227981567,44.9966697692871,358.616027832031,-0.816321432590485,-0.351335883140564,0.498453080654144,-0.812800388649434,-0.349725300221754,0.496527073925997,0
3.45999145507813,-2.48766779899597,1.89562392234802,2.66326832771301,-2.48895081463434,1.8948903781363,2.66380809799729,2059.569,2057.769,2054.251,2056.854,3.52504014968872,44.9966926574707,358.596160888672,-0.804958045482635,-0.346450120210648,0.491518884897232,-0.80133641229185,-0.344792671461508,0.489523909660973,0
3.47999572753906,-2.50353646278381,1.8887939453125,2.67295837402344,-2.50486489870395,1.88804299234919,2.67352976362102,2057.014,2055.999,2054.815,2056.894,3.5737988948822,44.9968147277832,358.576721191406,-0.793433368206024,-0.341493427753448,0.48449969291687,-0.789706299681989,-0.339788558913217,0.482419255351936,0
3.5,-2.51917147636414,1.88206458091736,2.68250489234924,-2.5205447997813,1.88129636896134,2.68310837050915,2058.645,2056.192,2052.032,2054.261,3.62159037590027,44.9968376159668,358.557983398438,-0.781758546829224,-0.336472481489182,0.477322041988373,-0.777924000354857,-0.334718964672089,0.475221632552147,0
3.52000427246094,-2.53457021713257,1.87543678283691,2.69190692901611,-2.53598752699493,1.87465179486116,2.69254209158495,2057.161,2055.137,2051.583,2054.112,3.66647243499756,44.9968948364258,358.540130615234,-0.769930064678192,-0.331384599208832,0.470107436180115,-0.765994882555673,-0.32958619854407,0.467934320638837,0
3.53999328613281,-2.549729347229,1.86891222000122,2.70116281509399,-2.55117869390181,1.86811546013321,2.70182213839487,2055.604,2054.16,2051.551,2053.413,3.70890045166016,44.9969902038574,358.523040771484,-0.757960677146912,-0.326236069202423,0.462797164916992,-0.753933682518821,-0.324396601119134,0.46056632174764,0
3.55999755859375,-2.56464624404907,1.86249148845673,2.71027112007141,-2.56613872308604,1.86167857751006,2.71096098677687,2052.59,2052.773,2052.833,2053.378,3.74954771995544,44.9971351623535,358.506256103516,-0.745856285095215,-0.321030378341675,0.455416619777679,-0.741727567798258,-0.319144650954242,0.45310979673751,0
3.58000183105469,-2.57931900024414,1.8561760187149,2.71922922134399,-2.58085326729328,1.85534732021446,2.71994987221714,2054.247,2053.079,2050.199,2051.023,3.7903003692627,44.9971694946289,358.490234375,-0.733626246452332,-0.315772712230682,0.447900176048279,-0.729391385793765,-0.313836736470737,0.44557381565329,0
3.59999084472656,-2.5937442779541,1.84996676445007,2.72803640365601,-2.59530884290342,1.84912748987145,2.72878055778257,2053.733,2052.183,2049.059,2050.964,3.82927227020264,44.9972076416016,358.47509765625,-0.721265077590942,-0.310458034276962,0.440356642007828,-0.716940488958392,-0.308479463400265,0.437967757068975,0
3.6199951171875,-2.60791969299316,1.84386515617371,2.73669123649597,-2.60952509409627,1.84301063413925,2.73746504379605,2052.045,2050.968,2049.271,2050.884,3.8661892414093,44.9973106384277,358.460540771484,-0.708781957626343,-0.305089741945267,0.432742834091187,-0.704361775018033,-0.303067194200314,0.43028361700977,0
3.63999938964844,-2.62184357643127,1.83787155151367,2.74519157409668,-2.6234885835008,1.83700253474321,2.74599512157732,2053.984,2051.064,2046.609,2048.918,3.9018816947937,44.9973335266113,358.446838378906,-0.696186125278473,-0.2996726334095,0.425012558698654,-0.691670720740692,-0.297606588091786,0.422530849991739,0
3.66000366210938,-2.6355128288269,1.83198761940002,2.75353670120239,-2.63719712493647,1.83110413233575,2.75436945562281,2052.902,2050.289,2046.298,2048.872,3.93433117866516,44.9974021911621,358.43408203125,-0.683476448059082,-0.294204980134964,0.417257636785507,-0.678873453515702,-0.29210028151913,0.414713199141411,0
3.67999267578125,-2.64892625808716,1.82621359825134,2.76172542572021,-2.65063849381582,1.82532068681534,2.76258057812278,2051.859,2049.599,2046.29,2048.336,3.96387434005737,44.997501373291,358.422149658203,-0.670665860176086,-0.288693517446518,0.409432113170624,-0.665986083416798,-0.286555206197011,0.406840505851433,0
3.69999694824219,-2.66208148002625,1.82055103778839,2.76975655555725,-2.66383127580226,1.81964420129024,2.77063984276899,2049.014,2048.595,2047.877,2048.461,3.99097084999084,44.9976577758789,358.410705566406,-0.65776139497757,-0.283142328262329,0.401561707258224,-0.65299527533123,-0.280965624398954,0.398904623909523,0
