t,x_s1,x_s2,x_s3,x_s_d1,x_s_d2,x_s_d3,propellers_rpms1,propellers_rpms2,propellers_rpms3,propellers_rpms4,rollRad,pitchRad,yawRad,v_s1,v_s2,v_s3,v_s_d1,v_s_d2,v_s_d3,insideCount
0,-0.0599999986588955,2.94000005722046,1.17999994754791,-0.0599999986588955,2.94000005722046,1.17999994754791,0,0,0,0,0,0,0,0,0,0,-1.06581410364015E-15,4.44089209850063E-16,4.44089209850063E-16,0
0.019989013671875,-0.0599999986588955,2.94000005722046,1.17615437507629,-0.0600018659130177,2.93999925379318,1.18000110346716,0,0,0,0,0,0,0,0,0,-0.192275941371918,-0.000279680311988734,-0.000120338624884473,0.000173135436141649,9
0.0399932861328125,-0.0599999986588955,2.94000005722046,1.16854023933411,-0.060014863945674,2.93999366110285,1.18000914986856,0,0,0,0,0,0,0,-2.58693946061287E-22,-3.88396258331244E-24,-0.380706369876862,-0.00111059898697896,-0.000477859717552347,0.000687513678106196,9
0.05999755859375,-0.0599999986588955,2.94000005722046,1.16209828853607,-0.0600498857373401,2.93997859220429,1.18003083002592,2729.526,2675.57,2548.689,2604.059,-0.001370995,2.004392E-06,-0.0005763081,-1.80707226959953E-09,-4.42864900307427E-09,-0.322100043296814,-0.00247936261166862,-0.00106680046642749,0.00153484356504269,9
0.0800018310546875,-0.0599972419440746,2.93999338150024,1.15672361850739,-0.0601175574246769,2.93994947496775,1.18007272202403,2722.097,2694.453,2468.825,2495.833,-0.00519636,8.155054E-06,-0.001441303,0.000137847397127189,-0.000327886285958812,-0.268736064434052,-0.00437268608126799,-0.00188144466206175,0.00270690098422899,9
0.0999908447265625,-0.0599877536296844,2.93996238708496,1.15231907367706,-0.0602281370710988,2.93990189563514,1.18014117609281,2568.538,2685.843,2542.258,2420.316,-0.01060684,1.299201E-05,-0.001045024,0.000474364554975182,-0.00154463096987456,-0.22022707760334,-0.00677536694902951,-0.00291525111632684,0.0041942748969354,9
0.1199951171875,-0.0599736124277115,2.93988299369812,1.14879488945007,-0.0603918861403606,2.93983143898525,1.18024254456713,2452.269,2640.463,2581.145,2390.737,-0.01667458,5.515841E-06,0.00134738,0.000707097118720412,-0.00397350871935487,-0.176208198070526,-0.00967801353495435,-0.00416417885169243,0.00599115140585487,9
0.139999389648438,-0.0599659159779549,2.93972897529602,1.14606821537018,-0.0606185767455666,2.93973390035084,1.18038287685052,2360.224,2554.084,2600.621,2408.8,-0.02222515,-2.737927E-05,0.005773203,0.000384826504159719,-0.00770659185945988,-0.136334717273712,-0.0130660253322238,-0.00562194567796536,0.00808849210174802,9
0.159988403320313,-0.0599844269454479,2.93947768211365,1.14406263828278,-0.0609175312885481,2.93960526856281,1.18056794395381,2308.45,2451.561,2584.753,2448.976,-0.0262886,-8.520548E-05,0.01166973,-0.000925498141441494,-0.0125673012807965,-0.100281365215778,-0.0169234294955564,-0.00728167892605071,0.0104764090324936,9
0.17999267578125,-0.0600545816123486,2.93911409378052,1.14270782470703,-0.0612985250199726,2.93944133760391,1.18080379722281,2300.342,2355.607,2530.323,2487.793,-0.02838397,-0.0001502023,0.01808168,-0.00350769539363682,-0.0181749295443296,-0.067739300429821,-0.0212433804254414,-0.00914043312572283,0.0131506644458931,8
0.199996948242188,-0.0602030046284199,2.93863272666931,1.14193952083588,-0.0617704296168641,2.93923829023936,1.18109592864822,2325.99,2286.814,2446.972,2504.403,-0.02864017,-0.0001981392,0.02398328,-0.00742110516875982,-0.0240652449429035,-0.0384125448763371,-0.0260104776919234,-0.0111915819022102,0.0161017247421801,8
0.220001220703125,-0.0604530163109303,2.9380362033844,1.14169907569885,-0.0623420644491781,2.93899233174064,1.18144979784016,2363.882,2255.363,2356.225,2488.036,-0.02767451,-0.0002141181,0.02861639,-0.0125005282461643,-0.0298274382948875,-0.0120193157345057,-0.03121219533433,-0.0134297356845702,0.019321835755004,8
0.239990234375,-0.0608215667307377,2.93733215332031,1.14193320274353,-0.0630214373585105,2.93870001655724,1.18187036203406,2394.771,2259.947,2277.427,2439.374,-0.02637169,-0.0002018676,0.03168372,-0.0184276178479195,-0.0352048389613628,0.011707616969943,-0.0368316683029241,-0.015847637913056,0.022800557215184,8
0.259994506835938,-0.0613183081150055,2.93652939796448,1.14259362220764,-0.0638179029240226,2.93835731967507,1.18236341216003,2402.509,2287.908,2227.587,2369.7,-0.02557487,-0.0001747034,0.03339697,-0.0248371679335833,-0.040142223238945,0.033018060028553,-0.0428651747123285,-0.0184436871643672,0.0265355850983733,8
0.279998779296875,-0.0619468428194523,2.93563413619995,1.14363646507263,-0.0647390625194898,2.93796097043536,1.18293365383054,2383.128,2322.036,2210.934,2295.573,-0.02585663,-0.0001454086,0.03434166,-0.0314266607165337,-0.0447652339935303,0.0521444566547871,-0.0492963837173861,-0.0212108567320638,0.030516809833474,8
0.29998779296875,-0.0627074539661407,2.93464779853821,1.14502239227295,-0.0657918945890516,2.93750796620855,1.18358540703494,2337.987,2344.155,2226.574,2234.26,-0.02734001,-0.0001219728,0.03527844,-0.0380305759608746,-0.0493143126368523,0.0692985877394676,-0.0561078595514081,-0.0241416444928383,0.0347334378503248,8
0.319992065429688,-0.0636004433035851,2.93356680870056,1.14671587944031,-0.0669855955880233,2.93699435001684,1.18432436481717,2280.118,2343.031,2259.925,2198.108,-0.02971928,-0.000108657,0.03687323,-0.0446494966745377,-0.0540453381836414,0.0846719890832901,-0.0632980253096114,-0.0272353719486164,0.0391844929697465,8
0.339996337890625,-0.0646288990974426,2.93238401412964,1.14868474006653,-0.068326768706371,2.93641728069206,1.18515461486636,2226.227,2317.088,2291.995,2190.653,-0.03242771,-0.0001081243,0.03948207,-0.0514227114617825,-0.0591409541666508,0.0984408780932426,-0.0708499516420146,-0.0304847548730522,0.0438594951176439,8
0.360000610351563,-0.0658000558614731,2.93109083175659,1.15090012550354,-0.0698225328270578,2.93577369517774,1.1860805641102,2186.047,2272,2311.89,2206.946,-0.03480592,-0.0001198422,0.04309817,-0.0585579201579094,-0.0646600127220154,0.110766798257828,-0.0787518717320621,-0.0338847303337087,0.0487511600740379,8
0.379989624023438,-0.0671251490712166,2.92968034744263,1.15333616733551,-0.0714784451857985,2.93506120235061,1.1871056527423,2168.968,2220.632,2308.269,2235.66,-0.03634522,-0.0001384844,0.04736988,-0.0662545561790466,-0.0705242455005646,0.121801435947418,-0.0869857157641562,-0.0374275233937465,0.0538483017622888,8
0.399993896484375,-0.0686178281903267,2.92814922332764,1.15596997737885,-0.0733036822025899,2.9342758538535,1.18823556140379,2173.602,2175.996,2282.33,2263.517,-0.0368198,-0.0001533981,0.05175328,-0.0746339187026024,-0.076554611325264,0.131688460707664,-0.0955525119207663,-0.0411135764513579,0.0591515566763244,8
0.419998168945313,-0.0702918991446495,2.92649865150452,1.15878129005432,-0.0753034649285836,2.93341540321397,1.18947352217404,2195.716,2149.989,2237.945,2278.645,-0.0363676,-0.0001565939,0.05568029,-0.0837034061551094,-0.082532063126564,0.140567392110825,-0.104434660908044,-0.0449353170220673,0.0646500300148815,8
0.44000244140625,-0.072159007191658,2.92473316192627,1.16175270080566,-0.077483988232608,2.93247718495301,1.19082336997196,2220.684,2145.586,2192.338,2275.021,-0.03536731,-0.0001459412,0.05877457,-0.0933554843068123,-0.0882723033428192,0.148570045828819,-0.113620829717891,-0.048887868829098,0.0703367061060819,8
0.459991455078125,-0.0742272064089775,2.92285966873169,1.1648690700531,-0.0798493430620752,2.93145943885026,1.19228763728888,2240.281,2160.662,2154.666,2253.465,-0.03432921,-0.0001272991,0.06092733,-0.103410162031651,-0.0936734527349472,0.155819520354271,-0.123092454730403,-0.0529632444654124,0.0762000931848968,8
0.479995727539063,-0.0765006244182587,2.92088484764099,1.16811764240265,-0.0824088828700873,2.93035814037613,1.19387211435783,2245.872,2185.891,2135.758,2220.723,-0.0337007,-0.0001081243,0.06231529,-0.113670915365219,-0.0987388715147972,0.162426471710205,-0.132852887402757,-0.0571628859694044,0.0822422659629699,8
0.5,-0.0789802670478821,2.91881370544434,1.17148745059967,-0.085166398670376,2.92917165836334,1.1955791479969,2238.44,2212.202,2134.325,2185.979,-0.033779,-9.414645E-05,0.06329207,-0.123982228338718,-0.103561729192734,0.168490678071976,-0.142884000065179,-0.0614789935111996,0.0884520025491718,8
0.519989013671875,-0.0816655457019806,2.91664791107178,1.17496943473816,-0.0881248588203387,2.92789871561062,1.19741057576073,2216.743,2228.433,2153.199,2158.499,-0.03458168,-8.727857E-05,0.06430233,-0.134263917803764,-0.108292393386364,0.17409722507,-0.153166947611899,-0.0659034585682559,0.0948176369253132,9
0.539993286132813,-0.0845560804009438,2.91438627243042,1.178555727005,-0.091293865515634,2.92653518056143,1.19937234186584,2189.653,2229.698,2181.101,2145.289,-0.03588769,-8.773946E-05,0.06571273,-0.144526958465576,-0.113080590963364,0.179317355155945,-0.163706645289342,-0.0704383960337938,0.101342211863077,9
0.55999755859375,-0.0876531973481178,2.91202569007874,1.18224000930786,-0.094676112580471,2.92507989413848,1.20146611391775,2167.828,2217.448,2204.178,2147.99,-0.03737267,-9.300021E-05,0.06768144,-0.154855772852898,-0.118028059601784,0.184214740991592,-0.17448465888317,-0.0750758741803766,0.108014315705644,9
0.580001831054688,-0.0909604877233505,2.90956234931946,1.1860169172287,-0.0982762614093182,2.92353085067394,1.20369477754168,2152.794,2194.871,2221.087,2162.951,-0.03865951,-0.0001001349,0.07017911,-0.165364474058151,-0.123168885707855,0.188844949007034,-0.185490414529404,-0.0798113433697334,0.11482740272751,9
0.599990844726563,-0.0944836586713791,2.90699315071106,1.18988215923309,-0.102095761416081,2.92188742652551,1.20605922999388,2150.795,2170.699,2222.68,2184.117,-0.0394835,-0.0001049285,0.07298556,-0.176158711314201,-0.12846077978611,0.19325977563858,-0.19670480600515,-0.0846365827279185,0.121769645266545,9
0.6199951171875,-0.0982296094298363,2.90431690216064,1.19383227825165,-0.106144683970236,2.92014528826426,1.20856570593183,2159.149,2151.554,2212.099,2204.112,-0.03973543,-0.0001049285,0.07579426,-0.187297701835632,-0.133809313178062,0.197507902979851,-0.208134604141382,-0.0895545055543457,0.128845234789665,9
0.639999389648438,-0.102205172181129,2.90153479576111,1.19786512851715,-0.110424235525481,2.91830391678686,1.21121495220784,2177.332,2144.958,2188.676,2216.505,-0.03953835,-9.75368E-05,0.07828538,-0.198778122663498,-0.139100342988968,0.20163993537426,-0.219761081350814,-0.0945570538913933,0.136042578028218,9
0.659988403320313,-0.106415823101997,2.89864993095398,1.20197916030884,-0.114934715429503,2.91636318329238,1.21400715413238,2193.907,2149.945,2168.171,2217.64,-0.03911491,-8.56071E-05,0.08028349,-0.210532367229462,-0.144246384501457,0.205702647566795,-0.231565018351745,-0.0996359582190702,0.143349777331291,9
0.67999267578125,-0.110864996910095,2.89566588401794,1.20617389678955,-0.119686638739014,2.91431856344567,1.21694882102647,2205.976,2164.369,2153.717,2209.17,-0.03873248,-7.295819E-05,0.08176931,-0.222458824515343,-0.149206474423409,0.209737598896027,-0.243554411173546,-0.104794659005432,0.150771782621969,9
0.699996948242188,-0.115554079413414,2.89258599281311,1.21044957637787,-0.124680083855354,2.91217002351282,1.22004000142426,2213.17,2184.718,2145.39,2194.867,-0.03866324,-6.350883E-05,0.08284356,-0.234454125165939,-0.153993964195251,0.213783338665962,-0.255710395848158,-0.11002503961202,0.158296916205407,9
0.720001220703125,-0.120482802391052,2.88941240310669,1.21480691432953,-0.129918284978346,2.90991617190799,1.22328269744952,2209.203,2202.216,2153.508,2179.262,-0.03902064,-5.950196E-05,0.08374462,-0.246436715126038,-0.158676296472549,0.217869609594345,-0.268023157655716,-0.11532287703907,0.16591910230247,9
0.739990234375,-0.1256502866745,2.88614559173584,1.21924722194672,-0.135400001298574,2.90755754251682,1.2266761409821,2200.144,2213.341,2169.242,2168.527,-0.03978816,-6.085619E-05,0.0847187,-0.258374214172363,-0.163342401385307,0.222018390893936,-0.280473432677602,-0.12067988256057,0.173626415629864,9
0.759994506835938,-0.13105596601963,2.88278412818909,1.2237720489502,-0.14113644597991,2.90508931062815,1.2302272735046,2188.012,2214.423,2190.586,2166.145,-0.04080282,-6.625553E-05,0.08596095,-0.270284056663513,-0.168075919151306,0.226243197917938,-0.293070637251543,-0.126100107763583,0.181424685349205,9
0.779998779296875,-0.136700421571732,2.87932562828064,1.22838318347931,-0.147126184485884,2.90251209348295,1.23393520697061,2181.482,2209.301,2204.661,2172.551,-0.04188992,-7.26326E-05,0.08751937,-0.282222956418991,-0.17292608320713,0.230556383728981,-0.305795832832518,-0.131575403921268,0.189302187598958,9
0.79998779296875,-0.142585530877113,2.87576746940613,1.23308253288269,-0.153366821193532,2.89982692185086,1.2377984583754,2177.23,2198.353,2217.386,2184.593,-0.04283375,-7.765435E-05,0.0893625,-0.294255942106247,-0.177906140685081,0.234966427087784,-0.318629798715703,-0.137097500901303,0.197247023847227,9
0.819992065429688,-0.148714333772659,2.87210774421692,1.23787212371826,-0.159870162197751,2.89702871589906,1.2418243362541,2179.433,2186.949,2221.651,2199.649,-0.04347983,-7.982343E-05,0.09136179,-0.30644029378891,-0.182985290884972,0.23947936296463,-0.33158286215529,-0.142670842232658,0.205265587156312,9
0.839996337890625,-0.155090466141701,2.86834573745728,1.24275422096252,-0.166633637018892,2.89411858163313,1.24601124935738,2190.628,2181.483,2212.606,2213.704,-0.0438319,-7.710351E-05,0.09330717,-0.318806678056717,-0.188102096319199,0.244106039404869,-0.344636106234817,-0.148287288494656,0.213346167053785,9
0.860000610351563,-0.16171732544899,2.86448168754578,1.24773132801056,-0.173659158941841,2.89109569582005,1.2503603820997,2201.449,2181.344,2204.851,2221.931,-0.04394642,-7.105844E-05,0.0950565,-0.331342369318008,-0.193197295069695,0.248856455087662,-0.357780475378537,-0.153942943326036,0.221483157706883,9
0.879989624023438,-0.168597429990768,2.86051726341248,1.25280618667603,-0.18094280014554,2.88796174849148,1.25486930297274,2212.99,2188.525,2195.305,2224.221,-0.04396399,-6.3514E-05,0.0965241,-0.34400600194931,-0.19822371006012,0.253740251064301,-0.370996904517929,-0.159629603560431,0.229664756929996,9
0.899993896484375,-0.175732210278511,2.85645389556885,1.25798141956329,-0.18849723509595,2.8847112861788,1.25954585807468,2220.292,2199.143,2191.691,2221.512,-0.04401566,-5.712864E-05,0.09772263,-0.35673913359642,-0.203163400292397,0.258763372898102,-0.384296738353309,-0.165352150505452,0.237897987633041,9
0.919998168945313,-0.18312194943428,2.85229349136353,1.26326012611389,-0.196318384305134,2.8813460641717,1.26438752200817,2226.744,2213.563,2188.081,2216.104,-0.04426387,-5.312182E-05,0.09870332,-0.369487047195435,-0.208025619387627,0.263933509588242,-0.397661187980262,-0.171102499820431,0.246171218589148,9
0.939987182617188,-0.190766081213951,2.84803652763367,1.26864516735077,-0.204401181418416,2.87786826238106,1.26939115845832,2225.316,2224.476,2197.062,2209.59,-0.0447459,-5.322248E-05,0.09961309,-0.38220602273941,-0.212851986289024,0.269252210855484,-0.411071375662203,-0.176872528942697,0.254472763580097,9
0.959991455078125,-0.198663711547852,2.84368276596069,1.27413940429688,-0.212759000778906,2.87427212620069,1.27456504678061,2220.782,2230.538,2210.819,2206.229,-0.04541276,-5.680149E-05,0.1005984,-0.39488273859024,-0.217690974473953,0.274714887142181,-0.424539267042903,-0.182667386354485,0.262810029909387,9
0.979995727539063,-0.206814408302307,2.83923125267029,1.27974581718445,-0.22138664033507,2.87055989392801,1.27990596665734,2219.369,2233.511,2219.392,2208.166,-0.0462165,-6.182201E-05,0.1017173,-0.407534152269363,-0.222580462694168,0.28031861782074,-0.438046240701377,-0.188479059778567,0.271171490030365,9
1,-0.215218171477318,2.8346803188324,1.28546690940857,-0.230284798736574,2.86673126495361,1.28541435058594,2215.808,2230.516,2232.873,2213.321,-0.04702077,-6.7049E-05,0.1030171,-0.42018848657608,-0.227547481656075,0.286056250333786,-0.451584000205995,-0.194303979492187,0.279552008056641,9
1.01998901367188,-0.223875820636749,2.83002853393555,1.29130530357361,-0.239446912293295,2.86278906344998,1.29108613532954,2216.441,2225.995,2240.036,2222.106,-0.04771746,-7.065698E-05,0.1044622,-0.432883203029633,-0.232590734958649,0.291920393705368,-0.46513400752272,-0.200134169097193,0.287940108062054,9
1.03999328613281,-0.232788786292076,2.82527470588684,1.29726338386536,-0.248887339851819,2.85872711120656,1.2969302096982,2219.168,2220.438,2244.535,2232.333,-0.04821227,-7.214329E-05,0.1059788,-0.44564750790596,-0.2376868724823,0.297902196645737,-0.478708875293167,-0.205975055460915,0.29634359787259,9
1.05999755859375,-0.241958692669868,2.82041883468628,1.30334341526031,-0.258599401509697,2.85454828239877,1.30294243851408,2228.684,2220.265,2237.472,2241.963,-0.0485425,-7.000803E-05,0.1074274,-0.45849534869194,-0.24279360473156,0.303999304771423,-0.492290296490434,-0.211818761581115,0.30475114456651,9
1.08000183105469,-0.251386910676956,2.81546139717102,1.3095475435257,-0.268583149539609,2.85025255453512,1.30912285413647,2235.545,2222.104,2235.332,2247.156,-0.04873851,-6.621557E-05,0.1087427,-0.4714115858078,-0.247877225279808,0.31020849943161,-0.50587040849135,-0.217661904390701,0.313157880805523,10
1.09999084472656,-0.261074274778366,2.8104031085968,1.315878033638,-0.278830554044452,2.84584338265603,1.31546648567654,2242.974,2228.281,2231.276,2249.167,-0.04888498,-6.209328E-05,0.1098862,-0.484367817640305,-0.252910673618317,0.316526830196381,-0.519431110871131,-0.223496695782555,0.321552601564445,10
1.1199951171875,-0.271020859479904,2.8052453994751,1.32233703136444,-0.289357002179081,2.84131414609862,1.32198285851614,2246.977,2235.142,2232.329,2248.467,-0.04903945,-5.953582E-05,0.110882,-0.497327774763107,-0.25788477063179,0.322948276996613,-0.532985466132485,-0.229328756186667,0.329943393154705,10
1.13999938964844,-0.281226009130478,2.7999894618988,1.32892644405365,-0.300154365346813,2.83666834237095,1.3286669406667,2252.65,2245.162,2229.071,2247.123,-0.04931109,-5.839786E-05,0.1117425,-0.510261178016663,-0.262802243232727,0.329470753669739,-0.546515580872639,-0.235150386571708,0.338319178707607,10
1.15998840332031,-0.291688859462738,2.79463577270508,1.33564817905426,-0.31121353909136,2.83190988886621,1.33551309603608,2251.928,2251.674,2237.066,2244.165,-0.04970417,-5.976763E-05,0.1125641,-0.523140609264374,-0.267688423395157,0.336087912321091,-0.560003743914979,-0.240953966313175,0.346668994161124,10
1.17999267578125,-0.302408039569855,2.78918433189392,1.34250390529633,-0.322550701230474,2.8270318247214,1.34253133946411,2249.534,2254.813,2247.54,2243.385,-0.0501697,-6.329874E-05,0.1134355,-0.535958468914032,-0.27256852388382,0.342788457870483,-0.573463232144024,-0.246745208083563,0.355001058539242,10
1.19999694824219,-0.313382565975189,2.78363513946533,1.34949517250061,-0.334156660511822,2.8220381046756,1.34971598112778,2251.247,2257.69,2250.306,2246.334,-0.05070126,-6.72175E-05,0.1143616,-0.548726260662079,-0.277457684278488,0.349565476179123,-0.58687652428584,-0.252516572968185,0.36330452533874,10
1.22000122070313,-0.324611723423004,2.77798771858215,1.3566232919693,-0.346030421585499,2.81692915700008,1.35706640485806,2249.763,2256.083,2259.888,2249.874,-0.05121099,-7.074637E-05,0.115374,-0.561455965042114,-0.282369136810303,0.356408923864365,-0.600236516861372,-0.258265004538453,0.371574997167698,10
1.239990234375,-0.336095035076141,2.77224183082581,1.36388945579529,-0.358161486344149,2.81170949873715,1.36457611182642,2251.239,2254.263,2264.27,2255.591,-0.05164349,-7.304998E-05,0.1164484,-0.574165821075439,-0.28729784488678,0.363309055566788,-0.613526094901141,-0.263983138701136,0.379801879044709,10
1.25999450683594,-0.347832411527634,2.76639723777771,1.3712944984436,-0.3705671011502,2.80637170925886,1.37225577835275,2253.015,2251.157,2268.528,2262.002,-0.05193271,-7.380856E-05,0.1175479,-0.586868405342102,-0.292226850986481,0.370254218578339,-0.626758665639206,-0.269676744214496,0.387993470686331,10
1.27999877929688,-0.359823793172836,2.7604546546936,1.37883925437927,-0.383236695417198,2.80092033679326,1.3800988607405,2260.616,2252.996,2261.718,2268.546,-0.05213244,-7.239996E-05,0.1185711,-0.599569022655487,-0.297126561403275,0.377240359783173,-0.639917282339435,-0.275338529371412,0.396139281255613,10
1.29998779296875,-0.372068792581558,2.7544150352478,1.38652443885803,-0.396158759015336,2.79536033382764,1.388098233671,2264.354,2254.731,2262.371,2271.266,-0.05225388,-7.010319E-05,0.1194967,-0.612251460552216,-0.301978826522827,0.384261667728424,-0.652985332144132,-0.280961346123326,0.404229026602261,10
1.31999206542969,-0.384566724300385,2.7482795715332,1.39435064792633,-0.409351342777246,2.78968393359302,1.39626507146953,2267.377,2257.772,2263.475,2272.473,-0.05231727,-6.83681E-05,0.1203244,-0.624894976615906,-0.306767851114273,0.391309648752213,-0.665976209205206,-0.286550957599616,0.412270998344359,10
1.33999633789063,-0.39731627702713,2.74204993247986,1.40231823921204,-0.422802873722428,2.78389611561957,1.40459220990988,2273.635,2264.902,2257.221,2273.51,-0.05242273,-6.669515E-05,0.1210196,-0.637479841709137,-0.311482936143875,0.398382008075714,-0.678873453515705,-0.29210028151913,0.420255006953505,11
1.36000061035156,-0.410315871238708,2.73572731018066,1.41042768955231,-0.436511415158101,2.77799771321212,1.41307845008695,2273.985,2269.527,2262.046,2271.524,-0.05258305,-6.674725E-05,0.1216412,-0.649978935718536,-0.316134065389633,0.405472785234451,-0.691670720740693,-0.297606588091785,0.42817712498415,11
1.37998962402344,-0.423563420772552,2.72931265830994,1.41867923736572,-0.450464156928423,2.77199423822282,1.42171586190405,2274.33,2273.855,2265.957,2270.401,-0.05280676,-6.851558E-05,0.1222367,-0.662377953529358,-0.320733398199081,0.412574678659439,-0.704352136620515,-0.303063047067127,0.436027525513373,11
1.39999389648438,-0.437056839466095,2.72280669212341,1.42707276344299,-0.464680216184654,2.76587746507559,1.43051627978847,2272.36,2274.477,2274.071,2270.614,-0.05304218,-7.13731E-05,0.1228617,-0.674672365188599,-0.325295031070709,0.419676393270493,-0.716930938559026,-0.308475354130225,0.443814403124744,11
1.41999816894531,-0.450794219970703,2.71621036529541,1.43560826778412,-0.47914673136562,2.75965292774086,1.43947174182117,2275.198,2276.945,2272.619,2273.553,-0.05331009,-7.384912E-05,0.1234908,-0.686869919300079,-0.329821765422821,0.426772594451904,-0.729391385793766,-0.313836736470737,0.451528013536465,11
1.43998718261719,-0.464773654937744,2.70952391624451,1.44428539276123,-0.49384995777978,2.75332654017544,1.44857373938334,2274.171,2275.643,2279.476,2275.482,-0.05354978,-7.583267E-05,0.1241489,-0.698972702026367,-0.334320604801178,0.43385511636734,-0.741718206886022,-0.319140623215221,0.459158903000492,11
1.45999145507813,-0.47899341583252,2.70274829864502,1.45310366153717,-0.508809800712713,2.74688973769103,1.45783459479497,2273.881,2273.356,2284.83,2278.688,-0.05370158,-7.739691E-05,0.124837,-0.710987508296967,-0.338785797357559,0.440912932157516,-0.753924423002454,-0.324392617007921,0.466715132239272,11
1.47999572753906,-0.493451863527298,2.69588422775269,1.46206247806549,-0.524012471663969,2.74034845309416,1.46724577231745,2279.258,2274.811,2278.777,2283.715,-0.0538081,-7.702918E-05,0.1254755,-0.722922027111053,-0.343199461698532,0.447942495346069,-0.765994882555672,-0.329586198544069,0.474187321698441,11
1.5,-0.508147120475769,2.68893313407898,1.47116124629974,-0.539455198877605,2.73370387899399,1.4768055561018,2280.518,2274.697,2281.359,2285.448,-0.05385178,-7.603933E-05,0.1260618,-0.734766602516174,-0.347552835941315,0.454938292503357,-0.777924000354858,-0.334718964672088,0.481572013878822,11
1.51998901367188,-0.523077487945557,2.68189644813538,1.4803991317749,-0.555123050061237,2.72696244033876,1.48650470234772,2283.249,2276.649,2280.277,2286.963,-0.05385604,-7.475482E-05,0.1265781,-0.746511399745941,-0.351833641529083,0.461894929409027,-0.789697369743256,-0.339784716610053,0.488860290373601,11
1.53999328613281,-0.538240253925323,2.67477583885193,1.48977518081665,-0.571036956668503,2.72011513090874,1.49635616862212,2283.811,2277.323,2282.99,2287.633,-0.0538097,-7.420457E-05,0.127036,-0.758142471313477,-0.356034755706787,0.468804210424423,-0.801327600455846,-0.344788879974649,0.496059957209413,11
1.55999755859375,-0.553633272647858,2.66757297515869,1.49928843975067,-0.587181951496087,2.71316839067337,1.50635068951315,2288.724,2282.399,2276.152,2288.916,-0.05379585,-7.350247E-05,0.1273927,-0.76964944601059,-0.360146850347519,0.475664854049683,-0.812800388649436,-0.349725300221754,0.503162159625937,11
1.58000183105469,-0.569253444671631,2.66028952598572,1.50893783569336,-0.60355483331529,2.70612359703193,1.51648628330776,2287.986,2284.397,2280.686,2287.203,-0.05380704,-7.370513E-05,0.1276961,-0.781012713909149,-0.364178389310837,0.482472062110901,-0.824110582941666,-0.354591760855452,0.510163708672098,11
1.59999084472656,-0.585097968578339,2.65292692184448,1.51872229576111,-0.620139554045575,2.69898765502515,1.52675301547962,2288.041,2286.736,2282.805,2286.429,-0.05384805,-7.507283E-05,0.1279734,-0.792223036289215,-0.368135750293732,0.489220201969147,-0.835244706287931,-0.359382463079953,0.517056261415284,11
1.6199951171875,-0.601163506507874,2.64548635482788,1.52864027023315,-0.636958033083316,2.69175113334911,1.53716445517924,2285.966,2285.812,2288.979,2286.504,-0.05386882,-7.729128E-05,0.1282632,-0.803276658058167,-0.372026205062866,0.495899677276611,-0.846214826007804,-0.364102599125749,0.523847288101157,11
1.63999938964844,-0.617447018623352,2.63796949386597,1.53869044780731,-0.653994195024907,2.68442094880091,1.54771065096602,2289.1,2288.056,2284.337,2288.861,-0.05391144,-7.830877E-05,0.1285233,-0.814178884029388,-0.375846683979034,0.502508163452148,-0.857007552155828,-0.368746407673381,0.530528499715628,11
1.65998840332031,-0.63394558429718,2.63037753105164,1.54887127876282,-0.67123120513297,2.67700434489773,1.55838118133557,2287.725,2286.772,2289.461,2289.161,-0.05393168,-7.936302E-05,0.1287801,-0.824925601482391,-0.379602700471878,0.509039998054504,-0.867610144209785,-0.373308406832068,0.537092009268528,11
1.67999267578125,-0.650655925273895,2.62271165847778,1.55918097496033,-0.688691692550512,2.66949158495151,1.56919005480539,2286.599,2284.63,2293.754,2290.426,-0.05388161,-8.034585E-05,0.1290444,-0.835517883300781,-0.383290231227875,0.515486240386963,-0.878034183119987,-0.377793579561193,0.543544985919778,11
1.69999694824219,-0.667575120925903,2.61497378349304,1.56961786746979,-0.706358800111611,2.66188992212981,1.58012683598675,2290.954,2286.512,2286.51,2293.578,-0.05381823,-7.966821E-05,0.1292478,-0.845959961414337,-0.38689586520195,0.521845936775208,-0.888267004546665,-0.382196476749158,0.549879589839776,11
1.72000122070313,-0.684699952602386,2.60716533660889,1.58018016815186,-0.724228658537036,2.6542010212754,1.5911891296115,2290.558,2285.896,2289.392,2293.53,-0.05371969,-7.924368E-05,0.1294048,-0.856241166591644,-0.39041805267334,0.528115212917328,-0.898304216251578,-0.386515208538549,0.556093102023817,11
1.739990234375,-0.702026963233948,2.59928822517395,1.5908659696579,-0.74228345468553,2.64643254688532,1.60236590849663,2291.564,2286.934,2288.694,2293.684,-0.05360038,-7.872203E-05,0.1295111,-0.866354048252106,-0.393850773572922,0.534290194511414,-0.908134108040217,-0.390744736359816,0.562178273303667,12
1.75999450683594,-0.71955281496048,2.59134435653687,1.60167324542999,-0.760546715064628,2.63857437616062,1.61367173667103,2290.517,2286.002,2291.76,2293.618,-0.05343313,-7.88027E-05,0.1295841,-0.876290023326874,-0.397191077470779,0.540363490581512,-0.917767514700581,-0.394889722119545,0.568141810929231,12
1.77999877929688,-0.737273633480072,2.58333563804626,1.61259996891022,-0.779000609654483,2.63063418086074,1.62509557650306,2294.368,2289.376,2284.216,2294.819,-0.05329198,-7.846169E-05,0.1295745,-0.886045098304749,-0.400430470705032,0.546335220336914,-0.927192788821983,-0.398945154262308,0.57397650459845,12
1.79998779296875,-0.755185723304749,2.57526421546936,1.62364399433136,-0.797626646773287,2.62261991743975,1.63662598076079,2292.787,2289.64,2288.015,2292.904,-0.05315883,-7.866796E-05,0.1295224,-0.89560478925705,-0.403576195240021,0.55220228433609,-0.936399026186941,-0.402906341007953,0.579675604081262,12
1.81999206542969,-0.77328497171402,2.56713151931763,1.63480317592621,-0.816448984455027,2.61452119137054,1.64827790441807,2290.634,2288.654,2292.279,2291.876,-0.05299957,-7.983378E-05,0.1294624,-0.904962718486786,-0.406631618738174,0.557957231998444,-0.945396434568188,-0.406777674475912,0.585245428475252,12
1.83999633789063,-0.791567385196686,2.55893969535828,1.64607512950897,-0.835449117627072,2.60634596486888,1.66003989195343,2293.514,2291.096,2285.747,2293.057,-0.05287174,-8.055275E-05,0.1293506,-0.91412079334259,-0.409592598676682,0.563599765300751,-0.954174163352093,-0.410554485950274,0.590679260733698,12
1.86000061035156,-0.810028851032257,2.55069041252136,1.65745770931244,-0.854622615239374,2.59809614449182,1.6719092003358,2291.271,2289.861,2290.191,2291.763,-0.05273964,-8.124443E-05,0.1292231,-0.923071324825287,-0.412467449903488,0.56912636756897,-0.962728579444532,-0.414235212212131,0.595974851798267,12
1.87998962402344,-0.828665137290955,2.54238533973694,1.66894841194153,-0.873950157556149,2.58978004298193,1.6838738697284,2290.694,2289.397,2290.764,2291.61,-0.0525953,-8.205822E-05,0.1290844,-0.931814312934875,-0.41525661945343,0.57453316450119,-0.971049893464309,-0.417815641164241,0.601126141575667,12
1.89999389648438,-0.847472131252289,2.53402614593506,1.68054461479187,-0.893456683142228,2.58138692997148,1.69594933829086,2288.496,2286.417,2294.536,2291.94,-0.05238864,-8.293886E-05,0.1289488,-0.94035017490387,-0.417958825826645,0.579812705516815,-0.979147395688901,-0.421299770153459,0.606138881190213,12
1.91999816894531,-0.866445779800415,2.52561497688293,1.69224393367767,-0.913122862707269,2.57292512231409,1.70812364027167,2292.032,2287.895,2286.341,2293.944,-0.05217985,-8.270924E-05,0.1287509,-0.948683440685272,-0.420562565326691,0.584965765476227,-0.987011339258123,-0.424683405378145,0.611007036871143,12
1.93998718261719,-0.885581910610199,2.51715350151062,1.70404374599457,-0.932928814964021,2.56440317437226,1.72038446820694,2290.473,2286.54,2288.973,2292.759,-0.05194602,-8.228461E-05,0.1285125,-0.95680433511734,-0.423069089651108,0.589989900588989,-0.994632798067981,-0.427962706185118,0.615725082934877,12
1.95999145507813,-0.904876053333282,2.50864410400391,1.71594130992889,-0.952900013794853,2.55581012544606,1.73274759164336,2288.647,2284.788,2291.481,2291.912,-0.0516584,-8.242817E-05,0.1282517,-0.964707255363464,-0.425474613904953,0.594878792762756,-1.00202031904361,-0.431141350077486,0.620298310335216,12
1.97999572753906,-0.924323797225952,2.50008869171143,1.72793400287628,-0.973016570682103,2.54715453300902,1.74520069864106,2292.072,2287.159,2282.697,2292.886,-0.05139049,-8.198919E-05,0.1279109,-0.972391605377197,-0.427769929170609,0.599634110927582,-1.00916501115878,-0.434215511495054,0.624721215103391,12
2,-0.94392067193985,2.49148941040039,1.74001908302307,-0.993273599084619,2.53843849960327,1.7577407641983,2289.835,2286.5,2285.746,2290.434,-0.05112417,-8.199694E-05,0.1275277,-0.979844212532043,-0.429961174726486,0.604253947734833,-1.01606400046349,-0.437183953857422,0.628992018127441,12
2.01998901367188,-0.963661909103394,2.48284840583801,1.7521938085556,-1.01365055070775,2.52967086658596,1.77035506794184,2288.885,2286.678,2285.454,2288.923,-0.05086371,-8.265256E-05,0.1271145,-0.987060010433197,-0.432050377130508,0.608735680580139,-1.02270954399163,-0.440043345582587,0.633105926142498,12
2.03999328613281,-0.983542501926422,2.47416758537292,1.76445531845093,-1.03417354141348,2.52084039703127,1.78305977683431,2285.839,2284.103,2289.143,2287.844,-0.05056544,-8.405568E-05,0.1266994,-0.994036376476288,-0.434040546417236,0.613072872161865,-1.02910913225408,-0.442796909628122,0.637067576131623,12
2.05999755859375,-1.00355803966522,2.46544909477234,1.77680063247681,-1.05482201812353,2.5119559343546,1.79584216754118,2288.418,2285.607,2281.192,2288.618,-0.05029007,-8.435223E-05,0.1262299,-1.00077736377716,-0.435925602912903,0.617266952991486,-1.03525504859546,-0.445441325732794,0.640872191117535,12
2.08000183105469,-1.02370357513428,2.45669484138489,1.78922688961029,-1.07559088172821,2.50301967256038,1.80869908347065,2285.603,2283.636,2284.58,2286.658,-0.05000405,-8.482471E-05,0.1257391,-1.00727570056915,-0.437712281942368,0.621315836906433,-1.04114485287423,-0.447975543971863,0.644518260536375,12
2.09999084472656,-1.04397428035736,2.4479067325592,1.80173122882843,-1.09645901288412,2.49404069871208,1.82161745074311,2284.536,2282.698,2283.946,2285.684,-0.04970524,-8.535309E-05,0.1252294,-1.01353108882904,-0.439400017261505,0.625217199325562,-1.04677201701582,-0.450396755497224,0.648001743199023,12
2.1199951171875,-1.06436514854431,2.4390869140625,1.8143105506897,-1.11745308225396,2.48500753716864,1.83461377976925,2281.631,2279.302,2286.82,2285.075,-0.04934678,-8.596886E-05,0.124717,-1.01954329013824,-0.440987765789032,0.628964900970459,-1.0521429102862,-0.45270770082608,0.651326581984514,12
2.13999938964844,-1.08487141132355,2.43023729324341,1.82696175575256,-1.138551967509,2.47592927627801,1.8476749948214,2284.615,2280.428,2277.67,2286.012,-0.0489963,-8.567016E-05,0.1241381,-1.0253164768219,-0.44246506690979,0.632561147212982,-1.05725102347782,-0.454905579228273,0.654488747383304,12
2.15998840332031,-1.1054881811142,2.4213604927063,1.83968186378479,-1.15973418543027,2.46681515966915,1.86078779676364,2282.054,2278.651,2279.939,2283.727,-0.04862985,-8.540149E-05,0.1235214,-1.03084099292755,-0.443835616111755,0.636004745960236,-1.06209075728,-0.456987981476842,0.657484773155346,12
2.17999267578125,-1.1262104511261,2.41245889663696,1.85246765613556,-1.18102676265167,2.45765355853653,1.8739689163698,2279.248,2276.186,2282.034,2282.135,-0.048216,-8.588276E-05,0.1228882,-1.03611278533936,-0.445097774267197,0.6392902135849,-1.06666760390386,-0.458957270716794,0.660318059240953,12
2.19999694824219,-1.14703297615051,2.40353393554688,1.86531603336334,-1.20240821395574,2.44845371736898,1.88720505326679,2281.917,2277.711,2272.857,2282.291,-0.04782664,-8.561403E-05,0.1221827,-1.04113352298737,-0.446243971586227,0.64242023229599,-1.07097597819164,-0.460811043810786,0.662985148161421,12
2.22000122070313,-1.16795086860657,2.39458823204041,1.87822389602661,-1.22387315175433,2.43921795429519,1.90049287228091,2278.729,2276.22,2275.562,2279.194,-0.04743836,-8.599378E-05,0.1214449,-1.04589259624481,-0.447281509637833,0.645393848419189,-1.07501419914593,-0.462548577472581,0.665484999299265,12
2.239990234375,-1.18895864486694,2.38562393188477,1.89118802547455,-1.24539969505118,2.42995568409656,1.91381882803312,2277.044,2275.375,2274.679,2277.299,-0.04705273,-8.681338E-05,0.1206843,-1.05038785934448,-0.448212593793869,0.648209273815155,-1.07877792518082,-0.464168003639063,0.667814925005999,12
2.25999450683594,-1.2100510597229,2.37664318084717,1.90420520305634,-1.26701526177039,2.4206551096063,1.92719989352455,2273.334,2271.935,2277.577,2275.845,-0.04662236,-8.777124E-05,0.1199258,-1.0546190738678,-0.44903963804245,0.650861084461212,-1.08227143928024,-0.465671165158559,0.669977576652695,12
2.27999877929688,-1.2312228679657,2.36764812469482,1.91727221012115,-1.28869796983554,2.41132564607061,1.9406225227075,2275.548,2272.558,2268.773,2276.065,-0.04621064,-8.796116E-05,0.1191127,-1.05859184265137,-0.449755519628525,0.653351843357086,-1.08549040888332,-0.467056197851165,0.67197027217779,12
2.29998779296875,-1.2524688243866,2.35864090919495,1.93038582801819,-1.31042570636616,2.40197680804417,1.95407302665558,2272.202,2270.073,2271.157,2273.537,-0.0457856,-8.830508E-05,0.1182759,-1.06229972839355,-0.450366139411926,0.655680537223816,-1.08843144721369,-0.468321644481621,0.673790915005368,12
2.31999206542969,-1.27378380298615,2.34962344169617,1.94354271888733,-1.33222611841886,2.3925966997709,1.96756852021384,2268.75,2266.789,2273.225,2271.849,-0.04530889,-8.877187E-05,0.1174363,-1.06574213504791,-0.450870513916016,0.657842099666595,-1.09109790637238,-0.469468947365361,0.675441580245663,11
2.33999633789063,-1.29516220092773,2.34059834480286,1.95673954486847,-1.35407709248145,2.38319483607731,1.98109531406483,2271.095,2267.364,2263.872,2271.889,-0.04484657,-8.868403E-05,0.1165343,-1.0689240694046,-0.451260149478912,0.659839451313019,-1.09348640563071,-0.470496651869278,0.67692017506657,11
2.36000061035156,-1.31659889221191,2.33156752586365,1.9699729681015,-1.37597305876702,2.37377361348711,1.99464996024512,2267.768,2265.05,2265.693,2269.1,-0.04437412,-8.87558E-05,0.1156,-1.07183730602264,-0.451540321111679,0.661672115325928,-1.09559602313537,-0.471404361345641,0.678226128796969,11
2.37998962402344,-1.33808851242065,2.32253336906433,1.98323976993561,-1.39789168475144,2.36434264106153,2.00821863385843,2266.02,2263.833,2264.005,2266.936,-0.04389582,-8.899769E-05,0.1146388,-1.07448029518127,-0.451711028814316,0.663339197635651,-1.09742465646102,-0.47219117117957,0.679358139935436,11
2.39999389648438,-1.35962569713593,2.31349802017212,1.99653649330139,-1.41986083522252,2.35488992936084,2.02181858453579,2262.198,2260.201,2265.982,2265.225,-0.04336958,-8.971273E-05,0.1136712,-1.07685220241547,-0.451772958040237,0.66483598947525,-1.09897439291323,-0.472857979480329,0.680317500623536,11
2.41999816894531,-1.38120472431183,2.30446362495422,2.00985980033875,-1.44185817738692,2.34542508756209,2.03543598721428,2264.325,2260.71,2256.609,2264.757,-0.04286358,-8.959263E-05,0.1126413,-1.07895720005035,-0.451718598604202,0.666165769100189,-1.10024313330221,-0.473403883025206,0.681102911362803,11
2.43998718261719,-1.4028205871582,2.29543256759644,2.02320647239685,-1.46386128162322,2.33595776650478,2.04905695688976,2260.63,2258.371,2258.408,2261.584,-0.04235225,-8.998335E-05,0.1115826,-1.08078765869141,-0.451554298400879,0.667328178882599,-1.10122974390336,-0.473828394004169,0.681713670323692,11
2.45999145507813,-1.42446732521057,2.28640699386597,2.03657293319702,-1.48589810917879,2.32647593524532,2.06269880290633,2256.648,2255.041,2260.208,2259.334,-0.04179831,-9.057642E-05,0.1105203,-1.08234250545502,-0.451281040906906,0.668318867683411,-1.10193535162022,-0.474131997292339,0.68215047511319,10
2.47999572753906,-1.44613981246948,2.27738904953003,2.04995584487915,-1.50794623031618,2.31698924467309,2.07634764018804,2258.568,2255.392,2250.886,2258.614,-0.04126834,-9.063594E-05,0.1094001,-1.08362686634064,-0.450892359018326,0.669141292572021,-1.10235882472314,-0.474314205938057,0.682412625136718,10
2.5,-1.46783256530762,2.26838111877441,2.06335163116455,-1.52999999932945,2.30750012397766,2.08999997377396,2254.517,2252.723,2252.83,2255.428,-0.04073305,-9.087512E-05,0.1082568,-1.08463394641876,-0.450395613908768,0.669795155525208,-1.10250000050292,-0.474374949932098,0.682500019669533,10
2.51998901367188,-1.48953986167908,2.25938534736633,2.07675719261169,-1.5520369476803,2.29801824074336,2.10364189456856,2252.289,2250.922,2251.038,2253.11,-0.04019296,-9.138718E-05,0.1070953,-1.08536458015442,-0.449791848659515,0.670280039310455,-1.10235904000526,-0.474314298567936,0.682412758406603,10
2.53999328613281,-1.51125609874725,2.25040340423584,2.09016895294189,-1.57408507527774,2.28853154739156,2.11729073584934,2248.061,2246.814,2252.694,2251.318,-0.0396028,-9.206613E-05,0.1059347,-1.08582007884979,-0.44908195734024,0.670591652393341,-1.10193578218388,-0.474132182551855,0.682150741652607,9
2.55999755859375,-1.53297626972198,2.24143838882446,2.10358357429504,-1.59612191359838,2.27904971150017,2.13093258853001,2249.951,2246.688,2243.268,2250.514,-0.03902863,-9.202397E-05,0.1047184,-1.08600652217865,-0.448258131742477,0.670733630657196,-1.10123038958312,-0.473828671822132,0.681714070030222,9
2.57998657226563,-1.55469477176666,2.23249197006226,2.11699771881104,-1.61812503288753,2.26958238396605,2.14455356752391,2246.029,2243.717,2244.479,2247.557,-0.03844167,-9.202713E-05,0.1034736,-1.08591794967651,-0.447325825691223,0.670706033706665,-1.1002439936861,-0.473404253224357,0.681103443981416,9
2.59999084472656,-1.57640588283539,2.22356629371643,2.13040781021118,-1.64012239440973,2.26011753383818,2.15817098218581,2241.965,2240.292,2245.522,2245.047,-0.03780996,-9.2368E-05,0.1022227,-1.08555364608765,-0.446284592151642,0.670505344867706,-1.09897546783438,-0.47285844198887,0.680318166050934,8
2.6199951171875,-1.59810411930084,2.2146635055542,2.14381051063538,-1.66209156852628,2.2506648119635,2.17177094750084,2243.785,2240.285,2235.968,2243.845,-0.0372017,-9.23526E-05,0.1009115,-1.08491826057434,-0.445127576589584,0.670135259628296,-1.09742594550583,-0.472191725819537,0.679358937915576,6
2.63999938964844,-1.61978435516357,2.20578646659851,2.15720248222351,-1.68402693989188,2.24122663446822,2.18534998730279,2239.539,2237.664,2237.258,2240.321,-0.03659077,-9.243452E-05,0.09957416,-1.08400511741638,-0.443862020969391,0.669596254825592,-1.09559602313537,-0.471404361345641,0.67822612879697,5
2.65998840332031,-1.64144062995911,2.19693660736084,2.1705801486969,-1.70590622088595,2.23181259109281,2.19889430449282,2237.017,2235.703,2235.175,2237.634,-0.03597984,-9.270809E-05,0.09821688,-1.08281445503235,-0.442489743232727,0.668888211250305,-1.09348812118877,-0.470497390025984,0.676921237078733,0
2.67999267578125,-1.66306746006012,2.18811631202698,2.18394041061401,-1.72775723139253,2.2224107117184,2.21242112090437,2232.421,2231.714,2236.516,2235.336,-0.03532683,-9.33783E-05,0.0968622,-1.08134758472443,-0.441012650728226,0.668007791042328,-1.09109983431736,-0.469469776906228,0.675442773735451,0
2.69999694824219,-1.68465995788574,2.17932748794556,2.19727969169617,-1.74955768413056,2.21303058593937,2.22591663964878,2233.966,2231.137,2227.292,2234.073,-0.03469406,-9.346743E-05,0.09545664,-1.07961130142212,-0.439424723386765,0.666958808898926,-1.08843358680109,-0.468322565086308,0.673792239511893,0
2.72000122070313,-1.70621180534363,2.17057275772095,2.21059441566467,-1.77130202882336,2.20367460188472,2.23937742484041,2229.52,2228.03,2228.482,2230.779,-0.03405171,-9.354668E-05,0.09403101,-1.07760083675385,-0.437732309103012,0.665741682052612,-1.08549040888332,-0.467056197851165,0.671970272177789,0
2.739990234375,-1.72771811485291,2.16185426712036,2.223881483078,-1.79296822271738,2.1943522439355,2.25278983096475,2227.143,2225.875,2225.872,2228.137,-0.03340456,-9.379925E-05,0.09258673,-1.07531785964966,-0.435935825109482,0.664356827735901,-1.08227399942825,-0.465672266718727,0.669979161506271,0
2.75999450683594,-1.74917340278625,2.15317344665527,2.23713755607605,-1.81458384274179,2.18505164650952,2.26617092945464,2222.582,2221.584,2226.75,2226.058,-0.03271001,-9.401537E-05,0.09114088,-1.07276391983032,-0.434036195278168,0.662801206111908,-1.07878069424208,-0.464169195088763,0.667816639186824,0
2.77999877929688,-1.77057218551636,2.14453291893005,2.25035905838013,-1.83612684690458,2.17578229366013,2.27950707526701,2224.174,2220.991,2217.431,2224.367,-0.0320341,-9.382486E-05,0.08964144,-1.06994497776031,-0.432026296854019,0.661078989505768,-1.07501419914593,-0.462548577472581,0.665484999299265,0
2.79998779296875,-1.79190933704376,2.13593459129333,2.26354289054871,-1.85757544288233,2.1665535620153,2.29278477791556,2219.848,2218.034,2217.968,2220.983,-0.0313518,-9.369052E-05,0.08811649,-1.0668557882309,-0.429912209510803,0.659191012382507,-1.07097916161324,-0.460812413548163,0.662987118851036,0
2.81999206542969,-1.81317925453186,2.12738084793091,2.2766854763031,-1.87895695992541,2.1573536925621,2.30602095550813,2215.323,2214.454,2218.487,2218.188,-0.03063274,-9.412286E-05,0.0865887,-1.06349670886993,-0.427694916725159,0.657134771347046,-1.06667099276523,-0.458958728849171,0.660320157107579,0
2.83999633789063,-1.8343768119812,2.11887311935425,2.28978371620178,-1.90024960698239,2.14819206138118,2.31920211834584,2216.712,2213.779,2209.358,2216.275,-0.02993979,-9.414395E-05,0.0850087,-1.05987322330475,-0.425369143486023,0.654914379119873,-1.06209435025759,-0.456989527434725,0.657486997379635,0
2.86000061035156,-1.85549640655518,2.1104142665863,2.30283427238464,-1.9214480311499,2.13907097167731,2.33232495272651,2211.967,2210.93,2210.23,2212.564,-0.02924737,-9.436272E-05,0.08341081,-1.05598056316376,-0.422942668199539,0.65253084897995,-1.05725102347782,-0.454905579228273,0.654488747383304,0
2.87998962402344,-1.87653267383575,2.10200595855713,2.31583404541016,-1.94253086194772,2.12999961857111,2.34537622930486,2209.149,2208.594,2207.781,2209.64,-0.02855654,-9.461951E-05,0.08180019,-1.05182111263275,-0.420417875051498,0.649984896183014,-1.05214690704168,-0.452709420518306,0.651329056166547,0
2.89999389648438,-1.89748072624207,2.09365010261536,2.32877945899963,-1.96352501326936,2.1209664217661,2.35837260906308,2204.254,2204.337,2208.493,2207.33,-0.02782631,-9.492198E-05,0.0801962,-1.04739785194397,-0.417797207832336,0.647274196147919,-1.04677621342161,-0.450398561093403,0.648004340974112,0
2.91999816894531,-1.91833508014679,2.08534860610962,2.34166741371155,-1.98440911693069,2.11198057539494,2.37130086407726,2205.456,2203.061,2199.747,2205.467,-0.02711418,-9.490516E-05,0.07854924,-1.04271829128265,-0.415074944496155,0.644402980804443,-1.04114485287423,-0.447975543971863,0.644518260536375,0
2.93998718261719,-1.93909060955048,2.07710337638855,2.35449481010437,-2.00516218376194,2.10305111051103,2.38414800105147,2200.923,2199.882,2200.015,2202.146,-0.02639459,-9.47782E-05,0.07688547,-1.03777933120728,-0.412256985902786,0.641372442245483,-1.03525963910674,-0.445443300901551,0.640875032862689,0
2.95999145507813,-1.95974218845367,2.06891655921936,2.36725831031799,-2.02581075424974,2.0941666074844,2.39693044981124,2196.37,2196.086,2200.039,2199.505,-0.02563665,-9.495317E-05,0.07522309,-1.03258347511292,-0.409343957901001,0.63818085193634,-1.02911391720548,-0.442798968459032,0.637070538244476,0
2.97999572753906,-1.98028492927551,2.06079006195068,2.37995505332947,-2.04633384260397,2.08533609591429,2.40963521915279,2197.642,2194.892,2191.211,2197.366,-0.02490002,-9.474144E-05,0.07351356,-1.02713680267334,-0.406330317258835,0.634832501411438,-1.02271452148052,-0.440045487257004,0.633109007445237,0
3,-2.00071358680725,2.05272579193115,2.39258170127869,-2.06672639957428,2.07656174835205,2.42225918334961,2193.011,2191.931,2191.38,2193.831,-0.0241618,-9.479318E-05,0.07178535,-1.02143561840057,-0.403222650289536,0.631328821182251,-1.01606400046349,-0.437183953857422,0.628992018127441,0
3.01998901367188,-2.02102327346802,2.04472517967224,2.40513515472412,-2.0869680292999,2.06785234056679,2.43478971639231,2190.165,2189.637,2188.704,2190.63,-0.02342623,-9.486133E-05,0.07004418,-1.01548194885254,-0.400023013353348,0.627671182155609,-1.00917036754089,-0.434217816196637,0.624724530959079,0
3.03999328613281,-2.04120898246765,2.03679060935974,2.41761231422424,-2.10708469520508,2.05919670122237,2.4472428908773,2185.249,2185.589,2188.952,2188.158,-0.02265658,-9.505184E-05,0.06830899,-1.00927889347076,-0.396733820438385,0.623857975006104,-1.00202586176059,-0.431143734953757,0.620301741541063,0
3.05999755859375,-2.06126546859741,2.02892374992371,2.43001008033752,-2.12705600675913,2.05060360379452,2.45960608409476,2186.329,2184.116,2180.514,2185.891,-0.02190823,-9.495778E-05,0.06653363,-1.00283348560333,-0.393350392580032,0.619893670082092,-0.994638524886308,-0.427965170275055,0.615728628108227,0
3.07998657226563,-2.08118844032288,2.02112627029419,2.44232559204102,-2.14686207530873,2.04208160581513,2.47186698402085,2181.675,2181.109,2180.494,2182.43,-0.02115988,-9.501065E-05,0.06474502,-0.996143341064453,-0.389879405498505,0.615780055522919,-0.987017247723776,-0.424685947625853,0.611010694492843,0
3.09999084472656,-2.10097289085388,2.01339936256409,2.45455598831177,-2.16652837486666,2.03361974652815,2.48404136028297,2176.914,2177.376,2180.41,2179.718,-0.02037957,-9.51062E-05,0.06296251,-0.989211320877075,-0.386322557926178,0.611515879631042,-0.979153483542501,-0.421302389586788,0.606142649861596,0
3.1199951171875,-2.12061357498169,2.00574612617493,2.46669816970825,-2.18603502400946,2.02522658035469,2.49611690533293,2177.844,2175.95,2172.292,2177.14,-0.0196227,-9.49973E-05,0.0611443,-0.982044577598572,-0.382675737142563,0.607105791568756,-0.971056158224178,-0.417818336715394,0.601130019760458,0
3.13999938964844,-2.14010667800903,1.99816715717316,2.47874927520752,-2.20537738341953,2.01690410346351,2.50809074721212,2173.269,2172.811,2171.996,2173.929,-0.01886637,-9.485566E-05,0.0593134,-0.974641442298889,-0.378945767879486,0.602551579475403,-0.962728579444533,-0.414235212212131,0.595974851798267,0
3.15998840332031,-2.15944647789001,1.99066460132599,2.49070644378662,-2.22453632143911,2.00866054767245,2.51995104251302,2170.156,2170.344,2169.585,2170.68,-0.01811163,-9.495496E-05,0.05747768,-0.967005014419556,-0.37513479590416,0.597854912281036,-0.954180774018563,-0.410557330335374,0.590683353051152,0
3.17999267578125,-2.17862939834595,1.98323941230774,2.50256681442261,-2.24353658854737,2.00048526354177,2.53171311296128,2165.553,2166.352,2169.116,2168.385,-0.01732653,-9.494695E-05,0.05565001,-0.959139764308929,-0.371244966983795,0.593015074729919,-0.945403214201559,-0.406780591562751,0.585249625391267,0
3.19999694824219,-2.19764995574951,1.97589421272278,2.51432752609253,-2.2623590635174,1.99238647840124,2.54336512160655,2166.279,2164.608,2161.494,2165.778,-0.0165606,-9.461233E-05,0.05379081,-0.951052904129028,-0.367272198200226,0.588036775588989,-0.936405971974636,-0.402909329586355,0.579679903854719,0
3.22000122070313,-2.21650528907776,1.96862959861755,2.52598595619202,-2.28099938900442,1.98436606709459,2.55490437104486,2161.905,2161.585,2160.829,2162.593,-0.01579521,-9.431091E-05,0.0519206,-0.942743539810181,-0.363222479820251,0.582922220230103,-0.927192788821982,-0.398945154262308,0.573976504598449,0
3.239990234375,-2.23518967628479,1.9614474773407,2.5375394821167,-2.2994392795179,1.97643189735754,2.5663195416865,2158.801,2159.033,2158.398,2159.434,-0.01502982,-9.421485E-05,0.05004608,-0.934214770793915,-0.359097570180893,0.577673256397247,-0.917774783907129,-0.394892849856044,0.568146310914365,0
3.25999450683594,-2.25369882583618,1.95434963703156,2.54898524284363,-2.31770268688992,1.96857366338589,2.57762546085652,2154.389,2155.254,2157.605,2157.08,-0.01423726,-9.410889E-05,0.04817886,-0.925471067428589,-0.35489946603775,0.572289824485779,-0.90814153446928,-0.390747931744771,0.562182870617026,0
3.27999877929688,-2.27202939987183,1.94733715057373,2.56032085418701,-2.33577134012187,1.96079922667992,2.58881081793642,2155.228,2153.533,2150.051,2154.307,-0.01346814,-9.391528E-05,0.04628016,-0.916519224643707,-0.35062450170517,0.56677657365799,-0.898304216251578,-0.386515208538549,0.556093102023818,0
3.29998779296875,-2.29017639160156,1.94041156768799,2.5715434551239,-2.35362764460945,1.95311615770631,2.59986472102797,2150.546,2150.657,2149.717,2151.006,-0.01270168,-9.370725E-05,0.04437517,-0.907358109951019,-0.346279323101044,0.561135947704315,-0.888274735793772,-0.382199803288803,0.549884375850026,0
3.31999206542969,-2.30813646316528,1.93357419967651,2.58265089988708,-2.37129490830989,1.94551442770222,2.61080159886703,2146.139,2147.385,2148.909,2148.234,-0.01191552,-9.358701E-05,0.04248031,-0.897991538047791,-0.341866284608841,0.55536812543869,-0.878042061913513,-0.37779696958594,0.54354986326829,0
3.33999633789063,-2.32590508460999,1.92682647705078,2.59364056587219,-2.38875555478454,1.93800159931817,2.62161057080077,2146.622,2145.557,2141.977,2145.389,-0.01115545,-9.332635E-05,0.04056176,-0.888426721096039,-0.337383091449738,0.549477756023407,-0.867618167158097,-0.373311858882592,0.53709697585572,0
3.36000061035156,-2.34347820281982,1.92016994953156,2.60450983047485,-2.406005803634,1.93057929915441,2.6322892965819,2142.07,2142.755,2141.444,2142.187,-0.01040177,-9.321523E-05,0.0386428,-0.878663897514343,-0.332836747169495,0.543467402458191,-0.857007552155826,-0.36874640767338,0.530528499715627,0
3.37998962402344,-2.36085247993469,1.91360509395599,2.61525654792786,-2.42302905329872,1.92325467039821,2.6428274990542,2139.148,2140.237,2138.864,2139.164,-0.009655557,-9.303576E-05,0.03672794,-0.868707954883575,-0.328230142593384,0.537339627742767,-0.846223126656603,-0.364106170663035,0.523852426598178,0
3.39999389648438,-2.37802386283875,1.90713381767273,2.62587833404541,-2.43984769972619,1.91601807669906,2.65323904237604,2134.466,2136.524,2138.412,2136.929,-0.008885371,-9.270386E-05,0.0348317,-0.858564436435699,-0.323566228151321,0.531094968318939,-0.835253140422974,-0.35938609205264,0.51706148254665,0
3.41999816894531,-2.3949887752533,1.9007568359375,2.6363730430603,-2.45644516534361,1.90887665092339,2.66351366424015,2135.167,2134.406,2131.536,2134.293,-0.008135424,-9.218254E-05,0.03291681,-0.848241865634918,-0.318841934204102,0.524738192558289,-0.824110582941664,-0.354591760855451,0.510163708672097,0
3.43998718261719,-2.41174364089966,1.89447593688965,2.64673852920532,-2.47280564474684,1.90183719369507,2.67364158034846,2130.84,2131.603,2130.785,2131.3,-0.007387609,-9.181906E-05,0.03100317,-0.837741196155548,-0.314062803983688,0.518272221088409,-0.812809078412023,-0.349729039183832,0.50316753900293,0
3.45999145507813,-2.42828488349915,1.88829112052917,2.65697240829468,-2.48895081463434,1.8948903781363,2.68363620960993,2126.766,2128.312,2129.661,2128.898,-0.006621151,-9.139903E-05,0.02910166,-0.827067077159882,-0.30923068523407,0.511697947978973,-0.80133641229185,-0.344792671461508,0.496065412155666,0
3.47999572753906,-2.44460916519165,1.882204413414,2.66707277297974,-2.50486489870395,1.88804299234919,2.69348778574196,2127.242,2126.628,2123.28,2125.76,-0.005880259,-9.119519E-05,0.02718377,-0.816226363182068,-0.3043432533741,0.505020320415497,-0.789706299681989,-0.339788558913217,0.488865818431069,0
3.5,-2.4607138633728,1.87621629238129,2.67703771591187,-2.5205447997813,1.88129636896134,2.70319439144611,2123.042,2123.939,2122.404,2122.87,-0.005148956,-9.08056E-05,0.02526813,-0.805220305919647,-0.299407064914703,0.498242288827896,-0.777924000354857,-0.334718964672089,0.481572013878822,0
3.51998901367188,-2.47659468650818,1.87032771110535,2.68686509132385,-2.53597583877076,1.87465682397749,2.71274693966292,2120.12,2121.637,2120.078,2119.844,-0.004427239,-9.04034E-05,0.02336168,-0.794053494930267,-0.294425278902054,0.49136683344841,-0.766004036374581,-0.329590137176618,0.474192988348404,0
3.53999328613281,-2.49224948883057,1.8645396232605,2.69655299186707,-2.55117869390181,1.86811546013321,2.72215823120146,2116.026,2118.438,2119.074,2117.58,-0.003693804,-9.009436E-05,0.02147581,-0.782731890678406,-0.289401143789291,0.484395384788513,-0.753933682518821,-0.324396601119134,0.466720864320997,0
3.55999755859375,-2.50767469406128,1.85885310173035,2.70609974861145,-2.56613872308604,1.86167857751006,2.73141920191151,2116.203,2116.333,2113.367,2114.828,-0.002983806,-8.954072E-05,0.01958284,-0.771263539791107,-0.284333467483521,0.477332919836044,-0.741727567798258,-0.319144650954242,0.459164697851087,0
3.57998657226563,-2.52286767959595,1.85326850414276,2.71550345420837,-2.58084213759183,1.85535210901407,2.74052131591136,2112.231,2113.764,2112.376,2112.069,-0.002282329,-8.910469E-05,0.01769952,-0.759651005268097,-0.279228031635284,0.470182627439499,-0.72940084364523,-0.31384080592,0.451533868397061,0
3.59999084472656,-2.53782558441162,1.84778690338135,2.72476243972778,-2.59530884290342,1.84912748987145,2.74947689564398,2108.236,2110.842,2111.394,2109.713,-0.001569667,-8.872808E-05,0.01583877,-0.747899889945984,-0.27408754825592,0.462946265935898,-0.716940488958392,-0.308479463400265,0.4438203152769,0
3.6199951171875,-2.55254602432251,1.84240865707397,2.73387503623962,-2.60952509409627,1.84301063413925,2.75827743234631,2108.57,2108.842,2105.775,2106.928,-0.0008825716,-8.836382E-05,0.01397335,-0.736018359661102,-0.268911004066467,0.455629020929337,-0.704361775018033,-0.303067194200314,0.436033492140578,0
3.63999938964844,-2.56702589988708,1.83713459968567,2.74283981323242,-2.6234885835008,1.83700253474321,2.76692149746096,2104.571,2106.424,2104.934,2104.227,-0.000205596,-8.779316E-05,0.01212141,-0.724008917808533,-0.263704240322113,0.4482342004776,-0.691670720740692,-0.297606588091786,0.428177124984152,0
3.65998840332031,-2.58126354217529,1.83196520805359,2.75165510177612,-2.63718676607487,1.8311085894645,2.77540132500924,2102.133,2104.237,2102.459,2101.485,0.0004584549,-8.740799E-05,0.01028569,-0.711877584457397,-0.258470177650452,0.44076532125473,-0.678883253871145,-0.292104498338286,0.420261073840379,0
3.67999267578125,-2.59525632858276,1.82690072059631,2.76031970977783,-2.65063849381582,1.82532068681534,2.78372858527554,2098.24,2101.19,2101.553,2099.556,0.001131612,-8.681734E-05,0.008476059,-0.699630916118622,-0.25321227312088,0.433224588632584,-0.665986083416798,-0.286555206197011,0.41227711095171,0
3.69999694824219,-2.60900163650513,1.82194232940674,2.7688319683075,-2.66383127580226,1.81964420129024,2.79189554578451,2098.451,2099.302,2096.446,2096.76,0.001780132,-8.639206E-05,0.006669231,-0.68727707862854,-0.247929483652115,0.425617128610611,-0.65299527533123,-0.280965624398954,0.404235181908735,0
3.72000122070313,-2.62249803543091,1.81708979606628,2.7771909236908,-2.6767633032417,1.81407991116207,2.79990108680742,2094.962,2096.957,2095.274,2094.322,0.002416039,-8.566047E-05,0.004877896,-0.674819529056549,-0.242627218365669,0.417946606874466,-0.639917282339434,-0.275338529371411,0.396139281255611,0
3.739990234375,-2.63574361801147,1.81234347820282,2.78539514541626,-2.68942333385363,1.80863265367006,2.80773824883709,2092.454,2094.931,2093.15,2091.672,0.003038015,-8.522341E-05,0.003107428,-0.662264168262482,-0.237308710813522,0.410216838121414,-0.62676873176137,-0.26968107538565,0.387999702095468,0
3.75999450683594,-2.64873600006104,1.80770409107208,2.79344367980957,-2.70182915057228,1.80329477731443,2.81541804035694,2088.962,2092.206,2092.066,2089.764,0.003663663,-8.463953E-05,0.001366185,-0.649617671966553,-0.231977224349976,0.402430504560471,-0.613536214864365,-0.263987493038594,0.379808143784027,0
3.77999877929688,-2.66147351264954,1.80317139625549,2.80133557319641,-2.7139695770734,1.79807109095524,2.82293354268985,2089.173,2090.365,2087.356,2087.103,0.004261771,-8.399125E-05,-0.0003675162,-0.636888384819031,-0.226632535457611,0.394592791795731,-0.60023651686137,-0.258265004538452,0.371574997167698,0
3.79998779296875,-2.67395520210266,1.79874563217163,2.80906963348389,-2.72583438304408,1.79296599641037,2.83027842278479,2085.715,2088.369,2086.407,2084.655,0.004843474,-8.347196E-05,-0.002077798,-0.624080002307892,-0.221280485391617,0.386707723140717,-0.586886736182787,-0.252520966862155,0.36331084698941,0
3.81999206542969,-2.68617916107178,1.79442739486694,2.81664514541626,-2.73744054699573,1.78797218830065,2.83746319114912,2082.385,2085.987,2085.371,2082.671,0.005423396,-8.290059E-05,-0.003755057,-0.611199378967285,-0.215924516320229,0.378778129816055,-0.573473482003301,-0.246749618311662,0.355007403690404,0
3.83999633789063,-2.69814443588257,1.79021596908569,2.82406139373779,-2.74877791451009,1.78309403578861,2.84448156171422,2082.443,2084.178,2081.122,2080.156,0.005974319,-8.246528E-05,-0.005417935,-0.598254919052124,-0.210565283894539,0.370809435844421,-0.560014026276881,-0.240958390526246,0.346675359432959,0
3.86000061035156,-2.70984935760498,1.78611159324646,2.83131742477417,-2.75984563331209,1.77833190558438,2.85133300688122,2079.082,2082.294,2080.292,2077.884,0.006507878,-8.195395E-05,-0.007051518,-0.585251331329346,-0.205208674073219,0.362805724143982,-0.546515580872635,-0.235150386571708,0.338319178707605,0
3.87998962402344,-2.7212929725647,1.78211450576782,2.83841276168823,-2.7706348636882,1.77368960116974,2.85801205444635,2077.012,2080.444,2078.298,2075.628,0.007022317,-8.140292E-05,-0.008652611,-0.572196066379547,-0.199858203530312,0.354771345853806,-0.532995796775444,-0.22933320117373,0.329949788314816,0
