t,x_s1,x_s2,x_s3,x_s_d1,x_s_d2,x_s_d3,propellers_rpms1,propellers_rpms2,propellers_rpms3,propellers_rpms4,rollRad,pitchRad,yawRad,v_s1,v_s2,v_s3,v_s_d1,v_s_d2,v_s_d3,insideCount
0,-0.0599999986588955,2.94000005722046,1.17999994754791,-0.0599999986588955,2.94000005722046,1.17999994754791,0,0,0,0,0,45.0048027038574,0,0,0,0,-1.06581410364015E-15,4.44089209850063E-16,-7.105427357601E-16,0
0.0200004577636719,-0.0599999986588955,2.94000005722046,1.1790189743042,-0.0600018691155303,2.93999925241522,1.18000109018068,0,0,0,0,0.00112506025470793,44.8630180358887,0.909283995628357,-3.60929135467813E-08,2.95208444356376E-08,-0.0490499772131443,-0.000279999361409376,-0.000120475902936966,0.000171047240579747,5
0.0399990081787109,-0.0599999986588955,2.94000005722046,1.17411398887634,-0.0600148703014743,2.93999365836812,1.1800090324023,0,0,0,0,0.00304076820611954,44.7212371826172,1.81856417655945,-3.62307304158094E-08,2.93641413406931E-08,-0.245249927043915,-0.0011109142447864,-0.000477995364179603,0.000678640176663706,6
0.0599994659423828,-0.0600350871682167,2.94003486633301,1.16684293746948,-0.0600498904664975,2.93997859016946,1.18003042567463,2307.033,2000.209,2127.721,3382.356,-0.00213774247094989,44.8046226501465,1.28310406208038,-0.00175439391750842,0.00174321653321385,-0.363554686307907,-0.00247951833951941,-0.00106686747177115,0.00151469906149035,6
0.0799999237060547,-0.0601342283189297,2.9401330947876,1.15967178344727,-0.0601175490846357,2.93994947855624,1.18007175726866,2848.289,2760.004,2606.549,2299.051,359.914276123047,44.8777160644531,0.619942486286163,-0.00495704915374517,0.00491344835609198,-0.358560591936111,-0.00437248097278563,-0.00188135640961186,0.00267108039505331,6
0.100000381469727,-0.0602752864360809,2.94026303291321,1.1533819437027,-0.0602282016920704,2.93990186783054,1.18013935321984,2872.013,2897.53,2627.956,2213.448,359.724670410156,44.9187965393066,0.190233930945396,-0.00705294962972403,0.00649315817281604,-0.314491748809814,-0.0067766330492767,-0.00291579588389246,0.00413973938252838,5
0.119998931884766,-0.0604444481432438,2.94038772583008,1.14806056022644,-0.0603919230601972,2.93983142309968,1.18023936804881,2725.775,2926.572,2634.755,2219.367,359.427703857422,44.935115814209,0.0502980425953865,-0.00845811888575554,0.00623425468802452,-0.266067713499069,-0.00967861374975049,-0.00416443710735115,0.005912514107932,5
0.139999389648438,-0.0606513433158398,2.94048070907593,1.1437304019928,-0.0606185767455666,2.93973390035084,1.18037782724834,2551.765,2769.985,2667.563,2379.463,359.090637207031,44.9478645324707,0.144069224596024,-0.0103448117151856,0.00464875437319279,-0.216506689786911,-0.0130660253322238,-0.00562194567796536,0.00798183098414958,5
0.159999847412109,-0.0609212145209312,2.94052791595459,1.14032292366028,-0.0609177249752248,2.93960518522485,1.18056057223372,2443.385,2553.62,2687.131,2529.324,358.804504394531,44.9652862548828,0.340533345937729,-0.0134935360401869,0.00235690269619226,-0.17037308216095,-0.0169257706321904,-0.00728268625174051,0.0103396891577615,5
0.180000305175781,-0.0612808577716351,2.94052505493164,1.13772797584534,-0.0612986871007165,2.9394412678651,1.18079329605139,2417.354,2395.053,2654.697,2596.433,358.625640869141,44.9838752746582,0.518674671649933,-0.0179821662604809,-0.0001449896954,-0.129749327898026,-0.0212451141043368,-0.00914117907931815,0.0129783086828701,5
0.19999885559082,-0.0617486461997032,2.94047331809998,1.13583755493164,-0.0617704792283666,2.93923826889292,1.1810815065,2450.756,2337.901,2561.817,2580.201,358.55126953125,44.9966087341309,0.617875635623932,-0.0233894884586334,-0.00259084487333894,-0.0945206806063652,-0.0260109531407025,-0.0111917864745373,0.0158896853807343,5
0.219999313354492,-0.062332384288311,2.94037485122681,1.13456833362579,-0.0623420049171324,2.93899235735562,1.18143064262478,2496.941,2359.958,2442.872,2516.219,358.525939941406,44.9992294311523,0.641167521476746,-0.0291869416832924,-0.00492169568315148,-0.063463419675827,-0.0312116790433783,-0.0134295135389972,0.0190667276789517,5
0.239999771118164,-0.0630333572626114,2.94023036956787,1.13386464118958,-0.063021788625926,2.93869986541668,1.18184591188467,2511.846,2408.21,2348.314,2446.461,358.476898193359,44.9927101135254,0.627748668193817,-0.0350484773516655,-0.00722944457083941,-0.0351842790842056,-0.0368344480011416,-0.0158488339395432,0.02250158949367,5
0.260000228881836,-0.063852533698082,2.94003653526306,1.13368916511536,-0.0638181482056218,2.93835721413725,1.18233239552496,2475.396,2437.152,2311.675,2397.043,358.355895996094,44.9817581176758,0.619228422641754,-0.0409589558839798,-0.00969038344919682,-0.00877096503973007,-0.0428669580186739,-0.0184444544712678,0.026186755727918,4
0.279998779296875,-0.0647952035069466,2.93978667259216,1.13401007652283,-0.0647390625194898,2.93796097043536,1.18289496770872,2398.647,2429.026,2331.241,2372.531,358.162841796875,44.9715042114258,0.638305723667145,-0.0471336580812931,-0.0124883688986301,0.0160484667867422,-0.0492963837173861,-0.0212108567320638,0.0301143915580518,4
0.299999237060547,-0.065871886909008,2.93947196006775,1.13479292392731,-0.065792536715479,2.93750768991949,1.18353851865591,2313.654,2391.253,2375.592,2363.976,357.940093994141,44.9649963378906,0.685060441493988,-0.0538342110812664,-0.0157370083034039,0.039143480360508,-0.0561118672418845,-0.0241433688900884,0.0342778640896448,4
0.319999694824219,-0.0670958533883095,2.93908333778381,1.13599860668182,-0.0669860785243584,2.93699414222283,1.1842676347221,2254.725,2343.477,2404.448,2358.75,357.744537353516,44.9626770019531,0.745555937290192,-0.0611982941627502,-0.0194303281605244,0.0602815821766853,-0.0633008373176985,-0.0272365818771378,0.0386694937272938,4
0.340000152587891,-0.0684793218970299,2.93861436843872,1.1375857591629,-0.0683270389802989,2.93641716440073,1.18508680653936,2239.513,2303.415,2392.544,2348.364,357.614837646484,44.9632034301758,0.803854644298553,-0.0691735446453094,-0.0234484858810902,0.0793575346469879,-0.0708514254995047,-0.0304853890327553,0.0432820302229541,4
0.35999870300293,-0.0700307488441467,2.93806195259094,1.1395149230957,-0.069822382620517,2.93577375980741,1.18600028863479,2261.971,2279.334,2340.884,2330.73,357.552520751953,44.9647369384766,0.850445866584778,-0.0775712877511978,-0.0276182126253843,0.0964585468173027,-0.0787511019946779,-0.0338843991372162,0.0481078193218347,4
0.379999160766602,-0.0717544555664063,2.93742609024048,1.14175117015839,-0.0714792747653362,2.93506084540571,1.18701245819077,2297.13,2269.379,2273.614,2308.733,357.524932861328,44.965763092041,0.884502470493317,-0.0861853212118149,-0.0317949615418911,0.111814469099045,-0.0869897229117765,-0.0374292475574207,0.0531406642789461,4
0.399999618530273,-0.0736524388194084,2.93670749664307,1.14426493644714,-0.0733042289655903,2.93427561859665,1.18812729423385,2316.935,2266.173,2221.179,2286.811,357.486999511719,44.9656410217285,0.911163151264191,-0.0948992967605591,-0.0359256714582443,0.125691249966621,-0.0955550080350531,-0.0411146504596022,0.0583730633021172,4
0.420000076293945,-0.0757269933819771,2.93590617179871,1.14703118801117,-0.075303664122713,2.9334153175063,1.18934871797077,2304.81,2262.079,2203.561,2268.371,357.406951904297,44.9645843505859,0.936927020549774,-0.103727914392948,-0.0400608517229557,0.138311237096786,-0.104435522469179,-0.0449356877277546,0.0637980309922297,4
0.439998626708984,-0.0779826119542122,2.93501996994019,1.15002751350403,-0.0774835548069347,2.93247737144397,1.19068037917324,2264.314,2253.216,2219.408,2254.384,357.282318115234,44.9632835388184,0.965990781784058,-0.112781099975109,-0.0443135984241962,0.149815991520882,-0.113619049702587,-0.0488871029382406,0.0694081044730023,4
0.459999084472656,-0.0804262533783913,2.93404412269592,1.15323328971863,-0.0798502821969742,2.93145903476675,1.19212617600376,2214.378,2239.927,2249.92,2243.985,357.137908935547,44.962474822998,0.998977482318878,-0.122182033956051,-0.0487897321581841,0.160287514328957,-0.123096124252221,-0.0529648233581361,0.075197501428542,4
0.479999542236328,-0.0830660462379456,2.93297362327576,1.15662884712219,-0.0824093896672336,2.93035792231548,1.19368949482325,2177.884,2225.513,2270.629,2235.315,357.009124755859,44.9625778198242,1.03389203548431,-0.131989791989326,-0.0535283647477627,0.169779494404793,-0.13285477482153,-0.0571636980729742,0.0811589087805935,4
0.5,-0.0859094336628914,2.93180394172668,1.160196185112,-0.085166398670376,2.92917165836334,1.195373708601,2168.018,2213.001,2266.29,2227.387,356.921142578125,44.9636573791504,1.06795799732208,-0.142169371247292,-0.0584841147065163,0.178368479013443,-0.142884000065179,-0.0614789935111996,0.0872856059789651,5
0.519998550415039,-0.0889617651700974,2.93053293228149,1.16391897201538,-0.0881263195578599,2.92789808709608,1.19718187808251,2182.892,2204.38,2237.467,2219.436,356.876434326172,44.9653739929199,1.0992419719696,-0.152616515755653,-0.0635560154914856,0.186140984296799,-0.153171913786256,-0.0659055953743427,0.093570331931443,5
0.539999008178711,-0.0922261476516724,2.92916011810303,1.16778314113617,-0.0912948022612966,2.92653477750595,1.19911745472284,2207.727,2199.347,2198.822,2211.733,356.855743408203,44.9672508239746,1.12737679481506,-0.16321887075901,-0.0686438828706741,0.193206399679184,-0.163709694677519,-0.0704397081003365,0.100007697839088,5
0.559999465942383,-0.0957043915987015,2.92768621444702,1.17177641391754,-0.0946764453845371,2.92507975094219,1.20118324773733,2224.836,2196.56,2168.92,2204.473,356.831146240234,44.9688568115234,1.15333664417267,-0.173912227153778,-0.0736977010965347,0.199665442109108,-0.174485697560587,-0.0750763210942518,0.106590589844145,5
0.579999923706055,-0.0993984937667847,2.92611145973206,1.17588877677917,-0.0982759076154404,2.92353100290156,1.20338210304568,2222.612,2193.888,2160.535,2198.327,356.781921386719,44.9700317382813,1.1785660982132,-0.184705525636673,-0.0787352621555328,0.205618113279343,-0.18548935464012,-0.0798108873289844,0.11331255224535,5
0.599998474121094,-0.103311732411385,2.92443513870239,1.18011152744293,-0.102097262171133,2.92188678079254,1.2057165089127,2202.192,2190.323,2173.189,2193.312,356.705383300781,44.9708824157715,1.20406007766724,-0.195661783218384,-0.0838218256831169,0.211138546466827,-0.196709126405959,-0.0846384416756885,0.120166535736014,5
0.619998931884766,-0.107448786497116,2.92265462875366,1.18443739414215,-0.106145477944935,2.92014494663912,1.20818950075775,2174.688,2185.784,2195.555,2189.465,356.616088867188,44.9717216491699,1.22992169857025,-0.206852674484253,-0.089026153087616,0.216292649507523,-0.208136802817102,-0.0895554515830839,0.127147524930208,5
0.639999389648438,-0.11181503534317,2.92076706886292,1.18886005878448,-0.110424235525481,2.91830391678686,1.21080332699501,2154.666,2181.474,2212.126,2186.287,356.535949707031,44.9728355407715,1.25555384159088,-0.218312919139862,-0.0943800210952759,0.221130907535553,-0.219761081350814,-0.0945570538913933,0.134248615293163,5
0.659999847412109,-0.116415470838547,2.91876983642578,1.19337439537048,-0.114937365519793,2.91636204303257,1.21356032768253,2150.604,2178.1,2213.377,2183.933,356.481109619141,44.9743843078613,1.28011059761047,-0.230022057890892,-0.0998625010251999,0.225717827677727,-0.231571827761751,-0.0996388881179631,0.141463615972542,5
0.680000305175781,-0.121253818273544,2.91666150093079,1.19797646999359,-0.119688496929273,2.91431776391831,1.21646271972064,2162.072,2176.416,2199.092,2182.059,356.453887939453,44.9762802124023,1.30295515060425,-0.241917118430138,-0.105414412915707,0.230105802416801,-0.243559016194652,-0.104796640417365,0.148786402329814,5
0.69999885559082,-0.126332387328148,2.91444206237793,1.20266342163086,-0.124680571585341,2.91216981365623,1.21951230022824,2180.319,2176.279,2178.031,2180.628,356.442993164063,44.9782638549805,1.32399547100067,-0.253928154706955,-0.11097290366888,0.234349697828293,-0.255711562515536,-0.1100255415964,0.156210203240496,5
0.719999313354492,-0.131652623414993,2.91211199760437,1.20743346214294,-0.129917773765869,2.90991639186844,1.2227116253154,2194.001,2176.908,2162.092,2179.659,356.431060791016,44.9800605773926,1.34360361099243,-0.266012966632843,-0.116503208875656,0.238499402999878,-0.268021976505935,-0.115322368823317,0.163730443047009,5
0.739999771118164,-0.137216076254845,2.90967178344727,1.21228528022766,-0.13540267613015,2.90755639161152,1.22606226657952,2196.354,2177.769,2158.64,2178.903,356.405120849609,44.9814987182617,1.36238121986389,-0.278172612190247,-0.122012555599213,0.242590188980103,-0.280479406212952,-0.12068245280595,0.171340492460669,5
0.760000228881836,-0.143024921417236,2.90712094306946,1.21721851825714,-0.141138122953911,2.90508858907309,1.22956596154428,2186.917,2177.966,2168.537,2178.694,356.362548828125,44.9826316833496,1.38078248500824,-0.290442377328873,-0.127538949251175,0.246663466095924,-0.293074259331322,-0.126101666243323,0.179034491691874,5
0.779998779296875,-0.149082213640213,2.90445852279663,1.22223341464996,-0.147126184485884,2.90251209348295,1.2332239748923,2172.552,2177.688,2184.73,2178.818,356.311920166016,44.9836349487305,1.39882898330688,-0.302864044904709,-0.133125096559525,0.250743627548218,-0.305795832832518,-0.131575403921268,0.186805902427515,5
0.799999237060547,-0.155391365289688,2.90168261528015,1.22733056545258,-0.153370467664426,2.8998253528763,1.23703851004595,2161.867,2177.245,2198.021,2179.395,356.266632080078,44.9847526550293,1.41613960266113,-0.315458655357361,-0.138792887330055,0.254859864711761,-0.318637178554805,-0.1371006762399,0.194650480144012,5
0.819999694824219,-0.161955609917641,2.89879202842712,1.23251116275787,-0.159872691993147,2.89702762739878,1.24101061742316,2161.197,2177.638,2201.345,2180.005,356.237243652344,44.9860763549805,1.43225812911987,-0.328212171792984,-0.144531324505806,0.259028136730194,-0.331587821991737,-0.142672976311719,0.202561826128828,5
0.840000152587891,-0.168777301907539,2.89578604698181,1.23777687549591,-0.166634951706069,2.89411801595997,1.2451415763588,2169.913,2178.705,2194.951,2181.083,356.225555419922,44.9875793457031,1.44689357280731,-0.341084420681,-0.150304883718491,0.26328307390213,-0.344638604388044,-0.148288363380199,0.210534345441289,5
0.85999870300293,-0.175857871770859,2.89266467094421,1.24312961101532,-0.173658476530939,2.8910959894424,1.24943213807437,2183.023,2180.573,2183.854,2182.292,356.224884033203,44.9891090393066,1.4599951505661,-0.354028820991516,-0.156073719263077,0.267639726400375,-0.357779218042882,-0.153942402329629,0.218561741267797,5
0.879999160766602,-0.183198168873787,2.88942837715149,1.24857187271118,-0.180946338277887,2.88796022613197,1.25388417909074,2193.373,2182.725,2175.579,2183.68,356.224548339844,44.9904632568359,1.47178161144257,-0.367015302181244,-0.161814853549004,0.272116154432297,-0.371003228241413,-0.159632324481982,0.22664008274147,5
0.899999618530273,-0.190798968076706,2.88607788085938,1.25410628318787,-0.188499434070438,2.88471034002151,1.25849824744668,2196.933,2185.001,2174.497,2184.966,356.216430664063,44.9915351867676,1.48262906074524,-0.380040138959885,-0.167530685663223,0.276718109846115,-0.384300552311253,-0.165353791545005,0.234763210515085,5
0.920000076293945,-0.198661416769028,2.88261294364929,1.25973558425903,-0.196319142784876,2.88134573781905,1.26327518547618,2192.898,2186.599,2181.732,2186.548,356.198425292969,44.992359161377,1.49283242225647,-0.393121629953384,-0.17324361205101,0.281462877988815,-0.397662465047122,-0.171103049306624,0.242925794496891,5
0.939998626708984,-0.206787064671516,2.87903332710266,1.26546251773834,-0.204405885800988,2.87786623821667,1.26821525059358,2185.395,2187.797,2193.059,2188.102,356.175506591797,44.9930458068848,1.50240242481232,-0.406282722949982,-0.178979814052582,0.286348551511765,-0.411079067636589,-0.176875838584386,0.251121787656841,5
0.959999084472656,-0.21517775952816,2.87533831596375,1.27129018306732,-0.212762239776093,2.87427073255068,1.27332001683864,2179.69,2188.693,2202.832,2189.841,356.155944824219,44.993766784668,1.51109683513641,-0.419534713029861,-0.184753328561783,0.291383296251297,-0.424544411524882,-0.18266959988136,0.259347556115652,5
0.979999542236328,-0.223835095763206,2.87152719497681,1.27722144126892,-0.221388311353785,2.87055917493534,1.27858954935826,2180.192,2190.066,2206.139,2191.407,356.146606445313,44.9946022033691,1.51862478256226,-0.432866871356964,-0.190557837486267,0.296562701463699,-0.438048819599778,-0.188480169406503,0.267597188276474,5
1,-0.2327601313591,2.86759972572327,1.28325939178467,-0.230284798736574,2.86673126495361,1.28402427467346,2186.276,2191.702,2203.428,2193.146,356.148651123047,44.9955253601074,1.52483201026917,-0.446251660585403,-0.196371227502823,0.301898270845413,-0.451584000205995,-0.194303979492187,0.275865618896484,5
1.01999855041504,-0.241953253746033,2.86355638504028,1.28940713405609,-0.239451348187707,2.86278715480854,1.28962397669198,2195.126,2193.731,2197.486,2194.851,356.158264160156,44.9964485168457,1.52969336509705,-0.459657102823257,-0.202168256044388,0.307388007640839,-0.465140476318736,-0.200136952439402,0.284147058609119,5
1.03999900817871,-0.251414477825165,2.85939764976501,1.29566776752472,-0.248890079057088,2.85872593260306,1.29538995009159,2202.268,2195.752,2193.049,2196.611,356.168914794922,44.9972381591797,1.53333365917206,-0.473061054944992,-0.207933336496353,0.313033491373062,-0.478712759579464,-0.205976726760794,0.292438154661794,5
1.05999946594238,-0.261143624782562,2.8551242351532,1.30204427242279,-0.258600340480156,2.85454787838601,1.3013217972693,2205.432,2197.891,2192.576,2198.074,356.175537109375,44.9978256225586,1.53599607944489,-0.486457020044327,-0.213666617870331,0.318823397159576,-0.492291591500725,-0.211819318787865,0.300733251188999,5
1.07999992370605,-0.271140694618225,2.85073661804199,1.30853950977325,-0.268582184669612,2.85025296969173,1.30741955012103,2203.613,2199.433,2197.336,2199.673,356.176483154297,44.9982299804688,1.5379102230072,-0.499853014945984,-0.219380870461464,0.324762403964996,-0.505869113977232,-0.21766134739744,0.309027547796837,5
1.09999847412109,-0.28140589594841,2.8462347984314,1.31515634059906,-0.278834517009062,2.84584167750307,1.31368253996271,2199.429,2200.573,2204.649,2201.187,356.174652099609,44.9985389709473,1.53908050060272,-0.51326060295105,-0.225091710686684,0.330839246511459,-0.519436284009554,-0.223498921639497,0.317315520258069,5
1.11999893188477,-0.291939616203308,2.84161853790283,1.32189726829529,-0.289359035362208,2.84131327127672,1.32011180399278,2195.957,2201.395,2211.256,2202.686,356.175140380859,44.9988479614258,1.53934812545776,-0.526684463024139,-0.23080787062645,0.337048143148422,-0.532988048794549,-0.229329867434001,0.325594081894103,5
1.13999938964844,-0.302741885185242,2.83688807487488,1.32876479625702,-0.300154365346813,2.83666834237095,1.32670650262257,2196.376,2202.571,2213.604,2203.863,356.182373046875,44.9992141723633,1.5385582447052,-0.540115654468536,-0.236525356769562,0.34337505698204,-0.546515580872639,-0.235150386571708,0.333857840147634,5
1.15999984741211,-0.313812613487244,2.83204340934753,1.33576130867004,-0.311219947869739,2.83190713134792,1.33346629431082,2200.121,2203.683,2212.189,2205.202,356.197174072266,44.9996299743652,1.5366405248642,-0.553534924983978,-0.242230132222176,0.349825203418732,-0.560011455688534,-0.240957284473894,0.34210225947369,6
1.17999839782715,-0.325150996446609,2.82708525657654,1.34288895130157,-0.322553982624406,2.82703041282926,1.34039007927832,2205.566,2204.977,2208.644,2206.376,356.217315673828,45.0000457763672,1.53357267379761,-0.566919326782227,-0.247905522584915,0.356385082006454,-0.573467075844405,-0.246746861920456,0.3503220878561,6
1.19999885559082,-0.336756020784378,2.82201433181763,1.35014998912811,-0.334157779891176,2.82203762303794,1.3474786579549,2209.912,2206.153,2205.914,2207.541,356.23876953125,45.0003890991211,1.5294154882431,-0.580252349376678,-0.253541052341461,0.363050162792206,-0.586877800774655,-0.252517122205661,0.358514490445754,6
1.21999931335449,-0.348626583814621,2.81683158874512,1.35754609107971,-0.346029276726411,2.81692964960096,1.35473077012049,2212.056,2207.497,2205.18,2208.331,356.258514404297,45.0005798339844,1.52433753013611,-0.593526601791382,-0.259135365486145,0.369802922010422,-0.600235245789198,-0.258264457631606,0.36667434516632,6
1.23999977111816,-0.360761433839798,2.81153774261475,1.36507904529572,-0.3581673374151,2.81170698118478,1.36214572198451,2210.881,2208.274,2207.796,2209.269,356.275207519531,45.000659942627,1.51850998401642,-0.606744289398193,-0.264695346355438,0.376645594835281,-0.613532419882739,-0.263985860164018,0.374797381321754,6
1.2599983215332,-0.373159646987915,2.80613303184509,1.3727502822876,-0.370569492049568,2.80637068052165,1.3697220047189,2208.09,2208.779,2212.028,2210.02,356.29052734375,45.0006790161133,1.51194143295288,-0.619910001754761,-0.270229995250702,0.383560985326767,-0.626761182173783,-0.269677827009021,0.382878625774588,6
1.27999877929688,-0.385820090770721,2.80061817169189,1.38056111335754,-0.383236695417198,2.80092033679326,1.37746020158837,2205.392,2208.969,2216.081,2210.733,356.3076171875,45.0006980895996,1.50453770160675,-0.6330246925354,-0.275744378566742,0.390541642904282,-0.639917282339435,-0.275338529371412,0.39091548206889,6
1.29999923706055,-0.398741722106934,2.79499340057373,1.38851249217987,-0.396166231882091,2.79535711846185,1.38535865365334,2205.364,2209.435,2217.085,2211.12,356.329376220703,45.0007553100586,1.49621248245239,-0.646080851554871,-0.281235814094543,0.397571295499802,-0.652992789539212,-0.280964554832093,0.398903105377968,6
1.31999969482422,-0.411922991275787,2.78925943374634,1.39660549163818,-0.409356423791328,2.7896817473746,1.39341633606181,2207.132,2209.729,2215.978,2211.592,356.356323242188,45.0008430480957,1.48696386814117,-0.65906435251236,-0.286694765090942,0.404650717973709,-0.665981146317813,-0.286553081901244,0.406837489854705,6
1.33999824523926,-0.425362169742584,2.78341722488403,1.40484082698822,-0.42280416857195,2.783895558482,1.40163135350037,2210.046,2210.076,2213.352,2211.933,356.387176513672,45.0009307861328,1.47677421569824,-0.671958923339844,-0.292110174894333,0.411766916513443,-0.678874678563316,-0.292100808622893,0.41471394750388,6
1.35999870300293,-0.439057201147079,2.77746772766113,1.41321909427643,-0.436510095902056,2.77799828085114,1.41000409062955,2212.168,2210.235,2211.274,2212.265,356.419464111328,45.0009727478027,1.465651512146,-0.684751927852631,-0.297474384307861,0.418913185596466,-0.691669505523675,-0.297606065217852,0.422530107634626,6
1.3799991607666,-0.453005880117416,2.77141213417053,1.42174053192139,-0.450470874182571,2.77199134797602,1.41853251222747,2213.241,2210.65,2209.997,2212.18,356.451354980469,45.0009460449219,1.45370364189148,-0.697436153888702,-0.302785664796829,0.426070362329483,-0.704358160626625,-0.303065639028665,0.430281409034459,6
1.39999961853027,-0.467206090688705,2.76525115966797,1.43040537834167,-0.464684318506637,2.76587569996104,1.42721528356862,2212.039,2210.595,2210.947,2212.241,356.481842041016,45.0008354187012,1.44108045101166,-0.710010707378387,-0.308047145605087,0.433241903781891,-0.716934519966859,-0.308476895109962,0.437964110705191,6
1.41999816894531,-0.481655657291412,2.75898599624634,1.43921363353729,-0.47914673136562,2.75965292774086,1.43605014590267,2209.679,2210.349,2212.993,2212.127,356.511840820313,45.0006942749023,1.42780470848083,-0.722476482391357,-0.313263714313507,0.440411597490311,-0.729391385793766,-0.313836736470737,0.445573815653291,6
1.43999862670898,-0.496352314949036,2.7526171207428,1.44816517829895,-0.4938584461112,2.75332288788357,1.44503730286896,2207.218,2209.753,2215.035,2212.07,356.543273925781,45.0005722045898,1.41379308700562,-0.734832763671875,-0.318438082933426,0.447574853897095,-0.741725227577294,-0.31914364402254,0.453108367133042,6
1.45999908447266,-0.511293709278107,2.74614572525024,1.4572594165802,-0.508815552717244,2.74688726276417,1.45417436589355,2206.598,2209.549,2214.943,2211.533,356.578186035156,45.0004501342773,1.39902126789093,-0.747072756290436,-0.323567926883698,0.454710334539413,-0.753929052770513,-0.324394609067776,0.460563493506643,6
1.47999954223633,-0.526477456092834,2.73957276344299,1.46649599075317,-0.524015393706918,2.74034719582071,1.4634597115653,2206.992,2209.031,2213.59,2211.237,356.616729736328,45.0003623962402,1.38352704048157,-0.759186446666718,-0.328646749258041,0.461826741695404,-0.76599717101811,-0.329587183205524,0.467935718624829,6
1.5,-0.54190069437027,2.73289942741394,1.47587418556213,-0.539455198877605,2.73370387899399,1.47289164761066,2208.08,2208.515,2211.299,2210.791,356.658203125,45.0002899169922,1.36728036403656,-0.77116185426712,-0.333666682243347,0.468908399343491,-0.777924000354858,-0.334718964672088,0.475221632552146,6
1.51999855041504,-0.557560503482819,2.72612690925598,1.48539316654205,-0.555130581228843,2.72695919988774,1.48246749407952,2208.866,2207.979,2209.104,2210.231,356.701110839844,45.0001907348633,1.35030221939087,-0.782989382743835,-0.338622242212296,0.475947678089142,-0.789702950965343,-0.339787118053995,0.482417209673192,6
1.53999900817871,-0.573453783988953,2.71925663948059,1.49505198001862,-0.571041541911266,2.72011315800687,1.49218725167476,2208.275,2207.227,2208.171,2209.661,356.744110107422,45.0000534057617,1.33260881900787,-0.794663369655609,-0.343511521816254,0.482939332723618,-0.801330904905084,-0.34479030178684,0.489520545284337,6
1.55999946594238,-0.589577376842499,2.71228981018066,1.50484931468964,-0.587183501790833,2.71316772362485,1.50204812307488,2207.267,2206.727,2207.464,2208.72,356.787048339844,44.999870300293,1.31428003311157,-0.806180953979492,-0.348335772752762,0.489867240190506,-0.812801474874933,-0.34972576759424,0.496527737484203,6
1.57999992370605,-0.605928242206573,2.70522785186768,1.51478409767151,-0.603553261450117,2.7061242733616,1.51204815380567,2205.118,2205.831,2207.86,2207.948,356.830108642578,44.9996795654297,1.29543113708496,-0.817541062831879,-0.353096842765808,0.496736526489258,-0.824109512459656,-0.354591300256948,0.503435641186264,6
1.59999847412109,-0.622502982616425,2.69807195663452,1.52485477924347,-0.620145926473056,2.69898491314762,1.52218435394475,2203.017,2204.771,2208.113,2207.117,356.874328613281,44.9994926452637,1.27603387832642,-0.828741610050201,-0.357795625925064,0.503535866737366,-0.835248923368005,-0.359384277571697,0.510240533483095,5
1.61999893188477,-0.639298617839813,2.6908233165741,1.53505992889404,-0.636961261140657,2.69174974440622,1.53245657949507,2201.241,2203.546,2207.938,2206.253,356.920837402344,44.9993324279785,1.25600099563599,-0.839777946472168,-0.362430334091187,0.510258615016937,-0.846216901179681,-0.364103492014234,0.516940699976329,5
1.63999938964844,-0.656311452388763,2.68348336219788,1.54539775848389,-0.653994195024907,2.68442094880091,1.54286173301126,2200.993,2202.683,2205.976,2205.037,356.970275878906,44.9991836547852,1.23533165454865,-0.850642263889313,-0.366996645927429,0.51689076423645,-0.857007552155828,-0.368746407673381,0.523532540272869,5
1.65999984741211,-0.673537909984589,2.67605352401733,1.55586647987366,-0.671241134177535,2.67700007270724,1.55339761900642,2200.838,2201.575,2203.777,2203.991,357.021881103516,44.9990425109863,1.21410310268402,-0.861326038837433,-0.371489107608795,0.523439168930054,-0.867616161431205,-0.373310995874343,0.530013174135115,5
1.67999839782715,-0.690974414348602,2.66853547096252,1.56646430492401,-0.688696716710861,2.66948942319567,1.56406096198704,2200.53,2200.442,2201.598,2202.842,357.074829101563,44.9989013671875,1.19233381748199,-0.871821999549866,-0.375903218984604,0.529892563819885,-0.878037137680598,-0.377794850826084,0.536379185909741,5
1.69999885559082,-0.708616852760315,2.66093063354492,1.57718932628632,-0.706360494347389,2.66188919314749,1.57485148810738,2199.247,2199.027,2200.329,2201.796,357.128204345703,44.9987411499023,1.16998696327209,-0.882125735282898,-0.380237340927124,0.536249995231628,-0.888267970958778,-0.382196892569292,0.542629042310376,5
1.71999931335449,-0.726461589336395,2.65324091911316,1.58803915977478,-0.724226945158621,2.65420175849427,1.58576582410749,2198.032,2198.049,2198.843,2200.247,357.182067871094,44.9985618591309,1.14712083339691,-0.892233729362488,-0.384491264820099,0.542491674423218,-0.898303268694426,-0.386514800831178,0.54875944909935,5
1.73999977111816,-0.744504392147064,2.64546751976013,1.59901177883148,-0.74229211534941,2.6464288204436,1.59680155467563,2195.911,2196.606,2198.215,2199.063,357.236297607422,44.9983711242676,1.12382233142853,-0.902144491672516,-0.388665616512299,0.548632502555847,-0.908138749572296,-0.3907467334814,0.554767790887989,5
1.7599983215332,-0.762741506099701,2.63761234283447,1.61010491847992,-0.760550216073323,2.63857286977439,1.60795514349582,2193.761,2195.219,2197.576,2197.627,357.291564941406,44.9981994628906,1.1000874042511,-0.911855399608612,-0.392760336399078,0.554654836654663,-0.917769332013572,-0.394890504058555,0.560650963419089,4
1.77999877929688,-0.781168818473816,2.62967681884766,1.6213161945343,-0.779000609654483,2.63063418086074,1.61922620102184,2191.628,2193.519,2196.846,2196.396,357.348480224609,44.9980545043945,1.07584810256958,-0.921363294124603,-0.396774053573608,0.560563683509827,-0.927192788821983,-0.398945154262308,0.566407606133204,4
1.79999923706055,-0.799782037734985,2.62166285514832,1.63264298439026,-0.79763736303951,2.62261530652977,1.63061110284395,2190.825,2192.288,2194.621,2194.685,357.407684326172,44.9979095458984,1.05111193656921,-0.930662095546722,-0.400703489780426,0.566339135169983,-0.936404235539493,-0.402908582446823,0.572034735191139,4
1.81999969482422,-0.818576872348785,2.61357188224792,1.644082903862,-0.816456197270346,2.61451808789761,1.64210723501345,2189.921,2190.74,2192.406,2193.274,357.468597412109,44.9977607727051,1.02595472335815,-0.939745724201202,-0.404544651508331,0.571995317935944,-0.945399824400851,-0.406779133026206,0.577530000053147,3
1.83999824523926,-0.837549090385437,2.6054060459137,1.65563333034515,-0.835450937570646,2.606345181798,1.65371082545583,2188.9,2189.231,2190.244,2191.703,357.530578613281,44.9976272583008,1.00038754940033,-0.948608636856079,-0.408294260501862,0.577519118785858,-0.954174989692508,-0.410554841501469,0.582890611596066,3
1.85999870300293,-0.856694042682648,2.59716701507568,1.66729164123535,-0.854620778981102,2.59809693458245,1.665421382434,2187.146,2187.434,2188.773,2190.313,357.593139648438,44.9974975585938,0.974357843399048,-0.95724755525589,-0.41195085644722,0.582914113998413,-0.962727774564036,-0.414234865894539,0.588115374410506,0
1.8799991607666,-0.876007199287415,2.58885669708252,1.67905485630035,-0.873959418228252,2.58977605837344,1.67723505537657,2185.783,2186.113,2186.807,2188.417,357.656433105469,44.9973411560059,0.947909355163574,-0.965659379959106,-0.415513724088669,0.588160753250122,-0.971053808954927,-0.417817325890467,0.593201618894697,0
1.89999961853027,-0.895484030246735,2.58047699928284,1.69092035293579,-0.8934622858751,2.58138451927205,1.68914905288578,2183.654,2184.423,2185.572,2186.86,357.720184326172,44.997200012207,0.921141862869263,-0.973842263221741,-0.418982654809952,0.593275308609009,-0.979149678649926,-0.42130075244781,0.598147259357817,0
1.91999816894531,-0.915119826793671,2.57202982902527,1.70288527011871,-0.913122862707269,2.57292512231409,1.7011593924753,2181.501,2182.69,2184.343,2185.211,357.784790039063,44.9970588684082,0.894038558006287,-0.98179417848587,-0.422357231378555,0.598246097564697,-0.987011339258123,-0.424683405378145,0.60294982514457,0
1.93999862670898,-0.934910118579865,2.56351709365845,1.71494674682617,-0.932940197657643,2.56439827671719,1.71326549315307,2179.198,2180.778,2183.24,2183.647,357.850616455078,44.9969520568848,0.866526126861572,-0.989512503147125,-0.425636291503906,0.603073596954346,-0.99463709319481,-0.4279645542582,0.607608279226948,0
1.95999908447266,-0.954849898815155,2.55494070053101,1.72710156440735,-0.952907658613767,2.55580683609405,1.72546330346508,2178.061,2179.28,2180.859,2181.691,357.918243408203,44.9968223571777,0.838624536991119,-0.996992945671082,-0.428817689418793,0.607743859291077,-1.00202309041976,-0.431142542523221,0.612120269675456,0
1.97999954223633,-0.97493451833725,2.54630279541016,1.73934698104858,-0.973020420343666,2.54715287660719,1.73774987575242,2176.672,2177.538,2178.679,2179.985,357.987091064453,44.9967002868652,0.810421705245972,-1.00423097610474,-0.431898385286331,0.612269520759583,-1.00916635026771,-0.434216087676217,0.616483975648197,0
1.99999809265137,-0.995159029960632,2.53760528564453,1.75167989730835,-0.993271661096953,2.53843933346522,1.75012104271422,2175.242,2175.729,2176.509,2178.266,358.056823730469,44.9966011047363,0.781907796859741,-1.01122295856476,-0.43487611413002,0.616643488407135,-1.01606335446626,-0.437183675902864,0.620697247887466,0
2.01999855041504,-1.01551830768585,2.52885031700134,1.76409721374512,-1.01366030404084,2.52966666999921,1.76257614653014,2173.177,2173.772,2174.972,2176.598,358.127136230469,44.9965133666992,0.753023743629456,-1.01796627044678,-0.437749445438385,0.620864272117615,-1.02271265493931,-0.440044684136465,0.624759201786162,0
2.03999900817871,-1.03600752353668,2.5200400352478,1.77659559249878,-1.03417943002831,2.52083786332482,1.77511096040124,2171.768,2172.247,2172.699,2174.52,358.198211669922,44.9963989257813,0.723820924758911,-1.024458527565,-0.440517991781235,0.624918699264526,-1.02911092662815,-0.442797681697156,0.628667806117814,0
2.05999946594238,-1.05662143230438,2.51117634773254,1.7891720533371,-1.05482399271638,2.51195508474246,1.78772240159534,2169.649,2170.371,2171.116,2172.8,358.269714355469,44.9962844848633,0.694382071495056,-1.03069794178009,-0.443181037902832,0.628822922706604,-1.03525562241752,-0.445441572632395,0.632421504889455,0
2.07999801635742,-1.07735514640808,2.50226163864136,1.80182337760925,-1.07558691007788,2.50302138145056,1.80040614381254,2167.51,2168.539,2169.558,2170.933,358.341857910156,44.9961853027344,0.664702892303467,-1.03668296337128,-0.445738077163696,0.632564663887024,-1.04114375428791,-0.447975071280863,0.63601847276659,0
2.09999847412109,-1.09820342063904,2.49329781532288,1.81454634666443,-1.09646699912883,2.4940372624541,1.8131614643864,2165.11,2166.44,2168.25,2169.286,358.414886474609,44.9961051940918,0.634704649448395,-1.04241192340851,-0.448188364505768,0.636149883270264,-1.04677411523768,-0.450397658303471,0.63945797241075,0
2.11999893188477,-1.11916089057922,2.48428726196289,1.82733750343323,-1.11745709586255,2.485005810225,1.82598398693703,2163.818,2164.867,2165.784,2167.11,358.489318847656,44.9960098266602,0.60442054271698,-1.04788184165955,-0.450530409812927,0.639559626579285,-1.0521439094894,-0.452708130755304,0.642738295925142,0
2.13999938964844,-1.14022278785706,2.47523212432861,1.84019374847412,-1.138551967509,2.47592927627801,1.83887051484687,2162.196,2162.973,2163.599,2165.325,358.564605712891,44.9959335327148,0.573939979076385,-1.05308949947357,-0.452761918306351,0.642813622951508,-1.05725102347782,-0.454905579228273,0.645858152165725,0
2.15999794006348,-1.16138339042664,2.46613454818726,1.853111743927,-1.15974431432775,2.46681080148754,1.85181658881839,2160.496,2161.02,2161.511,2163.504,358.640502929688,44.9958648681641,0.543232917785645,-1.05803251266479,-0.454881310462952,0.645902216434479,-1.06209300290918,-0.456988947708343,0.648816041842745,0
2.17999839782715,-1.18263745307922,2.45699644088745,1.86608827114105,-1.18103286617629,2.4576509323604,1.86482143294137,2158.303,2158.997,2159.919,2161.698,358.716888427734,44.9958038330078,0.512235939502716,-1.06270921230316,-0.456887811422348,0.648824393749237,-1.06666887474518,-0.458957817524312,0.651611370542283,0
2.19999885559082,-1.20397996902466,2.44782114028931,1.8791196346283,-1.20241025668069,2.44845283844151,1.8778805472129,2156.806,2157.433,2157.582,2159.471,358.7939453125,44.9957237243652,0.48103740811348,-1.06711804866791,-0.458781063556671,0.651568651199341,-1.07097637612794,-0.460811215031657,0.654242755919777,0
2.21999931335449,-1.22540497779846,2.43860983848572,1.8922027349472,-1.22387110132782,2.43921883653644,1.89099064231796,2154.793,2155.333,2155.73,2157.841,358.871368408203,44.9956665039063,0.449663549661636,-1.07125759124756,-0.460560232400894,0.654157757759094,-1.07501382704219,-0.462548417366737,0.656709171680113,0
2.23999977111816,-1.24690747261047,2.42936539649963,1.90533411502838,-1.24540998308744,2.42995125744197,1.90414840907728,2152.712,2153.549,2154.009,2155.748,358.949188232422,44.99560546875,0.418112456798553,-1.07512664794922,-0.462224960327148,0.656567573547363,-1.07877965586273,-0.46416874830314,0.659009657741985,0
2.2599983215332,-1.26848208904266,2.42008972167969,1.91851031780243,-1.26701939030951,2.42065333321126,1.9173492587411,2150.651,2151.556,2152.224,2153.941,359.027587890625,44.995548248291,0.386394679546356,-1.07872450351715,-0.463774889707565,0.658813059329987,-1.08227207933222,-0.465671440555045,0.661143124741302,0
2.27999877929688,-1.29012298583984,2.41078567504883,1.93172812461853,-1.28869796983554,2.41132564607061,1.93059236468599,2148.307,2149.486,2150.746,2152.131,359.106658935547,44.9955062866211,0.354431182146072,-1.08204972743988,-0.465209245681763,0.660887837409973,-1.08549040888332,-0.467056197851165,0.663109152043028,0
2.29999923706055,-1.31182503700256,2.40145516395569,1.94498372077942,-1.31043816248474,2.40197144852433,1.94387310912637,2147.167,2147.844,2148.032,2149.933,359.186828613281,44.9954528808594,0.322276800870895,-1.08510041236877,-0.466527074575424,0.662781417369843,-1.08843305191934,-0.468322334941636,0.664906766754694,0
2.31999969482422,-1.33358263969421,2.39210033416748,1.95827388763428,-1.33223444283894,2.39259311800549,1.9571881166705,2145.401,2145.915,2145.919,2148.09,359.267364501953,44.9954147338867,0.290016621351242,-1.08787405490875,-0.467726498842239,0.664510726928711,-1.09109887036509,-0.469469362144493,0.666535273643923,0
2.33999824523926,-1.3553900718689,2.38272428512573,1.97159516811371,-1.35407917814146,2.38319393867607,1.97053272458644,2143.558,2144.022,2143.919,2146.141,359.34814453125,44.9953727722168,0.257660448551178,-1.09036993980408,-0.468806982040405,0.666065692901611,-1.09348662008434,-0.470496744142684,0.667993912687316,0
2.35999870300293,-1.37724184989929,2.37332916259766,1.9849442243576,-1.37597096908363,2.3737745126195,1.98390607805835,2141.278,2141.862,2142.359,2144.451,359.429077148438,44.9953384399414,0.225120797753334,-1.09258782863617,-0.469768434762955,0.667453408241272,-1.09559583531025,-0.471404280529741,0.669282399355169,0
2.3799991607666,-1.39913237094879,2.36391687393188,1.99831736087799,-1.39790215061238,2.36433813789396,1.99730349462492,2139.782,2140.204,2140.039,2142.229,359.510498046875,44.995304107666,0.192424714565277,-1.09452712535858,-0.470611095428467,0.668655216693878,-1.09742546213314,-0.472191517837776,0.670400089830511,0
2.39999961853027,-1.42105603218079,2.35449028015137,2.01171112060547,-1.41986712360559,2.35488722364528,2.01072155386983,2137.661,2138.343,2138.301,2140.325,359.592010498047,44.9952621459961,0.159676194190979,-1.09618699550629,-0.471334427595139,0.669690012931824,-1.09897479602782,-0.472858152929276,0.671346553729889,0
2.41999816894531,-1.44300746917725,2.34505152702332,2.02512216567993,-1.44185817738692,2.34542508756209,2.02415554546122,2135.677,2136.38,2136.455,2138.477,359.673828125,44.995231628418,0.126869678497314,-1.09756755828857,-0.471938461065292,0.670552968978882,-1.10024313330221,-0.473403883025206,0.672121361178802,0
2.43999862670898,-1.46498084068298,2.33560299873352,2.03854703903198,-1.46387388420027,2.33595234396796,2.03760459720517,2133.321,2134.279,2135.009,2136.728,359.755981445313,44.9952201843262,0.0939142927527428,-1.09866833686829,-0.472422868013382,0.671244263648987,-1.10123022817855,-0.473828602374257,0.672724362035447,0
2.45999908447266,-1.4869704246521,2.32614731788635,2.05198192596436,-1.48590651627916,2.32647231790489,2.05106398832971,2132.072,2132.675,2132.474,2134.487,359.8388671875,44.995189666748,0.0608703196048737,-1.09948861598969,-0.472787320613861,0.671749472618103,-1.10193556692257,-0.474132089930926,0.673155242467576,0
2.47999954223633,-1.50897109508514,2.31668639183044,2.06542372703552,-1.50795043548148,2.31698743530794,2.06453027458184,2130.374,2130.756,2130.346,2132.688,359.921936035156,44.9951667785645,0.0278203822672367,-1.10002708435059,-0.473030596971512,0.672090291976929,-1.10235887855907,-0.474314229102152,0.673413836940663,0
2.49999809265137,-1.53097677230835,2.3072235584259,2.0788688659668,-1.52999789647758,2.30750102877607,2.07799872446051,2128.482,2128.841,2128.465,2130.809,0.00500611029565334,44.9951477050781,-0.00525274127721786,-1.1002836227417,-0.47315239906311,0.672256112098694,-1.10250000050163,-0.474374949931546,0.67350004613321,0
2.51999855041504,-1.55298185348511,2.29776048660278,2.09231400489807,-1.5520474605947,2.29801371732999,2.09146845910299,2126.305,2126.73,2126.88,2129.128,0.0880617201328278,44.9951553344727,359.961547851563,-1.10025870800018,-0.473152995109558,0.672252297401428,-1.10235890547318,-0.474314240682543,0.673413853382076,0
2.53999900817871,-1.57498097419739,2.28829979896545,2.1057550907135,-1.5740913806044,2.28852883438564,2.10493474584833,2124.865,2125.194,2124.607,2126.85,0.171370580792427,44.9951324462891,359.928314208984,-1.09995269775391,-0.473032981157303,0.672060430049896,-1.10193562074175,-0.474132113087814,0.67315527534487,0
2.55999946594238,-1.59696829319,2.27884387969971,2.11918926239014,-1.59612401402858,2.27904880774374,2.1183941377947,2122.853,2123.287,2122.841,2125.114,0.254566997289658,44.9951210021973,359.895080566406,-1.099365234375,-0.472792059183121,0.671706855297089,-1.10123030888212,-0.473828637098746,0.672724411335995,0
2.57999801635742,-1.61893820762634,2.26939535140991,2.13261270523071,-1.6181376241771,2.2695769662859,2.13184190871882,2120.932,2121.434,2121.054,2123.23,0.337758988142014,44.9951210021973,359.861907958984,-1.09849715232849,-0.47243058681488,0.671177625656128,-1.10024334841354,-0.473403975581601,0.672121492586955,0
2.59999847412109,-1.6408851146698,2.25995635986328,2.1460223197937,-1.64013077892511,2.26011392621545,2.14527718375796,2118.713,2119.399,2119.579,2121.55,0.421006500720978,44.9951248168945,359.828643798828,-1.09734904766083,-0.471948862075806,0.670479893684387,-1.09897493039424,-0.472858210743393,0.671346635812239,0
2.61999893188477,-1.66280364990234,2.25052952766418,2.15941429138184,-1.66209575487342,2.25066301069528,2.1586952448081,2117.461,2117.84,2117.199,2119.365,0.504636287689209,44.9951210021973,359.79541015625,-1.09592115879059,-0.471346974372864,0.669597685337067,-1.09742562325992,-0.472191587166126,0.670400188260345,0
2.63999938964844,-1.68468773365021,2.24111700057983,2.17278528213501,-1.68402693989188,2.24122663446822,2.17209266350648,2115.728,2115.942,2115.245,2117.677,0.588151812553406,44.9951210021973,359.762268066406,-1.09421300888062,-0.47062423825264,0.668554246425629,-1.09559602313537,-0.471404361345641,0.669282514094601,0
2.65999794006348,-1.70653223991394,2.2317214012146,2.18613195419312,-1.70591664919621,2.23180810408224,2.18546474533832,2114.008,2114.187,2113.351,2115.767,0.671455442905426,44.9951171875,359.729187011719,-1.09222567081451,-0.469780921936035,0.667334973812103,-1.093487048984,-0.470496928686224,0.667994174695423,0
2.67999839782715,-1.72833156585693,2.22234511375427,2.19945096969604,-1.7277634747138,2.22240802539167,2.19881063013402,2111.787,2112.166,2111.953,2114.181,0.754470586776733,44.9951438903809,359.696105957031,-1.0899600982666,-0.468817472457886,0.665951907634735,-1.09109911135695,-0.469469465836558,0.666535420862089,0
2.69999885559082,-1.750079870224,2.21299052238464,2.21273875236511,-1.74955976015262,2.21302969268507,2.21212564078427,2110.479,2110.604,2109.734,2112.073,0.837560951709747,44.9951438903809,359.663055419922,-1.08741772174835,-0.46773499250412,0.664386212825775,-1.08843331936148,-0.468322450014513,0.664906930130919,0
2.71999931335449,-1.7717719078064,2.20365977287292,2.22599196434021,-1.77129995841443,2.20367549272384,2.22540638865331,2108.679,2108.853,2107.951,2110.324,0.920324146747589,44.9951515197754,359.630126953125,-1.08459877967834,-0.466533213853836,0.662658393383026,-1.08549070267236,-0.467056324260381,0.663109331514168,0
2.73999786376953,-1.79340183734894,2.19435548782349,2.23920726776123,-1.79297647980783,2.19434869114016,2.23864823731709,2106.836,2107.08,2106.266,2108.56,1.00276935100555,44.9951591491699,359.597320556641,-1.08150470256805,-0.465212941169739,0.660762071609497,-1.08227271937422,-0.465671715947234,0.661143515732969,0
2.7599983215332,-1.81496453285217,2.18508005142212,2.25238132476807,-1.81458795796224,2.18504987584512,2.25185035208115,2104.75,2105.201,2104.848,2106.919,1.08496510982513,44.9951858520508,359.564575195313,-1.07813715934753,-0.463774830102921,0.658700346946716,-1.07878000199166,-0.464168897232749,0.659009869186748,0
2.77999877929688,-1.83645462989807,2.17583560943604,2.26551055908203,-1.83612684690458,2.17578229366013,2.2650081232283,2103.561,2103.647,2102.623,2104.925,1.16720545291901,44.9952049255371,359.531982421875,-1.07449734210968,-0.462219536304474,0.656462848186493,-1.07501419914593,-0.462548577472581,0.656709398992482,0
2.79999923706055,-1.85786628723145,2.1666247844696,2.2785918712616,-1.85758769925251,2.16654828844162,2.27811822303765,2101.873,2101.906,2100.853,2103.266,1.24903512001038,44.9952087402344,359.49951171875,-1.07058572769165,-0.460546791553497,0.654066264629364,-1.07097677406178,-0.460811386251471,0.65424299901135,0
2.81999778747559,-1.87919425964355,2.15744972229004,2.29162192344666,-1.87896306346215,2.15735106638076,2.29117609947734,2100.287,2100.2,2099.051,2101.532,1.33041739463806,44.9952392578125,359.467224121094,-1.06640422344208,-0.45875746011734,0.651503264904022,-1.06666972196052,-0.458958182057406,0.651611888092917,0
2.83999824523926,-1.90043342113495,2.14831256866455,2.30459761619568,-1.90025163276617,2.14819118974301,2.30418095426359,2098.221,2098.39,2097.734,2099.953,1.41125738620758,44.9952697753906,359.435028076172,-1.06195461750031,-0.456852346658707,0.648779392242432,-1.06209390114388,-0.456989334193641,0.648816590560307,0
2.85999870300293,-1.92157804965973,2.13921594619751,2.31751537322998,-1.92144601460316,2.13907183934104,2.317128271396,2096.978,2096.949,2095.693,2097.972,1.49188482761383,44.9952812194824,359.403015136719,-1.05723917484283,-0.454832822084427,0.645882666110992,-1.05725149792792,-0.454905783370899,0.645858441999891,0
2.8799991607666,-1.94262313842773,2.13016200065613,2.33037209510803,-1.94254089599063,2.12999530120277,2.33001480525648,2095.357,2095.283,2093.983,2096.382,1.57194781303406,44.995304107666,359.371246337891,-1.05225872993469,-0.452698945999146,0.642832517623901,-1.05214440908742,-0.452708345718374,0.642738601121776,0
2.89999771118164,-1.9635636806488,2.12115263938904,2.34316444396973,-1.96352900640172,2.1209647036328,2.34283611439361,2093.705,2093.609,2092.38,2094.756,1.65140748023987,44.9953346252441,359.339691162109,-1.04701578617096,-0.450451821088791,0.639621496200562,-1.04677516433438,-0.450398109700476,0.639458613287558,0
2.91999816894531,-1.98439371585846,2.11219120025635,2.35588955879211,-1.98440911693069,2.11198057539494,2.35559144808806,2091.641,2091.868,2091.207,2093.243,1.73028516769409,44.9953727722168,359.308288574219,-1.04151272773743,-0.448092401027679,0.636253356933594,-1.04114485287423,-0.447975543971863,0.636019143875825,0
2.93999862670898,-2.00510883331299,2.10327863693237,2.36854386329651,-2.00517403134858,2.10304601282548,2.36827641027585,2090.774,2090.438,2088.965,2091.368,1.80897414684296,44.9954032897949,359.277099609375,-1.03575193881989,-0.445622056722641,0.632718324661255,-1.03525619623725,-0.445441819530995,0.632421855426973,0
2.95999908447266,-2.02570343017578,2.09441781044006,2.38112449645996,-2.02581860575671,2.0941632292003,2.38088785862954,2089.101,2088.915,2087.451,2089.788,1.88686645030975,44.9954376220703,359.246185302734,-1.02973437309265,-0.443040668964386,0.629032909870148,-1.02911152474823,-0.442797939051516,0.628668171500036,0
2.9799976348877,-2.04617261886597,2.08561086654663,2.39362835884094,-2.04633579327653,2.08533525659438,2.393421488321,2087.633,2087.339,2085.822,2088.223,1.96403527259827,44.9954643249512,359.215576171875,-1.02346301078796,-0.440349787473679,0.625193238258362,-1.0227138993024,-0.44004521955114,0.624759961948157,0
2.99999809265137,-2.06651163101196,2.07685995101929,2.40605235099792,-2.06672446158539,2.07656258221453,2.40587660763199,2085.739,2085.656,2084.635,2086.813,2.04040598869324,44.9955139160156,359.185180664063,-1.01694047451019,-0.437550485134125,0.621203362941742,-1.01606464645845,-0.437184231811008,0.620698037145332,0
3.01999855041504,-2.08671474456787,2.06816697120667,2.41839337348938,-2.08697765348254,2.06784819954987,2.41824896651713,2084.669,2084.308,2082.753,2085.021,2.11629247665405,44.995548248291,359.155059814453,-1.01016998291016,-0.434644490480423,0.61705219745636,-1.00916701981882,-0.434216375765357,0.616484384666525,0
3.03999900817871,-2.10677790641785,2.05953431129456,2.43064856529236,-2.1070904288371,2.05919423420069,2.43053554712756,2083.225,2082.916,2081.197,2083.457,2.1913366317749,44.9955711364746,359.125305175781,-1.00315320491791,-0.431632250547409,0.612755358219147,-1.00202378325828,-0.431142840632279,0.612120692919695,0
3.05999946594238,-2.12669610977173,2.05096387863159,2.44281482696533,-2.12705790388088,2.05060278751603,2.4427333660455,2081.712,2081.319,2079.764,2082.105,2.26549124717712,44.9956207275391,359.095886230469,-0.995893239974976,-0.428514987230301,0.608315348625183,-0.994637809041649,-0.427964862267096,0.607608716526612,0
3.07999801635742,-2.1464638710022,2.04245805740356,2.45488929748535,-2.14687337079936,2.04207674568107,2.45483832557174,2080.227,2079.852,2078.39,2080.606,2.33878827095032,44.9956703186035,359.066772460938,-0.988393604755402,-0.42529422044754,0.603725016117096,-0.987012816387451,-0.424684040945629,0.602950727499826,0
3.09999847412109,-2.16607689857483,2.03401875495911,2.46686911582947,-2.16653584520328,2.033616532251,2.46684982435823,2078.628,2078.373,2077.142,2079.201,2.41127824783325,44.9957237243652,359.037933349609,-0.98065710067749,-0.421971410512924,0.598991394042969,-0.979150439632689,-0.421301079877433,0.598147724230312,0
3.11999893188477,-2.18553042411804,2.02564787864685,2.47875118255615,-2.18603872829175,2.02522498650551,2.47876383130049,2077.752,2077.173,2075.281,2077.507,2.48311614990234,44.9957618713379,359.009460449219,-0.972686946392059,-0.418547958135605,0.594107508659363,-0.971054592046769,-0.41781766283301,0.593202097273285,0
3.13999938964844,-2.20482015609741,2.01734733581543,2.49053287506104,-2.20537738341953,2.01690410346351,2.49057751394429,2076.433,2075.799,2073.822,2076.164,2.55386853218079,44.9958000183105,358.981414794922,-0.964485168457031,-0.41502445936203,0.58909022808075,-0.962728579444533,-0.414235212212131,0.588115866099442,0
3.15999794006348,-2.22394156455994,2.00911903381348,2.50221157073975,-2.22454542119638,2.00865663230111,2.50228696911083,2075.036,2074.4,2072.529,2074.821,2.62347269058228,44.9958572387695,358.953796386719,-0.956055879592896,-0.411402672529221,0.583934426307678,-0.954176642367246,-0.410555552601238,0.582891621189275,0
3.17999839782715,-2.24288940429688,2.00096559524536,2.51378440856934,-2.24354199818069,2.00048293592768,2.51389168155481,2073.315,2072.947,2071.587,2073.589,2.69197511672974,44.9959106445313,358.926513671875,-0.947402894496918,-0.40768438577652,0.578644037246704,-0.945400671854024,-0.406779497661632,0.577530517749065,0
3.19999885559082,-2.26166009902954,1.99288809299469,2.52524852752686,-2.26236084956923,1.99238570991304,2.52538782420568,2072.623,2071.827,2069.782,2071.961,2.75971674919128,44.9959564208984,358.899658203125,-0.938530445098877,-0.40387174487114,0.573209166526794,-0.936405103758047,-0.402908956017012,0.572035265572306,0
3.21999931335449,-2.28024911880493,1.98488891124725,2.53660154342651,-2.28099762052367,1.98436682802245,2.53677273676068,2071.237,2070.552,2068.574,2070.739,2.82621169090271,44.9960060119629,358.873291015625,-0.929440557956696,-0.39996525645256,0.567650556564331,-0.927193677444144,-0.398945536611599,0.566408148978615,0
3.23999786376953,-2.29865169525146,1.97696948051453,2.54784083366394,-2.29944628156995,1.97642888457015,2.54804273590817,2070.049,2069.25,2067.289,2069.488,2.89153361320496,44.9960594177246,358.847351074219,-0.920137882232666,-0.39596700668335,0.561961650848389,-0.917771149318993,-0.394891285994308,0.560652073582612,0
3.2599983215332,-2.31686449050903,1.96913182735443,2.55896377563477,-2.31770615117141,1.96857217280235,2.55919740530806,2068.582,2068.031,2066.31,2068.223,2.95564341545105,44.9961280822754,358.821838378906,-0.910626471042633,-0.391878813505173,0.556144237518311,-0.908139677873146,-0.390747132903322,0.554768357972493,0
3.27999877929688,-2.33488273620605,1.9613778591156,2.56996774673462,-2.33577134012187,1.96079922667992,2.57023314733618,2067.767,2066.905,2064.801,2066.869,3.01875519752502,44.9961814880371,358.796813964844,-0.900910377502441,-0.387702614068985,0.55019873380661,-0.898304216251578,-0.386515208538549,0.548760027947228,0
3.29999923706055,-2.35270261764526,1.95370924472809,2.58085036277771,-2.35363781007389,1.95311178379095,2.5811474950291,2066.72,2065.745,2063.518,2065.681,3.08056378364563,44.9962463378906,358.772338867188,-0.890992879867554,-0.383439421653748,0.544133841991425,-0.888268937369113,-0.38219730838866,0.542629632675369,0
3.31999778747559,-2.37032008171082,1.94612741470337,2.59160923957825,-2.37129993249841,1.94551226593426,2.59193701000626,2065.636,2064.581,2062.348,2064.521,3.14096665382385,44.9962997436523,358.748382568359,-0.880878627300262,-0.379091262817383,0.53794938325882,-0.87803910737898,-0.377795698332271,0.536380389167745,0
3.33999824523926,-2.38773155212402,1.93863415718079,2.60224223136902,-2.38875720963391,1.93800088728271,2.6026013881929,2064.224,2063.427,2061.529,2063.431,3.19992446899414,44.9963569641113,358.724914550781,-0.870572149753571,-0.374660223722458,0.531648576259613,-0.8676171642955,-0.373311427378832,0.530013786769263,0
3.35999870300293,-2.40493297576904,1.9312310218811,2.61274671554565,-2.40600416902084,1.93058000248278,2.61313728654888,2063.488,2062.472,2060.179,2062.116,3.25769758224487,44.9964141845703,358.701995849609,-0.860078394412994,-0.370148807764053,0.525227189064026,-0.857008572601967,-0.368746846742847,0.523533163647493,0
3.3799991607666,-2.42192101478577,1.92392015457153,2.62312078475952,-2.42303712348661,1.92325119802182,2.623542452638,2062.454,2061.446,2059.095,2061.053,3.31401538848877,44.9964637756348,358.6796875,-0.849400997161865,-0.365558117628098,0.518698871135712,-0.846217938763199,-0.364103938457435,0.51694133381991,0
3.39999771118164,-2.43869209289551,1.91670203208923,2.63336205482483,-2.43985088596004,1.91601670575165,2.63381371775943,2061.515,2060.286,2058.015,2060.12,3.36885523796082,44.9965400695801,358.657928466797,-0.838544905185699,-0.360890299081802,0.512064456939697,-0.835251031898626,-0.359385184813519,0.51024182155155,0
3.41999816894531,-2.45524215698242,1.90957927703857,2.64346837997437,-2.45644516534361,1.90887665092339,2.64395090408624,2060.193,2059.322,2057.354,2059.056,3.42215776443481,44.9966049194336,358.63671875,-0.827515304088593,-0.356147706508636,0.505320191383362,-0.824110582941664,-0.354591760855451,0.503436295127018,0
3.43999862670898,-2.47156858444214,1.90255260467529,2.6534378528595,-2.47281494657125,1.90183319137989,2.6539509479928,2059.813,2058.482,2055.912,2057.857,3.47421002388,44.9966621398926,358.616119384766,-0.816317081451416,-0.351332634687424,0.498468458652496,-0.812802561098952,-0.34972623496609,0.496528401041508,0
3.45999908447266,-2.48766779899597,1.89562356472015,2.66326832771301,-2.48895692832918,1.89488774758421,2.66381183275806,2058.822,2057.535,2055.013,2056.979,3.52454447746277,44.9967231750488,358.596160888672,-0.804953992366791,-0.346446394920349,0.49152335524559,-0.801332006385299,-0.344790775723006,0.489521218161412,0
3.4799976348877,-2.50353622436523,1.88879370689392,2.67295789718628,-2.50486640494811,1.88804234425441,2.67353068376208,2057.949,2056.645,2054.123,2056.014,3.57320499420166,44.9967842102051,358.576843261719,-0.793431997299194,-0.341491609811783,0.4844790995121,-0.78970518344449,-0.339788078627405,0.482418573459868,0
3.49999809265137,-2.51917123794556,1.88206434249878,2.68250465393066,-2.52054331600794,1.88129700738756,2.68310746409516,2056.929,2055.731,2053.419,2055.165,3.62018346786499,44.9968605041504,358.558166503906,-0.781756281852722,-0.336470603942871,0.47734272480011,-0.777925130847354,-0.334719451091428,0.475222323152372,0
3.51999855041504,-2.53456997871399,1.87543678283691,2.69190692901611,-2.53598314392723,1.87465368077274,2.69253941403729,2056.426,2054.982,2052.338,2054.143,3.66561698913574,44.9969291687012,358.540161132813,-0.769932627677917,-0.331385999917984,0.470110952854156,-0.765998315247401,-0.329587675535422,0.467936417616648,0
3.53999900817871,-2.54972958564758,1.86891186237335,2.70116281509399,-2.55118300793501,1.86811360392524,2.70182477377044,2055.615,2054.134,2051.546,2053.394,3.70925378799438,44.9970016479492,358.522827148438,-0.757965505123138,-0.32623952627182,0.462797313928604,-0.753930210209441,-0.324395107081412,0.460564200568024,0
3.55999755859375,-2.56464672088623,1.86249113082886,2.71027064323425,-2.56613872308604,1.86167857751006,2.71096098677687,2054.816,2053.415,2050.839,2052.528,3.7510998249054,44.9970703125,358.506195068359,-0.745861172676086,-0.321033954620361,0.455396711826324,-0.741727567798258,-0.319144650954242,0.45310979673751,0
3.57999801635742,-2.57931923866272,1.85617566108704,2.71922898292542,-2.58085048488145,1.85534851740854,2.71994817248517,2054.004,2052.67,2050.196,2051.784,3.79119682312012,44.9971466064453,358.490264892578,-0.733624994754791,-0.315771698951721,0.447917431592941,-0.72939375026341,-0.313837753835969,0.445575260070899,0
3.59999847412109,-2.59374451637268,1.84996652603149,2.72803616523743,-2.59531431270705,1.84912513636775,2.72878389920025,2053.656,2052.057,2049.222,2050.909,3.82961630821228,44.9972152709961,358.475067138672,-0.721262872219086,-0.310455322265625,0.440357357263565,-0.716935713767317,-0.308477408768949,0.437964839979262,0
3.61999893188477,-2.60792016983032,1.84386467933655,2.73669075965881,-2.6095277810186,1.84300947803163,2.73746668519498,2053.058,2051.379,2048.502,2050.256,3.8660876750946,44.9972953796387,358.460662841797,-0.708779871463776,-0.305086821317673,0.432728141546249,-0.704359365424783,-0.303066157419654,0.430282145026854,0
3.6399974822998,-2.62184381484985,1.83787155151367,2.7451913356781,-2.62348726424244,1.83700310238323,2.74599431566298,2052.448,2050.751,2047.889,2049.577,3.90055584907532,44.9973678588867,358.446990966797,-0.696182548999786,-0.299668788909912,0.425028085708618,-0.691671935956746,-0.297607110965304,0.422531592348262,0
3.65999794006348,-2.63551330566406,1.83198738098145,2.75353670120239,-2.6371932403809,1.83110580375149,2.75436708260842,2051.741,2050.046,2047.426,2049.067,3.93301677703857,44.9974594116211,358.434051513672,-0.68347692489624,-0.294204115867615,0.417264848947525,-0.67887712865581,-0.292101862829246,0.414715444227152,0
3.67999839782715,-2.64892673492432,1.82621371746063,2.76172518730164,-2.65064230460817,1.82531904713786,2.76258290607635,2051.397,2049.697,2046.736,2048.201,3.96357846260071,44.9975280761719,358.421905517578,-0.670669972896576,-0.288696020841599,0.409430146217346,-0.665982380593835,-0.286553612975735,0.406838243854667,0
3.69999885559082,-2.66208171844482,1.82055068016052,2.76975607872009,-2.66383252129072,1.81964366539135,2.77064060361845,2050.925,2049.113,2046.166,2047.776,3.99208974838257,44.997615814209,358.410583496094,-0.657766580581665,-0.283146411180496,0.401545852422714,-0.652994032435616,-0.280965089615694,0.398903864643987,0
