t,x_s1,x_s2,x_s3,x_s_d1,x_s_d2,x_s_d3,propellers_rpms1,propellers_rpms2,propellers_rpms3,propellers_rpms4,rollRad,pitchRad,yawRad,v_s1,v_s2,v_s3,v_s_d1,v_s_d2,v_s_d3,insideCount
0,-0.0599999986588955,2.94000005722046,1.17999994754791,-0.0599999986588955,2.94000005722046,1.17999994754791,0,0,0,0,0,0,0,0,0,0,-1.06581410364015E-15,4.44089209850063E-16,4.44089209850063E-16,0
0.02001953125,-0.0599999986588955,2.94000005722046,1.17811644077301,-0.0600018744611685,2.93999925011514,1.18000110875888,0,0,0,0,-0.01635288,0.0001297794,-0.01587137,-1.10653664009419E-09,-7.76775763711157E-08,-0.0941759571433067,-0.000280531511337879,-0.000120704872184653,0.000173662369087018,9
0.040008544921875,-0.0599999986588955,2.94000005722046,1.17242503166199,-0.060014880898484,2.93999365380853,1.18000916036316,0,0,0,0,-0.03270202,0.0005238493,-0.03175127,-1.08383135799528E-09,-7.60859677484405E-08,-0.284568399190903,-0.00111143977225461,-0.000478221483967637,0.00068803416424398,9
0.05999755859375,-0.0599058829247952,2.93990302085876,1.16596519947052,-0.0600498857373401,2.93997859220429,1.18003083002592,1867.736,3252.71,3184.193,1722.621,-0.04941975,0.0003290266,-0.01369397,0.0047058523632586,-0.00484938966110349,-0.32299131155014,-0.00247936261166862,-0.00106680046642749,0.00153484356504269,9
0.08001708984375,-0.0598203651607037,2.93960738182068,1.16000318527222,-0.0601176241590912,2.9399494462538,1.18007276333581,1925.461,2314.329,3252.036,2829.56,-0.07542498,-0.002136388,0.02094826,0.00427588727325201,-0.0147778820246458,-0.29810044169426,-0.00437432711648753,-0.0018821507536715,0.00270791686320324,9
0.100006103515625,-0.0599374249577522,2.93904519081116,1.15498638153076,-0.0602282404704493,2.93990185114529,1.18014124010193,980.8941,1499.05,3914.259,3896.424,-0.1031879,-0.008061389,0.06330394,-0.00585292186588049,-0.0281138196587563,-0.2508385181427,-0.00677739276378709,-0.00291612276782231,0.00419552897277328,8
0.1199951171875,-0.0604638159275055,2.93818378448486,1.15081310272217,-0.0603918861403606,2.93983143898525,1.18024254456713,346.3103,980.2162,4173.258,4613.318,-0.1214268,-0.01541917,0.103996,-0.026319608092308,-0.0430653318762779,-0.208663403987885,-0.00967801353495435,-0.00416417885169243,0.00599115140585487,8
0.1400146484375,-0.0615635514259338,2.93704152107239,1.1472829580307,-0.0606187761383957,2.93973381455767,1.18038300028418,352.7106,747.0981,3975.694,4854.795,-0.1253955,-0.02116521,0.1351004,-0.0549868047237396,-0.057111207395792,-0.176508039236069,-0.0130687916036232,-0.00562313592726786,0.00809020455552005,7
0.160003662109375,-0.0633406862616539,2.93568134307861,1.14427495002747,-0.0609177895434042,2.93960515744296,1.18056810382587,821.4221,815.4136,3461.944,4692.236,-0.1184585,-0.0235221,0.152264,-0.0888567939400673,-0.0680107250809669,-0.150400415062904,-0.0169265510445065,-0.00728302204135792,0.0104783414199936,7
0.17999267578125,-0.0658466517925262,2.93417286872864,1.14182555675507,-0.0612985250199726,2.93944133760391,1.18080379722281,1348.469,1083.057,3007.374,4255.184,-0.1079827,-0.02277855,0.155775,-0.125298202037811,-0.075427733361721,-0.122469238936901,-0.0212433804254414,-0.00914043312572283,0.0131506644458931,7
0.20001220703125,-0.0690846294164658,2.9325544834137,1.14006197452545,-0.0617708265342762,2.93923811945689,1.181096174359,1636.001,1380.852,2919.01,3666.489,-0.09982646,-0.02030128,0.1501576,-0.161898881196976,-0.0809138715267181,-0.0881803780794144,-0.0260142813927851,-0.0111932185284278,0.0161040794142088,7
0.220001220703125,-0.0730098038911819,2.93082690238953,1.139035820961,-0.0623420644491781,2.93899233174064,1.18144979784016,1642.03,1581.17,3147.054,3113.147,-0.09584025,-0.01735422,0.1421894,-0.196258738636971,-0.0863831117749214,-0.0513086915016174,-0.03121219533433,-0.0134297356845702,0.019321835755004,7
0.240020751953125,-0.0775494426488876,2.92897439002991,1.13863348960876,-0.0630225615075555,2.93869953286731,1.18187105793587,1523.904,1623.886,3418.304,2777.532,-0.09475953,-0.01467775,0.1377345,-0.226982206106186,-0.0926218181848526,-0.0201164800673723,-0.0368405636651345,-0.0158514653389075,0.022806063868137,7
0.260009765625,-0.0826382339000702,2.92699337005615,1.13863575458527,-0.0638185570309634,2.93835703823113,1.18236381708338,1439.205,1501.116,3532.752,2744.212,-0.09439787,-0.01258823,0.1393017,-0.25443971157074,-0.0990550965070724,0.000116053968667984,-0.0428699302682246,-0.0184457333472145,0.0265385290140116,7
0.279998779296875,-0.0882440730929375,2.92490172386169,1.13885271549225,-0.0647390625194898,2.93796097043536,1.18293365383054,1400.036,1275.687,3477.517,2977.588,-0.09321862,-0.01110645,0.1456853,-0.280292123556137,-0.104584202170372,0.0108481533825397,-0.0492963837173861,-0.0212108567320638,0.030516809833474,7
0.300018310546875,-0.0943697988986969,2.92273354530334,1.13920772075653,-0.0657936070281142,2.93750722939386,1.1835864671163,1350.006,1061.238,3345.791,3324.994,-0.0905315,-0.009936786,0.1533158,-0.30628627538681,-0.108409069478512,0.0177528187632561,-0.0561185469977389,-0.0241462430024218,0.0347400538887172,7
0.32000732421875,-0.101034969091415,2.92052674293518,1.13972532749176,-0.0669865614821475,2.93699393441958,1.18432496275165,1282.151,941.9012,3235.604,3590.44,-0.08597856,-0.008522648,0.1583613,-0.333258509635925,-0.110341995954514,0.0258783847093582,-0.0633036493784043,-0.0272377918282996,0.0391879745362408,7
0.339996337890625,-0.10825052857399,2.9183132648468,1.14046204090118,-0.068326768706371,2.93641728069206,1.18515461486636,1253.099,943.9268,3171.611,3649.67,-0.07945222,-0.006291984,0.1584771,-0.360778272151947,-0.110678628087044,0.0368376486003399,-0.0708499516420146,-0.0304847548730522,0.0438594951176439,7
0.360015869140625,-0.116002105176449,2.9161159992218,1.14145350456238,-0.0698237345322385,2.93577317811757,1.18608130802295,1318.436,1046.565,3121.996,3498.667,-0.07154902,-0.002964631,0.1534774,-0.387578755617142,-0.109859675168991,0.0495713464915752,-0.0787580297418618,-0.0338873799532906,0.0487549721754506,8
0.3800048828125,-0.124250382184982,2.91395092010498,1.14270806312561,-0.0714797725314022,2.93506063123087,1.18710647443246,1456.398,1182.462,3089.097,3231.09,-0.06361493,0.001259421,0.1450368,-0.412414491176605,-0.108257457613945,0.0627289935946465,-0.0869921272359981,-0.0374302820709642,0.0538522707687797,8
0.399993896484375,-0.13294218480587,2.9118275642395,1.14421784877777,-0.0733036822025899,2.9342758538535,1.18823556140379,1579.692,1273.556,3105.376,2981.221,-0.05702201,0.005826584,0.135745,-0.434590488672256,-0.106165751814842,0.0754906088113785,-0.0955525119207663,-0.0411135764513579,0.0591515566763244,8
0.420013427734375,-0.142022579908371,2.90975141525269,1.14595866203308,-0.0753050585276311,2.93341471753282,1.18947450868777,1629.949,1288.021,3160.154,2845.447,-0.05243871,0.01017368,0.1278605,-0.454019784927368,-0.103804685175419,0.0870436131954193,-0.104441553474511,-0.0449382827008623,0.0646542968418633,8
0.44000244140625,-0.151444911956787,2.90772557258606,1.14789593219757,-0.077483988232608,2.93247718495301,1.19082336997196,1608.389,1238.818,3217.44,2842.65,-0.04965623,0.01397606,0.1224598,-0.471117109060287,-0.101292058825493,0.0968646928668022,-0.113620829717891,-0.048887868829098,0.0703367061060819,8
0.46002197265625,-0.161175638437271,2.90575289726257,1.14999759197235,-0.0798530997696509,2.93145782244394,1.19228996286983,1541.554,1158.093,3253.524,2937.712,-0.04789109,0.01718596,0.119339,-0.486536204814911,-0.0986397489905357,0.10508094727993,-0.123107133063502,-0.0529695601420796,0.0762091797723108,8
0.480010986328125,-0.171192437410355,2.90383720397949,1.15223956108093,-0.0824109101018722,2.93035726811493,1.19387336931088,1474.184,1086.304,3247.706,3067.538,-0.04630332,0.0199858,0.1173776,-0.500840067863464,-0.0957796946167946,0.112098693847656,-0.132860437136906,-0.0571661344090936,0.082246939608052,8
0.5,-0.181479960680008,2.90198421478271,1.15461683273315,-0.085166398670376,2.92917165836334,1.1955791479969,1430.984,1046.081,3217.811,3169.26,-0.04434962,0.02264084,0.1152272,-0.514375865459442,-0.0926442593336105,0.118863001465797,-0.142884000065179,-0.0614789935111996,0.0884520025491718,8
0.52001953125,-0.19202321767807,2.90019941329956,1.15713608264923,-0.0881295333471192,2.92789670429234,1.19741346951549,1421.853,1044.425,3178.522,3211.449,-0.04192082,0.02537424,0.1118995,-0.527163922786713,-0.0892366021871567,0.125962376594543,-0.153182839569029,-0.0659102964334391,0.0948274748038155,9
0.540008544921875,-0.202803462743759,2.89848637580872,1.15981030464172,-0.0912963635428427,2.92653410573011,1.19937388826368,1448.479,1074.2,3145.893,3183.782,-0.03928695,0.02828985,0.1070524,-0.539013147354126,-0.0856460630893707,0.133708462119102,-0.163714777034477,-0.0704418948965508,0.101347245800684,9
0.55999755859375,-0.213796883821487,2.89684557914734,1.1626535654068,-0.094676112580471,2.92507989413848,1.20146611391775,1484.735,1113.851,3139.29,3113.316,-0.03689064,0.03132727,0.10106,-0.549669802188873,-0.0820354819297791,0.142161995172501,-0.17448465888317,-0.0750758741803766,0.108014315705644,9
0.58001708984375,-0.224975317716599,2.8952739238739,1.16566920280457,-0.0982790918331175,2.92352963282165,1.20369652970884,1517.828,1148.025,3147.573,3037.083,-0.03513295,0.03433974,0.09466764,-0.558921694755554,-0.078581690788269,0.150781244039536,-0.185498893714783,-0.0798149917263209,0.114832651747179,9
0.600006103515625,-0.236310064792633,2.89376544952393,1.16885197162628,-0.102098762959148,2.92188613504538,1.20606108809202,1542.565,1167.689,3161.115,2978.599,-0.0342882,0.03716086,0.08861544,-0.56673800945282,-0.0754240676760674,0.159141212701797,-0.196713446836865,-0.0846403006364086,0.121774994352997,9
0.6199951171875,-0.247775569558144,2.89231204986572,1.17219543457031,-0.106144683970236,2.92014528826426,1.20856570593183,1535.602,1167.463,3182.997,2962.471,-0.03442029,0.03963271,0.08345211,-0.573274612426758,-0.0726692378520966,0.167175903916359,-0.208134604141382,-0.0895545055543457,0.128845234789665,9
0.6400146484375,-0.259350955486298,2.89090442657471,1.17568838596344,-0.110427588881679,2.91830247393137,1.21121702809507,1503.807,1155.827,3196.241,2988.881,-0.03534441,0.04169498,0.07930245,-0.578769981861115,-0.0703858584165573,0.174646645784378,-0.21977002223474,-0.0945609009039674,0.136048112861281,9
0.660003662109375,-0.271020799875259,2.88953232765198,1.17932093143463,-0.114938248900541,2.91636166293851,1.21400934151928,1469.807,1144.884,3195.118,3030.145,-0.03677293,0.04338776,0.07589836,-0.583491861820221,-0.0686002001166344,0.181629598140717,-0.231574097577923,-0.0996398647564507,0.143355397804799,9
0.67999267578125,-0.282773911952972,2.88818573951721,1.1830906867981,-0.119686638739014,2.91431856344567,1.21694882102647,1429.891,1139.744,3191.672,3073.657,-0.03844753,0.04477781,0.07287834,-0.587655544281006,-0.0673279091715813,0.188485726714134,-0.243554411173546,-0.104794659005432,0.150771782621969,9
0.70001220703125,-0.294601023197174,2.88685417175293,1.18699395656586,-0.124683985757554,2.91216834463331,1.22004241688759,1400.324,1145.561,3178.922,3105.015,-0.04017272,0.04596238,0.06987004,-0.591355502605438,-0.0665796101093292,0.195160984992981,-0.255719729227087,-0.11002905550423,0.158302694011575,9
0.720001220703125,-0.306493371725082,2.88552689552307,1.19102931022644,-0.129918284978346,2.90991617190799,1.22328269744952,1396.819,1163.292,3160.873,3105.603,-0.04192401,0.04702269,0.06662556,-0.594616651535034,-0.0663633346557617,0.201766461133957,-0.268023157655716,-0.11532287703907,0.16591910230247,9
0.740020751953125,-0.318441927433014,2.88419270515442,1.19520056247711,-0.135408560960145,2.90755385953358,1.22668143982036,1393.055,1185.258,3154.602,3092.364,-0.04383084,0.04795377,0.06321421,-0.597428143024445,-0.0667117685079575,0.20856374502182,-0.280492548100696,-0.120688107393104,0.173638248987353,9
0.760009765625,-0.330437064170837,2.88283944129944,1.19950532913208,-0.141140917956636,2.9050873864615,1.23023004187122,1391.723,1207.613,3148.702,3076.261,-0.04601889,0.04873272,0.05981262,-0.599758744239807,-0.0676635131239891,0.2152409106493,-0.293080296154222,-0.126104263719567,0.181430664670081,9
0.779998779296875,-0.342470049858093,2.88145422935486,1.20394396781921,-0.147126184485884,2.90251209348295,1.23393520697061,1386.682,1226.446,3152.711,3058.148,-0.04856114,0.04931523,0.05665409,-0.601649701595306,-0.0692614689469337,0.221931308507919,-0.305795832832518,-0.131575403921268,0.189302187598958,9
0.800018310546875,-0.354533225297928,2.88002371788025,1.2085108757019,-0.153376545303595,2.89982273783796,1.23780447806275,1370.291,1240.119,3155.364,3057.082,-0.05148157,0.04965431,0.05395309,-0.603158295154572,-0.0715299695730209,0.22834400832653,-0.318649478366155,-0.137105968505107,0.197259206488328,9
0.82000732421875,-0.366621196269989,2.8785343170166,1.21319949626923,-0.159875221826383,2.89702653888221,1.24182746840525,1357.688,1251.164,3153.127,3059.774,-0.05473222,0.04974205,0.05175593,-0.604397773742676,-0.0744749903678894,0.234430402517319,-0.331592781842754,-0.14267511039705,0.205271727915392,9
0.839996337890625,-0.378731161355972,2.87697219848633,1.21800816059113,-0.166633637018892,2.89411858163313,1.24601124935738,1327.879,1259.848,3156.498,3076.359,-0.05825132,0.04956108,0.0500995,-0.605500221252441,-0.0781033262610435,0.24043282866478,-0.344636106234817,-0.148287288494656,0.213346167053785,8
0.860015869140625,-0.390862464904785,2.87532424926758,1.22293055057526,-0.173664618315387,2.89109334680413,1.25036376171199,1294.989,1268.619,3153.347,3101.374,-0.06188281,0.04914495,0.04888063,-0.606564879417419,-0.082398347556591,0.246117249131203,-0.357790534090669,-0.153947271308859,0.221489384528856,8
0.8800048828125,-0.403016060590744,2.87357759475708,1.22796106338501,-0.180948461186242,2.88795931270381,1.25487280742661,1281.073,1281.095,3143.066,3111.856,-0.06550577,0.0485562,0.04791356,-0.607678055763245,-0.0873283967375755,0.251525431871414,-0.371007022483504,-0.159633957038354,0.229671020432672,8
0.899993896484375,-0.415193974971771,2.8717200756073,1.23310041427612,-0.18849723509595,2.8847112861788,1.25954585807468,1260.196,1295.548,3139.873,3121.663,-0.06911436,0.04780775,0.04717194,-0.608896851539612,-0.0928745120763779,0.256967931985855,-0.384296738353309,-0.165352150505452,0.237897987633041,8
0.920013427734375,-0.427398681640625,2.86974000930786,1.23834466934204,-0.196324452211266,2.88134345332121,1.26439127833112,1241.578,1310.506,3133.898,3131.621,-0.07266755,0.04692934,0.04662161,-0.610236287117004,-0.0990020632743835,0.262211501598358,-0.397671404529394,-0.171106895716105,0.246177543119742,8
0.94000244140625,-0.439633131027222,2.86762642860413,1.24369025230408,-0.204407453948074,2.87786556348678,1.26939504145298,1241.599,1326.741,3125.332,3125.965,-0.07616214,0.0459537,0.04622026,-0.611721694469452,-0.105675272643566,0.267281502485275,-0.411081631631503,-0.176876941799768,0.254479112513653,8
0.96002197265625,-0.451900780200958,2.86536884307861,1.24913918972015,-0.21277195700315,2.87426655149935,1.27457306730061,1227.971,1341.349,3127.128,3126.586,-0.07967059,0.04485585,0.04609279,-0.613383769989014,-0.112879037857056,0.272448271512985,-0.424559845004915,-0.182676240476657,0.262822768648136,8
0.980010986328125,-0.46420556306839,2.86295747756958,1.25468647480011,-0.221393324468958,2.87055701793193,1.27991010445463,1215.541,1353.378,3123.935,3133.329,-0.08317532,0.04364325,0.04627555,-0.61523962020874,-0.120570637285709,0.277361661195755,-0.438056556301695,-0.188483498293199,0.271177875878363,8
1,-0.476552665233612,2.86038279533386,1.26033234596252,-0.230284798736574,2.86673126495361,1.28541435058594,1203.618,1363.367,3127.279,3136.086,-0.08662091,0.04232191,0.04678353,-0.617354393005371,-0.12872913479805,0.282292544841766,-0.451584000205995,-0.194303979492187,0.279552008056641,8
1.02001953125,-0.488947808742523,2.85763692855835,1.26607263088226,-0.239461107372567,2.86278295570393,1.29109492275982,1187.436,1371.862,3125.938,3149.24,-0.08997383,0.04089897,0.04762946,-0.619755864143372,-0.137299343943596,0.28701439499855,-0.465154707681581,-0.200143075797255,0.287952922446475,8
1.04000854492188,-0.501397609710693,2.85471248626709,1.27190375328064,-0.248894644448595,2.85872396824263,1.29693473159157,1186.399,1380.294,3119.704,3153.554,-0.09319253,0.03941045,0.04872049,-0.622493088245392,-0.14622688293457,0.291554510593414,-0.47871923339115,-0.205979512261105,0.296350010028666,8
1.05999755859375,-0.513909876346588,2.85160279273987,1.27782881259918,-0.258599401509697,2.85454828239877,1.30294243851408,1171.113,1387.986,3122.716,3164.819,-0.09629884,0.03785099,0.05007893,-0.625613272190094,-0.155486553907394,0.296253710985184,-0.492290296490434,-0.211818761581115,0.30475114456651,8
1.08001708984375,-0.526492297649384,2.84830236434937,1.28384554386139,-0.268590868588476,2.85024923324404,1.30912763259543,1155.282,1394.371,3122.615,3180.586,-0.0992134,0.03625064,0.05164899,-0.629121422767639,-0.165020957589149,0.300837308168411,-0.505880764601332,-0.21766636033551,0.313164291730931,8
1.10000610351563,-0.539152979850769,2.84480690956116,1.28995156288147,-0.278838480013141,2.84583997233313,1.31547139222872,1161.218,1401.907,3117.197,3180.27,-0.1018893,0.03465747,0.05331822,-0.633033752441406,-0.174771457910538,0.305302083492279,-0.519441457145546,-0.223501147495394,0.321559006401169,7
1.1199951171875,-0.551900267601013,2.84111261367798,1.29615116119385,-0.289357002179081,2.84131414609862,1.32198285851614,1155.095,1408.669,3121.073,3185.077,-0.104389,0.03305816,0.05514541,-0.637365460395813,-0.184710159897804,0.309977203607559,-0.532985466132485,-0.229328756186667,0.329943393154705,7
1.1400146484375,-0.564742267131805,2.83721709251404,1.30244302749634,-0.300162704591434,2.83666475422696,1.32867210305637,1147.758,1413.284,3122.441,3195.485,-0.1066857,0.03146804,0.05712431,-0.6420978307724,-0.194777682423592,0.314592897891998,-0.54652589017629,-0.235154822377061,0.338325560657667,7
1.16000366210938,-0.577686965465546,2.83311867713928,1.30882596969604,-0.311222084148811,2.83190621216671,1.33551838583369,1158.731,1418.091,3119.16,3193.42,-0.1087683,0.02991892,0.05918217,-0.647238492965698,-0.20491923391819,0.319149523973465,-0.560014026276883,-0.240958390526247,0.34667535943296,7
1.17999267578125,-0.590743064880371,2.82881641387939,1.31530559062958,-0.322550701230474,2.8270318247214,1.34253133946411,1154.17,1421.146,3126.292,3199.371,-0.1107001,0.02838791,0.06139106,-0.652805387973785,-0.215116694569588,0.323981523513794,-0.573463232144024,-0.246745208083563,0.355001058539242,7
1.20001220703125,-0.603918671607971,2.8243100643158,1.32188141345978,-0.334165615614823,2.82203425154496,1.34972152476313,1147.399,1422,3130.329,3212.035,-0.1124312,0.02689027,0.06373185,-0.658777296543121,-0.225314676761627,0.328790009021759,-0.586886736182789,-0.252520966862155,0.363310846989412,7
1.22000122070313,-0.617221832275391,2.81960082054138,1.32855248451233,-0.346030421585499,2.81692915700008,1.35706640485806,1160.397,1423.706,3128.098,3211.461,-0.1139332,0.02546305,0.06610472,-0.665159046649933,-0.235458970069885,0.333555638790131,-0.600236516861372,-0.258265004538453,0.371574997167698,7
1.24002075195313,-0.630661129951477,2.81469011306763,1.33532500267029,-0.358180209983518,2.8117014424782,1.36458770265112,1158.799,1424.115,3135.722,3218.012,-0.1152664,0.02408577,0.06856056,-0.671964764595032,-0.245535001158714,0.338627070188522,-0.613546334788502,-0.263991847359231,0.379814408499145,7
1.260009765625,-0.644244253635406,2.80958032608032,1.34219825267792,-0.37057666480527,2.80636759428526,1.37226169871082,1160.831,1423.883,3136.631,3227.719,-0.1164142,0.02277888,0.07105413,-0.679155945777893,-0.255484819412231,0.343660593032837,-0.626768731761373,-0.26968107538565,0.387999702095469,7
1.27999877929688,-0.657979249954224,2.80427432060242,1.34917736053467,-0.383236695417198,2.80092033679326,1.3800988607405,1164.433,1422.499,3144.818,3230.486,-0.1173421,0.02155346,0.07355033,-0.686749994754791,-0.265296071767807,0.348953872919083,-0.639917282339435,-0.275338529371412,0.396139281255613,8
1.30001831054688,-0.671873271465302,2.79877591133118,1.3562628030777,-0.396178686849666,2.79535175943725,1.38811056994974,1167.178,1421.153,3148.194,3238.571,-0.1180521,0.02041669,0.07604131,-0.69470089673996,-0.274916261434555,0.354273736476898,-0.653005218467598,-0.280969902652754,0.404241337183804,8
1.32000732421875,-0.685933113098145,2.79308986663818,1.36345529556274,-0.409361504843077,2.78967956113998,1.39627136227237,1186.1,1420.941,3145.95,3236.058,-0.1185767,0.01939242,0.07845441,-0.702992618083954,-0.284301459789276,0.359622925519943,-0.6659860834168,-0.286555206197011,0.41227711095171,8
1.33999633789063,-0.700165748596191,2.78722071647644,1.37076270580292,-0.422802873722428,2.78389611561957,1.40459220990988,1187.746,1418.54,3156.463,3240.871,-0.11899,0.01844863,0.08085845,-0.711630821228027,-0.293459385633469,0.365373402833939,-0.678873453515705,-0.29210028151913,0.420255006953505,8
1.36001586914063,-0.714576900005341,2.78117346763611,1.37818670272827,-0.4365219692899,2.77799317206405,1.4130849835973,1186.494,1414.715,3164.259,3251.188,-0.119243,0.01759418,0.08324105,-0.720561981201172,-0.30235743522644,0.37119722366333,-0.691680442442074,-0.297610771068296,0.428183143180414,8
1.3800048828125,-0.729172170162201,2.77495431900024,1.38572692871094,-0.450474904562636,2.77198961381608,1.4217225152016,1205.889,1412.83,3163.796,3247.688,-0.1193192,0.016861,0.085513,-0.729763031005859,-0.310956984758377,0.377011299133301,-0.704361775018035,-0.303067194200314,0.436033492140578,8
1.39999389648438,-0.743956983089447,2.76856899261475,1.393390417099,-0.464680216184654,2.76587746507559,1.43051627978847,1210.888,1409.11,3173.91,3250.506,-0.1192899,0.01621614,0.08774197,-0.739238679409027,-0.319265574216843,0.383175730705261,-0.716930938559026,-0.308475354130225,0.443814403124744,8
1.42001342773438,-0.758935630321503,2.76202392578125,1.40117835998535,-0.479157861067077,2.75964813894125,1.43947863163655,1212.307,1404.344,3180.598,3259.973,-0.1191323,0.01566195,0.08992099,-0.748934745788574,-0.327255487442017,0.389399647712708,-0.729400843645231,-0.313840805920001,0.451533868397062,8
1.44000244140625,-0.774112284183502,2.75532603263855,1.40909099578857,-0.493861275572861,2.75332167044526,1.4485807456364,1231.639,1401.755,3179.663,3257.35,-0.1188484,0.01522586,0.09196158,-0.758829534053802,-0.334898591041565,0.395630717277527,-0.741727567798258,-0.319144650954242,0.459164697851088,8
1.46002197265625,-0.789490878582001,2.74848175048828,1.41713571548462,-0.50883280894277,2.74687983789241,1.45784883798541,1235.141,1397.083,3191.008,3260.642,-0.1184973,0.01487406,0.09392684,-0.768929243087769,-0.342216610908508,0.402238428592682,-0.753942941956197,-0.324400585196357,0.466726596353819,8
1.48001098632813,-0.805074155330658,2.74149799346924,1.42531216144562,-0.524024159888143,2.74034342397783,1.467253007885,1241.54,1393.099,3194.292,3266.948,-0.118067,0.0146164,0.09579136,-0.779163777828217,-0.349183797836304,0.408823668956757,-0.766004036374583,-0.329590137176618,0.474192988348404,8
1.5,-0.820864975452423,2.73438167572021,1.43362522125244,-0.539455198877605,2.73370387899399,1.4768055561018,1248.98,1387.858,3204.603,3266.422,-0.1175216,0.01445347,0.09753909,-0.789541840553284,-0.355815410614014,0.415655910968781,-0.777924000354858,-0.334718964672088,0.481572013878822,8
1.52001953125,-0.83686500787735,2.72713994979858,1.4420747756958,-0.555147149984933,2.72695207081487,1.48651962134853,1255.437,1383.377,3208.746,3271.331,-0.1168712,0.01438201,0.09917653,-0.800000965595245,-0.362087696790695,0.422479540109634,-0.789715229532175,-0.33979240117828,0.488871346433721,8
1.54000854492188,-0.853075385093689,2.7197802066803,1.45066058635712,-0.571049184024557,2.72010986981902,1.49636373793799,1276.54,1381.219,3205.729,3266.961,-0.1161687,0.01441608,0.100642,-0.810518026351929,-0.367983311414719,0.429290056228638,-0.801336412291853,-0.344792671461508,0.496065412155667,8
1.55999755859375,-0.869497418403625,2.71230936050415,1.45939040184021,-0.587181951496087,2.71316839067337,1.50635068951315,1278.241,1376.023,3218,3269.665,-0.1154779,0.01451201,0.1020145,-0.821106374263763,-0.37354364991188,0.436493068933487,-0.812800388649436,-0.349725300221754,0.503162159625937,8
1.58001708984375,-0.886131346225739,2.70473408699036,1.46826457977295,-0.603567408310176,2.70611818636293,1.51649406782863,1275.907,1370.292,3226.682,3278.151,-0.1147338,0.01467391,0.1032928,-0.831697404384613,-0.378769010305405,0.443707168102264,-0.824119146742882,-0.35459544561987,0.510169010073001,8
1.60000610351563,-0.90297657251358,2.69706130027771,1.47728061676025,-0.620152298932711,2.69898217125626,1.52676090517188,1295.64,1367.962,3224.322,3272.217,-0.1139199,0.01493374,0.1043885,-0.842259049415588,-0.383642315864563,0.450800776481628,-0.835253140422976,-0.35938609205264,0.51706148254665,8
1.6199951171875,-0.920032739639282,2.68929743766785,1.48644411563873,-0.636958033083316,2.69175113334911,1.53716445517924,1300.94,1363.337,3233.891,3271.447,-0.1131071,0.01524904,0.1053804,-0.852805733680725,-0.388195097446442,0.458174914121628,-0.846214826007804,-0.364102599125749,0.523847288101157,8
1.6400146484375,-0.937298178672791,2.6814489364624,1.49575448036194,-0.654007271984653,2.68441532215046,1.54771874622704,1300.51,1358.267,3239.669,3278.748,-0.1122762,0.01561408,0.1062819,-0.863277018070221,-0.3924281001091,0.465518355369568,-0.857015715678588,-0.368749920209162,0.530533553325099,8
1.66000366210938,-0.954771280288696,2.67352223396301,1.50520956516266,-0.671244443874359,2.67699864863716,1.55838937674714,1317.913,1356.263,3236.496,3274.053,-0.1114304,0.01605363,0.1070111,-0.873651087284088,-0.39633509516716,0.472753137350082,-0.867618167158098,-0.373311858882592,0.53709697585572,8
1.67999267578125,-0.972450196743011,2.66552305221558,1.51481509208679,-0.688691692550512,2.66949158495151,1.56919005480539,1318.858,1351.599,3247.211,3274.528,-0.1106171,0.01652793,0.1076427,-0.883947491645813,-0.399959534406662,0.480273872613907,-0.878034183119987,-0.377793579561193,0.543544985919778,8
1.70001220703125,-0.990332186222076,2.65745687484741,1.524569272995,-0.706372354049449,2.66188409024902,1.58013522651994,1316.006,1346.898,3253.115,3281.451,-0.1097856,0.01703831,0.1081819,-0.894101083278656,-0.403306841850281,0.487708657979965,-0.888274735793774,-0.382199803288802,0.549884375850026,8
1.72000122070313,-1.00841391086578,2.64932942390442,1.53446841239929,-0.724228658537036,2.6542010212754,1.5911891296115,1334.107,1345.832,3248.186,3274.727,-0.1089366,0.01761325,0.1085445,-0.904088377952576,-0.406367659568787,0.494957983493805,-0.898304216251578,-0.386515208538549,0.556093102023817,8
1.74002075195313,-1.02669274806976,2.64114570617676,1.54451739788055,-0.742311168965756,2.64642062220478,1.6023830649563,1335.78,1342.078,3257.099,3273.515,-0.1081355,0.01820802,0.1088152,-0.913934350013733,-0.40918356180191,0.502450048923492,-0.908148960779607,-0.390751127078638,0.562187467856884,8
1.760009765625,-1.04516410827637,2.63291049003601,1.5547126531601,-0.760560719141003,2.63856835059778,1.61368040586141,1337.339,1339.608,3257.186,3278.145,-0.1073813,0.0188246,0.1089918,-0.923571527004242,-0.411756873130798,0.509760677814484,-0.91777478390713,-0.394892849856044,0.568146310914365,8
1.77999877929688,-1.06382477283478,2.6246280670166,1.56505620479584,-0.779000609654483,2.63063418086074,1.62509557650306,1339.125,1335.623,3265.622,3275.325,-0.1066191,0.01946264,0.1090657,-0.933028519153595,-0.414123594760895,0.517180442810059,-0.927192788821983,-0.398945154262308,0.57397650459845,8
1.80001831054688,-1.08266961574554,2.61630249023438,1.5755443572998,-0.797655223615693,2.62260762162281,1.63664367118754,1339.393,1332.842,3266.818,3278.744,-0.1058409,0.02011874,0.1090512,-0.942249298095703,-0.416280150413513,0.524407625198364,-0.936412917636689,-0.402912318110697,0.579684203550397,7
1.82000732421875,-1.10169410705566,2.60793805122375,1.58617281913757,-0.816463410111527,2.61451498441355,1.64828683458664,1356.306,1333.25,3259.098,3271.745,-0.1050915,0.02080936,0.1088833,-0.951223373413086,-0.418220430612564,0.531425476074219,-0.94540321420156,-0.406780591562751,0.585249625391268,7
1.83999633789063,-1.12089383602142,2.59953808784485,1.5969465970993,-0.835449117627072,2.60634596486888,1.66003989195343,1352.685,1330.302,3268.251,3271.753,-0.1044321,0.02148742,0.1086535,-0.959986984729767,-0.419996410608292,0.538690626621246,-0.954174163352093,-0.410554485950274,0.590679260733698,7
1.86001586914063,-1.14026355743408,2.59110569953918,1.60786235332489,-0.854637305360818,2.59808982374295,1.67191829422076,1343.333,1327.093,3273.32,3279.286,-0.1037914,0.02215692,0.1083722,-0.9684818983078,-0.421624362468719,0.545790374279022,-0.962735018414262,-0.414237982720922,0.595978837827261,7
1.8800048828125,-1.15979719161987,2.58264374732971,1.61891400814056,-0.873964974649439,2.58977366760063,1.68388304221498,1357.85,1327.773,3266.317,3271.175,-0.1031405,0.02285431,0.1079463,-0.976691067218781,-0.423095881938934,0.55258309841156,-0.971056158224177,-0.417818336715394,0.601130019760457,7
1.89999389648438,-1.17949032783508,2.5741548538208,1.63010430335999,-0.893456683142228,2.58138692997148,1.69594933829086,1357.316,1325.979,3272.659,3267.761,-0.1025445,0.02353671,0.1074653,-0.98464971780777,-0.424447178840637,0.559513449668884,-0.979147395688901,-0.421299770153459,0.606138881190213,7
1.92001342773438,-1.19933652877808,2.56564116477966,1.64142894744873,-0.913137923350175,2.5729186421402,1.70813296352707,1349.755,1323.847,3274.47,3274.308,-0.1019772,0.02419828,0.1069541,-0.992309212684631,-0.425685822963715,0.566231787204742,-0.987017247723777,-0.424685947625853,0.611010694492843,7
1.94000244140625,-1.21932983398438,2.55710482597351,1.6528822183609,-0.932943991899774,2.5643966441608,1.72039386345315,1362.278,1324.996,3266.574,3267.343,-0.1014308,0.02486971,0.1063247,-0.999666035175323,-0.426807254552841,0.572662711143494,-0.994638524886308,-0.427965170275055,0.615728628108227,7
1.96002197265625,-1.23946499824524,2.54854798316956,1.66446709632874,-0.952930593197372,2.55579696798345,1.73276652175022,1357.099,1323.421,3273.811,3265.863,-0.1009524,0.02551068,0.1056634,-1.00676035881042,-0.427854210138321,0.579246640205383,-1.00203140433628,-0.431146119769234,0.620305172659443,7
1.98001098632813,-1.25973558425903,2.53997159004211,1.67617702484131,-0.973031969359004,2.54714790738853,1.74521023115561,1353.128,1323.321,3270.555,3270.37,-0.1005189,0.02613008,0.104962,-1.01353299617767,-0.428825378417969,0.585495591163635,-1.00917036754089,-0.434217816196637,0.624724530959079,7
2,-1.28013634681702,2.5313766002655,1.68801176548004,-0.993273599084619,2.53843849960327,1.7577407641983,1351.904,1321.96,3275.479,3265.237,-0.1000677,0.02673379,0.1042052,-1.02002799510956,-0.42974865436554,0.591737806797028,-1.01606400046349,-0.437183953857422,0.628992018127441,6
2.02001953125,-1.30066013336182,2.52276420593262,1.69996523857117,-1.01368176147806,2.52965743746343,1.77037438889544,1348.006,1321.724,3273.024,3268.033,-0.09960116,0.02731704,0.1034169,-1.02620112895966,-0.430614173412323,0.597675144672394,-1.0227194988233,-0.440047628868552,0.633112088657522,6
2.04000854492188,-1.32130122184753,2.51413607597351,1.71203136444092,-1.03418924440916,2.52083364047092,1.78306949773667,1361.394,1324.317,3262.167,3259.877,-0.0991628,0.02789994,0.1025295,-1.03205585479736,-0.4314104616642,0.603307127952576,-1.02911391720548,-0.442798968459032,0.637070538244476,6
2.05999755859375,-1.34205400943756,2.50549244880676,1.72421360015869,-1.05482201812353,2.5119559343546,1.79584216754118,1352.875,1323.706,3268.895,3259.43,-0.09881233,0.0284363,0.1016402,-1.03763902187347,-0.432182967662811,0.609113812446594,-1.03525504859546,-0.445441325732794,0.640872191117535,6
2.08001708984375,-1.36291217803955,2.49683356285095,1.73650670051575,-1.07560676837143,2.50301283698163,1.80870891805959,1338.487,1322.614,3271.278,3267.21,-0.09846825,0.02893495,0.1007577,-1.04290413856506,-0.432940810918808,0.614655673503876,-1.0411492471255,-0.447977434695423,0.644520980787238,6
2.10000610351563,-1.38386905193329,2.48816013336182,1.74890267848969,-1.09647498538954,2.49403382618922,1.82162733848484,1350.409,1325.055,3261.594,3257.535,-0.09808742,0.02943877,0.09977996,-1.04784643650055,-0.433666825294495,0.619796693325043,-1.04677621342161,-0.450398561093403,0.648004340974112,5
2.1199951171875,-1.40491914749146,2.47947239875793,1.7614027261734,-1.11745308225396,2.48500753716864,1.83461377976925,1346.635,1325.343,3265.24,3253.235,-0.09774121,0.02990551,0.09880321,-1.05250799655914,-0.434386223554611,0.625004470348358,-1.0521429102862,-0.45270770082608,0.651326581984514,5
2.1400146484375,-1.4260561466217,2.47077059745789,1.774001121521,-1.13856809990831,2.47592233495728,1.84768498154507,1335.442,1324.994,3264.228,3259.915,-0.09740458,0.0303324,0.09785164,-1.05685150623322,-0.435095965862274,0.629920303821564,-1.05725481901126,-0.454907212340279,0.654491096999312,4
2.16000366210938,-1.44727373123169,2.46205496788025,1.78669083118439,-1.15975039167652,2.46680818657414,1.86079782920208,1345.578,1327.395,3254.089,3252.044,-0.09706104,0.03075458,0.09682953,-1.06088495254517,-0.435782760381699,0.634484827518463,-1.0620943502576,-0.456989527434725,0.657486997379635,4
2.17999267578125,-1.46856677532196,2.45332527160645,1.79947400093079,-1.18102676265167,2.45765355853653,1.8739689163698,1337.156,1327.467,3259.222,3250.22,-0.09675957,0.03113363,0.09582592,-1.06465303897858,-0.436479061841965,0.639156520366669,-1.06666760390386,-0.458957270716794,0.660318059240953,3
2.20001220703125,-1.48992919921875,2.44458174705505,1.81234419345856,-1.20242455577657,2.44844668594002,1.88721516963236,1323.694,1327.094,3258.887,3257.322,-0.09643573,0.03147664,0.09484867,-1.06811451911926,-0.437180191278458,0.643511235713959,-1.07097916161324,-0.460812413548163,0.662987118851036,1
2.22000122070313,-1.51135468482971,2.43582439422607,1.8252934217453,-1.22387315175433,2.43921795429519,1.90049287228091,1335.722,1329.8,3247.601,3247.437,-0.09606501,0.03182458,0.09379401,-1.07127273082733,-0.437863767147064,0.647463917732239,-1.07501419914593,-0.462548577472581,0.665484999299265,0
2.24002075195313,-1.5328381061554,2.42705321311951,1.83832359313965,-1.24543261682529,2.42994151877688,1.91383920817958,1329.732,1330.454,3250.945,3243.86,-0.095722,0.03213522,0.09275963,-1.07417130470276,-0.438554227352142,0.651506066322327,-1.07878346314438,-0.464170386470068,0.667818353269249,0
2.260009765625,-1.55437326431274,2.41826844215393,1.85142683982849,-1.26703177594152,2.42064800401982,1.92721011658316,1322.914,1331.617,3244.9,3248.459,-0.09540029,0.03241594,0.09174426,-1.0767650604248,-0.439237534999847,0.655164539813995,-1.08227399942825,-0.465672266718726,0.669979161506271,0
2.27999877929688,-1.57595539093018,2.40946984291077,1.86460268497467,-1.28869796983554,2.41132564607061,1.9406225227075,1318.351,1331.258,3248.178,3243.178,-0.09502958,0.03267606,0.0907271,-1.0791050195694,-0.43993291258812,0.658791899681091,-1.08549040888332,-0.467056197851165,0.67197027217779,0
2.30001831054688,-1.5975786447525,2.40065741539001,1.87784397602081,-1.31045892272318,2.4019625159737,1.95409358916289,1311.054,1331.775,3244.04,3246.244,-0.09460028,0.03291593,0.08972698,-1.08115458488464,-0.440618634223938,0.662065982818604,-1.08843572622736,-0.468323485621664,0.673793563918671,0
2.32000732421875,-1.61923706531525,2.39183211326599,1.89114367961884,-1.33224276726637,2.39258953623693,1.96757882664355,1323.722,1334.488,3231.623,3236.437,-0.09413795,0.03316158,0.08866575,-1.08292198181152,-0.441270619630814,0.664983689785004,-1.09109983431736,-0.469469776906228,0.675442773735451,0
2.33999633789063,-1.64092600345612,2.38299369812012,1.90450441837311,-1.35407709248145,2.38319483607731,1.98109531406483,1314.512,1334.827,3235.666,3234.986,-0.0937177,0.03336995,0.0876428,-1.08445119857788,-0.441918164491653,0.668037414550781,-1.09348640563071,-0.470496651869278,0.67692017506657,0
2.36001586914063,-1.66264009475708,2.37414264678955,1.91792035102844,-1.3759897762471,2.37376642042246,1.99466030916165,1298.859,1334.142,3235.647,3242.864,-0.09326603,0.03354998,0.08666322,-1.08570575714111,-0.442556023597717,0.67079746723175,-1.09559752564474,-0.471405007833448,0.678227058921845,0
2.3800048828125,-1.68437397480011,2.36527943611145,1.93138337135315,-1.39790843013262,2.36433543599182,2.00822900004707,1310.25,1336.046,3224.976,3232.271,-0.09273393,0.03374699,0.08561637,-1.08668828010559,-0.443159222602844,0.673150897026062,-1.09742594550583,-0.472191725819537,0.679358937915576,0
2.39999389648438,-1.70612251758575,2.35640454292297,1.94489479064941,-1.41986083522252,2.35488992936084,2.02181858453579,1305.177,1336.495,3227.317,3227.59,-0.09219438,0.03392142,0.08459869,-1.08743536472321,-0.443743318319321,0.675568461418152,-1.09897439291323,-0.472857979480329,0.680317500623536,0
2.42001342773438,-1.72788095474243,2.34751868247986,1.95844829082489,-1.44187496577138,2.34541786398928,2.035446380024,1293.302,1335.901,3224.843,3233.951,-0.0916202,0.03407464,0.08362774,-1.08791375160217,-0.444293528795242,0.677673041820526,-1.1002439936861,-0.473404253224357,0.681103443981416,0
2.44000244140625,-1.74964356422424,2.338623046875,1.9720367193222,-1.46387808506052,2.33595053645515,2.04906735901791,1304.599,1337.311,3213.875,3224.263,-0.09098743,0.0342431,0.08260103,-1.0881335735321,-0.444787859916687,0.679418861865997,-1.10123038958312,-0.473828671822132,0.681714070030222,0
2.46002197265625,-1.77140617370605,2.32971811294556,1.98566210269928,-1.48593173759011,2.32646146587939,2.06271962049488,1296.662,1337.194,3217.226,3221.684,-0.09036159,0.03438864,0.0816106,-1.08813202381134,-0.445247769355774,0.68127030134201,-1.10193621258339,-0.474132367740737,0.682151008090402,0
2.48001098632813,-1.79316353797913,2.32080507278442,1.99931669235229,-1.5079630509786,2.31698200721197,2.07635805297935,1289.917,1337.231,3210.979,3225.801,-0.08971657,0.03452556,0.08064063,-1.08786749839783,-0.445653170347214,0.682730972766876,-1.10235904000526,-0.474314298567936,0.682412758406602,0
2.5,-1.81491136550903,2.31188488006592,2.01299977302551,-1.52999999932945,2.30750012397766,2.08999997377396,1287.358,1336.116,3213.049,3218.974,-0.08898313,0.03466403,0.07966381,-1.08738362789154,-0.446015030145645,0.684152543544769,-1.10250000050292,-0.474374949932098,0.682500019669533,0
2.52001953125,-1.83664405345917,2.30295848846436,2.02670431137085,-1.55207058900185,2.29800376582252,2.10366272014916,1281.886,1335.809,3207.733,3220.951,-0.08816928,0.03480355,0.07870074,-1.08664572238922,-0.446306079626083,0.685232222080231,-1.10235860927677,-0.474314113237503,0.682412491765153,0
2.54000854492188,-1.85835742950439,2.29402875900269,2.04042410850525,-1.57410188948011,2.28852431271001,2.11730114464159,1295.837,1337.038,3195.44,3210.03,-0.08730428,0.03496685,0.07767531,-1.08566129207611,-0.446502327919006,0.685988008975983,-1.10193535162022,-0.474131997292339,0.682150475113189,0
2.55999755859375,-1.88004684448242,2.28509593009949,2.05416202545166,-1.59612191359838,2.27904971150017,2.13093258853001,1286.852,1336.471,3198.926,3208.592,-0.08647124,0.03511171,0.07668759,-1.08446490764618,-0.446629196405411,0.686897099018097,-1.10123038958312,-0.473828671822132,0.681714070030222,0
2.58001708984375,-1.9017071723938,2.27616262435913,2.06791257858276,-1.6181586096433,2.26956793682606,2.14457435313522,1272.036,1334.569,3198.765,3215.775,-0.08559133,0.03524856,0.07573605,-1.08302438259125,-0.446680456399918,0.687533020973206,-1.10024227275454,-0.473403512755585,0.681102378642802,0
2.60000610351563,-1.92333400249481,2.26723003387451,2.08166813850403,-1.64013916343638,2.26011031859448,2.15818136301212,1284.797,1334.743,3188.339,3204.087,-0.08460969,0.03542127,0.07470854,-1.08134031295776,-0.446631520986557,0.687777519226074,-1.09897439291323,-0.472857979480329,0.680317500623536,0
2.6199951171875,-1.94492280483246,2.25830006599426,2.09543013572693,-1.66209156852628,2.2506648119635,2.17177094750084,1281.577,1334.174,3189.954,3198.175,-0.08360941,0.03559123,0.07370073,-1.07944023609161,-0.446494311094284,0.688098907470703,-1.09742594550583,-0.472191725819537,0.679358937915576,0
2.6400146484375,-1.96646857261658,2.2493748664856,2.10919260978699,-1.68404365734903,2.24121944141343,2.18536033620513,1270.955,1332.286,3187.084,3203.913,-0.08257025,0.0357574,0.07273121,-1.07729387283325,-0.446254402399063,0.688128709793091,-1.09559452046326,-0.471403714787811,0.678225198571351,0
2.66000366210938,-1.98796701431274,2.2404568195343,2.12294912338257,-1.70592290617745,2.23180541187802,2.19890463348308,1283.469,1331.848,3176.63,3193.252,-0.08146397,0.03595482,0.07169634,-1.07491064071655,-0.445893228054047,0.68782913684845,-1.09348640563071,-0.470496651869278,0.67692017506657,0
2.67999267578125,-2.00941324234009,2.23154854774475,2.13670206069946,-1.72775723139253,2.2224107117184,2.21242112090437,1276.609,1330.621,3179.471,3190.11,-0.08036301,0.03614574,0.07068703,-1.07231783866882,-0.445430010557175,0.687649071216583,-1.09109983431736,-0.469469776906228,0.675442773735451,0
2.70001220703125,-2.03080296516418,2.22265148162842,2.15044546127319,-1.74957429229274,2.21302343991116,2.22592692089233,1264.56,1328.204,3177.454,3196.348,-0.0792104,0.03633861,0.06970235,-1.06948471069336,-0.444854140281677,0.687175035476685,-1.08843144721369,-0.468321644481621,0.673790915005369,0
2.72000122070313,-2.05213141441345,2.21376848220825,2.16417264938354,-1.77130202882336,2.20367460188472,2.23937742484041,1278.631,1327.51,3167.025,3183.852,-0.07796777,0.03657112,0.06863371,-1.06641626358032,-0.444145768880844,0.686355650424957,-1.08549040888332,-0.467056197851165,0.671970272177789,0
2.74002075195313,-2.07339382171631,2.20490217208862,2.17788529396057,-1.79300125102058,2.19433803277934,2.25281027705779,1274.251,1326.376,3168.717,3179.022,-0.07672354,0.03680388,0.06758022,-1.06313347816467,-0.443319290876389,0.685636818408966,-1.08226887897249,-0.465670063529659,0.669975991700231,0
2.760009765625,-2.09458613395691,2.19605493545532,2.19157648086548,-1.81460030360772,2.18504456385877,2.26618111951479,1270.067,1324.698,3161.897,3181.671,-0.07547025,0.03704468,0.06653213,-1.05960297584534,-0.442359566688538,0.684561014175415,-1.07877792518082,-0.464168003639063,0.667814925005998,0
2.77999877929688,-2.11570334434509,2.18722915649414,2.20524621009827,-1.83612684690458,2.17578229366013,2.27950707526701,1268.612,1322.002,3163.877,3174.169,-0.07415039,0.03730025,0.06546529,-1.05586111545563,-0.441281229257584,0.683489143848419,-1.07501419914593,-0.462548577472581,0.665484999299265,0
2.80001831054688,-2.13674068450928,2.17842817306519,2.21888852119446,-1.85760812647542,2.16653949917827,2.29280501061661,1263.217,1319.951,3159.194,3175.769,-0.07276449,0.03756873,0.06440011,-1.051877617836,-0.440066158771515,0.682113647460938,-1.07097279461286,-0.460809674005774,0.6629831773745,0
2.82000732421875,-2.15769386291504,2.16965436935425,2.232497215271,-1.87897323600723,2.1573466894188,2.30603103117811,1277.829,1318.927,3147.827,3163.925,-0.07132585,0.03787281,0.06325728,-1.04765605926514,-0.438697189092636,0.680429577827454,-1.06666760390385,-0.458957270716794,0.660318059240952,0
2.83999633789063,-2.17855882644653,2.16090989112854,2.24607515335083,-1.90024960698239,2.14819206138118,2.31920211834584,1271.643,1317.273,3150.282,3160.301,-0.06992023,0.03817322,0.0621322,-1.04321932792664,-0.437195867300034,0.678897082805634,-1.06209435025759,-0.456989527434725,0.657486997379635,0
2.86001586914063,-2.1993293762207,2.15219902992249,2.2596173286438,-1.9214641634913,2.13906403038149,2.33233493941432,1258.553,1314.114,3149.198,3166.598,-0.06848798,0.0384757,0.06102886,-1.03854238986969,-0.435560911893845,0.677107632160187,-1.05724722779031,-0.454903946049977,0.654486397671922,0
2.8800048828125,-2.22000169754028,2.14352321624756,2.27311658859253,-1.94254691640495,2.12999271078668,2.34538616777867,1272.175,1312.302,3139.372,3154.044,-0.06697051,0.03881917,0.059836,-1.03362798690796,-0.433778077363968,0.67496520280838,-1.0521429102862,-0.45270770082608,0.651326581984514,0
2.89999389648438,-2.24057149887085,2.13488626480103,2.28657484054565,-1.96352501326936,2.1209664217661,2.35837260906308,1269.919,1310.761,3140.489,3147.16,-0.06545518,0.03916691,0.0586473,-1.02849268913269,-0.431860089302063,0.672916114330292,-1.04677621342161,-0.450398561093403,0.648004340974112,0
2.92001342773438,-2.26103401184082,2.12629008293152,2.29998660087585,-1.98442500350686,2.11197373984504,2.37131069862469,1259.935,1307.738,3137.265,3152.269,-0.06392226,0.03951659,0.05748103,-1.02311265468597,-0.429800868034363,0.670589625835419,-1.04114045847258,-0.4479736531836,0.644515540192422,0
2.94000244140625,-2.28138399124146,2.1177384853363,2.31334590911865,-2.00517798053537,2.10304431360073,2.38415778000673,1273.218,1305.594,3127.822,3140.012,-0.06233395,0.03990025,0.05623556,-1.01749730110168,-0.42759183049202,0.667965769767761,-1.03525504859546,-0.445441325732794,0.640872191117535,0
2.95999145507813,-2.30161690711975,2.10923361778259,2.32665491104126,-2.02581075424974,2.0941666074844,2.39693044981124,1267.901,1303.774,3129.332,3135.713,-0.06076961,0.04028157,0.05500272,-1.01166129112244,-0.425248891115189,0.665445625782013,-1.02911391720548,-0.442798968459032,0.637070538244476,0
2.98001098632813,-2.32172870635986,2.10077810287476,2.33990812301636,-2.04634944795115,2.08532938136936,2.40964487960608,1257.442,1300.508,3126.786,3140.371,-0.0591829,0.04066595,0.05378331,-1.00558543205261,-0.422770529985428,0.662655174732208,-1.02270954399162,-0.440043345582586,0.633105926142498,0
3,-2.34171414375305,2.09237504005432,2.35309910774231,-2.06672639957428,2.07656174835205,2.42225918334961,1270.896,1298.31,3117.284,3127.596,-0.05753067,0.04108507,0.05247853,-0.999275505542755,-0.420147508382797,0.659551322460175,-1.01606400046349,-0.437183953857422,0.628992018127441,0
3.02001953125,-2.36156892776489,2.08402729034424,2.36622977256775,-2.08699882657197,2.06783908936099,2.4348087813708,1267.339,1296.665,3117.969,3121.9,-0.05589975,0.04150297,0.05118025,-0.992743015289307,-0.417392671108246,0.656536638736725,-1.0091596546337,-0.434213206731958,0.624717899159203,0
3.04000854492188,-2.38128852844238,2.07573699951172,2.37929344177246,-2.10709998486405,2.05919012250926,2.44725235590455,1263.404,1294.069,3111.169,3123.724,-0.05428215,0.04192574,0.04988052,-0.985967218875885,-0.41450160741806,0.653186202049255,-1.00202031904361,-0.431141350077486,0.620298310335216,0
3.05999755859375,-2.40086793899536,2.06750726699829,2.39229011535645,-2.12705600675913,2.05060360379452,2.45960608409476,1262.908,1290.968,3112.252,3115.121,-0.052623,0.04235949,0.04855433,-0.97897607088089,-0.41148915886879,0.649839222431183,-0.994638524886308,-0.427965170275055,0.615728628108227,0
3.08001708984375,-2.4203028678894,2.05934047698975,2.40521430969238,-2.14689219650438,2.04206864550612,2.47188563047583,1257.773,1288.494,3107.096,3115.993,-0.05092976,0.04279997,0.04722524,-0.971748292446136,-0.408346652984619,0.64620578289032,-0.987005430654711,-0.424680863071165,0.611003379164165,0
3.10000610351563,-2.43958854675293,2.05123925209045,2.41806030273438,-2.16654331551667,2.03361331798384,2.48405060925705,1271.593,1286.427,3096.925,3103.336,-0.0492035,0.04326702,0.04582045,-0.96428906917572,-0.405066728591919,0.642296254634857,-0.979147395688901,-0.421299770153459,0.606138881190213,0
3.1199951171875,-2.45872068405151,2.04320597648621,2.43083047866821,-2.18603502400946,2.02522658035469,2.49611690533293,1266.031,1284.819,3097.927,3099.002,-0.0475321,0.04372463,0.0444323,-0.956610083580017,-0.401666045188904,0.638508379459381,-0.971056158224178,-0.417818336715394,0.601130019760458,0
3.1400146484375,-2.47769451141357,2.03524303436279,2.44351983070374,-2.20539207344272,2.01689778275692,2.50809984103626,1254.139,1281.572,3095.665,3104.129,-0.04586389,0.04417758,0.04306308,-0.948700666427612,-0.398150324821472,0.63447093963623,-0.962722140342815,-0.41423244164655,0.595970865687568,0
3.16000366210938,-2.49650621414185,2.02735280990601,2.45612239837646,-2.22455088103183,2.00865428308644,2.51996005559448,1266.427,1279.001,3087.112,3091.154,-0.04413763,0.04465773,0.0416136,-0.940568745136261,-0.39451602101326,0.630130589008331,-0.954174163352092,-0.410554485950274,0.590679260733698,0
3.17999267578125,-2.51515030860901,2.01953744888306,2.4686393737793,-2.24353658854737,2.00048526354177,2.53171311296128,1263.446,1277.629,3086.955,3084.7,-0.04243694,0.04513245,0.04017312,-0.932220160961151,-0.390772074460983,0.625853896141052,-0.945403214201559,-0.406780591562751,0.585249625391267,0
3.20001220703125,-2.53362345695496,2.01179885864258,2.48106575012207,-2.26237335188561,1.99238033051557,2.54337396678712,1254.785,1274.667,3083.004,3088.001,-0.04073997,0.04560191,0.0387524,-0.923645734786987,-0.386919945478439,0.621313393115997,-0.93639902618694,-0.402906341007952,0.579675604081262,0
3.22000122070313,-2.55192065238953,2.00413966178894,2.49339580535889,-2.28099938900442,1.98436606709459,2.55490437104486,1266.605,1272.092,3074.35,3075.714,-0.03900998,0.04609064,0.03726556,-0.91485595703125,-0.382957845926285,0.616507470607758,-0.927192788821982,-0.398945154262308,0.573976504598449,0
3.24002075195313,-2.57003784179688,1.99656200408936,2.50563144683838,-2.29946728755973,1.97641984627959,2.5663368799986,1261.479,1270.719,3074.465,3071.011,-0.03732527,0.04656788,0.03579778,-0.905857861042023,-0.378897041082382,0.611783027648926,-0.917760245372928,-0.394886594330938,0.568137310869129,0
3.260009765625,-2.58797073364258,1.98906695842743,2.51776623725891,-2.31771654397337,1.96856770107001,2.57763403905129,1256.638,1268.056,3067.965,3072.691,-0.03566346,0.04704115,0.0343343,-0.896644175052643,-0.374739915132523,0.606739699840546,-0.908134108040216,-0.390744736359816,0.562178273303667,0
3.27999877929688,-2.60571575164795,1.98165726661682,2.5297999382019,-2.33577134012187,1.96079922667992,2.58881081793642,1256.711,1265.415,3068.057,3063.331,-0.03396915,0.04751782,0.03284783,-0.88723623752594,-0.370497822761536,0.601688086986542,-0.898304216251578,-0.386515208538549,0.556093102023818,0
3.30001831054688,-2.62326765060425,1.97433400154114,2.54172730445862,-2.35365475236716,1.95310449399547,2.59988150202132,1251.742,1263.385,3062.282,3063.702,-0.03225834,0.04799243,0.03136588,-0.877620995044708,-0.366165608167648,0.596365869045258,-0.88825927318574,-0.382193150160541,0.549874803759067,0
3.32000732421875,-2.64062404632568,1.96709907054901,2.55354332923889,-2.37130830610839,1.94550866300381,2.61080989274252,1264.425,1261.236,3052.999,3050.863,-0.03052835,0.04848146,0.02982363,-0.867805600166321,-0.361740320920944,0.590801894664764,-0.878034183119985,-0.377793579561194,0.543544985919778,0
3.33999633789063,-2.65777969360352,1.95995450019836,2.56525015830994,-2.38875555478454,1.93800159931817,2.62161057080077,1258.528,1260.246,3052.894,3046.82,-0.02886654,0.04895305,0.02831069,-0.857795417308807,-0.357233107089996,0.585340559482574,-0.867618167158097,-0.373311858882592,0.53709697585572,0
3.36001586914063,-2.67473173141479,1.9529013633728,2.57684302330017,-2.40601888046917,1.93057367255756,2.63229739176581,1247.235,1257.445,3049.872,3051.365,-0.02722443,0.04941223,0.02682494,-0.847592055797577,-0.35265251994133,0.579644083976746,-0.856999388527103,-0.368742895092007,0.53052344604056,0
3.3800048828125,-2.6914758682251,1.94594120979309,2.58831691741943,-2.42304196557559,1.92324911460621,2.64283549236868,1257.736,1254.904,3042.363,3038.838,-0.02553865,0.04988608,0.0252773,-0.837206780910492,-0.34799936413765,0.57369202375412,-0.846214826007803,-0.364102599125748,0.523847288101157,0
3.39999389648438,-2.70800876617432,1.93907582759857,2.59967255592346,-2.43984769972619,1.91601807669906,2.65323904237604,1254.365,1254.158,3041.234,3032.778,-0.02388749,0.05034748,0.0237505,-0.826639771461487,-0.343278139829636,0.567785978317261,-0.835253140422974,-0.35938609205264,0.51706148254665,0
3.42001342773438,-2.72432637214661,1.93230617046356,2.61090517044067,-2.45645774020782,1.90887124031063,2.66352144868012,1246.325,1251.685,3036.726,3035.449,-0.02225071,0.05079712,0.02225134,-0.815892279148102,-0.338492333889008,0.561635553836823,-0.824102019042908,-0.354588076049064,0.510158407210813,0
3.44000244140625,-2.74042582511902,1.92563319206238,2.62201046943665,-2.47281804716281,1.90183185728196,2.67364925803476,1256.868,1249.257,3028.939,3023.398,-0.02059263,0.05125544,0.02070401,-0.804976046085358,-0.333642721176147,0.555263519287109,-0.812800388649434,-0.349725300221754,0.503162159625937,0
3.45999145507813,-2.75630402565002,1.91905832290649,2.63298988342285,-2.48895081463434,1.8948903781363,2.68363620960993,1251.467,1248.585,3028.193,3019.075,-0.01898834,0.0516957,0.01918981,-0.793893098831177,-0.328735560178757,0.548965156078339,-0.80133641229185,-0.344792671461508,0.496065412155666,0
3.48001098632813,-2.77195692062378,1.9125828742981,2.64383864402771,-2.50487694859767,1.88803780761656,2.69349524520019,1241.755,1246.118,3024.388,3022.707,-0.01740003,0.05212216,0.01770613,-0.782649099826813,-0.323777079582214,0.542436480522156,-0.789697369743255,-0.339784716610052,0.488860290373601,0
3.5,-2.78738188743591,1.90620756149292,2.65455222129822,-2.5205447997813,1.88129636896134,2.70319439144611,1252.067,1243.728,3016.854,3010.577,-0.01577657,0.05255826,0.01617152,-0.771255314350128,-0.318767845630646,0.535680830478668,-0.777924000354857,-0.334718964672089,0.481572013878822,0
3.52001953125,-2.80257630348206,1.89993333816528,2.66513204574585,-2.53599921507943,1.87464676580493,2.71276141071155,1248.355,1243.363,3015.351,3005.164,-0.01419838,0.05297853,0.01466522,-0.759710192680359,-0.313710600137711,0.528985679149628,-0.765985728654519,-0.329582259876133,0.474181654997567,0
3.54000854492188,-2.81753635406494,1.8937611579895,2.67557263374329,-2.55119019794619,1.86811051026429,2.72216535275294,1243.891,1241.246,3009.046,3006.186,-0.01265534,0.0533868,0.01318133,-0.748019397258759,-0.308610290288925,0.52202957868576,-0.753924423002452,-0.324392617007921,0.466715132239272,0
3.55999755859375,-2.8322606086731,1.88769173622131,2.68587422370911,-2.56613872308604,1.86167857751006,2.73141920191151,1243.924,1239.32,3008.111,2997.675,-0.01110219,0.05378921,0.01169536,-0.736197650432587,-0.303473800420761,0.515075385570526,-0.741727567798258,-0.319144650954242,0.459164697851087,0
3.58001708984375,-2.84674549102783,1.88172578811646,2.69603252410889,-2.58086439685043,1.85534253147694,2.74053509545279,1238.459,1237.901,3002.887,2998.039,-0.009556487,0.05418094,0.01023397,-0.724244058132172,-0.298300325870514,0.507919132709503,-0.729381927869994,-0.313832666990361,0.451522158631107,0
3.60000610351563,-2.86098861694336,1.87586402893066,2.70604395866394,-2.59531978247425,1.84912278287974,2.74948366775945,1247.572,1235.837,2995.47,2987.31,-0.007999604,0.05457546,0.008742541,-0.712167322635651,-0.293089747428894,0.500576376914978,-0.716930938559024,-0.308475354130224,0.443814403124743,0
3.6199951171875,-2.87498807907104,1.87010717391968,2.71591019630432,-2.60952509409627,1.84301063413925,2.75827743234631,1243.082,1235.479,2994.012,2983.089,-0.006502374,0.05495128,0.007289841,-0.699967801570892,-0.287845551967621,0.493306785821915,-0.704361775018033,-0.303067194200314,0.436033492140578,0
3.6400146484375,-2.8887414932251,1.86445569992065,2.72562742233276,-2.62349913748426,1.83699799365897,2.76692803087948,1233.948,1233.457,2990.424,2986.301,-0.005034972,0.05531127,0.005875856,-0.687656879425049,-0.282575190067291,0.485856980085373,-0.691660998977508,-0.297602405088683,0.428171106749629,0
3.66000366210938,-2.90224647521973,1.85891020298004,2.73519206047058,-2.63719712493647,1.83110413233575,2.77540773763803,1241.817,1231.222,2984.307,2975.746,-0.00354307,0.05567495,0.004430708,-0.67524653673172,-0.277281194925308,0.478230804204941,-0.678873453515702,-0.29210028151913,0.420255006953505,0
3.67999267578125,-2.9155011177063,1.85347080230713,2.74460506439209,-2.65063849381582,1.82532068681534,2.78372858527554,1238.468,1231.043,2982.383,2970.821,-0.002092179,0.05602314,0.003020197,-0.662733912467957,-0.271963655948639,0.470649480819702,-0.665986083416798,-0.286555206197011,0.41227711095171,0
3.70001220703125,-2.92850375175476,1.84813809394836,2.7538628578186,-2.66384123964357,1.81963991412768,2.79190171387692,1231.863,1229.199,2978.188,2972.388,-0.0006641924,0.05635703,0.001647328,-0.650129437446594,-0.266627341508865,0.462891817092896,-0.65298533214413,-0.280961346123326,0.404229026602262,0
3.72000122070313,-2.9412522315979,1.84291291236877,2.76296257972717,-2.6767633032417,1.81407991116207,2.79990108680742,1239.64,1227.094,2972.06,2962.354,0.0007741674,0.05669177,0.000255208,-0.637443959712982,-0.261273890733719,0.454984545707703,-0.639917282339434,-0.275338529371411,0.396139281255611,0
3.74002075195313,-2.95374608039856,1.83779466152191,2.77190518379211,-2.68944246101018,1.80862442378895,2.80775008945815,1235.585,1226.888,2970.135,2958.604,0.002158986,0.05700888,-0.001094559,-0.624675989151001,-0.255903989076614,0.447134554386139,-0.626748599474004,-0.269672413024826,0.387987239250554,0
3.760009765625,-2.96598291397095,1.8327841758728,2.78068709373474,-2.70183851231475,1.80329074921818,2.81542383572149,1231.459,1225.022,2965.044,2959.13,0.003508376,0.05731277,-0.002412291,-0.61183899641037,-0.250523954629898,0.439100921154022,-0.613526094901139,-0.263983138701136,0.379801879044709,0
3.77999877929688,-2.97796249389648,1.82788121700287,2.78930854797363,-2.7139695770734,1.79807109095524,2.82293354268985,1231.297,1223.543,2963.63,2952.118,0.004859015,0.05760929,-0.003719371,-0.598942637443542,-0.24513740837574,0.431077152490616,-0.60023651686137,-0.258265004538452,0.371574997167698,0
3.80001831054688,-2.98968172073364,1.82308650016785,2.79776668548584,-2.72585229309426,1.79295829021612,2.83028950995902,1227.346,1222.462,2958.878,2951.671,0.006196844,0.05789493,-0.004995557,-0.585990905761719,-0.2397440969944,0.422912269830704,-0.586866312357872,-0.25251217906087,0.363298203668867,0
3.82000732421875,-3.00114154815674,1.81839978694916,2.80605912208557,-2.73744929742843,1.78796842323393,2.8374686080838,1234.701,1220.674,2952.748,2942.614,0.007533291,0.05817953,-0.006281864,-0.572991490364075,-0.234344661235809,0.41462442278862,-0.573463232144022,-0.246745208083563,0.355001058539243,0
3.83999633789063,-3.0123405456543,1.81382083892822,2.81418752670288,-2.74877791451009,1.78309403578861,2.84448156171422,1231.139,1220.544,2950.946,2939.026,0.008807363,0.05844686,-0.007521832,-0.559943199157715,-0.228939771652222,0.406415432691574,-0.560014026276881,-0.240958390526246,0.346675359432959,0
3.86001586914063,-3.02327752113342,1.80935001373291,2.8221492767334,-2.7598539723994,1.77832831750807,2.85133816917351,1223.814,1218.93,2947.81,2941.321,0.01004267,0.05869866,-0.008715994,-0.546861410140991,-0.223536774516106,0.398092806339264,-0.546505271550556,-0.235145950758426,0.338312796746137,0
3.8800048828125,-3.0339527130127,1.80498743057251,2.82994246482849,-2.77064299647982,1.77368610185671,2.85801708903178,1229.608,1216.963,2943.116,2932.847,0.01128517,0.05894956,-0.009918677,-0.533757627010345,-0.218139111995697,0.389663189649582,-0.532985466132484,-0.229328756186666,0.329943393154704,0
3.89999389648438,-3.04436540603638,1.80073237419128,2.83756804466248,-2.78116151864576,1.76916027562219,2.86452855531919,1227.094,1216.868,2940.952,2928.865,0.01248344,0.05918614,-0.01107928,-0.520629346370697,-0.212745472788811,0.381283640861511,-0.519441457145543,-0.223501147495394,0.321559006401168,0
3.92001342773438,-3.05451488494873,1.7965852022171,2.84502410888672,-2.79142456801014,1.76474437219711,2.87088187177258,1222.416,1215.383,2937.359,2929.479,0.01364973,0.05940945,-0.01219781,-0.507489621639252,-0.207360714673996,0.372800022363663,-0.505860052376089,-0.217657448443621,0.313151469876846,0
