t,x_s1,x_s2,x_s3,x_s_d1,x_s_d2,x_s_d3,propellers_rpms1,propellers_rpms2,propellers_rpms3,propellers_rpms4,rollRad,pitchRad,yawRad,v_s1,v_s2,v_s3,v_s_d1,v_s_d2,v_s_d3,insideCount
0,-0.0599999986588955,2.94000005722046,1.17999994754791,-0.0599999986588955,2.94000005722046,1.17999994754791,0,0,0,0,0,0,0,0,0,0,-1.06581410364015E-15,4.44089209850063E-16,4.44089209850063E-16,0
0.019989013671875,-0.0599999986588955,2.94000005722046,1.17615437507629,-0.0600018659130177,2.93999925379318,1.18000110346716,0,0,0,0,0,0,0,0,0,-0.192275941371918,-0.000279680311988734,-0.000120338624884473,0.000173135436141649,9
0.040008544921875,-0.0599999986588955,2.94000005722046,1.16854023933411,-0.060014880898484,2.93999365380853,1.18000916036316,0,0,0,0,0,0,0,-2.58693946061287E-22,-3.88396258331244E-24,-0.380706369876862,-0.00111143977225461,-0.000478221483967637,0.00068803416424398,9
0.05999755859375,-0.0599999986588955,2.94000005722046,1.16209828853607,-0.0600498857373401,2.93997859220429,1.18003083002592,2729.756,2675.667,2548.462,2603.971,-0.001374191,2.065991E-06,-0.000577906,-1.81174664160011E-09,-4.43986047926614E-09,-0.322099715471268,-0.00247936261166862,-0.00106680046642749,0.00153484356504269,9
0.08001708984375,-0.059997234493494,2.93999338150024,1.15672361850739,-0.0601176241590912,2.9399494462538,1.18007276333581,2721.59,2694.363,2469.34,2495.913,-0.005196893,8.091636E-06,-0.001439705,0.000138232309836894,-0.000328770256601274,-0.268735706806183,-0.00437432711648753,-0.0018821507536715,0.00270791686320324,9
0.100006103515625,-0.0599877461791039,2.93996238708496,1.15231907367706,-0.0602282404704493,2.93990185114529,1.18014124010193,2569.051,2685.939,2541.744,2420.235,-0.0106111,1.311243E-05,-0.001044492,0.000474328320706263,-0.00154561118688434,-0.220226362347603,-0.00677739276378709,-0.00291612276782231,0.00419552897277328,9
0.1199951171875,-0.0599736049771309,2.93988299369812,1.14879488945007,-0.0603918861403606,2.93983143898525,1.18024254456713,2451.98,2640.425,2581.451,2390.772,-0.01667831,5.560441E-06,0.001348859,0.000707061961293221,-0.00397541234269738,-0.176207184791565,-0.00967801353495435,-0.00416417885169243,0.00599115140585487,9
0.1400146484375,-0.0599659159779549,2.93972873687744,1.14606821537018,-0.0606187761383957,2.93973381455767,1.18038300028418,2359.885,2553.946,2600.958,2408.936,-0.02222355,-2.731083E-05,0.005778103,0.000384458369808272,-0.00770930014550686,-0.136333897709846,-0.0130687916036232,-0.00562313592726786,0.00809020455552005,9
0.160003662109375,-0.0599844567477703,2.93947744369507,1.14406263828278,-0.0609177895434042,2.93960515744296,1.18056810382587,2309.132,2451.669,2584.047,2448.908,-0.02629019,-8.5183E-05,0.01167169,-0.000927038141526282,-0.0125697087496519,-0.100280165672302,-0.0169265510445065,-0.00728302204135792,0.0104783414199936,9
0.17999267578125,-0.0600546486675739,2.93911385536194,1.14270794391632,-0.0612985250199726,2.93944133760391,1.18080379722281,2300.052,2355.553,2530.65,2487.824,-0.02838557,-0.0001502023,0.01808351,-0.00350964767858386,-0.0181777495890856,-0.0677377134561539,-0.0212433804254414,-0.00914043312572283,0.0131506644458931,8
0.20001220703125,-0.0602031163871288,2.93863248825073,1.14193975925446,-0.0617708265342762,2.93923811945689,1.181096174359,2325.626,2286.669,2447.377,2504.497,-0.02863537,-0.0001981392,0.02398777,-0.00742336828261614,-0.0240683034062386,-0.0384112074971199,-0.0260142813927851,-0.0111932185284278,0.0161040794142088,8
0.220001220703125,-0.0604531913995743,2.93803596496582,1.14169943332672,-0.0623420644491781,2.93899233174064,1.18144979784016,2364.729,2255.574,2355.253,2487.964,-0.02767504,-0.0002135855,0.02861545,-0.0125037413090467,-0.0298294052481651,-0.0120176617056131,-0.03121219533433,-0.0134297356845702,0.019321835755004,8
0.239990234375,-0.0608218014240265,2.93733191490173,1.1419335603714,-0.0630214373585105,2.93870001655724,1.18187036203406,2393.951,2259.727,2278.403,2439.424,-0.02636636,-0.0002018676,0.03168539,-0.0184305440634489,-0.0352068990468979,0.0117089115083218,-0.0368316683029241,-0.015847637913056,0.022800557215184,8
0.260009765625,-0.0613186098635197,2.9365291595459,1.14259397983551,-0.0638185570309634,2.93835703823113,1.18236381708338,2402.961,2288.012,2227.028,2369.691,-0.02556954,-0.0001747034,0.03339649,-0.0248404089361429,-0.0401431024074554,0.0330190472304821,-0.0428699302682246,-0.0184457333472145,0.0265385290140116,8
0.279998779296875,-0.0619472041726112,2.93563389778137,1.14363694190979,-0.0647390625194898,2.93796097043536,1.18293365383054,2383.634,2322.311,2210.337,2295.408,-0.02586036,-0.0001454086,0.03433554,-0.0314297750592232,-0.044765081256628,0.0521458834409714,-0.0492963837173861,-0.0212108567320638,0.030516809833474,8
0.29998779296875,-0.0627078488469124,2.93464756011963,1.1450229883194,-0.0657918945890516,2.93750796620855,1.18358540703494,2336.932,2343.942,2227.863,2234.223,-0.02733841,-0.0001219728,0.03527814,-0.0380323603749275,-0.049314983189106,0.0692997351288795,-0.0561078595514081,-0.0241416444928383,0.0347334378503248,8
0.32000732421875,-0.0636008754372597,2.93356657028198,1.14671647548676,-0.0669865614821475,2.93699393441958,1.18432496275165,2280.564,2343.091,2259.346,2198.166,-0.02971875,-0.000108657,0.03687335,-0.0446512512862682,-0.0540457516908646,0.0846728906035423,-0.0633036493784043,-0.0272377918282996,0.0391879745362408,8
0.339996337890625,-0.0646293610334396,2.93238377571106,1.14868533611298,-0.068326768706371,2.93641728069206,1.18515461486636,2226.769,2317.315,2291.337,2190.563,-0.0324357,-0.0001081243,0.03947794,-0.0514244250953197,-0.0591412112116814,0.0984422937035561,-0.0708499516420146,-0.0304847548730522,0.0438594951176439,8
0.360015869140625,-0.0658005326986313,2.93109059333801,1.15090072154999,-0.0698237345322385,2.93577317811757,1.18608130802295,2184.838,2271.636,2313.407,2206.985,-0.03480538,-0.0001198422,0.04310203,-0.0585586912930012,-0.0646618753671646,0.110767774283886,-0.0787580297418618,-0.0338873799532906,0.0487549721754506,8
0.3800048828125,-0.0671256557106972,2.92968010902405,1.15333676338196,-0.0714797725314022,2.93506063123087,1.18710647443246,2170.161,2221.003,2306.733,2235.657,-0.03635375,-0.0001384844,0.04736934,-0.0662560984492302,-0.070526048541069,0.121802985668182,-0.0869921272359981,-0.0374302820709642,0.0538522707687797,8
0.399993896484375,-0.0686183646321297,2.92814898490906,1.15597057342529,-0.0733036822025899,2.9342758538535,1.18823556140379,2172.961,2175.833,2283.193,2263.482,-0.03682779,-0.0001533981,0.05175561,-0.0746354013681412,-0.0765581727027893,0.131690517067909,-0.0955525119207663,-0.0411135764513579,0.0591515566763244,8
0.420013427734375,-0.0702924728393555,2.92649817466736,1.15878200531006,-0.0753050585276311,2.93341471753282,1.18947450868777,2195.027,2149.567,2238.856,2278.825,-0.03636333,-0.0001565939,0.05569077,-0.0837052911520004,-0.0825370997190475,0.140568852424622,-0.104441553474511,-0.0449382827008623,0.0646542968418633,8
0.44000244140625,-0.0721596628427505,2.92473268508911,1.1617534160614,-0.077483988232608,2.93247718495301,1.19082336997196,2222.085,2145.995,2190.422,2275.154,-0.03537051,-0.0001459412,0.05877712,-0.093359500169754,-0.0882764011621475,0.148572042584419,-0.113620829717891,-0.048887868829098,0.0703367061060819,8
0.459991455078125,-0.0742279514670372,2.92285919189453,1.16486978530884,-0.0798493430620752,2.93145943885026,1.19228763728888,2238.992,2160.042,2156.488,2253.529,-0.03431909,-0.0001272991,0.0609348,-0.103414595127106,-0.0936779677867889,0.15582087635994,-0.123092454730403,-0.0529632444654124,0.0762000931848968,8
0.480010986328125,-0.0765014812350273,2.92088437080383,1.16811835765839,-0.0824109101018722,2.93035726811493,1.19387336931088,2246.712,2186.095,2134.562,2220.857,-0.03368846,-0.0001081243,0.06231728,-0.113676704466343,-0.0987411513924599,0.162427291274071,-0.132860437136906,-0.0571661344090936,0.082246939608052,8
0.5,-0.0789812505245209,2.91881322860718,1.17148816585541,-0.085166398670376,2.92917165836334,1.1955791479969,2239.32,2212.773,2133.111,2185.775,-0.0337806,-9.365974E-05,0.06328163,-0.12398836016655,-0.103561483323574,0.168492302298546,-0.142884000065179,-0.0614789935111996,0.0884520025491718,8
0.519989013671875,-0.0816666036844254,2.91664743423462,1.1749701499939,-0.0881248588203387,2.92789871561062,1.19741057576073,2215.167,2228.041,2155.46,2158.185,-0.03457529,-8.709112E-05,0.06429935,-0.134267792105675,-0.108292475342751,0.174098536372185,-0.153166947611899,-0.0659034585682559,0.0948176369253132,9
0.540008544921875,-0.0845572054386139,2.91438579559326,1.17855656147003,-0.0912963635428427,2.92653410573011,1.19937388826368,2190.346,2229.96,2180.043,2145.373,-0.0358845,-8.756518E-05,0.06570886,-0.144530162215233,-0.113079413771629,0.179318308830261,-0.163714777034477,-0.0704418948965508,0.101347245800684,9
0.55999755859375,-0.0876543670892715,2.91202521324158,1.18224084377289,-0.094676112580471,2.92507989413848,1.20146611391775,2168.581,2217.948,2203.096,2147.857,-0.03738546,-9.257925E-05,0.06767031,-0.154858201742172,-0.118026226758957,0.184216529130936,-0.17448465888317,-0.0750758741803766,0.108014315705644,9
0.58001708984375,-0.0909616574645042,2.9095618724823,1.18601775169373,-0.0982790918331175,2.92352963282165,1.20369652970884,2150.953,2194.189,2223.776,2162.762,-0.03866164,-0.0001001349,0.0701821,-0.165364563465118,-0.123169653117657,0.188846185803413,-0.185498893714783,-0.0798149917263209,0.114832651747179,9
0.600006103515625,-0.094484843313694,2.9069926738739,1.18988299369812,-0.102098762959148,2.92188613504538,1.20606108809202,2152.437,2171.38,2220.206,2184.31,-0.03949947,-0.0001049285,0.07298347,-0.176159530878067,-0.128462061285973,0.193261906504631,-0.196713446836865,-0.0846403006364086,0.121774994352997,9
0.6199951171875,-0.0982308015227318,2.90431642532349,1.19383323192596,-0.106144683970236,2.92014528826426,1.20856570593183,2158.174,2151.163,2213.607,2204.009,-0.03975034,-0.0001049285,0.07579874,-0.187298133969307,-0.133813798427582,0.197510808706284,-0.208134604141382,-0.0895545055543457,0.128845234789665,9
0.6400146484375,-0.102206386625767,2.90153431892395,1.19786608219147,-0.110427588881679,2.91830247393137,1.21121702809507,2176.382,2144.188,2190.112,2216.76,-0.03953409,-9.742517E-05,0.07830359,-0.198779314756393,-0.139107704162598,0.201641961932182,-0.21977002223474,-0.0945609009039674,0.136048112861281,9
0.660003662109375,-0.106417134404182,2.89864921569824,1.20198023319244,-0.114938248900541,2.91636166293851,1.21400934151928,2195.902,2150.567,2165.09,2218.148,-0.03911917,-8.529091E-05,0.08028916,-0.210537329316139,-0.144252732396126,0.205705359578133,-0.231574097577923,-0.0996398647564507,0.143355397804799,9
0.67999267578125,-0.110866442322731,2.89566493034363,1.20617508888245,-0.119686638739014,2.91431856344567,1.21694882102647,2205.181,2164.13,2155.07,2208.889,-0.03873408,-7.269083E-05,0.08177403,-0.222464948892593,-0.149213626980782,0.20974101126194,-0.243554411173546,-0.104794659005432,0.150771782621969,9
0.70001220703125,-0.115555658936501,2.89258480072021,1.21045076847076,-0.124683985757554,2.91216834463331,1.22004241688759,2212.285,2184.151,2146.788,2194.885,-0.0386462,-6.341384E-05,0.08285639,-0.234461009502411,-0.154001235961914,0.213785782456398,-0.255719729227087,-0.11002905550423,0.158302694011575,9
0.720001220703125,-0.120484575629234,2.88941121101379,1.21480822563171,-0.129918284978346,2.90991617190799,1.22328269744952,2211.327,2203.211,2150.118,2179.573,-0.03901904,-5.922259E-05,0.08373992,-0.246446043252945,-0.158680111169815,0.217872828245163,-0.268023157655716,-0.11532287703907,0.16591910230247,9
0.739990234375,-0.125652208924294,2.88614439964294,1.21924865245819,-0.135400001298574,2.90755754251682,1.2266761409821,2198.185,2212.445,2172.422,2168.162,-0.03977058,-6.08297E-05,0.0847209,-0.25838229060173,-0.163345739245415,0.222020700573921,-0.280473432677602,-0.12067988256057,0.173626415629864,9
0.760009765625,-0.131058052182198,2.88278293609619,1.22377359867096,-0.141140917956636,2.9050873864615,1.23023004187122,2189.1,2214.938,2188.765,2166.328,-0.04078738,-6.61723E-05,0.08595639,-0.270292341709137,-0.168075665831566,0.226244702935219,-0.293080296154222,-0.126104263719567,0.181430664670081,9
0.779998779296875,-0.136702656745911,2.87932443618774,1.22838473320007,-0.147126184485884,2.90251209348295,1.23393520697061,2182.561,2210.221,2202.935,2172.321,-0.04189845,-7.234331E-05,0.08749922,-0.282230228185654,-0.172922864556313,0.230559051036835,-0.305795832832518,-0.131575403921268,0.189302187598958,9
0.79998779296875,-0.142587825655937,2.87576627731323,1.23308408260345,-0.153366821193532,2.89982692185086,1.2377984583754,2174.89,2197.513,2221.195,2183.923,-0.04283162,-7.788563E-05,0.08935852,-0.294258862733841,-0.177904680371284,0.234968364238739,-0.318629798715703,-0.137097500901303,0.197247023847227,9
0.82000732421875,-0.148716673254967,2.87210655212402,1.23787367343903,-0.159875221826383,2.89702653888221,1.24182746840525,2180.328,2187.249,2220.031,2200.04,-0.04347983,-7.979499E-05,0.09136011,-0.306442260742188,-0.182983309030533,0.239480525255203,-0.331592781842754,-0.14267511039705,0.205271727915392,9
0.839996337890625,-0.155092835426331,2.86834454536438,1.24275588989258,-0.166633637018892,2.89411858163313,1.24601124935738,2191.647,2182.128,2210.91,2213.789,-0.04385214,-7.709938E-05,0.09329636,-0.318808376789093,-0.188100263476372,0.244108453392982,-0.344636106234817,-0.148287288494656,0.213346167053785,9
0.860015869140625,-0.161719679832458,2.86448049545288,1.24773299694061,-0.173664618315387,2.89109334680413,1.25036376171199,2199.062,2180.077,2208.91,2221.488,-0.04394748,-7.126748E-05,0.09506638,-0.331341832876205,-0.193199455738068,0.248857840895653,-0.357790534090669,-0.153947271308859,0.221489384528856,9
0.8800048828125,-0.168599814176559,2.86051607131958,1.25280785560608,-0.180948461186242,2.88795931270381,1.25487280742661,2215.262,2189.616,2191.376,2224.844,-0.0439821,-6.343249E-05,0.09652422,-0.344007611274719,-0.198226064443588,0.253742694854736,-0.371007022483504,-0.159633957038354,0.229671020432672,9
0.899993896484375,-0.175734624266624,2.85645270347595,1.25798320770264,-0.18849723509595,2.8847112861788,1.25954585807468,2219.121,2198.542,2193.815,2221.215,-0.04403164,-5.682943E-05,0.09772891,-0.356740862131119,-0.203169405460358,0.258766829967499,-0.384296738353309,-0.165352150505452,0.237897987633041,9
0.920013427734375,-0.183124423027039,2.85229206085205,1.26326191425323,-0.196324452211266,2.88134345332121,1.26439127833112,2225.572,2212.513,2190.105,2216.258,-0.04425322,-5.321059E-05,0.09872637,-0.369489967823029,-0.208034574985504,0.263935625553131,-0.397671404529394,-0.171106895716105,0.246177543119742,9
0.94000244140625,-0.190768703818321,2.84803485870361,1.2686470746994,-0.204407453948074,2.87786556348678,1.26939504145298,2227.892,2225.612,2192.588,2210.412,-0.04474803,-5.272466E-05,0.09961709,-0.382213741540909,-0.212858602404594,0.269255250692368,-0.411081631631503,-0.176876941799768,0.254479112513653,9
0.959991455078125,-0.198666527867317,2.84368085861206,1.2741414308548,-0.212759000778906,2.87427212620069,1.27456504678061,2219.76,2230.189,2212.789,2205.681,-0.04541382,-5.659429E-05,0.1006004,-0.394891262054443,-0.217698037624359,0.274718970060349,-0.424539267042903,-0.182667386354485,0.262810029909387,9
0.980010986328125,-0.206817358732224,2.83922910690308,1.27974784374237,-0.221393324468958,2.87055701793193,1.27991010445463,2218.193,2232.729,2221.44,2208.023,-0.04619519,-6.199186E-05,0.101731,-0.407542735338211,-0.222587510943413,0.280321329832077,-0.438056556301695,-0.188483498293199,0.271177875878363,9
1,-0.215221345424652,2.83467817306519,1.28546905517578,-0.230284798736574,2.86673126495361,1.28541435058594,2218.43,2232.015,2228.174,2213.952,-0.04702077,-6.678794E-05,0.1030082,-0.420199811458588,-0.227550029754639,0.286060035228729,-0.451584000205995,-0.194303979492187,0.279552008056641,9
1.01998901367188,-0.22387920320034,2.83002638816833,1.29130756855011,-0.239446912293295,2.86278906344998,1.29108613532954,2213.932,2224.613,2244.593,2221.385,-0.04769775,-7.087112E-05,0.1044647,-0.432892352342606,-0.232593223452568,0.291923016309738,-0.46513400752272,-0.200134169097193,0.287940108062054,9
1.04000854492188,-0.23279233276844,2.82527279853821,1.29726564884186,-0.248894644448595,2.85872396824263,1.29693473159157,2220.48,2221.136,2242.053,2232.754,-0.04819469,-7.209661E-05,0.1059741,-0.445656895637512,-0.237685158848763,0.297903716564178,-0.47871923339115,-0.205979512261105,0.296350010028666,9
1.05999755859375,-0.241962403059006,2.82041692733765,1.30334568023682,-0.258599401509697,2.85454828239877,1.30294243851408,2230.024,2221.467,2235.058,2241.893,-0.04855369,-6.97675E-05,0.1074021,-0.458503723144531,-0.242788389325142,0.304002463817596,-0.492290296490434,-0.211818761581115,0.30475114456651,9
1.08001708984375,-0.251390665769577,2.81545948982239,1.30954992771149,-0.268590868588476,2.85024923324404,1.30912763259543,2232.725,2220.831,2240.515,2246.01,-0.04873478,-6.664961E-05,0.1087388,-0.47141444683075,-0.247874349355698,0.310210704803467,-0.505880764601332,-0.21766636033551,0.313164291730931,10
1.10000610351563,-0.261078059673309,2.81040143966675,1.31588053703308,-0.278838480013141,2.84583997233313,1.31547139222872,2245.401,2229.968,2226.604,2249.785,-0.04891108,-6.21472E-05,0.1098714,-0.484369993209839,-0.252907246351242,0.316530525684357,-0.519441457145546,-0.223501147495394,0.321559006401169,10
1.1199951171875,-0.271024584770203,2.80524373054504,1.32233965396881,-0.289357002179081,2.84131414609862,1.32198285851614,2245.382,2234.354,2235.344,2247.89,-0.04906874,-5.96781E-05,0.1108799,-0.497327029705048,-0.25788676738739,0.322953194379807,-0.532985466132485,-0.229328756186667,0.329943393154705,10
1.1400146484375,-0.281229764223099,2.79998755455017,1.32892918586731,-0.300162704591434,2.83666475422696,1.32867210305637,2251.072,2243.715,2231.947,2247.209,-0.04931162,-5.875406E-05,0.1117687,-0.510259866714478,-0.262810230255127,0.329473942518234,-0.54652589017629,-0.235154822377061,0.338325560657667,10
1.16000366210938,-0.291692644357681,2.79463362693787,1.33565104007721,-0.311222084148811,2.83190621216671,1.33551838583369,2254.71,2252.852,2231.802,2245.53,-0.04971802,-5.948676E-05,0.1125746,-0.523144841194153,-0.267696380615234,0.336091876029968,-0.560014026276883,-0.240958390526247,0.34667535943296,10
1.17999267578125,-0.30241197347641,2.78918194770813,1.34250688552856,-0.322550701230474,2.8270318247214,1.34253133946411,2248.389,2254.048,2249.978,2242.913,-0.05017555,-6.306518E-05,0.1134479,-0.535964906215668,-0.272579252719879,0.342793226242065,-0.573463232144024,-0.246745208083563,0.355001058539242,10
1.20001220703125,-0.313386648893356,2.78363251686096,1.34949827194214,-0.334165615614823,2.82203425154496,1.34972152476313,2250.038,2256.489,2252.647,2246.333,-0.0506741,-6.724912E-05,0.1143886,-0.548734962940216,-0.277469366788864,0.349568158388138,-0.586886736182789,-0.252520966862155,0.363310846989412,10
1.22000122070313,-0.324616074562073,2.77798509597778,1.35662651062012,-0.346030421585499,2.81692915700008,1.35706640485806,2252.884,2257.88,2253.928,2250.976,-0.05120407,-7.012667E-05,0.1153707,-0.561470210552216,-0.282375127077103,0.356412559747696,-0.600236516861372,-0.258265004538453,0.371574997167698,10
1.239990234375,-0.336099654436111,2.77223896980286,1.36389267444611,-0.358161486344149,2.81170949873715,1.36457611182642,2248.627,2252.621,2269.473,2254.568,-0.05160993,-7.29193E-05,0.1164534,-0.57417893409729,-0.287302076816559,0.363311111927032,-0.613526094901141,-0.263983138701136,0.379801879044709,10
1.260009765625,-0.347837299108505,2.76639437675476,1.37129771709442,-0.37057666480527,2.80636759428526,1.37226169871082,2254.585,2252.242,2265.356,2262.452,-0.05190288,-7.379097E-05,0.1175392,-0.5868821144104,-0.292224079370499,0.370254933834076,-0.626768731761373,-0.26968107538565,0.387999702095469,10
1.27999877929688,-0.359828889369965,2.76045203208923,1.37884259223938,-0.383236695417198,2.80092033679326,1.3800988607405,2262.115,2254.669,2258.804,2268.353,-0.0521399,-7.194861E-05,0.118535,-0.599580824375153,-0.29711776971817,0.37724307179451,-0.639917282339435,-0.275338529371412,0.396139281255613,10
1.29998779296875,-0.372074007987976,2.75441265106201,1.38652789592743,-0.396158759015336,2.79536033382764,1.388098233671,2261.202,2253.28,2268.511,2269.655,-0.05224856,-7.02918E-05,0.1194836,-0.612255394458771,-0.301971703767776,0.38426348567009,-0.652985332144132,-0.280961346123326,0.404229026602261,10
1.32000732421875,-0.38457190990448,2.74827742576599,1.39435410499573,-0.409361504843077,2.78967956113998,1.39627136227237,2268.474,2258.433,2260.962,2273.162,-0.05231886,-6.853527E-05,0.1203148,-0.624895930290222,-0.306759774684906,0.39131024479866,-0.6659860834168,-0.286555206197011,0.41227711095171,10
1.33999633789063,-0.397321462631226,2.74204802513123,1.40232181549072,-0.422802873722428,2.78389611561957,1.40459220990988,2274.89,2266,2254.697,2273.756,-0.05245735,-6.646282E-05,0.1209979,-0.637478947639465,-0.311475425958633,0.39838445186615,-0.678873453515705,-0.29210028151913,0.420255006953505,11
1.36001586914063,-0.410320937633514,2.73572540283203,1.41043126583099,-0.4365219692899,2.77799317206405,1.4130849835973,2270.766,2267.32,2268.502,2270.425,-0.05259104,-6.724576E-05,0.1216532,-0.649973332881927,-0.316133707761765,0.405473828315735,-0.691680442442074,-0.297610771068296,0.428183143180414,11
1.3800048828125,-0.423568457365036,2.7293107509613,1.41868281364441,-0.450474904562636,2.77198961381608,1.4217225152016,2277.211,2275.618,2260.057,2271.735,-0.05283871,-6.826342E-05,0.1222377,-0.662375211715698,-0.320734858512878,0.41257718205452,-0.704361775018035,-0.303067194200314,0.436033492140578,11
1.39999389648438,-0.437061816453934,2.72280478477478,1.42707645893097,-0.464680216184654,2.76587746507559,1.43051627978847,2270.819,2273.313,2277.383,2270.079,-0.05306774,-7.136456E-05,0.1228743,-0.674670040607452,-0.325303018093109,0.419680088758469,-0.716930938559026,-0.308475354130225,0.443814403124744,11
1.42001342773438,-0.450799196958542,2.71620798110962,1.43561196327209,-0.479157861067077,2.75964813894125,1.43947863163655,2273.743,2275.22,2275.566,2273.714,-0.05329571,-7.41347E-05,0.1235285,-0.686870038509369,-0.329834759235382,0.426773935556412,-0.729400843645231,-0.313840805920001,0.451533868397062,11
1.44000244140625,-0.464778870344162,2.70952129364014,1.44428908824921,-0.493861275572861,2.75332167044526,1.4485807456364,2277.522,2277.441,2272.751,2277.137,-0.05355084,-7.519218E-05,0.1241587,-0.698980927467346,-0.334330350160599,0.433857411146164,-0.741727567798258,-0.319144650954242,0.459164697851088,11
1.45999145507813,-0.478998780250549,2.70274543762207,1.45310735702515,-0.508809800712713,2.74688973769103,1.45783459479497,2272.704,2272.72,2287.589,2277.813,-0.05369785,-7.691471E-05,0.1248414,-0.710997819900513,-0.338795572519302,0.440916508436203,-0.753924423002454,-0.324392617007921,0.466715132239272,11
1.48001098632813,-0.493457496166229,2.69588136672974,1.46206629276276,-0.524024159888143,2.74034342397783,1.467253007885,2277.894,2273.742,2281.558,2283.288,-0.05377348,-7.712697E-05,0.1254931,-0.722932755947113,-0.343208074569702,0.447944104671478,-0.766004036374583,-0.329590137176618,0.474192988348404,11
1.5,-0.508153021335602,2.68893027305603,1.47116506099701,-0.539455198877605,2.73370387899399,1.4768055561018,2283.811,2277.084,2274.515,2286.684,-0.05384805,-7.538644E-05,0.1260446,-0.73478102684021,-0.3475541472435,0.45494145154953,-0.777924000354858,-0.334718964672088,0.481572013878822,11
1.51998901367188,-0.523083567619324,2.68189358711243,1.48040294647217,-0.555123050061237,2.72696244033876,1.48650470234772,2280.137,2274.719,2286.797,2285.4,-0.05382834,-7.502449E-05,0.1265756,-0.746521651744843,-0.351834058761597,0.461896657943726,-0.789697369743256,-0.339784716610053,0.488860290373601,11
1.54000854492188,-0.538246512413025,2.67477297782898,1.48977899551392,-0.571049184024557,2.72010986981902,1.49636373793799,2285.354,2278.492,2279.544,2288.291,-0.05378786,-7.437005E-05,0.1270242,-0.758151769638062,-0.356029391288757,0.468804627656937,-0.801336412291853,-0.344792671461508,0.496065412155667,11
1.55999755859375,-0.553639650344849,2.66757035255432,1.49929237365723,-0.587181951496087,2.71316839067337,1.50635068951315,2290.228,2284.134,2273.025,2288.882,-0.05381556,-7.31528E-05,0.1273563,-0.769656240940094,-0.360137224197388,0.47566756606102,-0.812800388649436,-0.349725300221754,0.503162159625937,11
1.57998657226563,-0.569259941577911,2.66028690338135,1.5089418888092,-0.603542258451077,2.7061290076447,1.51647849886779,2284.496,2282.375,2287.881,2285.437,-0.05380757,-7.444054E-05,0.1276907,-0.781011521816254,-0.364172965288162,0.482473611831665,-0.82410201904291,-0.354588076049064,0.510158407210813,11
1.60000610351563,-0.58510434627533,2.65292429924011,1.51872622966766,-0.620152298932711,2.69898217125626,1.52676090517188,2287.693,2285.613,2283.095,2287.385,-0.05381556,-7.580322E-05,0.1279913,-0.792220115661621,-0.368130326271057,0.489216685295105,-0.835253140422976,-0.35938609205264,0.51706148254665,11
1.6199951171875,-0.601169884204865,2.64548397064209,1.52864420413971,-0.636958033083316,2.69175113334911,1.53716445517924,2290.946,2289.363,2278.624,2288.435,-0.05389545,-7.631977E-05,0.1282312,-0.803277850151062,-0.372014254331589,0.495898514986038,-0.846214826007804,-0.364102599125749,0.523847288101157,11
1.6400146484375,-0.617453277111053,2.63796710968018,1.53869438171387,-0.654007271984653,2.68441532215046,1.54771874622704,2284.251,2285.073,2294.813,2286.156,-0.05391197,-7.858392E-05,0.1285218,-0.81417316198349,-0.375840395689011,0.502506136894226,-0.857015715678588,-0.368749920209162,0.530533553325099,11
1.66000366210938,-0.633951723575592,2.63037514686584,1.54887521266937,-0.671244443874359,2.67699864863716,1.55838937674714,2290.86,2289.494,2282.683,2290.186,-0.05396896,-7.914609E-05,0.1287649,-0.824919998645782,-0.379596680402756,0.509040415287018,-0.867618167158098,-0.373311858882592,0.53709697585572,11
1.67999267578125,-0.650661826133728,2.62270927429199,1.55918502807617,-0.688691692550512,2.66949158495151,1.56919005480539,2284.655,2283.411,2297.887,2289.549,-0.05392102,-8.043765E-05,0.1290464,-0.835509479045868,-0.38329228758812,0.515488803386688,-0.878034183119987,-0.377793579561193,0.543544985919778,11
1.70001220703125,-0.667580902576447,2.61497116088867,1.56962192058563,-0.706372354049449,2.66188409024902,1.58013522651994,2289.084,2284.477,2290.313,2293.609,-0.05381769,-8.038521E-05,0.1292863,-0.845951914787292,-0.386906087398529,0.521846413612366,-0.888274735793774,-0.382199803288802,0.549884375850026,11
1.72000122070313,-0.68470573425293,2.60716271400452,1.5801842212677,-0.724228658537036,2.6542010212754,1.5911891296115,2294.008,2287.634,2282.156,2295.677,-0.05373513,-7.859436E-05,0.1294205,-0.856241583824158,-0.390428066253662,0.528116881847382,-0.898304216251578,-0.386515208538549,0.556093102023817,11
1.739990234375,-0.702032864093781,2.599285364151,1.59087002277374,-0.74228345468553,2.64643254688532,1.60236590849663,2288.589,2284.092,2295.325,2292.8,-0.05356948,-7.859204E-05,0.1295451,-0.866357564926147,-0.393863767385483,0.534289598464966,-0.908134108040217,-0.390744736359816,0.562178273303667,12
1.760009765625,-0.719558835029602,2.59134149551392,1.60167717933655,-0.760560719141003,2.63856835059778,1.61368040586141,2292.683,2287.018,2287.255,2294.881,-0.05339052,-7.830706E-05,0.1295995,-0.87630033493042,-0.397197097539902,0.540360867977142,-0.91777478390713,-0.394892849856044,0.568146310914365,12
1.77999877929688,-0.737280070781708,2.58333301544189,1.61260390281677,-0.779000609654483,2.63063418086074,1.62509557650306,2296.562,2291.47,2279.853,2295,-0.05328346,-7.735087E-05,0.1295464,-0.886058807373047,-0.400427639484406,0.546335160732269,-0.927192788821983,-0.398945154262308,0.57397650459845,12
1.79998779296875,-0.755192220211029,2.57526159286499,1.62364792823792,-0.797626646773287,2.62261991743975,1.63662598076079,2289.452,2288.019,2295.113,2290.691,-0.05313113,-7.880888E-05,0.1295097,-0.895612180233002,-0.403571754693985,0.552201509475708,-0.936399026186941,-0.402906341007953,0.579675604081262,12
1.82000732421875,-0.773291528224945,2.56712913513184,1.63480699062347,-0.816463410111527,2.61451498441355,1.64828683458664,2292.131,2290.082,2288.704,2292.46,-0.05298465,-8.025154E-05,0.1294423,-0.904967069625854,-0.406621366739273,0.55795556306839,-0.94540321420156,-0.406780591562751,0.585249625391268,12
1.83999633789063,-0.791573941707611,2.55893754959106,1.64607906341553,-0.835449117627072,2.60634596486888,1.66003989195343,2294.955,2292.914,2282.599,2293.05,-0.05290476,-8.06485E-05,0.1293081,-0.914121150970459,-0.40957960486412,0.563601136207581,-0.954174163352093,-0.410554485950274,0.590679260733698,12
1.86001586914063,-0.810035169124603,2.55068826675415,1.65746164321899,-0.854637305360818,2.59808982374295,1.67191829422076,2287.347,2287.508,2298.327,2289.831,-0.05275243,-8.228272E-05,0.1292206,-0.923062562942505,-0.412461549043655,0.569126844406128,-0.962735018414262,-0.414237982720922,0.595978837827261,12
1.8800048828125,-0.828671276569366,2.54238319396973,1.66895234584808,-0.873964974649439,2.58977366760063,1.68388304221498,2293.735,2291.684,2284.063,2293.084,-0.05264483,-8.235219E-05,0.1290739,-0.931805491447449,-0.415253609418869,0.57453590631485,-0.971056158224177,-0.417818336715394,0.601130019760457,12
1.89999389648438,-0.847478032112122,2.53402376174927,1.68054866790771,-0.893456683142228,2.58138692997148,1.69594933829086,2286.425,2284.844,2299.023,2291.19,-0.05243498,-8.345504E-05,0.1289611,-0.940339624881744,-0.417966306209564,0.579817235469818,-0.979147395688901,-0.421299770153459,0.606138881190213,12
1.92001342773438,-0.866451561450958,2.52561211585999,1.69224798679352,-0.913137923350175,2.5729186421402,1.70813296352707,2290.156,2285.522,2290.251,2294.205,-0.05217825,-8.321935E-05,0.128803,-0.948675453662872,-0.420579433441162,0.58496755361557,-0.987017247723777,-0.424685947625853,0.611010694492843,12
1.94000244140625,-0.885587751865387,2.51715040206909,1.70404779911041,-0.932943991899774,2.5643966441608,1.72039386345315,2294.296,2288.248,2281.111,2295.192,-0.05195508,-8.1671E-05,0.1285379,-0.956807672977448,-0.423085242509842,0.589992582798004,-0.994638524886308,-0.427965170275055,0.615728628108227,12
1.95999145507813,-0.90488213300705,2.50864028930664,1.71594548225403,-0.952900013794853,2.55581012544606,1.73274759164336,2287.432,2283.74,2294.574,2291.173,-0.05165308,-8.185532E-05,0.1282723,-0.964716076850891,-0.425492435693741,0.594882726669312,-1.00202031904361,-0.431141350077486,0.620298310335216,12
1.98001098632813,-0.924330174922943,2.50008487701416,1.72793817520142,-0.973031969359004,2.54714790738853,1.74521023115561,2290.693,2285.804,2285.694,2292.538,-0.05134255,-8.191159E-05,0.1279446,-0.972404301166534,-0.427786141633987,0.599635541439056,-1.00917036754089,-0.434217816196637,0.624724530959079,12
2,-0.943927407264709,2.49148559570313,1.74002325534821,-0.993273599084619,2.53843849960327,1.7577407641983,2293.853,2289.279,2277.387,2292.086,-0.05110553,-8.126131E-05,0.1275143,-0.979864001274109,-0.429967015981674,0.604256927967072,-1.01606400046349,-0.437183953857422,0.628992018127441,12
2.01998901367188,-0.963669002056122,2.48284459114075,1.75219798088074,-1.01365055070775,2.52967086658596,1.77035506794184,2285.529,2284.704,2292.598,2287.018,-0.05081791,-8.279691E-05,0.1271099,-0.98707640171051,-0.432052135467529,0.608737051486969,-1.02270954399163,-0.440043345582587,0.633105926142498,12
2.04000854492188,-0.983549892902374,2.47416400909424,1.76445949077606,-1.03418924440916,2.52083364047092,1.78306949773667,2287.676,2285.738,2285.043,2288.387,-0.05053082,-8.409935E-05,0.1266776,-0.994051158428192,-0.434032618999481,0.613072872161865,-1.02911391720548,-0.442798968459032,0.637070538244476,12
2.05999755859375,-1.00356554985046,2.46544575691223,1.77680492401123,-1.05482201812353,2.5119559343546,1.79584216754118,2290.091,2287.843,2277.655,2288.333,-0.05030765,-8.424483E-05,0.1261763,-1.00078749656677,-0.435910671949387,0.617269814014435,-1.03525504859546,-0.445441325732794,0.640872191117535,12
2.07998657226563,-1.02371120452881,2.45669174194336,1.789231300354,-1.07557499515204,2.50302650811029,1.80868924892322,2281.482,2281.625,2292.886,2284.392,-0.0500083,-8.5667E-05,0.1257214,-1.00727415084839,-0.437701314687729,0.621317803859711,-1.04114045847258,-0.4479736531836,0.644515540192423,12
2.10000610351563,-1.0439817905426,2.44790387153625,1.80173552036285,-1.09647498538954,2.49403382618922,1.82162733848484,2283.98,2281.45,2284.515,2286.67,-0.04967807,-8.633907E-05,0.1252417,-1.01352512836456,-0.439389914274216,0.625213801860809,-1.04677621342161,-0.450398561093403,0.648004340974112,12
2.1199951171875,-1.06437242031097,2.43908452987671,1.81431484222412,-1.11745308225396,2.48500753716864,1.83461377976925,2287.056,2283.029,2275.716,2287.142,-0.04938672,-8.556622E-05,0.1246799,-1.01954030990601,-0.440972328186035,0.628964185714722,-1.0521429102862,-0.45270770082608,0.651326581984514,12
2.1400146484375,-1.08487856388092,2.43023538589478,1.82696604728699,-1.13856809990831,2.47592233495728,1.84768498154507,2279.053,2277.021,2289.331,2283.252,-0.04900589,-8.603853E-05,0.1241403,-1.02530562877655,-0.442458212375641,0.632559418678284,-1.05725481901126,-0.454907212340279,0.654491096999312,12
2.16000366210938,-1.10549533367157,2.42135858535767,1.83968615531921,-1.15975039167652,2.46680818657414,1.86079782920208,2285.577,2281.275,2272.613,2285.016,-0.04867566,-8.533151E-05,0.1235118,-1.03083109855652,-0.443831086158752,0.636005401611328,-1.0620943502576,-0.456989527434725,0.657486997379635,12
2.17999267578125,-1.12621736526489,2.41245675086975,1.85247206687927,-1.18102676265167,2.45765355853653,1.8739689163698,2277.115,2274.737,2286.483,2281.366,-0.04825861,-8.584074E-05,0.1228985,-1.03610134124756,-0.445103049278259,0.639292895793915,-1.06666760390386,-0.458957270716794,0.660318059240953,12
2.20001220703125,-1.14703989028931,2.40353155136108,1.86532044410706,-1.20242455577657,2.44844668594002,1.88721516963236,2279.977,2275.497,2276.724,2282.503,-0.04782132,-8.592799E-05,0.1222311,-1.04112422466278,-0.446257948875427,0.642420470714569,-1.07097916161324,-0.460812413548163,0.662987118851036,12
2.22000122070313,-1.16795766353607,2.39458560943604,1.87822830677032,-1.22387315175433,2.43921795429519,1.90049287228091,2282.742,2277.975,2267.617,2281.473,-0.04744741,-8.535631E-05,0.1214646,-1.04589378833771,-0.447294235229492,0.645395219326019,-1.07501419914593,-0.462548577472581,0.665484999299265,12
2.239990234375,-1.18896555900574,2.38562107086182,1.89119243621826,-1.24539969505118,2.42995568409656,1.91381882803312,2273.832,2272.62,2281.483,2276.386,-0.04701172,-8.642933E-05,0.1207193,-1.05039298534393,-0.44822683930397,0.648208320140839,-1.07877792518082,-0.464168003639063,0.667814925005999,12
2.260009765625,-1.21005821228027,2.37664008140564,1.90420961380005,-1.26703177594152,2.42064800401982,1.92721011658316,2275.807,2273.099,2272.711,2277.009,-0.04657176,-8.724171E-05,0.119937,-1.05463111400604,-0.449044942855835,0.650858163833618,-1.08227399942825,-0.465672266718726,0.669979161506271,12
2.27999877929688,-1.23123049736023,2.3676450252533,1.91727662086487,-1.28869796983554,2.41132564607061,1.9406225227075,2277.901,2274.884,2264.32,2275.942,-0.04619945,-8.724741E-05,0.1190767,-1.05860638618469,-0.449750334024429,0.653351604938507,-1.08549040888332,-0.467056197851165,0.67197027217779,12
2.29998779296875,-1.25247645378113,2.35863780975342,1.9303902387619,-1.31042570636616,2.40197680804417,1.95407302665558,2268.394,2268.597,2278.612,2271.288,-0.04575737,-8.853268E-05,0.1182568,-1.06230628490448,-0.450358659029007,0.65567946434021,-1.08843144721369,-0.468321644481621,0.673790915005368,12
2.32000732421875,-1.27379143238068,2.34962058067322,1.94354701042175,-1.33224276726637,2.39258953623693,1.96757882664355,2270.357,2268.212,2269.634,2272.337,-0.04529664,-8.923678E-05,0.1174112,-1.0657445192337,-0.450857251882553,0.657840132713318,-1.09109983431736,-0.469469776906228,0.675442773735451,11
2.33999633789063,-1.29516983032227,2.34059572219849,1.95674383640289,-1.35407709248145,2.38319483607731,1.98109531406483,2272.57,2269.125,2260.862,2271.762,-0.04488545,-8.880607E-05,0.1164893,-1.06892144680023,-0.451244801282883,0.659840524196625,-1.09348640563071,-0.470496651869278,0.67692017506657,11
2.36001586914063,-1.31660628318787,2.33156514167786,1.96997725963593,-1.3759897762471,2.37376642042246,1.99466030916165,2263.393,2262.669,2274.039,2267.435,-0.04439063,-8.952052E-05,0.1155992,-1.0718252658844,-0.45153334736824,0.661672115325928,-1.09559752564474,-0.471405007833448,0.678227058921845,11
2.3800048828125,-1.33809566497803,2.32253098487854,1.98324406147003,-1.39790843013262,2.36433543599182,2.00822900004707,2269.405,2265.875,2257.272,2268.34,-0.04394855,-8.923655E-05,0.1146314,-1.0744686126709,-0.451707690954208,0.663341283798218,-1.09742594550583,-0.472191725819537,0.679358937915576,11
2.39999389648438,-1.35963249206543,2.31349539756775,1.9965409040451,-1.41986083522252,2.35488992936084,2.02181858453579,2259.952,2258.624,2270.435,2264.685,-0.04341645,-8.981524E-05,0.1136875,-1.07683944702148,-0.451780706644058,0.664839684963226,-1.09897439291323,-0.472857979480329,0.680317500623536,11
2.42001342773438,-1.38121128082275,2.3044605255127,2.00986433029175,-1.44187496577138,2.34541786398928,2.035446380024,2262.373,2258.369,2260.352,2265.228,-0.04285878,-8.973058E-05,0.1126967,-1.07894790172577,-0.45173579454422,0.66616678237915,-1.1002439936861,-0.473404253224357,0.681103443981416,11
2.44000244140625,-1.40282702445984,2.29542946815491,2.02321100234985,-1.46387808506052,2.33595053645515,2.04906735901791,2264.877,2259.913,2250.56,2263.738,-0.04235758,-8.895916E-05,0.1116097,-1.08079028129578,-0.451570183038712,0.667330086231232,-1.10123038958312,-0.473828671822132,0.681714070030222,11
2.45999145507813,-1.42447412014008,2.28640341758728,2.03657746315002,-1.48589810917879,2.32647593524532,2.06269880290633,2255.347,2254.119,2263.108,2258.74,-0.04178979,-8.961302E-05,0.1105396,-1.08235085010529,-0.451297730207443,0.668321967124939,-1.10193535162022,-0.474131997292339,0.68215047511319,10
2.48001098632813,-1.44614684581757,2.27738523483276,2.04996037483215,-1.5079630509786,2.31698200721197,2.07635805297935,2257.083,2254.181,2253.75,2258.361,-0.04121721,-9.034516E-05,0.1094299,-1.08363878726959,-0.450906872749329,0.669141948223114,-1.10235904000526,-0.474314298567936,0.682412758406602,10
2.5,-1.46783983707428,2.26837730407715,2.06335639953613,-1.52999999932945,2.30750012397766,2.08999997377396,2258.846,2255.417,2244.812,2256.505,-0.04071441,-9.018274E-05,0.1082398,-1.08465206623077,-0.450399249792099,0.669797420501709,-1.10250000050292,-0.474374949932098,0.682500019669533,10
2.51998901367188,-1.48954737186432,2.25938129425049,2.07676196098328,-1.5520369476803,2.29801824074336,2.10364189456856,2248.584,2249.227,2257.892,2251.563,-0.04014875,-9.138027E-05,0.1070869,-1.0853785276413,-0.449791491031647,0.670280635356903,-1.10235904000526,-0.474314298567936,0.682412758406603,10
2.54000854492188,-1.51126396656036,2.25040006637573,2.09017372131348,-1.57410188948011,2.28852431271001,2.11730114464159,2249.988,2248.338,2248.921,2251.557,-0.03957191,-9.210237E-05,0.1059113,-1.08583176136017,-0.449072480201721,0.670590817928314,-1.10193535162022,-0.474131997292339,0.682150475113189,9
2.55999755859375,-1.53298425674438,2.24143528938293,2.10358834266663,-1.59612191359838,2.27904971150017,2.13093258853001,2251.696,2248.61,2240,2250.191,-0.0390494,-9.189821E-05,0.1046651,-1.08601331710815,-0.448242574930191,0.670735359191895,-1.10123038958312,-0.473828671822132,0.681714070030222,9
2.57998657226563,-1.55470252037048,2.23248910903931,2.11700248718262,-1.61812503288753,2.26958238396605,2.14455356752391,2241.571,2242.039,2252.347,2245.734,-0.03844859,-9.27088E-05,0.1034567,-1.08591341972351,-0.447314828634262,0.670706689357758,-1.1002439936861,-0.473404253224357,0.681103443981416,9
2.60000610351563,-1.57641339302063,2.22356367111206,2.13041257858276,-1.64013916343638,2.26011031859448,2.15818136301212,2243.388,2240.783,2242.633,2245.944,-0.03782381,-9.273012E-05,0.1022171,-1.08554553985596,-0.446275144815445,0.670504450798035,-1.09897439291323,-0.472857979480329,0.680317500623536,8
2.6199951171875,-1.59811162948608,2.21466135978699,2.14381527900696,-1.66209156852628,2.2506648119635,2.17177094750084,2245.381,2241.172,2233.162,2244.25,-0.0372491,-9.213328E-05,0.1008963,-1.08490931987762,-0.445121258497238,0.670136272907257,-1.09742594550583,-0.472191725819537,0.679358937915576,6
2.6400146484375,-1.61979150772095,2.20578384399414,2.15720725059509,-1.68404365734903,2.24121944141343,2.18536033620513,2235.432,2235.02,2244.559,2239.693,-0.03659876,-9.252262E-05,0.09959935,-1.08399295806885,-0.443865478038788,0.669595420360565,-1.09559452046326,-0.471403714787811,0.678225198571351,5
2.66000366210938,-1.64144766330719,2.19693422317505,2.17058491706848,-1.70592290617745,2.23180541187802,2.19890463348308,2240.976,2237.486,2228.314,2238.839,-0.0360102,-9.226915E-05,0.09822804,-1.08280789852142,-0.442494809627533,0.668888807296753,-1.09348640563071,-0.470496651869278,0.67692017506657,0
2.67999267578125,-1.6630744934082,2.18811368942261,2.1839451789856,-1.72775723139253,2.2224107117184,2.21242112090437,2230.604,2230.436,2239.873,2235.148,-0.03534601,-9.285789E-05,0.09688113,-1.08134365081787,-0.441023975610733,0.668009638786316,-1.09109983431736,-0.469469776906228,0.675442773735451,0
2.70001220703125,-1.68466687202454,2.17932462692261,2.19728422164917,-1.74957429229274,2.21302343991116,2.22592692089233,2232.259,2229.518,2230.293,2234.319,-0.03466637,-9.310577E-05,0.09549841,-1.07961118221283,-0.439439624547958,0.666958272457123,-1.08843144721369,-0.468321644481621,0.673790915005369,0
2.72000122070313,-1.70621883869171,2.17057013511658,2.21059894561768,-1.77130202882336,2.20367460188472,2.23937742484041,2233.929,2229.862,2221.07,2232.031,-0.03404425,-9.274326E-05,0.09403598,-1.07760941982269,-0.437741309404373,0.66574239730835,-1.08549040888332,-0.467056197851165,0.671970272177789,0
2.739990234375,-1.72772526741028,2.16185116767883,2.22388601303101,-1.79296822271738,2.1943522439355,2.25278983096475,2223.676,2223.987,2231.868,2227.422,-0.03335929,-9.341323E-05,0.09259894,-1.07532715797424,-0.435942977666855,0.664355754852295,-1.08227399942825,-0.465672266718727,0.669979161506271,0
2.760009765625,-1.74918079376221,2.15317058563232,2.23714208602905,-1.81460030360772,2.18504456385877,2.26618111951479,2224.905,2222.885,2222.802,2226.316,-0.0326674,-9.372358E-05,0.09113263,-1.07277548313141,-0.434033989906311,0.662798702716827,-1.07877792518082,-0.464168003639063,0.667814925005998,0
2.77999877929688,-1.77058029174805,2.14453029632568,2.25036358833313,-1.83612684690458,2.17578229366013,2.27950707526701,2226.258,2222.916,2213.964,2223.903,-0.03203623,-9.374601E-05,0.08959585,-1.06995487213135,-0.43201544880867,0.661078751087189,-1.07501419914593,-0.462548577472581,0.665484999299265,0
2.79998779296875,-1.79191732406616,2.13593196868896,2.26354742050171,-1.85757544288233,2.1665535620153,2.29278477791556,2215.581,2216.843,2224.862,2219.471,-0.03134114,-9.429066E-05,0.08809442,-1.06685602664948,-0.429901987314224,0.659189820289612,-1.07097916161324,-0.460812413548163,0.662987118851036,0
2.82000732421875,-1.81318700313568,2.12737846374512,2.2766900062561,-1.87897323600723,2.1573466894188,2.30603103117811,2216.888,2215.353,2215.653,2218.493,-0.03063487,-9.465725E-05,0.08656982,-1.06349229812622,-0.427682548761368,0.6571324467659,-1.06666760390385,-0.458957270716794,0.660318059240952,0
2.83999633789063,-1.83438456058502,2.11887097358704,2.28978824615479,-1.90024960698239,2.14819206138118,2.31920211834584,2218.193,2214.888,2206.909,2216.212,-0.02998346,-9.429514E-05,0.08497839,-1.05986523628235,-0.425357609987259,0.654914200305939,-1.06209435025759,-0.456989527434725,0.657486997379635,0
2.86001586914063,-1.85550379753113,2.11041235923767,2.30283880233765,-1.9214641634913,2.13906403038149,2.33233493941432,2207.586,2208.866,2217.203,2211.967,-0.02926228,-9.468025E-05,0.08342153,-1.05596649646759,-0.422940254211426,0.652529358863831,-1.05724722779031,-0.454903946049977,0.654486397671922,0
2.8800048828125,-1.87653994560242,2.1020040512085,2.31583857536316,-1.94254691640495,2.12999271078668,2.34538616777867,2212.853,2209.954,2201.891,2210.543,-0.02859809,-9.451258E-05,0.08180338,-1.05180966854095,-0.420418709516525,0.649984955787659,-1.0521429102862,-0.45270770082608,0.651326581984514,0
2.89999389648438,-1.89748764038086,2.09364771842957,2.32878398895264,-1.96352501326936,2.1209664217661,2.35837260906308,2202.156,2203.136,2211.935,2207.253,-0.02785773,-9.471918E-05,0.08021531,-1.04738736152649,-0.417806446552277,0.647275507450104,-1.04677621342161,-0.450398561093403,0.648004340974112,0
2.92001342773438,-1.91834187507629,2.08534622192383,2.34167194366455,-1.98442500350686,2.11197373984504,2.37131069862469,2203.702,2201.389,2202.53,2206.041,-0.02709873,-9.476019E-05,0.07859643,-1.04271173477173,-0.415090322494507,0.644402146339417,-1.04114045847258,-0.4479736531836,0.644515540192422,0
2.94000244140625,-1.93909740447998,2.07710075378418,2.35449934005737,-2.00517798053537,2.10304431360073,2.38415778000673,2205.285,2200.977,2193.406,2203.367,-0.02639139,-9.433031E-05,0.07690197,-1.03778266906738,-0.412269026041031,0.641372621059418,-1.03525504859546,-0.445441325732794,0.640872191117535,0
2.95999145507813,-1.95974946022034,2.06891345977783,2.36726307868958,-2.02581075424974,2.0941666074844,2.39693044981124,2194.924,2195.746,2202.456,2198.934,-0.02562547,-9.457373E-05,0.07523055,-1.03259015083313,-0.409355074167252,0.638182103633881,-1.02911391720548,-0.442798968459032,0.637070538244476,0
2.98001098632813,-1.98029208183289,2.06078696250916,2.37995982170105,-2.04634944795115,2.08532938136936,2.40964487960608,2196.062,2194.141,2193.58,2197.25,-0.02485635,-9.476724E-05,0.07352955,-1.02714467048645,-0.406338930130005,0.63483190536499,-1.02270954399162,-0.440043345582586,0.633105926142498,0
3,-2.00072121620178,2.05272221565247,2.39258646965027,-2.06672639957428,2.07656174835205,2.42225918334961,2197.183,2193.896,2185.101,2194.027,-0.02415168,-9.471374E-05,0.07176383,-1.0214467048645,-0.403222411870956,0.631329476833344,-1.01606400046349,-0.437183953857422,0.628992018127441,0
3.01998901367188,-2.02103090286255,2.04472184181213,2.4051399230957,-2.0869680292999,2.06785234056679,2.43478971639231,2186.229,2188.516,2194.485,2189.828,-0.02339534,-9.522661E-05,0.07003484,-1.01548838615417,-0.400020688772202,0.627670288085938,-1.00917036754089,-0.434217816196637,0.624724530959079,0
3.04000854492188,-2.04121661186218,2.03678750991821,2.41761708259583,-2.10709998486405,2.05919012250926,2.44725235590455,2187.193,2186.479,2185.95,2188.256,-0.0226358,-9.550895E-05,0.06828977,-1.00928318500519,-0.396725356578827,0.623855769634247,-1.00202031904361,-0.431141350077486,0.620298310335216,0
3.05999755859375,-2.06127333641052,2.02892065048218,2.43001484870911,-2.12705600675913,2.05060360379452,2.45960608409476,2187.932,2185.501,2178.151,2185.321,-0.0219306,-9.531467E-05,0.06649381,-1.0028338432312,-0.393338024616241,0.619893133640289,-0.994638524886308,-0.427965170275055,0.615728628108227,0
3.07998657226563,-2.08119583129883,2.02112317085266,2.4423303604126,-2.14686207530873,2.04208160581513,2.47186698402085,2177.399,2179.931,2186.558,2181.751,-0.02116521,-9.540066E-05,0.06473658,-0.996135532855988,-0.389871656894684,0.61577832698822,-0.987017247723776,-0.424685947625853,0.611010694492843,0
3.10000610351563,-2.10097980499268,2.01339673995972,2.45456051826477,-2.16654331551667,2.03361331798384,2.48405060925705,2178.484,2177.578,2178.052,2180.243,-0.0203881,-9.538575E-05,0.06296298,-0.989201903343201,-0.38631609082222,0.611512899398804,-0.979147395688901,-0.421299770153459,0.606138881190213,0
3.1199951171875,-2.12062072753906,2.0057430267334,2.46670269966125,-2.18603502400946,2.02522658035469,2.49611690533293,2179.479,2176.449,2170.029,2177.33,-0.01965732,-9.494991E-05,0.06113471,-0.982035517692566,-0.382671147584915,0.607104241847992,-0.971056158224178,-0.417818336715394,0.601130019760458,0
3.1400146484375,-2.14011335372925,1.9981644153595,2.47875356674194,-2.20539207344272,2.01689778275692,2.50809984103626,2169.329,2171.202,2177.534,2173.884,-0.01886743,-9.490605E-05,0.05933558,-0.974630534648895,-0.378948181867599,0.602548718452454,-0.962722140342815,-0.41423244164655,0.595970865687568,0
3.16000366210938,-2.15945315361023,1.99066138267517,2.49071073532104,-2.22455088103183,2.00865428308644,2.51996005559448,2174.094,2171.321,2164.192,2171.22,-0.01813133,-9.469105E-05,0.05748462,-0.966998815536499,-0.375137329101563,0.597853302955627,-0.954174163352092,-0.410554485950274,0.590679260733698,0
3.17999267578125,-2.17863607406616,1.98323631286621,2.50257110595703,-2.24353658854737,2.00048526354177,2.53171311296128,2163.697,2165.757,2171.753,2168.252,-0.01733824,-9.467544E-05,0.05566304,-0.959135174751282,-0.371251434087753,0.593014657497406,-0.945403214201559,-0.406780591562751,0.585249625391267,0
3.20001220703125,-2.19765686988831,1.97589087486267,2.51433181762695,-2.26237335188561,1.99238033051557,2.54337396678712,2164.776,2163.472,2163.53,2166.323,-0.01653663,-9.455575E-05,0.05381978,-0.951050937175751,-0.367280840873718,0.588034868240356,-0.93639902618694,-0.402906341007952,0.579675604081262,0
3.22000122070313,-2.21651172637939,1.96862637996674,2.52599024772644,-2.28099938900442,1.98436606709459,2.55490437104486,2165.821,2162.645,2155.64,2162.857,-0.01578882,-9.426208E-05,0.05192156,-0.942747414112091,-0.363225996494293,0.582921266555786,-0.927192788821982,-0.398945154262308,0.573976504598449,0
3.239990234375,-2.235196352005,1.96144425868988,2.53754377365112,-2.2994392795179,1.97643189735754,2.5663195416865,2155.68,2158.032,2162.542,2159.353,-0.01499626,-9.413563E-05,0.05005259,-0.934218764305115,-0.359099686145782,0.577670991420746,-0.917774783907129,-0.394892849856044,0.568146310914365,0
3.260009765625,-2.25370573997498,1.95434665679932,2.54898953437805,-2.31771654397337,1.96856770107001,2.57763403905129,2156.382,2155.918,2154.95,2157.025,-0.01420583,-9.41242E-05,0.04817016,-0.92547619342804,-0.354894787073135,0.572286427021027,-0.908134108040216,-0.390744736359816,0.562178273303667,0
3.27999877929688,-2.27203607559204,1.94733428955078,2.56032490730286,-2.33577134012187,1.96079922667992,2.58881081793642,2157.029,2154.812,2147.712,2153.615,-0.0134724,-9.400846E-05,0.04624481,-0.916522562503815,-0.350613713264465,0.566774606704712,-0.898304216251578,-0.386515208538549,0.556093102023818,0
3.29998779296875,-2.29018306732178,1.94040882587433,2.57154750823975,-2.35362764460945,1.95311615770631,2.59986472102797,2146.835,2150.242,2154.406,2150.391,-0.01269635,-9.39661E-05,0.0443586,-0.907354295253754,-0.346269637346268,0.561133205890656,-0.888274735793772,-0.382199803288803,0.549884375850026,0
3.32000732421875,-2.3081431388855,1.93357169628143,2.58265471458435,-2.37130830610839,1.94550866300381,2.61080989274252,2147.447,2147.736,2147.147,2148.292,-0.01191978,-9.389625E-05,0.0424678,-0.897984445095062,-0.341855704784393,0.555364489555359,-0.878034183119985,-0.377793579561194,0.543544985919778,0
3.33999633789063,-2.32591128349304,1.92682409286499,2.59364414215088,-2.38875555478454,1.93800159931817,2.62161057080077,2147.898,2146.142,2140.374,2145.185,-0.01118847,-9.353092E-05,0.04054222,-0.888417363166809,-0.337373584508896,0.54947555065155,-0.867618167158097,-0.373311858882592,0.53709697585572,0
3.36001586914063,-2.34348440170288,1.92016756534576,2.60451340675354,-2.40601888046917,1.93057367255756,2.63229739176581,2138.414,2141.688,2145.977,2142.337,-0.01041296,-9.324452E-05,0.03865309,-0.878650844097137,-0.33283394575119,0.543464422225952,-0.856999388527103,-0.368742895092007,0.53052344604056,0
3.3800048828125,-2.36085820198059,1.91360306739807,2.61526012420654,-2.42304196557559,1.92324911460621,2.64283549236868,2142.253,2140.778,2135.075,2139.359,-0.009683786,-9.28675E-05,0.03673347,-0.868697226047516,-0.328229576349258,0.537337779998779,-0.846214826007803,-0.364102599125748,0.523847288101157,0
3.39999389648438,-2.37802958488464,1.90713167190552,2.6258819103241,-2.43984769972619,1.91601807669906,2.65323904237604,2132.847,2135.854,2140.444,2137.23,-0.008905611,-9.253106E-05,0.03484668,-0.858555138111115,-0.323571294546127,0.531094074249268,-0.835253140422974,-0.35938609205264,0.51706148254665,0
3.42001342773438,-2.39499425888062,1.90075469017029,2.63637661933899,-2.45645774020782,1.90887124031063,2.66352144868012,2133.678,2133.366,2133.346,2134.965,-0.008121043,-9.201627E-05,0.03294966,-0.848235726356506,-0.31885090470314,0.524736166000366,-0.824102019042908,-0.354588076049064,0.510158407210813,0
3.44000244140625,-2.41174912452698,1.89447331428528,2.64674210548401,-2.47281804716281,1.90183185728196,2.67364925803476,2134.509,2132.104,2126.466,2131.491,-0.007383348,-9.172688E-05,0.03101341,-0.837741613388062,-0.314068734645844,0.518270969390869,-0.812800388649434,-0.349725300221754,0.503162159625937,0
3.45999145507813,-2.42829060554504,1.88828825950623,2.65697598457336,-2.48895081463434,1.8948903781363,2.68363620960993,2125.469,2128.3,2131.237,2128.666,-0.006612096,-9.12824E-05,0.02910559,-0.827069520950317,-0.309235572814941,0.511697471141815,-0.80133641229185,-0.344792671461508,0.496065412155666,0
3.48001098632813,-2.44461536407471,1.88220143318176,2.66707634925842,-2.50487694859767,1.88803780761656,2.69349524520019,2125.99,2126.247,2124.708,2125.916,-0.005849367,-9.098146E-05,0.02719268,-0.816229581832886,-0.304346233606339,0.505018711090088,-0.789697369743255,-0.339784716610052,0.488860290373601,0
3.5,-2.4607195854187,1.87621366977692,2.67704129219055,-2.5205447997813,1.88129636896134,2.70319439144611,2126.247,2124.858,2118.703,2122.479,-0.005140966,-9.078257E-05,0.02525245,-0.805225193500519,-0.29940402507782,0.498241513967514,-0.777924000354857,-0.334718964672089,0.481572013878822,0
3.51998901367188,-2.47660064697266,1.87032496929169,2.68686866760254,-2.53597583877076,1.87465682397749,2.71274693966292,2117.275,2121.289,2123.284,2119.782,-0.004407532,-9.050877E-05,0.02335183,-0.794055163860321,-0.294420748949051,0.491365075111389,-0.766004036374581,-0.329590137176618,0.474192988348404,0
3.54000854492188,-2.49225521087646,1.86453700065613,2.69655656814575,-2.55119019794619,1.86811051026429,2.72216535275294,2117.317,2118.918,2117.569,2117.271,-0.003682086,-9.011799E-05,0.02146118,-0.782731473445892,-0.289392828941345,0.484392702579498,-0.753924423002452,-0.324392617007921,0.466715132239272,0
3.55999755859375,-2.50768041610718,1.85885071754456,2.70610308647156,-2.56613872308604,1.86167857751006,2.73141920191151,2117.449,2117.102,2111.968,2114.245,-0.003001383,-8.967314E-05,0.01955661,-0.771260261535645,-0.284322947263718,0.477331072092056,-0.741727567798258,-0.319144650954242,0.459164697851087,0
3.57998657226563,-2.52287316322327,1.85326623916626,2.71550679206848,-2.58084213759183,1.85535210901407,2.74052131591136,2108.964,2113.258,2115.962,2112.217,-0.002288721,-8.909481E-05,0.01769441,-0.759642601013184,-0.279221177101135,0.470180064439774,-0.72940084364523,-0.31384080592,0.451533868397061,0
3.60000610351563,-2.53783082962036,1.84778475761414,2.72476553916931,-2.59531978247425,1.84912278287974,2.74948366775945,2109.409,2110.784,2110.089,2109.868,-0.001577124,-8.87278E-05,0.01584059,-0.747890651226044,-0.274082124233246,0.46294304728508,-0.716930938559024,-0.308475354130224,0.443814403124743,0
3.6199951171875,-2.55255103111267,1.84240651130676,2.73387813568115,-2.60952509409627,1.84301063413925,2.75827743234631,2109.735,2108.99,2104.539,2106.885,-0.0009049421,-8.81618E-05,0.01397042,-0.73600959777832,-0.268907099962234,0.455626666545868,-0.704361775018033,-0.303067194200314,0.436033492140578,0
3.6400146484375,-2.56703114509583,1.83713245391846,2.74284267425537,-2.62349913748426,1.83699799365897,2.76692803087948,2101.846,2105.682,2107.861,2104.733,-0.000205596,-8.767613E-05,0.01213697,-0.723999679088593,-0.263704746961594,0.448231130838394,-0.691660998977508,-0.297602405088683,0.428171106749629,0
3.66000366210938,-2.58126831054688,1.83196330070496,2.75165796279907,-2.63719712493647,1.83110413233575,2.77540773763803,2104.825,2104.486,2099.628,2101.411,0.0004489839,-8.721682E-05,0.01029226,-0.71187162399292,-0.258470773696899,0.440763056278229,-0.678873453515702,-0.29210028151913,0.420255006953505,0
3.67999267578125,-2.59526085853577,1.82689905166626,2.7603223323822,-2.65063849381582,1.82532068681534,2.78372858527554,2097.171,2100.982,2102.699,2099.716,0.001126768,-8.665494E-05,0.008483376,-0.699626326560974,-0.253214687108994,0.433223038911819,-0.665986083416798,-0.286555206197011,0.41227711095171,0
3.70001220703125,-2.60900664329529,1.82194018363953,2.76883459091187,-2.66384123964357,1.81963991412768,2.79190171387692,2097.423,2098.841,2097.511,2097.155,0.001795902,-8.602833E-05,0.006683853,-0.687273979187012,-0.247932747006416,0.425614923238754,-0.65298533214413,-0.280961346123326,0.404229026602262,0
3.72000122070313,-2.62250280380249,1.81708765029907,2.77719354629517,-2.6767633032417,1.81407991116207,2.79990108680742,2097.477,2097.376,2092.693,2093.997,0.002420708,-8.570998E-05,0.004876822,-0.674819350242615,-0.242627367377281,0.417945086956024,-0.639917282339434,-0.275338529371411,0.396139281255611,0
3.739990234375,-2.63574814796448,1.81234169006348,2.78539776802063,-2.68942333385363,1.80863265367006,2.80773824883709,2090.385,2094.592,2095.241,2091.961,0.003057632,-8.530937E-05,0.003109236,-0.662263751029968,-0.237307906150818,0.410214602947235,-0.62676873176137,-0.26968107538565,0.387999702095468,0
3.760009765625,-2.64874076843262,1.80770182609558,2.79344630241394,-2.70183851231475,1.80329074921818,2.81542383572149,2090.369,2092.459,2090.622,2089.523,0.003679992,-8.482138E-05,0.001358476,-0.649617671966553,-0.231972709298134,0.402427762746811,-0.613526094901139,-0.263983138701136,0.379801879044709,0
3.77999877929688,-2.6614785194397,1.80316972732544,2.80133819580078,-2.7139695770734,1.79807109095524,2.82293354268985,2090.075,2091.063,2086.452,2086.431,0.004257543,-8.421087E-05,-0.0003872236,-0.636886894702911,-0.22662490606308,0.394590675830841,-0.60023651686137,-0.258265004538452,0.371574997167698,0
3.79998779296875,-2.67395997047424,1.79874396324158,2.80907225608826,-2.72583438304408,1.79296599641037,2.83027842278479,2083.428,2088.146,2088.656,2084.889,0.004845827,-8.355794E-05,-0.002087918,-0.624074757099152,-0.221273720264435,0.386704951524734,-0.586886736182787,-0.252520966862155,0.36331084698941,0
3.82000732421875,-2.68618369102478,1.79442584514618,2.81664776802063,-2.73744929742843,1.78796842323393,2.8374686080838,2083.279,2086.197,2084.484,2082.431,0.005420235,-8.297389E-05,-0.003762514,-0.611192286014557,-0.215917408466339,0.378774881362915,-0.573463232144022,-0.246745208083563,0.355001058539243,0
3.83999633789063,-2.69814872741699,1.79021465778351,2.82406401634216,-2.74877791451009,1.78309403578861,2.84448156171422,2083.193,2084.389,2080.404,2079.934,0.005955295,-8.250343E-05,-0.005428055,-0.5982466340065,-0.210558965802193,0.370806783437729,-0.560014026276881,-0.240958390526246,0.346675359432959,0
3.86001586914063,-2.7098536491394,1.78611028194427,2.83132004737854,-2.7598539723994,1.77832831750807,2.85133816917351,2076.88,2081.898,2082.413,2078.336,0.00650109,-8.179306E-05,-0.007045659,-0.585241317749023,-0.205206125974655,0.362802565097809,-0.546505271550556,-0.235145950758426,0.338312796746137,0
3.8800048828125,-2.72129774093628,1.78211331367493,2.8384153842926,-2.77064299647982,1.77368610185671,2.85801708903178,2078.805,2080.529,2076.601,2075.465,0.007007424,-8.138421E-05,-0.008648349,-0.572187304496765,-0.19985693693161,0.354768633842468,-0.532985466132484,-0.229328756186666,0.329943393154704,0
