t,x_s1,x_s2,x_s3,x_s_d1,x_s_d2,x_s_d3,propellers_rpms1,propellers_rpms2,propellers_rpms3,propellers_rpms4,rollRad,pitchRad,yawRad,v_s1,v_s2,v_s3,v_s_d1,v_s_d2,v_s_d3,insideCount
0,-0.0599999986588955,2.94000005722046,1.17999994754791,-0.0599999986588955,2.94000005722046,1.17999994754791,0,0,0,0,0,0,0,0,0,0,-1.06581410364015E-15,4.44089209850063E-16,4.44089209850063E-16,0
0.019989013671875,-0.0599999986588955,2.94000005722046,1.17811644077301,-0.0600018659130177,2.93999925379318,1.18000110346716,0,0,0,0,-0.01635288,0.0001297794,-0.01587137,-1.10653664009419E-09,-7.76775763711157E-08,-0.0941759571433067,-0.000279680311988734,-0.000120338624884473,0.000173135436141649,5
0.040008544921875,-0.0599999986588955,2.94000005722046,1.17242503166199,-0.060014880898484,2.93999365380853,1.18000916036316,0,0,0,0,-0.03270202,0.0005238493,-0.03175127,-1.08383135799528E-09,-7.60859677484405E-08,-0.284568399190903,-0.00111143977225461,-0.000478221483967637,0.00068803416424398,5
0.05999755859375,-0.0599058866500854,2.93990302085876,1.16596496105194,-0.0600498857373401,2.93997859220429,1.18003083002592,1868.637,3252.903,3183.539,1722.181,-0.04942454,0.000330191,-0.0136961,0.00470551569014788,-0.00484904320910573,-0.32300192117691,-0.00247936261166862,-0.00106680046642749,0.00153484356504269,5
0.079986572265625,-0.0598203726112843,2.93960738182068,1.16000318527222,-0.0601174907153006,2.93994950367094,1.18007268072775,1925.04,2314.229,3252.61,2829.559,-0.07543723,-0.00213692,0.0209493,0.00427562370896339,-0.0147794876247644,-0.298089414834976,-0.00437104534358026,-0.00188073869847162,0.00270588528944111,5
0.100006103515625,-0.0599374510347843,2.93904495239258,1.15498673915863,-0.0602282404704493,2.93990185114529,1.18014124010193,979.8604,1498.825,3915.135,3896.708,-0.1031991,-0.008064052,0.06331196,-0.0058539817109704,-0.0281186141073704,-0.25082266330719,-0.00677739276378709,-0.00291612276782231,0.00419552897277328,4
0.1199951171875,-0.0604638531804085,2.93818354606628,1.15081310272217,-0.0603918861403606,2.93983143898525,1.18024254456713,346.7827,980.5504,4172.278,4613.394,-0.1214359,-0.01542183,0.1040051,-0.0263201259076595,-0.0430696196854115,-0.208680123090744,-0.00967801353495435,-0.00416417885169243,0.00599115140585487,4
0.139984130859375,-0.061563678085804,2.93704128265381,1.14728283882141,-0.0606183773949454,2.93973398612584,1.18038275344299,352.6307,746.7843,3975.87,4855.073,-0.1254035,-0.0211684,0.1351094,-0.054991353303194,-0.0571161657571793,-0.17651554942131,-0.0130632593357409,-0.00562075554695178,0.00808677981816243,4
0.160003662109375,-0.0633409917354584,2.93568086624146,1.14427495002747,-0.0609177895434042,2.93960515744296,1.18056810382587,820.7041,814.7951,3463.009,4692.467,-0.1184558,-0.02352583,0.1522733,-0.088865727186203,-0.0680177286267281,-0.150393575429916,-0.0169265510445065,-0.00728302204135792,0.0104783414199936,3
0.17999267578125,-0.0658470541238785,2.9341721534729,1.14182507991791,-0.0612985250199726,2.93944133760391,1.18080379722281,1349.314,1083.925,3005.585,4255.208,-0.1079784,-0.02277961,0.1557775,-0.125303074717522,-0.0754311233758926,-0.122494615614414,-0.0212433804254414,-0.00914043312572283,0.0131506644458931,3
0.20001220703125,-0.0690852105617523,2.93255376815796,1.140061378479,-0.0617708265342762,2.93923811945689,1.181096174359,1636.322,1380.934,2918.999,3666.222,-0.09982699,-0.02030074,0.1501536,-0.161907717585564,-0.0809157937765121,-0.0881838649511337,-0.0260142813927851,-0.0111932185284278,0.0161040794142088,3
0.220001220703125,-0.0730105862021446,2.93082594871521,1.13903546333313,-0.0623420644491781,2.93899233174064,1.18144979784016,1641.615,1581.027,3147.8,3112.981,-0.09584397,-0.01735422,0.1421842,-0.196268960833549,-0.0863868966698647,-0.0512971505522728,-0.03121219533433,-0.0134297356845702,0.019321835755004,3
0.239990234375,-0.077550396323204,2.92897343635559,1.13863325119019,-0.0630214373585105,2.93870001655724,1.18187036203406,1523.693,1623.991,3418.637,2777.249,-0.09476166,-0.01467828,0.1377317,-0.22699062526226,-0.0926281064748764,-0.0201082676649094,-0.0368316683029241,-0.015847637913056,0.022800557215184,3
0.260009765625,-0.0826393365859985,2.92699217796326,1.13863575458527,-0.0638185570309634,2.93835703823113,1.18236381708338,1438.463,1500.541,3533.796,2744.378,-0.09438775,-0.01258983,0.1393062,-0.254447132349014,-0.0990631654858589,0.000123552978038788,-0.0428699302682246,-0.0184457333472145,0.0265385290140116,3
0.279998779296875,-0.0882451757788658,2.9249005317688,1.13885188102722,-0.0647390625194898,2.93796097043536,1.18293365383054,1401.616,1276.545,3474.974,2977.662,-0.09320957,-0.01110485,0.1456863,-0.280291944742203,-0.104586772620678,0.0108041586354375,-0.0492963837173861,-0.0212108567320638,0.030516809833474,3
0.29998779296875,-0.0943710058927536,2.92273235321045,1.13920676708221,-0.0657918945890516,2.93750796620855,1.18358540703494,1350.46,1061.224,3345.691,3324.891,-0.09053522,-0.009935189,0.1533123,-0.306291669607162,-0.10840829461813,0.0177448354661465,-0.0561078595514081,-0.0241416444928383,0.0347334378503248,3
0.32000732421875,-0.101036429405212,2.92052555084229,1.13972508907318,-0.0669865614821475,2.93699393441958,1.18432496275165,1279.903,940.6004,3238.609,3590.951,-0.08597536,-0.008525311,0.158364,-0.333270817995071,-0.11034531891346,0.0259172562509775,-0.0633036493784043,-0.0272377918282996,0.0391879745362408,3
0.339996337890625,-0.108252018690109,2.91831183433533,1.14046132564545,-0.068326768706371,2.93641728069206,1.18515461486636,1254.037,944.9572,3169.414,3649.704,-0.07944263,-0.006290919,0.158475,-0.360779464244843,-0.110681012272835,0.036809965968132,-0.0708499516420146,-0.0304847548730522,0.0438594951176439,4
0.3599853515625,-0.116003647446632,2.91611456871033,1.14145255088806,-0.0698213312158394,2.93577421219747,1.18607982025561,1319.793,1047.091,3121.291,3497.654,-0.07154742,-0.002961968,0.1534692,-0.38758197426796,-0.109858967363834,0.049562431871891,-0.0787457139191101,-0.0338820807988248,0.0487473480944833,4
0.3800048828125,-0.12425209581852,2.91394948959351,1.14270782470703,-0.0714797725314022,2.93506063123087,1.18710647443246,1454.277,1181.089,3091.933,3231.736,-0.06360801,0.001258194,0.1450389,-0.412422508001328,-0.108258984982967,0.0627615824341774,-0.0869921272359981,-0.0374302820709642,0.0538522707687797,4
0.399993896484375,-0.132943853735924,2.91182613372803,1.14421689510345,-0.0733036822025899,2.9342758538535,1.18823556140379,1580.879,1274.452,3102.868,2981.496,-0.05701242,0.005828485,0.1357432,-0.434587806463242,-0.106165520846844,0.0754523351788521,-0.0955525119207663,-0.0411135764513579,0.0591515566763244,4
0.41998291015625,-0.142024263739586,2.90975022315979,1.14595770835876,-0.075301871434707,2.93341608884986,1.18947253572543,1631.368,1288.453,3159.692,2844.282,-0.0524403,0.01017697,0.1278524,-0.45402055978775,-0.103800937533379,0.0870389044284821,-0.104427768518458,-0.0449323514193797,0.064645763297398,4
0.44000244140625,-0.151446714997292,2.90772438049316,1.14789593219757,-0.077483988232608,2.93247718495301,1.19082336997196,1605.194,1237.412,3220.722,2843.924,-0.0496541,0.01397351,0.1224649,-0.471122920513153,-0.101291052997112,0.0969089269638062,-0.113620829717891,-0.048887868829098,0.0703367061060819,4
0.459991455078125,-0.161177352070808,2.90575170516968,1.14999663829803,-0.0798493430620752,2.93145943885026,1.19228763728888,1543.01,1158.925,3250.807,2937.914,-0.04788097,0.01718818,0.1193371,-0.486531883478165,-0.0986383557319641,0.10503725707531,-0.123092454730403,-0.0529632444654124,0.0762000931848968,4
0.480010986328125,-0.171194210648537,2.90383625030518,1.15223896503448,-0.0824109101018722,2.93035726811493,1.19387336931088,1474.568,1086.092,3248.95,3066.279,-0.04628787,0.01998886,0.117373,-0.500842094421387,-0.0957757532596588,0.112117514014244,-0.132860437136906,-0.0571661344090936,0.082246939608052,5
0.5,-0.181481584906578,2.90198349952698,1.15461540222168,-0.085166398670376,2.92917165836334,1.1955791479969,1431.657,1046.433,3215.827,3170.185,-0.04434429,0.0226443,0.1152203,-0.514369070529938,-0.0926373973488808,0.118824362754822,-0.142884000065179,-0.0614789935111996,0.0884520025491718,5
0.519989013671875,-0.192024812102318,2.9001989364624,1.15713489055634,-0.0881248588203387,2.92789871561062,1.19741057576073,1422.813,1044.811,3178.841,3210.024,-0.04193094,0.02537775,0.1118872,-0.527161657810211,-0.0892281457781792,0.125977367162704,-0.153166947611899,-0.0659034585682559,0.0948176369253132,5
0.540008544921875,-0.20280510187149,2.89848613739014,1.15981030464172,-0.0912963635428427,2.92653410573011,1.19937388826368,1443.885,1072.785,3149.869,3185.654,-0.03929068,0.0282863,0.1070598,-0.539015114307404,-0.0856432765722275,0.133771315217018,-0.163714777034477,-0.0704418948965508,0.101347245800684,5
0.55999755859375,-0.213798314332962,2.89684557914734,1.16265225410461,-0.094676112580471,2.92507989413848,1.20146611391775,1487.081,1114.645,3135.761,3113.366,-0.03687626,0.03133059,0.1010576,-0.54966002702713,-0.082033708691597,0.142098411917686,-0.17448465888317,-0.0750758741803766,0.108014315705644,5
0.579986572265625,-0.224976599216461,2.89527416229248,1.16566753387451,-0.0982734311149,2.92353206847056,1.2036930254546,1521.589,1148.746,3146.535,3034.012,-0.03512869,0.03434681,0.09465341,-0.558915138244629,-0.0785747766494751,0.150766760110855,-0.185481935470438,-0.0798076950675377,0.114822153786096,5
0.600006103515625,-0.236311316490173,2.8937656879425,1.16885149478912,-0.102098762959148,2.92188613504538,1.20606108809202,1537.234,1166.304,3164.986,2981.47,-0.03429352,0.03715723,0.08862633,-0.566735625267029,-0.075418658554554,0.159200116991997,-0.196713446836865,-0.0846403006364086,0.121774994352997,5
0.6199951171875,-0.247776582837105,2.8923122882843,1.17219388484955,-0.106144683970236,2.92014528826426,1.20856570593183,1537.097,1167.929,3179.941,2963.24,-0.0344139,0.03963423,0.08345228,-0.573264420032501,-0.0726645365357399,0.16711762547493,-0.208134604141382,-0.0895545055543457,0.128845234789665,5
0.639984130859375,-0.259351879358292,2.89090466499329,1.17568683624268,-0.110420882305709,2.91830535958365,1.21121287640506,1507.292,1156.523,3195.855,2985.409,-0.03534387,0.04170081,0.07928772,-0.57876443862915,-0.0703783333301544,0.174648612737656,-0.219752140575416,-0.0945532069255159,0.136037043262338,5
0.660003662109375,-0.271021693944931,2.88953280448914,1.17932069301605,-0.114938248900541,2.91636166293851,1.21400934151928,1463.808,1143.768,3198.978,3033.325,-0.03677719,0.04338346,0.07591001,-0.583489000797272,-0.068595789372921,0.181695088744164,-0.231574097577923,-0.0996398647564507,0.143355397804799,5
0.67999267578125,-0.282774537801743,2.88818645477295,1.18308889865875,-0.119686638739014,2.91431856344567,1.21694882102647,1432.573,1140.179,3187.952,3073.898,-0.03843367,0.04478088,0.07287436,-0.587644100189209,-0.0673229545354843,0.188409611582756,-0.243554411173546,-0.104794659005432,0.150771782621969,5
0.70001220703125,-0.294601529836655,2.88685512542725,1.18699204921722,-0.124683985757554,2.91216834463331,1.22004241688759,1404.832,1146.324,3178.407,3100.706,-0.04016792,0.04596996,0.06984998,-0.591348111629486,-0.066571056842804,0.195159435272217,-0.255719729227087,-0.11002905550423,0.158302694011575,5
0.720001220703125,-0.306493699550629,2.88552808761597,1.19102811813354,-0.129918284978346,2.90991617190799,1.22328269744952,1392.66,1162.851,3162.656,3108.528,-0.04195065,0.04702006,0.06662932,-0.594608247280121,-0.0663567259907722,0.201800629496574,-0.268023157655716,-0.11532287703907,0.16591910230247,5
0.739990234375,-0.318442076444626,2.88419389724731,1.19519972801208,-0.135400001298574,2.90755754251682,1.2266761409821,1391.41,1184.962,3155.388,3093.282,-0.04385161,0.04794991,0.06322219,-0.597421288490295,-0.0667105615139008,0.208579793572426,-0.280473432677602,-0.12067988256057,0.173626415629864,5
0.760009765625,-0.330437242984772,2.88284063339233,1.19950532913208,-0.141140917956636,2.9050873864615,1.23023004187122,1389.148,1207.065,3150.923,3076.863,-0.04600664,0.04872901,0.05982693,-0.599756360054016,-0.0676671266555786,0.215278059244156,-0.293080296154222,-0.126104263719567,0.181430664670081,5
0.779998779296875,-0.342469990253448,2.88145542144775,1.20394170284271,-0.147126184485884,2.90251209348295,1.23393520697061,1392.183,1226.936,3147.608,3057.073,-0.04852599,0.04932178,0.05664521,-0.601638793945313,-0.0692578032612801,0.221816301345825,-0.305795832832518,-0.131575403921268,0.189302187598958,5
0.79998779296875,-0.354533016681671,2.88002490997314,1.20850849151611,-0.153366821193532,2.89982692185086,1.2377984583754,1375.115,1240.866,3154.89,3052.707,-0.05147198,0.04966269,0.05393084,-0.603151261806488,-0.0715204179286957,0.228339716792107,-0.318629798715703,-0.137097500901303,0.197247023847227,5
0.82000732421875,-0.366620868444443,2.8785355091095,1.21319901943207,-0.159875221826383,2.89702653888221,1.24182746840525,1347.522,1250.321,3157.942,3065.957,-0.05475459,0.04973364,0.05177502,-0.604392349720001,-0.0744701027870178,0.234528064727783,-0.331592781842754,-0.14267511039705,0.205271727915392,4
0.839996337890625,-0.378730654716492,2.8769736289978,1.21800625324249,-0.166633637018892,2.89411858163313,1.24601124935738,1330.274,1259.779,3153.28,3076.661,-0.05824546,0.04956219,0.05009498,-0.605488896369934,-0.078096978366375,0.240361005067825,-0.344636106234817,-0.148287288494656,0.213346167053785,4
0.8599853515625,-0.390861839056015,2.87532567977905,1.22292864322662,-0.173653699721778,2.89109804476993,1.25035700258242,1301.1,1269.461,3153.008,3095.17,-0.06187322,0.04915366,0.04885297,-0.606557965278625,-0.0823922231793404,0.246120482683182,-0.357770416714212,-0.153938615363784,0.221476930914505,4
0.8800048828125,-0.403015226125717,2.87357902526855,1.22796070575714,-0.180948461186242,2.88795931270381,1.25487280742661,1272.634,1280.549,3146.952,3116.91,-0.0655143,0.04855064,0.04792803,-0.607669651508331,-0.0873274058103561,0.251603633165359,-0.371007022483504,-0.159633957038354,0.229671020432672,4
0.899993896484375,-0.415192842483521,2.87172174453735,1.23309803009033,-0.18849723509595,2.8847112861788,1.25954585807468,1264.249,1295.357,3135.757,3121.476,-0.06909838,0.04781133,0.04716656,-0.608880400657654,-0.0928670540452003,0.256867587566376,-0.384296738353309,-0.165352150505452,0.237897987633041,4
0.91998291015625,-0.42739737033844,2.86974191665649,1.23834228515625,-0.196312316554895,2.88134867495511,1.26438376578173,1247.311,1311.204,3133.61,3126.07,-0.07266381,0.04693687,0.0466003,-0.610225915908813,-0.0989940986037254,0.262211561203003,-0.397650971463704,-0.171098103938772,0.246164894078718,4
0.94000244140625,-0.43963161110878,2.86762833595276,1.24368977546692,-0.204407453948074,2.87786556348678,1.26939504145298,1230.911,1326.113,3129.813,3132.725,-0.07618611,0.04594413,0.04624629,-0.611712455749512,-0.105674654245377,0.267374485731125,-0.411081631631503,-0.176876941799768,0.254479112513653,4
0.959991455078125,-0.451898962259293,2.86537098884583,1.24913680553436,-0.212759000778906,2.87427212620069,1.27456504678061,1231.693,1341.049,3123.269,3126.429,-0.07966048,0.04485702,0.04609171,-0.613368272781372,-0.112871959805489,0.272353202104568,-0.424539267042903,-0.182667386354485,0.262810029909387,3
0.980010986328125,-0.464203655719757,2.86295962333679,1.25468504428864,-0.221393324468958,2.87055701793193,1.27991010445463,1217.492,1353.711,3126.275,3129.042,-0.08314815,0.04364722,0.04626322,-0.615233778953552,-0.120568349957466,0.277411788702011,-0.438056556301695,-0.188483498293199,0.271177875878363,3
1,-0.476550340652466,2.86038541793823,1.260329246521,-0.230284798736574,2.86673126495361,1.28541435058594,1204.07,1363.733,3123.544,3138.91,-0.08661399,0.04232555,0.04677447,-0.617335677146912,-0.128715813159943,0.282211363315582,-0.451584000205995,-0.194303979492187,0.279552008056641,3
1.01998901367188,-0.488945215940475,2.85763955116272,1.2660698890686,-0.239446912293295,2.86278906344998,1.29108613532954,1191.144,1372.112,3126.769,3144.95,-0.08998714,0.04090438,0.04760811,-0.619743943214417,-0.137289702892303,0.287034958600998,-0.46513400752272,-0.200134169097193,0.287940108062054,3
1.04000854492188,-0.501394867897034,2.85471487045288,1.27190327644348,-0.248894644448595,2.85872396824263,1.29693473159157,1175.256,1379.664,3125.017,3159.772,-0.09322289,0.03939983,0.04874509,-0.622483134269714,-0.146230459213257,0.291668623685837,-0.47871923339115,-0.205979512261105,0.296350010028666,3
1.05999755859375,-0.513906717300415,2.85160517692566,1.27782618999481,-0.258599401509697,2.85454828239877,1.30294243851408,1175.949,1387.721,3118.385,3163.869,-0.09628339,0.03785311,0.05007616,-0.625592887401581,-0.155480727553368,0.2961465716362,-0.492290296490434,-0.211818761581115,0.30475114456651,3
1.07998657226563,-0.526488900184631,2.84830498695374,1.28384244441986,-0.268575430648764,2.85025587575821,1.30911807577533,1163.195,1395.236,3121.379,3173.674,-0.09920008,0.03625964,0.05162461,-0.629108667373657,-0.165014505386353,0.300813108682632,-0.50586005237609,-0.217657448443621,0.313151469876847,3
1.10000610351563,-0.539149343967438,2.84480953216553,1.28995025157928,-0.278838480013141,2.84583997233313,1.31547139222872,1150.266,1401.351,3121.656,3187.383,-0.1019107,0.03464695,0.05334697,-0.633023619651794,-0.174773901700974,0.305391132831573,-0.519441457145546,-0.223501147495394,0.321559006401169,3
1.1199951171875,-0.551896333694458,2.84111547470093,1.29614770412445,-0.289357002179081,2.84131414609862,1.32198285851614,1158.688,1408.34,3117.023,3185.303,-0.1043821,0.03305797,0.05514813,-0.63734644651413,-0.184701338410378,0.309875577688217,-0.532985466132485,-0.229328756186667,0.329943393154705,3
1.13998413085938,-0.564738094806671,2.83721995353699,1.30243945121765,-0.300146026259498,2.83667193044725,1.3286617783744,1153.954,1414.108,3122.028,3189.449,-0.1066846,0.03147422,0.05710192,-0.64208972454071,-0.194771379232407,0.314590275287628,-0.546505271550557,-0.235145950758426,0.338312796746137,3
1.16000366210938,-0.577682673931122,2.83312153816223,1.30882453918457,-0.311222084148811,2.83190621216671,1.33551838583369,1147.484,1417.487,3124.391,3199.945,-0.1087885,0.02990776,0.05920649,-0.647233545780182,-0.204925701022148,0.319256693124771,-0.560014026276883,-0.240958390526247,0.34667535943296,3
1.17999267578125,-0.590738475322723,2.82881927490234,1.3153018951416,-0.322550701230474,2.8270318247214,1.34253133946411,1159.103,1421.076,3121.652,3198.517,-0.1106815,0.02839064,0.06138528,-0.652786433696747,-0.215109899640083,0.323870122432709,-0.573463232144024,-0.246745208083563,0.355001058539242,3
1.20001220703125,-0.6039137840271,2.82431316375732,1.32187736034393,-0.334165615614823,2.82203425154496,1.34972152476313,1154.954,1422.952,3129.27,3205.275,-0.1124216,0.02689992,0.0637025,-0.658767759799957,-0.225307881832123,0.328772097826004,-0.586886736182789,-0.252520966862155,0.363310846989412,3
1.22000122070313,-0.617216765880585,2.81960391998291,1.3285493850708,-0.346030421585499,2.81692915700008,1.35706640485806,1154.133,1423.69,3130.126,3215.998,-0.1139785,0.02545693,0.06611535,-0.665149390697479,-0.23545840382576,0.33360293507576,-0.600236516861372,-0.258265004538453,0.371574997167698,3
1.239990234375,-0.630655944347382,2.81469297409058,1.33532249927521,-0.358161486344149,2.81170949873715,1.36457611182642,1155.711,1423.283,3137.599,3219.703,-0.1153048,0.02407623,0.06858141,-0.671957015991211,-0.24554306268692,0.338656693696976,-0.613526094901141,-0.263983138701136,0.379801879044709,2
1.260009765625,-0.644238948822021,2.80958294868469,1.34219670295715,-0.37057666480527,2.80636759428526,1.37226169871082,1156.479,1422.891,3139.974,3229.165,-0.1163998,0.02276824,0.07108464,-0.679154276847839,-0.255503177642822,0.34371018409729,-0.626768731761373,-0.26968107538565,0.387999702095469,2
1.27999877929688,-0.657973647117615,2.80427718162537,1.34917235374451,-0.383236695417198,2.80092033679326,1.3800988607405,1173.579,1423.537,3136.989,3227.872,-0.1172888,0.02156096,0.07354176,-0.686731994152069,-0.265289634466171,0.348781019449234,-0.639917282339435,-0.275338529371412,0.396139281255613,2
1.29998779296875,-0.671867549419403,2.79877901077271,1.35625720024109,-0.396158759015336,2.79536033382764,1.388098233671,1173.726,1422.299,3146.591,3233.611,-0.1180435,0.02042687,0.07601264,-0.694697499275208,-0.274904251098633,0.354244440793991,-0.652985332144132,-0.280961346123326,0.404229026602261,2
1.32000732421875,-0.68592756986618,2.79309272766113,1.36345279216766,-0.409361504843077,2.78967956113998,1.39627136227237,1171.537,1419.592,3153.719,3244.277,-0.118614,0.01937795,0.07847971,-0.703000426292419,-0.28430837392807,0.359777510166168,-0.6659860834168,-0.286555206197011,0.41227711095171,2
1.33999633789063,-0.700160026550293,2.78722357749939,1.37075877189636,-0.422802873722428,2.78389611561957,1.40459220990988,1190.404,1418.593,3152.997,3240.713,-0.1189826,0.01844861,0.08085373,-0.711618781089783,-0.293458193540573,0.365301012992859,-0.678873453515705,-0.29210028151913,0.420255006953505,2
1.3599853515625,-0.714571058750153,2.78117656707764,1.37818217277527,-0.436500861174643,2.77800225429635,1.41307191666844,1195.257,1415.838,3162.634,3243.392,-0.1192249,0.01760655,0.08320517,-0.72055596113205,-0.302355349063873,0.371172100305557,-0.69166099897751,-0.297602405088682,0.428171106749628,2
1.3800048828125,-0.729166328907013,2.77495718002319,1.38572430610657,-0.450474904562636,2.77198961381608,1.4217225152016,1196.508,1411.746,3169.086,3252.953,-0.1193224,0.01685431,0.08552998,-0.729761123657227,-0.310966074466705,0.37710565328598,-0.704361775018035,-0.303067194200314,0.436033492140578,2
1.39999389648438,-0.743950664997101,2.76857209205627,1.39338541030884,-0.464680216184654,2.76587746507559,1.43051627978847,1215.304,1409.432,3168.476,3250.73,-0.1192745,0.01621932,0.08774213,-0.739215910434723,-0.319258123636246,0.383057534694672,-0.716930938559026,-0.308475354130225,0.443814403124744,2
1.41998291015625,-0.758929193019867,2.76202726364136,1.40117311477661,-0.479135601808478,2.75965771647838,1.43946485209513,1218.276,1405.109,3179.672,3254.885,-0.1191408,0.01566907,0.08990252,-0.748926639556885,-0.327247023582458,0.389386296272278,-0.729381927869995,-0.313832666990362,0.451522158631107,2
1.44000244140625,-0.774105846881866,2.75532913208008,1.40908849239349,-0.493861275572861,2.75332167044526,1.4485807456364,1218.847,1400.046,3187.052,3264.349,-0.1188766,0.01521068,0.09199559,-0.758834004402161,-0.334908694028854,0.395767271518707,-0.741727567798258,-0.319144650954242,0.459164697851088,2
1.45999145507813,-0.789484083652496,2.74848484992981,1.41713106632233,-0.508809800712713,2.74688973769103,1.45783459479497,1239.323,1397.58,3185.691,3260.456,-0.1184808,0.01487423,0.09393115,-0.768911242485046,-0.342214107513428,0.402129173278809,-0.753924423002454,-0.324392617007921,0.466715132239272,2
1.48001098632813,-0.805067360401154,2.74150109291077,1.42530810832977,-0.524024159888143,2.74034342397783,1.467253007885,1244.398,1393.044,3196.372,3262.418,-0.1180254,0.0146222,0.09577927,-0.779163956642151,-0.349184811115265,0.408854007720947,-0.766004036374583,-0.329590137176618,0.474192988348404,2
1.5,-0.82085782289505,2.73438501358032,1.43361926078796,-0.539455198877605,2.73370387899399,1.4768055561018,1251.141,1389.101,3199.371,3268.361,-0.1175109,0.01446045,0.09752373,-0.789522111415863,-0.355798721313477,0.415557980537415,-0.777924000354858,-0.334718964672088,0.481572013878822,1
1.51998901367188,-0.836857736110687,2.72714352607727,1.44206953048706,-0.555123050061237,2.72696244033876,1.48650470234772,1257.771,1383.677,3210.071,3268.046,-0.1169026,0.01438745,0.09915239,-0.799996256828308,-0.36207589507103,0.422514468431473,-0.789697369743256,-0.339784716610053,0.488860290373601,1
1.54000854492188,-0.853068172931671,2.71978354454041,1.45065855979919,-0.571049184024557,2.72010986981902,1.49636373793799,1263.347,1379.011,3214.587,3273.086,-0.1161996,0.01440077,0.1006711,-0.810523569583893,-0.367996245622635,0.429453730583191,-0.801336412291853,-0.344792671461508,0.496065412155667,1
1.55999755859375,-0.869489789009094,2.71231269836426,1.45938575267792,-0.587181951496087,2.71316839067337,1.50635068951315,1284.273,1376.846,3211.416,3268.439,-0.1154496,0.01451538,0.102016,-0.82108074426651,-0.373543441295624,0.436359912157059,-0.812800388649436,-0.349725300221754,0.503162159625937,1
1.57998657226563,-0.886123359203339,2.70473742485046,1.46825850009918,-0.603542258451077,2.7061290076447,1.51647849886779,1286.073,1371.683,3223.258,3270.85,-0.1147178,0.01468757,0.1032659,-0.831682622432709,-0.37875908613205,0.443640470504761,-0.82410201904291,-0.354588076049064,0.510158407210813,0
1.60000610351563,-0.902968645095825,2.69706439971924,1.47727692127228,-0.620152298932711,2.69898217125626,1.52676090517188,1283.615,1366.037,3231.611,3279.134,-0.1139423,0.01492061,0.1044205,-0.842261791229248,-0.383645743131638,0.450923770666122,-0.835253140422976,-0.35938609205264,0.51706148254665,0
1.6199951171875,-0.920024335384369,2.68930053710938,1.48643851280212,-0.636958033083316,2.69175113334911,1.53716445517924,1302.793,1363.84,3228.998,3273.27,-0.1131066,0.01524581,0.1053923,-0.852786839008331,-0.388188451528549,0.458077967166901,-0.846214826007804,-0.364102599125749,0.523847288101157,0
1.63998413085938,-0.937289834022522,2.68145203590393,1.49574863910675,-0.653981118189727,2.68442657539777,1.54770255578211,1307.576,1359.323,3238.47,3272.358,-0.1122794,0.01562156,0.1062591,-0.863273203372955,-0.392420560121536,0.465503543615341,-0.856999388527105,-0.368742895092007,0.53052344604056,0
1.66000366210938,-0.954763054847717,2.67352509498596,1.50520634651184,-0.671244443874359,2.67699864863716,1.55838937674714,1306.746,1354.422,3244.058,3279.408,-0.1114394,0.01604199,0.1070353,-0.873660326004028,-0.396344423294067,0.472884684801102,-0.867618167158098,-0.373311858882592,0.53709697585572,0
1.67999267578125,-0.972441494464874,2.66552591323853,1.51480913162231,-0.688691692550512,2.66949158495151,1.56919005480539,1323.953,1352.657,3240.511,3274.38,-0.1105904,0.01653207,0.1076398,-0.883926749229431,-0.399954557418823,0.480141222476959,-0.878034183119987,-0.377793579561193,0.543544985919778,0
1.70001220703125,-0.99032336473465,2.65745997428894,1.52456259727478,-0.706372354049449,2.66188409024902,1.58013522651994,1324.694,1348.195,3250.949,3274.489,-0.1097798,0.01705129,0.1081493,-0.894093632698059,-0.403295040130615,0.487672179937363,-0.888274735793774,-0.382199803288802,0.549884375850026,0
1.72000122070313,-1.00840520858765,2.64933276176453,1.53446316719055,-0.724228658537036,2.6542010212754,1.5911891296115,1327.174,1345.235,3251.817,3279.052,-0.1089931,0.01760566,0.1085532,-0.904088735580444,-0.40636470913887,0.495031416416168,-0.898304216251578,-0.386515208538549,0.556093102023817,0
1.739990234375,-1.02668380737305,2.64114880561829,1.54451322555542,-0.74228345468553,2.64643254688532,1.60236590849663,1330.998,1340.995,3260.052,3275.931,-0.1081819,0.01819509,0.1088413,-0.913936078548431,-0.40919503569603,0.502503752708435,-0.908134108040217,-0.390744736359816,0.562178273303667,0
1.760009765625,-1.04515540599823,2.63291311264038,1.55470955371857,-0.760560719141003,2.63856835059778,1.61368040586141,1333.166,1337.927,3261.356,3279.049,-0.1073504,0.01881366,0.1090301,-0.923579335212708,-0.411780834197998,0.509814441204071,-0.91777478390713,-0.394892849856044,0.568146310914365,0
1.77999877929688,-1.06381559371948,2.62463045120239,1.5650486946106,-0.779000609654483,2.63063418086074,1.62509557650306,1350.346,1337.834,3254.481,3272.807,-0.1065509,0.01947449,0.1090594,-0.933006167411804,-0.414117574691772,0.516955137252808,-0.927192788821983,-0.398945154262308,0.57397650459845,0
1.79998779296875,-1.08266043663025,2.6163055896759,1.57553613185883,-0.797626646773287,2.62261991743975,1.63662598076079,1347.051,1334.326,3264.595,3273.312,-0.1058388,0.02013202,0.1090174,-0.942249596118927,-0.416259527206421,0.524369895458221,-0.936399026186941,-0.402906341007953,0.579675604081262,0
1.82000732421875,-1.10168552398682,2.60794115066528,1.58616888523102,-0.816463410111527,2.61451498441355,1.64828683458664,1338.666,1330.649,3270.264,3280.917,-0.1051395,0.02079058,0.1089119,-0.951247334480286,-0.418222308158875,0.531635105609894,-0.94540321420156,-0.406780591562751,0.585249625391268,0
1.83999633789063,-1.12088513374329,2.59954118728638,1.59694123268127,-0.835449117627072,2.60634596486888,1.66003989195343,1354.39,1330.904,3263.938,3272.533,-0.1044247,0.02148645,0.1086511,-0.959980249404907,-0.419997572898865,0.538616895675659,-0.954174163352093,-0.410554485950274,0.590679260733698,0
1.8599853515625,-1.14025461673737,2.59110879898071,1.60785615444183,-0.854607925216182,2.59810246519841,1.67190010651166,1354.775,1328.646,3270.622,3269.475,-0.1037642,0.02217482,0.1083265,-0.968479931354523,-0.421621471643448,0.545748889446259,-0.962722140342816,-0.41423244164655,0.595970865687568,0
1.8800048828125,-1.15978860855103,2.58264684677124,1.61890995502472,-0.873964974649439,2.58977366760063,1.68388304221498,1348.417,1326.064,3272.917,3275.937,-0.1031341,0.02284991,0.1079608,-0.976697146892548,-0.423102527856827,0.552692711353302,-0.971056158224177,-0.417818336715394,0.601130019760457,0
1.89999389648438,-1.17948126792908,2.57415819168091,1.63009738922119,-0.893456683142228,2.58138692997148,1.69594933829086,1361.228,1326.751,3265.727,3269.522,-0.1025296,0.02354055,0.1074686,-0.984626054763794,-0.424438118934631,0.559373915195465,-0.979147395688901,-0.421299770153459,0.606138881190213,0
1.91998291015625,-1.19932734966278,2.56564474105835,1.64142179489136,-0.91310780215452,2.5729316024492,1.70811431707208,1356.597,1324.683,3273.559,3268.383,-0.1019927,0.02420663,0.106933,-0.992304563522339,-0.425672829151154,0.566222906112671,-0.98700543065471,-0.424680863071164,0.611003379164165,0
1.94000244140625,-1.21932077407837,2.5571084022522,1.65287852287292,-0.932943991899774,2.5643966441608,1.72039386345315,1347.376,1322.606,3276.042,3274.999,-0.1014643,0.02485202,0.1063645,-0.999679982662201,-0.42681473493576,0.572836339473724,-0.994638524886308,-0.427965170275055,0.615728628108227,0
1.95999145507813,-1.23945569992065,2.54855132102966,1.66446089744568,-0.952900013794853,2.55581012544606,1.73274759164336,1361.282,1324.24,3267.111,3266.522,-0.1009327,0.0255112,0.105671,-1.00674438476563,-0.427852690219879,0.579115986824036,-1.00202031904361,-0.431141350077486,0.620298310335216,0
1.98001098632813,-1.25972652435303,2.53997492790222,1.6761714220047,-0.973031969359004,2.54714790738853,1.74521023115561,1357.86,1323.254,3272.864,3263.834,-0.1004651,0.02613972,0.1049455,-1.01353883743286,-0.428823977708817,0.585529267787933,-1.00917036754089,-0.434217816196637,0.624724530959079,0
2,-1.28012681007385,2.53138041496277,1.68800389766693,-0.993273599084619,2.53843849960327,1.7577407641983,1353.797,1323.431,3269.226,3268.307,-0.100056,0.0267425,0.1041887,-1.02000880241394,-0.429728448390961,0.591622173786163,-1.01606400046349,-0.437183953857422,0.628992018127441,0
2.01998901367188,-1.30065083503723,2.52276849746704,1.69995832443237,-1.01365055070775,2.52967086658596,1.77035506794184,1350.831,1322.069,3274.659,3264.025,-0.09963898,0.02732377,0.103388,-1.02619981765747,-0.430596977472305,0.597720742225647,-1.02270954399163,-0.440043345582587,0.633105926142498,0
2.04000854492188,-1.32129216194153,2.51414012908936,1.71202838420868,-1.03418924440916,2.52083364047092,1.78306949773667,1345.825,1321.836,3272.53,3267.076,-0.09920222,0.02788265,0.1025625,-1.03206789493561,-0.431420117616653,0.603504478931427,-1.02911391720548,-0.442798968459032,0.637070538244476,0
2.05999755859375,-1.3420444726944,2.50549650192261,1.72420763969421,-1.05482201812353,2.5119559343546,1.79584216754118,1359.262,1324.527,3261.392,3258.567,-0.09878197,0.02844102,0.1016412,-1.03761613368988,-0.432183742523193,0.60896235704422,-1.03525504859546,-0.445441325732794,0.640872191117535,0
2.07998657226563,-1.36290216445923,2.49683785438538,1.73649930953979,-1.07557499515204,2.50302650811029,1.80868924892322,1351.25,1324.142,3267.507,3257.643,-0.09844375,0.02895291,0.1007219,-1.04289209842682,-0.432930290699005,0.614582777023315,-1.04114045847258,-0.4479736531836,0.644515540192423,0
2.10000610351563,-1.38385915756226,2.48816442489624,1.74889802932739,-1.09647498538954,2.49403382618922,1.82162733848484,1336.773,1323.205,3269.418,3265.542,-0.09811245,0.02942569,0.09981497,-1.04785108566284,-0.433667242527008,0.619935810565948,-1.04677621342161,-0.450398561093403,0.648004340974112,0
2.1199951171875,-1.40490889549255,2.47947692871094,1.76139581203461,-1.11745308225396,2.48500753716864,1.83461377976925,1348.17,1325.677,3259.658,3256.144,-0.09774547,0.02990222,0.09881753,-1.05249011516571,-0.434377759695053,0.624891400337219,-1.0521429102862,-0.45270770082608,0.651326581984514,0
2.13998413085938,-1.4260458946228,2.47077512741089,1.77399408817291,-1.13853583516761,2.47593621757383,1.84766500813359,1343.767,1326.037,3263.345,3252.035,-0.09741044,0.03034128,0.09782406,-1.05685126781464,-0.435087084770203,0.629914164543152,-1.05724722779031,-0.454903946049977,0.654486397671922,0
2.16000366210938,-1.44726395606995,2.46205925941467,1.78668689727783,-1.15975039167652,2.46680818657414,1.86079782920208,1332.36,1325.773,3262.3,3258.548,-0.09707755,0.03074155,0.09685727,-1.06089699268341,-0.435791224241257,0.634639799594879,-1.0620943502576,-0.456989527434725,0.657486997379635,0
2.17999267578125,-1.46855664253235,2.45332980155945,1.7994669675827,-1.18102676265167,2.45765355853653,1.8739689163698,1342.72,1328.243,3251.927,3250.336,-0.09673081,0.03113823,0.09582182,-1.06463479995728,-0.436474978923798,0.639005482196808,-1.06666760390386,-0.458957270716794,0.660318059240953,0
2.19998168945313,-1.48991882801056,2.44458651542664,1.81233644485474,-1.20239187218348,2.44846074877705,1.8871949369313,1334.543,1328.432,3256.66,3248.335,-0.09642348,0.03149244,0.09480779,-1.06810927391052,-0.437168926000595,0.643473207950592,-1.07097279461286,-0.460809674005774,0.6629831773745,0
2.22000122070313,-1.51134443283081,2.43582916259766,1.82528901100159,-1.22387315175433,2.43921795429519,1.90049287228091,1320.994,1328.099,3256.131,3255.492,-0.09609431,0.03181119,0.09382358,-1.07128059864044,-0.437867879867554,0.647626101970673,-1.07501419914593,-0.462548577472581,0.665484999299265,0
2.239990234375,-1.53282737731934,2.42705821990967,1.83831667900085,-1.24539969505118,2.42995568409656,1.91381882803312,1332.715,1330.725,3245.044,3245.589,-0.09571667,0.03213496,0.09276562,-1.07415330410004,-0.438549816608429,0.651382923126221,-1.07877792518082,-0.464168003639063,0.667814925005999,0
2.260009765625,-1.55436277389526,2.41827344894409,1.85142111778259,-1.26703177594152,2.42064800401982,1.92721011658316,1326.349,1331.353,3248.329,3242.231,-0.09536247,0.03242232,0.09173132,-1.07676947116852,-0.439238280057907,0.655223786830902,-1.08227399942825,-0.465672266718726,0.669979161506271,0
2.27999877929688,-1.57594442367554,2.40947508811951,1.86459469795227,-1.28869796983554,2.41132564607061,1.9406225227075,1319.737,1332.479,3242.136,3246.605,-0.09502371,0.03268177,0.09071654,-1.07908511161804,-0.439917862415314,0.658677041530609,-1.08549040888332,-0.467056197851165,0.67197027217779,0
2.29998779296875,-1.59756755828857,2.40066289901733,1.87783670425415,-1.31042570636616,2.40197680804417,1.95407302665558,1315.299,1332.11,3245.231,3241.227,-0.09463277,0.03292196,0.08970133,-1.0811505317688,-0.440606623888016,0.662098586559296,-1.08843144721369,-0.468321644481621,0.673790915005368,0
2.32000732421875,-1.61922609806061,2.39183735847473,1.89114010334015,-1.33224276726637,2.39258953623693,1.96757882664355,1308.039,1332.588,3240.971,3244.269,-0.0941795,0.03314333,0.08870442,-1.08292973041534,-0.441282153129578,0.665167927742004,-1.09109983431736,-0.469469776906228,0.675442773735451,0
2.33999633789063,-1.64091455936432,2.38299894332886,1.90449774265289,-1.35407709248145,2.38319483607731,1.98109531406483,1320.747,1335.214,3228.458,3234.461,-0.09369214,0.03337217,0.08764689,-1.08443093299866,-0.441919952630997,0.667881190776825,-1.09348640563071,-0.470496651869278,0.67692017506657,0
2.3599853515625,-1.66262865066528,2.37414789199829,1.91791248321533,-1.37595634130987,2.37378080654189,1.99463961134278,1311.535,1335.508,3232.559,3232.863,-0.09324419,0.03356537,0.08662815,-1.08569777011871,-0.442549288272858,0.670735895633698,-1.09559452046326,-0.471403714787811,0.678225198571351,0
2.3800048828125,-1.68436241149902,2.36528444290161,1.93137836456299,-1.39790843013262,2.36433543599182,2.00822900004707,1295.692,1334.738,3232.492,3240.914,-0.09276269,0.03373223,0.08565371,-1.08669340610504,-0.443164169788361,0.67329466342926,-1.09742594550583,-0.472191725819537,0.679358937915576,0
2.39999389648438,-1.70611095428467,2.35640978813171,1.94488728046417,-1.41986083522252,2.35488992936084,2.02181858453579,1307.466,1336.515,3221.808,3229.948,-0.09219544,0.03391809,0.08461104,-1.08742070198059,-0.443739235401154,0.675447463989258,-1.09897439291323,-0.472857979480329,0.680317500623536,0
2.41998291015625,-1.72786927223206,2.34752368927002,1.95844054222107,-1.4418413890156,2.34543231112926,2.03542559441269,1302.503,1336.915,3223.916,3225.333,-0.0916202,0.03408334,0.08359786,-1.08791506290436,-0.444288969039917,0.677662432193756,-1.10024227275454,-0.473403512755585,0.681102378642803,0
2.44000244140625,-1.74963212013245,2.33862805366516,1.97203195095062,-1.46387808506052,2.33595053645515,2.04906735901791,1290.77,1336.206,3221.536,3231.481,-0.09100874,0.03422895,0.08263112,-1.08814454078674,-0.44479900598526,0.679572284221649,-1.10123038958312,-0.473828671822132,0.681714070030222,0
2.45999145507813,-1.77139449119568,2.32972311973572,1.98565435409546,-1.48589810917879,2.32647593524532,2.06269880290633,1301.961,1337.466,3210.469,3222.027,-0.09033762,0.03439164,0.08160888,-1.08811807632446,-0.445246905088425,0.681120336055756,-1.10193535162022,-0.474131997292339,0.68215047511319,0
2.48001098632813,-1.79315185546875,2.32080984115601,1.99931001663208,-1.5079630509786,2.31698200721197,2.07635805297935,1294.279,1337.241,3213.94,3219.083,-0.08967183,0.03453361,0.08062135,-1.08787322044373,-0.445654481649399,0.682781457901001,-1.10235904000526,-0.474314298567936,0.682412758406602,0
2.5,-1.81489932537079,2.31189012527466,2.01299095153809,-1.52999999932945,2.30750012397766,2.08999997377396,1287.443,1337.143,3207.695,3223.304,-0.08898474,0.0346682,0.07965489,-1.08736765384674,-0.446001261472702,0.684050321578979,-1.10250000050292,-0.474374949932098,0.682500019669533,0
2.51998901367188,-1.8366322517395,2.30296421051025,2.02669644355774,-1.5520369476803,2.29801824074336,2.10364189456856,1285.191,1335.906,3209.523,3216.431,-0.08820815,0.03480684,0.07867963,-1.08664441108704,-0.446297407150269,0.685276329517365,-1.10235904000526,-0.474314298567936,0.682412758406603,0
2.54000854492188,-1.85834562778473,2.29403400421143,2.04041981697083,-1.57410188948011,2.28852431271001,2.11730114464159,1280.065,1335.497,3204.271,3218.038,-0.08735009,0.03494805,0.07771626,-1.08566987514496,-0.446516424417496,0.686169862747192,-1.10193535162022,-0.474131997292339,0.682150475113189,0
2.55999755859375,-1.88003444671631,2.28510141372681,2.05415463447571,-1.59612191359838,2.27904971150017,2.13093258853001,1293.709,1336.551,3192.008,3207.462,-0.08644248,0.03511414,0.07669087,-1.08445036411285,-0.446634322404861,0.686739683151245,-1.10123038958312,-0.473828671822132,0.681714070030222,0
2.57998657226563,-1.90169525146484,2.27616786956787,2.06790399551392,-1.61812503288753,2.26958238396605,2.14455356752391,1285.122,1335.87,3195.602,3205.529,-0.0855647,0.03526358,0.07570089,-1.08302021026611,-0.446677029132843,0.687467753887177,-1.1002439936861,-0.473404253224357,0.681103443981416,0
2.60000610351563,-1.92332208156586,2.26723504066467,2.08166241645813,-1.64013916343638,2.26011031859448,2.15818136301212,1270.169,1333.853,3195.282,3213.013,-0.08464058,0.03540665,0.07474711,-1.08134651184082,-0.446637749671936,0.687918186187744,-1.09897439291323,-0.472857979480329,0.680317500623536,0
2.6199951171875,-1.94491076469421,2.25830483436584,2.09542202949524,-1.66209156852628,2.2506648119635,2.17177094750084,1283.396,1333.844,3185.005,3200.807,-0.08361313,0.03558693,0.07371505,-1.07943105697632,-0.446492731571198,0.6879842877388,-1.09742594550583,-0.472191725819537,0.679358937915576,0
2.63998413085938,-1.96645665168762,2.24938011169434,2.1091845035553,-1.6840102224118,2.24123382753286,2.18533963838626,1280.129,1333.188,3186.491,3195.058,-0.08256812,0.03576507,0.07270311,-1.07729959487915,-0.446253180503845,0.68812507390976,-1.09559752564474,-0.471405007833448,0.678227058921845,0
2.66000366210938,-1.98795509338379,2.24046206474304,2.12294387817383,-1.70592290617745,2.23180541187802,2.19890463348308,1269.727,1331.184,3183.351,3200.874,-0.08148581,0.03594114,0.07172669,-1.07492256164551,-0.445904910564423,0.687972009181976,-1.09348640563071,-0.470496651869278,0.67692017506657,0
2.67999267578125,-2.00940155982971,2.23155331611633,2.13669395446777,-1.72775723139253,2.2224107117184,2.21242112090437,1282.34,1330.6,3173.188,3189.897,-0.08033798,0.03614911,0.07068241,-1.07231020927429,-0.445431262254715,0.687503695487976,-1.09109983431736,-0.469469776906228,0.675442773735451,0
2.69998168945313,-2.03079104423523,2.22265648841858,2.15043711662292,-1.74954107593572,2.21303773198162,2.22590635838503,1275.178,1329.283,3176.146,3186.895,-0.07919602,0.03635154,0.06966375,-1.0694876909256,-0.444851338863373,0.687154233455658,-1.08843572622736,-0.468323485621663,0.673793563918671,0
2.72000122070313,-2.05211973190308,2.21377325057983,2.16416716575623,-1.77130202882336,2.20367460188472,2.23937742484041,1263.5,1326.748,3174.062,3192.82,-0.07800079,0.03655695,0.06866769,-1.06642472743988,-0.444154441356659,0.686506569385529,-1.08549040888332,-0.467056197851165,0.671970272177789,0
2.739990234375,-2.07338190078735,2.20490717887878,2.17787742614746,-1.79296822271738,2.1943522439355,2.25278983096475,1277.875,1325.925,3163.535,3180.158,-0.07671608,0.03680311,0.06758694,-1.06312620639801,-0.44332093000412,0.685513377189636,-1.08227399942825,-0.465672266718727,0.669979161506271,0
2.760009765625,-2.09457397460938,2.19605994224548,2.19156980514526,-1.81460030360772,2.18504456385877,2.26618111951479,1273.757,1324.736,3164.949,3175.322,-0.07543351,0.03704949,0.06652011,-1.05961263179779,-0.442364871501923,0.684619963169098,-1.07877792518082,-0.464168003639063,0.667814925005998,0
2.77999877929688,-2.11569094657898,2.18723440170288,2.20523738861084,-1.83612684690458,2.17578229366013,2.27950707526701,1269.353,1322.927,3158.444,3177.924,-0.0741456,0.03730369,0.06545848,-1.05585241317749,-0.441273242235184,0.683383345603943,-1.07501419914593,-0.462548577472581,0.665484999299265,0
2.79998779296875,-2.13672876358032,2.17843317985535,2.21888041496277,-1.85757544288233,2.1665535620153,2.29278477791556,1267.593,1320.129,3160.485,3170.619,-0.07279165,0.03757271,0.06437819,-1.05188012123108,-0.440060645341873,0.682146906852722,-1.07097916161324,-0.460812413548163,0.662987118851036,0
2.82000732421875,-2.15768194198608,2.16965889930725,2.23249244689941,-1.87897323600723,2.1573466894188,2.30603103117811,1262.433,1317.984,3155.682,3172.065,-0.07137059,0.03785534,0.06329685,-1.04766595363617,-0.438709229230881,0.680602788925171,-1.06666760390385,-0.458957270716794,0.660318059240952,0
2.83999633789063,-2.17854642868042,2.1609148979187,2.2460675239563,-1.90024960698239,2.14819206138118,2.31920211834584,1277.452,1316.881,3144.388,3159.728,-0.06989626,0.03817445,0.06213639,-1.04321372509003,-0.437202334403992,0.678755044937134,-1.06209435025759,-0.456989527434725,0.657486997379635,0
2.8599853515625,-2.19931697845459,2.15220355987549,2.25960850715637,-1.92143189875059,2.13907791299805,2.33231496600284,1271.216,1315.205,3146.57,3156.35,-0.06845922,0.03848918,0.06099424,-1.03854465484619,-0.435560703277588,0.67705363035202,-1.05725481901126,-0.454907212340279,0.654491096999312,0
2.8800048828125,-2.21999001502991,2.14352822303772,2.27311038970947,-1.94254691640495,2.12999271078668,2.34538616777867,1258.512,1312.005,3145.3,3162.412,-0.06699927,0.03880624,0.05987141,-1.0336354970932,-0.43378409743309,0.675097763538361,-1.0521429102862,-0.45270770082608,0.651326581984514,0
2.89999389648438,-2.24055981636047,2.13489079475403,2.28656649589539,-1.96352501326936,2.1209664217661,2.35837260906308,1271.538,1310.089,3135.943,3149.998,-0.06545837,0.03916318,0.05866035,-1.02848970890045,-0.431860268115997,0.67280387878418,-1.04677621342161,-0.450398561093403,0.648004340974112,0
2.91998291015625,-2.26102209091187,2.12629508972168,2.29997825622559,-1.98439323028747,2.1119874109737,2.37129102948832,1269.006,1308.486,3137.046,3143.289,-0.06391799,0.0395238,0.05745324,-1.02312195301056,-0.429801553487778,0.670593857765198,-1.0411492471255,-0.447977434695422,0.644520980787238,0
2.94000244140625,-2.28137254714966,2.11774277687073,2.31334018707275,-2.00517798053537,2.10304431360073,2.38415778000673,1259.735,1305.446,3133.577,3147.834,-0.06235845,0.0398875,0.05626554,-1.01750922203064,-0.427601754665375,0.668101131916046,-1.03525504859546,-0.445441325732794,0.640872191117535,0
2.95999145507813,-2.30160570144653,2.10923790931702,2.32664656639099,-2.02581075424974,2.0941666074844,2.39693044981124,1273.202,1303.275,3124.111,3135.381,-0.0607467,0.04028419,0.05499972,-1.01166117191315,-0.425252586603165,0.665316343307495,-1.02911391720548,-0.442798968459032,0.637070538244476,0
2.98001098632813,-2.32171750068665,2.1007821559906,2.33989930152893,-2.04634944795115,2.08532938136936,2.40964487960608,1267.671,1301.436,3125.524,3131.32,-0.05916425,0.04067732,0.05374832,-1.00559198856354,-0.42277005314827,0.662635147571564,-1.02270954399162,-0.440043345582586,0.633105926142498,0
3,-2.34170293807983,2.09237933158875,2.35309171676636,-2.06672639957428,2.07656174835205,2.42225918334961,1263.022,1298.722,3119.392,3133.358,-0.05758447,0.04107688,0.0524939,-0.999280035495758,-0.420149713754654,0.659617245197296,-1.01606400046349,-0.437183953857422,0.628992018127441,0
3.01998901367188,-2.36155796051025,2.08403134346008,2.36622333526611,-2.0869680292999,2.06785234056679,2.43478971639231,1262.778,1295.634,3120.148,3124.874,-0.05594875,0.04149076,0.05120826,-0.992751836776733,-0.417404264211655,0.656578302383423,-1.00917036754089,-0.434217816196637,0.624724530959079,0
3.04000854492188,-2.38127756118774,2.07574081420898,2.3792884349823,-2.10709998486405,2.05919012250926,2.44725235590455,1258.974,1293.249,3114.747,3124.785,-0.05426883,0.04191546,0.0499133,-0.985985040664673,-0.414522737264633,0.653253018856049,-1.00202031904361,-0.431141350077486,0.620298310335216,0
3.05999755859375,-2.4008572101593,2.0675106048584,2.3922815322876,-2.12705600675913,2.05060360379452,2.45960608409476,1272.969,1291.372,3104.296,3112.299,-0.05255908,0.04236774,0.04854313,-0.978983283042908,-0.411496251821518,0.649653553962708,-0.994638524886308,-0.427965170275055,0.615728628108227,0
3.07998657226563,-2.42029237747192,2.05934405326843,2.40520524978638,-2.14686207530873,2.04208160581513,2.47186698402085,1266.989,1289.647,3105.66,3108.337,-0.05090472,0.04281114,0.04719041,-0.971760034561157,-0.408343225717545,0.646184504032135,-0.987017247723776,-0.424685947625853,0.611010694492843,0
3.10000610351563,-2.43957853317261,2.05124258995056,2.41805458068848,-2.16654331551667,2.03361331798384,2.48405060925705,1254.757,1286.317,3103.533,3113.868,-0.04925144,0.04325158,0.04585497,-0.964302718639374,-0.405069082975388,0.642461240291595,-0.979147395688901,-0.421299770153459,0.606138881190213,0
3.1199951171875,-2.45871090888977,2.04320931434631,2.43082332611084,-2.18603502400946,2.02522658035469,2.49611690533293,1267.382,1283.793,3095.1,3100.516,-0.04753476,0.04372206,0.04443538,-0.956618964672089,-0.401669710874557,0.6384357213974,-0.971056158224178,-0.417818336715394,0.601130019760458,0
3.13998413085938,-2.47768545150757,2.03524589538574,2.44351267814636,-2.20536269329809,2.01691042421237,2.50808165332716,1264.437,1282.354,3095.024,3094.129,-0.0458394,0.04418893,0.04302414,-0.948714554309845,-0.398154199123383,0.634468734264374,-0.962735018414262,-0.414237982720922,0.59597883782726,0
3.16000366210938,-2.49649667739868,2.02735567092896,2.4561173915863,-2.22455088103183,2.00865428308644,2.51996005559448,1255.962,1279.296,3091.229,3097.303,-0.04414349,0.04465197,0.04163191,-0.940578937530518,-0.394523054361343,0.630237281322479,-0.954174163352092,-0.410554485950274,0.590679260733698,0
3.17999267578125,-2.51514101028442,2.01954007148743,2.46863198280334,-2.24353658854737,2.00048526354177,2.53171311296128,1268.197,1276.739,3082.079,3085.194,-0.04241457,0.04513644,0.04017125,-0.932221829891205,-0.390772998332977,0.625726401805878,-0.945403214201559,-0.406780591562751,0.585249625391267,0
3.19998168945313,-2.53361439704895,2.01180195808411,2.48105835914612,-2.26234477504321,1.99239262633251,2.54335627636037,1263.095,1275.243,3082.668,3080.259,-0.04073092,0.04561032,0.03872816,-0.923652589321136,-0.386917322874069,0.621314823627472,-0.936412917636688,-0.402912318110697,0.579684203550396,0
3.22000122070313,-2.55191135406494,2.00414276123047,2.49339127540588,-2.28099938900442,1.98436606709459,2.55490437104486,1252.082,1272.169,3079.433,3085.074,-0.03905046,0.04607722,0.03730501,-0.914863526821136,-0.382960170507431,0.616640865802765,-0.927192788821982,-0.398945154262308,0.573976504598449,0
3.239990234375,-2.57002878189087,1.99656450748444,2.50562500953674,-2.2994392795179,1.97643189735754,2.5663195416865,1264.646,1269.616,3070.821,3071.753,-0.03731835,0.04656698,0.03580474,-0.905864238739014,-0.378899157047272,0.611685216426849,-0.917774783907129,-0.394892849856044,0.568146310914365,0
3.260009765625,-2.58796167373657,1.98906993865967,2.51776099205017,-2.31771654397337,1.96856770107001,2.57763403905129,1260.931,1268.536,3070.384,3065.865,-0.03562298,0.04704712,0.03431885,-0.89665812253952,-0.37474250793457,0.606800436973572,-0.908134108040216,-0.390744736359816,0.562178273303667,0
3.27999877929688,-2.60570669174194,1.98166000843048,2.52979278564453,-2.33577134012187,1.96079922667992,2.58881081793642,1256.921,1266.007,3063.376,3067.171,-0.03395583,0.04752236,0.0328395,-0.887237906455994,-0.370491623878479,0.60159569978714,-0.898304216251578,-0.386515208538549,0.556093102023818,0
3.29998779296875,-2.6232590675354,1.97433686256409,2.5417206287384,-2.35362764460945,1.95311615770631,2.59986472102797,1256.802,1263.401,3063.477,3058.055,-0.03226739,0.04799856,0.03134235,-0.877625584602356,-0.366158664226532,0.596396565437317,-0.888274735793772,-0.382199803288803,0.549884375850026,0
3.32000732421875,-2.64061546325684,1.96710193157196,2.55353951454163,-2.37130830610839,1.94550866300381,2.61080989274252,1250.936,1261.351,3058.176,3058.864,-0.03057096,0.04846993,0.02985555,-0.867810308933258,-0.361740559339523,0.590940356254578,-0.878034183119985,-0.377793579561194,0.543544985919778,0
3.33999633789063,-2.65777111053467,1.95995736122131,2.56524419784546,-2.38875555478454,1.93800159931817,2.62161057080077,1262.578,1259.099,3049.244,3046.713,-0.02885375,0.04895464,0.02831214,-0.857799768447876,-0.357234984636307,0.585239052772522,-0.867618167158097,-0.373311858882592,0.53709697585572,0
3.3599853515625,-2.67472314834595,1.95290422439575,2.57683658599854,-2.40599272667425,1.93058492580486,2.63228120132087,1257.531,1258.127,3048.749,3042.127,-0.02719673,0.04942326,0.02679443,-0.847598969936371,-0.352651715278625,0.579625308513641,-0.857015715678588,-0.368749920209162,0.530533553325099,0
3.3800048828125,-2.69146728515625,1.9459445476532,2.58831238746643,-2.42304196557559,1.92324911460621,2.64283549236868,1246.714,1255.475,3045.62,3046.222,-0.02555995,0.04987862,0.02530464,-0.837209820747375,-0.347998559474945,0.573786437511444,-0.846214826007803,-0.364102599125748,0.523847288101157,0
3.39999389648438,-2.70800065994263,1.9390789270401,2.59966611862183,-2.43984769972619,1.91601807669906,2.65323904237604,1256.788,1252.955,3037.966,3034.28,-0.02388483,0.05034732,0.02375641,-0.826643168926239,-0.343276411294937,0.567691504955292,-0.835253140422974,-0.35938609205264,0.51706148254665,0
3.41998291015625,-2.7243185043335,1.9323091506958,2.6108992099762,-2.45643259034873,1.90888206159239,2.66350587971929,1253.417,1252.246,3036.991,3028.073,-0.02224432,0.05080315,0.02222899,-0.815899908542633,-0.338490039110184,0.561652421951294,-0.824119146742881,-0.354595445619869,0.510169010073001,0
3.44000244140625,-2.74041819572449,1.92563629150391,2.62200665473938,-2.47281804716281,1.90183185728196,2.67364925803476,1245.107,1249.856,3032.551,3030.876,-0.02062032,0.05124636,0.02073105,-0.804981410503387,-0.333643227815628,0.555370628833771,-0.812800388649434,-0.349725300221754,0.503162159625937,0
3.45999145507813,-2.75629615783691,1.91906142234802,2.63298392295837,-2.48895081463434,1.8948903781363,2.68363620960993,1255.554,1247.419,3024.85,3018.86,-0.01897236,0.05169804,0.01918619,-0.793899774551392,-0.328736633062363,0.548867344856262,-0.80133641229185,-0.344792671461508,0.496065412155666,0
3.48001098632813,-2.77194929122925,1.91258597373962,2.64383268356323,-2.50487694859767,1.88803780761656,2.69349524520019,1250.553,1246.811,3023.86,3014.367,-0.01737766,0.05213181,0.01767441,-0.782656192779541,-0.323775678873062,0.542433679103851,-0.789697369743255,-0.339784716610052,0.488860290373601,0
3.5,-2.78737425804138,1.90621089935303,2.65454721450806,-2.5205447997813,1.88129636896134,2.70319439144611,1245.456,1244.501,3017.663,3015.873,-0.01581545,0.05255388,0.01618251,-0.771256268024445,-0.318765819072723,0.535725235939026,-0.777924000354857,-0.334718964672089,0.481572013878822,0
3.51998901367188,-2.8025689125061,1.89993643760681,2.66512751579285,-2.53597583877076,1.87465682397749,2.71274693966292,1245.555,1242.477,3016.802,3007.101,-0.01423513,0.05297207,0.01468226,-0.759715437889099,-0.313714325428009,0.529011845588684,-0.766004036374581,-0.329590137176618,0.474192988348404,0
3.54000854492188,-2.81752920150757,1.89376389980316,2.67556929588318,-2.55119019794619,1.86811051026429,2.72216535275294,1240.498,1241.045,3011.436,3007.018,-0.01265374,0.05338114,0.01320153,-0.748030483722687,-0.308619260787964,0.52208548784256,-0.753924423002452,-0.324392617007921,0.466715132239272,0
3.55999755859375,-2.83225345611572,1.88769435882568,2.68586850166321,-2.56613872308604,1.86167857751006,2.73141920191151,1250.315,1239.002,3003.491,2995.939,-0.01106064,0.05379451,0.01168635,-0.736209034919739,-0.303479611873627,0.51495748758316,-0.741727567798258,-0.319144650954242,0.459164697851087,0
3.57998657226563,-2.84673881530762,1.88172852993011,2.69602656364441,-2.58084213759183,1.85535210901407,2.74052131591136,1245.746,1238.58,3002.099,2991.67,-0.009530921,0.05418887,0.01020819,-0.724252223968506,-0.298299700021744,0.507908463478088,-0.72940084364523,-0.31384080592,0.451533868397061,0
3.60000610351563,-2.86098217964172,1.87586653232574,2.70604014396667,-2.59531978247425,1.84912278287974,2.74948366775945,1236.044,1236.485,2998.635,2995.185,-0.008032626,0.05456704,0.008767763,-0.712170362472534,-0.293087780475616,0.500674962997437,-0.716930938559024,-0.308475354130224,0.443814403124743,0
3.6199951171875,-2.87498164176941,1.87010967731476,2.71590518951416,-2.60952509409627,1.84301063413925,2.75827743234631,1244.102,1234.205,2992.499,2984.252,-0.006507168,0.05495,0.007292491,-0.699975907802582,-0.287846744060516,0.49325492978096,-0.704361775018033,-0.303067194200314,0.436033492140578,0
3.63998413085938,-2.88873529434204,1.86445808410645,2.72562265396118,-2.623478029369,1.83700707589127,2.76691496395061,1240.558,1233.952,2990.598,2979.32,-0.005021124,0.05531727,0.005850757,-0.687666237354279,-0.282577008008957,0.485871940851212,-0.691680442442073,-0.297610771068296,0.428183143180413,0
3.66000366210938,-2.90224003791809,1.85891258716583,2.73518872261047,-2.63719712493647,1.83110413233575,2.77540773763803,1233.947,1232.008,2986.285,2980.844,-0.003554787,0.05567091,0.004444505,-0.675250828266144,-0.277283012866974,0.478300660848618,-0.678873453515702,-0.29210028151913,0.420255006953505,0
3.67999267578125,-2.91549491882324,1.85347318649292,2.74460005760193,-2.65063849381582,1.82532068681534,2.78372858527554,1242.283,1229.869,2979.773,2970.42,-0.002076733,0.0560261,0.003014924,-0.662740468978882,-0.271966010332108,0.470566809177399,-0.665986083416798,-0.286555206197011,0.41227711095171,0
3.69998168945313,-2.9284975528717,1.84814047813416,2.75385808944702,-2.66382131180924,1.81964848851807,2.79188937759817,1237.816,1229.65,2978.165,2966.542,-0.0006530071,0.05636272,0.001628223,-0.650134086608887,-0.266627460718155,0.462899297475815,-0.653005218467595,-0.280969902652754,0.404241337183804,0
3.72000122070313,-2.941246509552,1.84291505813599,2.76295924186707,-2.6767633032417,1.81407991116207,2.79990108680742,1229.93,1227.73,2974.369,2969.132,0.0007440221,0.05668426,0.0002813057,-0.637444674968719,-0.261273711919785,0.455062210559845,-0.639917282339434,-0.275338529371411,0.396139281255611,0
3.739990234375,-2.95374011993408,1.83779716491699,2.77190065383911,-2.68942333385363,1.80863265367006,2.80773824883709,1237.568,1225.611,2968.455,2959.078,0.002159887,0.05700787,-0.001089233,-0.624683260917664,-0.255906671285629,0.447074949741364,-0.62676873176137,-0.26968107538565,0.387999702095468,0
3.760009765625,-2.96597671508789,1.83278667926788,2.78068351745605,-2.70183851231475,1.80329074921818,2.81542383572149,1234.235,1225.544,2966.386,2954.729,0.003529569,0.05731553,-0.002421879,-0.611846685409546,-0.250525921583176,0.43914207816124,-0.613526094901139,-0.263983138701136,0.379801879044709,0
3.77999877929688,-2.97795581817627,1.82788383960724,2.78930401802063,-2.7139695770734,1.79807109095524,2.82293354268985,1230.89,1223.776,2961.045,2954.817,0.004863915,0.05761071,-0.003723099,-0.598947286605835,-0.245136857032776,0.431025803089142,-0.60023651686137,-0.258265004538452,0.371574997167698,0
3.79998779296875,-2.98967552185059,1.82308912277222,2.79776263237,-2.72583438304408,1.79296599641037,2.83027842278479,1230.889,1222.364,2959.684,2947.758,0.006193563,0.05789793,-0.005009938,-0.585994124412537,-0.23974297940731,0.42293107509613,-0.586886736182787,-0.252520966862155,0.36331084698941,0
3.82000732421875,-3.00113534927368,1.81840229034424,2.8060564994812,-2.73744929742843,1.78796842323393,2.8374686080838,1226.652,1221.265,2954.986,2947.741,0.007503519,0.05817337,-0.006262157,-0.572992384433746,-0.234344825148582,0.414699494838715,-0.573463232144022,-0.246745208083563,0.355001058539243,0
3.83999633789063,-3.01233434677124,1.81382322311401,2.81418371200562,-2.74877791451009,1.78309403578861,2.84448156171422,1233.351,1219.461,2949.389,2938.98,0.008810321,0.05844673,-0.0075213,-0.559950530529022,-0.228943645954132,0.406360924243927,-0.560014026276881,-0.240958390526246,0.346675359432959,0
3.8599853515625,-3.0232720375061,1.8093523979187,2.82214546203613,-2.75983729406747,1.77833549372837,2.85132784449154,1229.649,1219.3,2947.576,2935.674,0.01005807,0.05870317,-0.008733038,-0.546867847442627,-0.223540082573891,0.398092478513718,-0.546525890176286,-0.235154822377061,0.338325560657667,0
3.8800048828125,-3.0339469909668,1.80498957633972,2.82993960380554,-2.77064299647982,1.77368610185671,2.85801708903178,1223.099,1217.665,2944.211,2937.629,0.01127031,0.05894489,-0.009901633,-0.533759653568268,-0.218140810728073,0.389708548784256,-0.532985466132484,-0.229328756186666,0.329943393154704,0
3.89999389648438,-3.04435968399048,1.80073475837708,2.83756422996521,-2.78116151864576,1.76916027562219,2.86452855531919,1229.082,1215.797,2939.584,2929.041,0.01248682,0.05918555,-0.01107662,-0.520636439323425,-0.212748795747757,0.381232172250748,-0.519441457145543,-0.223501147495394,0.321559006401168,0
3.91998291015625,-3.05451011657715,1.79658722877502,2.84502053260803,-2.79140913007042,1.76475101471128,2.87087231495249,1226.224,1215.749,2937.471,2925.499,0.01365468,0.05941138,-0.01220846,-0.507495760917664,-0.207363039255142,0.372810423374176,-0.505880764601328,-0.217666360335509,0.313164291730931,0
