t,x_s1,x_s2,x_s3,x_s_d1,x_s_d2,x_s_d3,propellers_rpms1,propellers_rpms2,propellers_rpms3,propellers_rpms4,rollRad,pitchRad,yawRad,v_s1,v_s2,v_s3,v_s_d1,v_s_d2,v_s_d3,insideCount
0,-0.0599999986588955,2.94000005722046,1.17999994754791,-0.0599999986588955,2.94000005722046,1.17999994754791,0,0,0,0,0,0,0,0,0,0,-1.06581410364015E-15,4.44089209850063E-16,4.44089209850063E-16,0
0.0200042724609375,-0.0599999986588955,2.94000005722046,1.17811644077301,-0.0600018701838461,2.93999925195556,1.18000110611101,0,0,0,0,-0.01635288,0.0001297794,-0.01587137,-1.10653664009419E-09,-7.76775763711157E-08,-0.0941759571433067,-0.000280105751305916,-0.000120521679537258,0.00017339880334547,9
0.040008544921875,-0.0599999986588955,2.94000005722046,1.17242503166199,-0.060014880898484,2.93999365380853,1.18000916036316,0,0,0,0,-0.03270202,0.0005238493,-0.03175127,-1.08383135799528E-09,-7.60859677484405E-08,-0.284568399190903,-0.00111143977225461,-0.000478221483967637,0.00068803416424398,9
0.05999755859375,-0.0599058866500854,2.93990302085876,1.16596508026123,-0.0600498857373401,2.93997859220429,1.18003083002592,1868.186,3252.807,3183.866,1722.401,-0.04942188,0.0003295492,-0.01369504,0.00470568425953388,-0.00484921643510461,-0.322996616363525,-0.00247936261166862,-0.00106680046642749,0.00153484356504269,9
0.0800018310546875,-0.0598203726112843,2.93960738182068,1.16000318527222,-0.0601175574246769,2.93994947496775,1.18007272202403,1925.25,2314.279,3252.324,2829.559,-0.07543138,-0.00213692,0.0209488,0.00427576061338186,-0.0147787351161242,-0.298094898462296,-0.00437268608126799,-0.00188144466206175,0.00270690098422899,9
0.100006103515625,-0.0599374435842037,2.93904495239258,1.15498661994934,-0.0602282404704493,2.93990185114529,1.18014124010193,980.3768,1498.938,3914.7,3896.563,-0.1031938,-0.008062987,0.06330799,-0.00585346762090921,-0.0281162895262241,-0.250830471515656,-0.00677739276378709,-0.00291612276782231,0.00419552897277328,8
0.120010375976563,-0.0604638420045376,2.93818354606628,1.15081322193146,-0.0603920338334453,2.93983137543704,1.18024263599618,346.5406,980.3863,4172.788,4613.338,-0.1214316,-0.01542023,0.1040008,-0.0263198912143707,-0.0430676564574242,-0.208671167492867,-0.00968041450003567,-0.00416521191989172,0.00599263771761404,8
0.139999389648438,-0.0615636147558689,2.93704128265381,1.1472829580307,-0.0606185767455666,2.93973390035084,1.18038287685052,352.9358,747.1381,3975.388,4854.884,-0.1254024,-0.02116627,0.1351043,-0.0549885779619217,-0.0571132302284241,-0.176516234874725,-0.0130660253322238,-0.00562194567796536,0.00808849210174802,7
0.160003662109375,-0.0633408725261688,2.93568086624146,1.14427518844604,-0.0609177895434042,2.93960515744296,1.18056810382587,820.6592,814.7478,3463.238,4692.368,-0.118459,-0.02352423,0.1522699,-0.0888630151748657,-0.0680155083537102,-0.15038737654686,-0.0169265510445065,-0.00728302204135792,0.0104783414199936,7
0.180007934570313,-0.0658468902111053,2.9341721534729,1.14182555675507,-0.0612988491946875,2.93944119812059,1.1808039979024,1348.823,1083.536,3006.401,4255.242,-0.1079795,-0.02277961,0.1557791,-0.125300914049149,-0.0754310637712479,-0.122482128441334,-0.0212468478482708,-0.00914192506089775,0.0131528109458008,7
0.199996948242188,-0.0690849348902702,2.93255376815796,1.14006173610687,-0.0617704296168641,2.93923829023936,1.18109592864822,1636.676,1381.278,2918.124,3666.361,-0.09982806,-0.02030074,0.1501567,-0.161902159452438,-0.080914743244648,-0.0881940424442291,-0.0260104776919234,-0.0111915819022102,0.0161017247421801,7
0.220001220703125,-0.0730102807283401,2.93082594871521,1.13903594017029,-0.0623420644491781,2.93899233174064,1.18144979784016,1641.061,1580.365,3148.815,3113.194,-0.09583918,-0.01735529,0.1421901,-0.196267411112785,-0.0863862559199333,-0.051288116723299,-0.03121219533433,-0.0134297356845702,0.019321835755004,7
0.240005493164063,-0.0775500014424324,2.92897343635559,1.13863348960876,-0.0630219993990999,2.93869977472688,1.18187070996396,1524.163,1624.349,3417.488,2777.52,-0.09475474,-0.01467775,0.1377341,-0.226986080408096,-0.0926245748996735,-0.0201252494007349,-0.0368361158647881,-0.0158495515746756,0.0228033104678445,7
0.260009765625,-0.0826388821005821,2.92699241638184,1.13863575458527,-0.0638185570309634,2.93835703823113,1.18236381708338,1439.295,1501.026,3532.899,2744.081,-0.09438989,-0.0125877,0.1393008,-0.254444181919098,-0.0990569442510605,0.000114446505904198,-0.0428699302682246,-0.0184457333472145,0.0265385290140116,7
0.279998779296875,-0.0882447585463524,2.92490077018738,1.13885235786438,-0.0647390625194898,2.93796097043536,1.18293365383054,1400.59,1276.006,3476.638,2977.613,-0.0932149,-0.01110538,0.1456818,-0.28029391169548,-0.104583531618118,0.0108330622315407,-0.0492963837173861,-0.0212108567320638,0.030516809833474,7
0.300003051757813,-0.094370573759079,2.92273259162903,1.13920748233795,-0.0657927507678135,2.93750759781875,1.18358593705038,1349.986,1061.227,3346.082,3324.822,-0.09053469,-0.009935722,0.1533111,-0.3062903881073,-0.108408212661743,0.0177577249705791,-0.0561132031658829,-0.0241439437008635,0.0347367458022363,7
0.32000732421875,-0.101035848259926,2.92052578926086,1.13972544670105,-0.0669865614821475,2.93699393441958,1.18432496275165,1281.047,941.2823,3237.118,3590.589,-0.08597643,-0.008523713,0.1583617,-0.333264291286469,-0.110344089567661,0.0258992724120617,-0.0633036493784043,-0.0272377918282996,0.0391879745362408,7
0.339996337890625,-0.108251392841339,2.91831207275391,1.1404618024826,-0.068326768706371,2.93641728069206,1.18515461486636,1253.748,944.4605,3170.308,3649.687,-0.07944689,-0.006291452,0.158477,-0.360777258872986,-0.110679946839809,0.0368190631270409,-0.0708499516420146,-0.0304847548730522,0.0438594951176439,7
0.360000610351563,-0.116002976894379,2.91611480712891,1.14145302772522,-0.0698225328270578,2.93577369517774,1.1860805641102,1319.168,1046.768,3121.576,3498.256,-0.07154902,-0.002963566,0.1534756,-0.387579143047333,-0.109858825802803,0.0495634600520134,-0.0787518717320621,-0.0338847303337087,0.0487511600740379,8
0.3800048828125,-0.124251335859299,2.91394972801208,1.14270794391632,-0.0714797725314022,2.93506063123087,1.18710647443246,1455.19,1181.678,3090.585,3231.6,-0.06361227,0.001258216,0.1450406,-0.412418156862259,-0.1082573980093,0.0627445727586746,-0.0869921272359981,-0.0374302820709642,0.0538522707687797,8
0.400009155273438,-0.132943123579025,2.91182637214661,1.14421737194061,-0.0733051402689975,2.93427522648826,1.18823646401636,1580.172,1273.976,3104.168,2981.448,-0.05701775,0.005826921,0.135746,-0.434589564800262,-0.106164842844009,0.0754720345139503,-0.0955591682828665,-0.0411164404980124,0.0591556772815509,8
0.419998168945313,-0.142023503780365,2.90975046157837,1.14595794677734,-0.0753034649285836,2.93341540321397,1.18947352217404,1631.414,1288.663,3159.034,2844.61,-0.0524451,0.01017606,0.1278542,-0.454019397497177,-0.103801384568214,0.0870306417346001,-0.104434660908044,-0.0449353170220673,0.0646500300148815,8
0.44000244140625,-0.151445984840393,2.90772461891174,1.14789617061615,-0.077483988232608,2.93247718495301,1.19082336997196,1605.804,1237.665,3220.604,2843.247,-0.04966156,0.01397351,0.1224637,-0.471123844385147,-0.101291887462139,0.0969123020768166,-0.113620829717891,-0.048887868829098,0.0703367061060819,8
0.460006713867188,-0.161176696419716,2.90575170516968,1.14999735355377,-0.0798512213598696,2.93145863067119,1.19228880004469,1541.621,1158.325,3252.261,2938.416,-0.04788364,0.01718543,0.119343,-0.486535429954529,-0.0986415147781372,0.105058498680592,-0.123099793815011,-0.0529664022684887,0.0762046364278779,8
0.480010986328125,-0.171193510293961,2.9038360118866,1.15223920345306,-0.0824109101018722,2.93035726811493,1.19387336931088,1475.564,1086.523,3247.399,3066.317,-0.04628627,0.01998856,0.1173758,-0.50084125995636,-0.095778800547123,0.112092286348343,-0.132860437136906,-0.0571661344090936,0.082246939608052,8
0.5,-0.181480973958969,2.9019832611084,1.15461587905884,-0.085166398670376,2.92917165836334,1.1955791479969,1431.806,1046.301,3216.494,3169.617,-0.04434216,0.02264377,0.1152228,-0.514372766017914,-0.0926392674446106,0.118835493922234,-0.142884000065179,-0.0614789935111996,0.0884520025491718,8
0.520004272460938,-0.192024230957031,2.90019869804382,1.15713536739349,-0.088127196023106,2.92789770997757,1.19741202260058,1421.92,1044.546,3178.903,3211.057,-0.04192721,0.02537593,0.1118927,-0.527163922786713,-0.0892296880483627,0.125973969697952,-0.153174893518032,-0.065906877469682,0.0948225558197254,9
0.540008544921875,-0.202804535627365,2.89848589897156,1.15981030464172,-0.0912963635428427,2.92653410573011,1.19937388826368,1445.689,1073.467,3148.212,3184.883,-0.03929121,0.02828755,0.1070548,-0.539015829563141,-0.0856427103281021,0.133748814463615,-0.163714777034477,-0.0704418948965508,0.101347245800684,9
0.55999755859375,-0.213797867298126,2.89684534072876,1.16265296936035,-0.094676112580471,2.92507989413848,1.20146611391775,1485.848,1114.289,3137.628,3113.21,-0.03688318,0.03132913,0.1010565,-0.549666106700897,-0.0820337161421776,0.142134740948677,-0.17448465888317,-0.0750758741803766,0.108014315705644,9
0.580001831054688,-0.224976241588593,2.89527368545532,1.16566836833954,-0.0982762614093182,2.92353085067394,1.20369477754168,1520.032,1148.445,3146.921,3035.282,-0.03512816,0.03434425,0.0946577,-0.558918595314026,-0.0785776302218437,0.150772407650948,-0.185490414529404,-0.0798113433697334,0.11482740272751,9
0.600006103515625,-0.236310958862305,2.89376521110535,1.1688517332077,-0.102098762959148,2.92188613504538,1.20606108809202,1540.165,1167.006,3162.975,2979.856,-0.03428873,0.03715999,0.08861921,-0.566736280918121,-0.0754204541444778,0.159168943762779,-0.196713446836865,-0.0846403006364086,0.121774994352997,9
0.620010375976563,-0.247776329517365,2.89231181144714,1.17219460010529,-0.106147859919355,2.92014392174208,1.20856767199563,1536.272,1167.64,3181.476,2963,-0.03441763,0.03963361,0.08345277,-0.57326865196228,-0.0726656764745712,0.167146027088165,-0.20814339888717,-0.0895582896877615,0.128850679156259,9
0.639999389648438,-0.259351640939713,2.89090418815613,1.17568719387054,-0.110424235525481,2.91830391678686,1.21121495220784,1506.745,1156.463,3194.984,2986.791,-0.03535346,0.04169872,0.07929256,-0.578765094280243,-0.070380337536335,0.174630641937256,-0.219761081350814,-0.0945570538913933,0.136042578028218,9
0.660003662109375,-0.271021485328674,2.88953232765198,1.1793212890625,-0.114938248900541,2.91636166293851,1.21400934151928,1464.855,1143.973,3199.136,3032.022,-0.03678944,0.0433824,0.07591064,-0.58349347114563,-0.068598635494709,0.18170477449894,-0.231574097577923,-0.0996398647564507,0.143355397804799,9
0.680007934570313,-0.28277450799942,2.88818573951721,1.18309020996094,-0.119690355154666,2.91431696437584,1.21695112166479,1429.506,1139.62,3189.846,3075.539,-0.03844273,0.04477553,0.0728879,-0.587651491165161,-0.0673289746046066,0.188443750143051,-0.243563621239988,-0.104798621839723,0.150777484091833,9
0.699996948242188,-0.294601559638977,2.88685417175293,1.18699252605438,-0.124680083855354,2.91217002351282,1.22004000142426,1406.574,1146.543,3176.359,3100.61,-0.04016367,0.04596914,0.06985408,-0.591352701187134,-0.0665768906474113,0.195117831230164,-0.255710395848158,-0.11002503961202,0.158296916205407,9
0.720001220703125,-0.306493937969208,2.88552689552307,1.19102931022644,-0.129918284978346,2.90991617190799,1.22328269744952,1391.989,1162.633,3164.634,3107.563,-0.0419336,0.04701927,0.06663434,-0.59461897611618,-0.0663618966937065,0.201838046312332,-0.268023157655716,-0.11532287703907,0.16591910230247,9
0.740005493164063,-0.318442463874817,2.88419270515442,1.19519984722137,-0.13540428105644,2.90755570105657,1.22667879035609,1391.762,1184.993,3153.073,3095.047,-0.04382924,0.04795107,0.06322309,-0.597424864768982,-0.0667110905051231,0.208526507019997,-0.280482990349159,-0.120683994959631,0.173632332283853,9
0.760009765625,-0.330437660217285,2.88283944129944,1.19950485229492,-0.141140917956636,2.9050873864615,1.23023004187122,1394.429,1207.886,3149.033,3073.044,-0.04599652,0.04873635,0.05980456,-0.599760234355927,-0.0676619336009026,0.215250104665756,-0.293080296154222,-0.126104263719567,0.181430664670081,9
0.779998779296875,-0.342470526695251,2.88145422935486,1.20394277572632,-0.147126184485884,2.90251209348295,1.23393520697061,1387.432,1226.692,3150.944,3058.969,-0.04854889,0.04931905,0.05664523,-0.601644933223724,-0.0692553445696831,0.221893921494484,-0.305795832832518,-0.131575403921268,0.189302187598958,9
0.800003051757813,-0.354533612728119,2.88002371788025,1.20850992202759,-0.153371683173492,2.89982482987671,1.2378014681726,1371.497,1240.336,3155.775,3055.509,-0.05148476,0.04965787,0.05394066,-0.603154718875885,-0.0715229511260986,0.22835810482502,-0.318639638509124,-0.13710173468952,0.197253115148089,9
0.82000732421875,-0.366621494293213,2.8785343170166,1.21319961547852,-0.159875221826383,2.89702653888221,1.24182746840525,1352.903,1250.735,3155.639,3062.369,-0.05474341,0.04973865,0.05176311,-0.604394495487213,-0.0744719728827477,0.234483703970909,-0.331592781842754,-0.14267511039705,0.205271727915392,9
0.839996337890625,-0.378731369972229,2.87697243690491,1.21800744533539,-0.166633637018892,2.89411858163313,1.24601124935738,1329.68,1259.819,3154.631,3076.138,-0.05824493,0.049563,0.0500962,-0.605493009090424,-0.0780995041131973,0.240390941500664,-0.344636106234817,-0.148287288494656,0.213346167053785,8
0.860000610351563,-0.390862584114075,2.87532448768616,1.22292971611023,-0.173659158941841,2.89109569582005,1.2503603820997,1298.366,1268.995,3152.908,3098.304,-0.06187642,0.04914995,0.0488683,-0.606559455394745,-0.0823936983942986,0.246111199259758,-0.357780475378537,-0.153942943326036,0.221483157706883,8
0.8800048828125,-0.403016000986099,2.87357807159424,1.22796094417572,-0.180948461186242,2.88795931270381,1.25487280742661,1276.625,1280.761,3145.012,3114.706,-0.06551217,0.04855296,0.04792428,-0.607672572135925,-0.087325893342495,0.251563847064972,-0.371007022483504,-0.159633957038354,0.229671020432672,8
0.900009155273438,-0.415193766355515,2.87172079086304,1.23309934139252,-0.188503099076414,2.88470876307182,1.25954948815793,1261.727,1295.409,3137.904,3122.005,-0.0691101,0.04780854,0.04717254,-0.608888387680054,-0.0928690135478973,0.256920248270035,-0.384306908919572,-0.165356526615982,0.237904283698049,8
0.919998168945313,-0.427398383617401,2.86974096298218,1.23834311962128,-0.196318384305134,2.8813460641717,1.26438752200817,1246.476,1311.121,3132.48,3127.88,-0.07267553,0.0469344,0.04660525,-0.610230386257172,-0.098995178937912,0.262189358472824,-0.397661187980262,-0.171102499820431,0.246171218589148,8
0.94000244140625,-0.439632773399353,2.86762738227844,1.24369084835052,-0.204407453948074,2.87786556348678,1.26939504145298,1233.605,1326.354,3130.024,3129.718,-0.07619197,0.04594583,0.04623887,-0.611721038818359,-0.105678401887417,0.267385244369507,-0.411081631631503,-0.176876941799768,0.254479112513653,8
0.960006713867188,-0.4519003033638,2.86536979675293,1.249138712883,-0.212765478812529,2.87426933888379,1.27456905699201,1227.494,1340.858,3125.187,3128.834,-0.079669,0.04485257,0.04610419,-0.613377213478088,-0.112880021333694,0.272396147251129,-0.424549556012544,-0.182671813410681,0.262816399271726,8
0.980010986328125,-0.464205086231232,2.8629584312439,1.25468587875366,-0.221393324468958,2.87055701793193,1.27991010445463,1220.2,1353.619,3123.939,3128.555,-0.08314069,0.04364826,0.04626398,-0.615238904953003,-0.120571695268154,0.277356743812561,-0.438056556301695,-0.188483498293199,0.271177875878363,8
1,-0.47655200958252,2.86038398742676,1.26033055782318,-0.230284798736574,2.86673126495361,1.28541435058594,1204.911,1363.846,3124.64,3137.133,-0.08660493,0.04232656,0.04677393,-0.617346346378326,-0.128720998764038,0.282236188650131,-0.451584000205995,-0.194303979492187,0.279552008056641,8
1.02000427246094,-0.488947063684464,2.85763812065125,1.26607120037079,-0.239454009753966,2.86278600961093,1.2910905289958,1188.357,1371.953,3126.586,3147.964,-0.08998289,0.04090183,0.04761807,-0.619751155376434,-0.137292072176933,0.287030130624771,-0.465144357597929,-0.200138622445408,0.287946515251652,8
1.04000854492188,-0.501396834850311,2.85471367835999,1.27190375328064,-0.248894644448595,2.85872396824263,1.29693473159157,1179.704,1379.888,3122.992,3157.213,-0.0932149,0.03940429,0.04873269,-0.622489929199219,-0.146227821707726,0.291627824306488,-0.47871923339115,-0.205979512261105,0.296350010028666,8
1.05999755859375,-0.513908922672272,2.85160398483276,1.27782797813416,-0.258599401509697,2.85454828239877,1.30294243851408,1173.273,1387.843,3120.825,3164.233,-0.09629245,0.03785229,0.05007511,-0.625604331493378,-0.155484169721603,0.296208828687668,-0.492290296490434,-0.211818761581115,0.30475114456651,8
1.08000183105469,-0.526491224765778,2.84830355644226,1.28384447097778,-0.268583149539609,2.85025255453512,1.30912285413647,1159.915,1394.86,3121.826,3176.521,-0.09920169,0.03625684,0.05163225,-0.629114925861359,-0.165018185973167,0.300822675228119,-0.50587040849135,-0.217661904390701,0.313157880805523,8
1.10000610351563,-0.539151787757874,2.84480810165405,1.28995132446289,-0.278838480013141,2.84583997233313,1.31547139222872,1156.335,1401.673,3119.169,3183.483,-0.1018952,0.03465385,0.05332943,-0.633027315139771,-0.174772202968597,0.305340945720673,-0.519441457145546,-0.223501147495394,0.321559006401169,7
1.12001037597656,-0.551898896694183,2.84111404418945,1.29614984989166,-0.289365134970699,2.84131064678559,1.32198789310157,1156.831,1408.469,3118.972,3185.41,-0.1043858,0.03305882,0.05514711,-0.637354254722595,-0.184704601764679,0.309924125671387,-0.532995796775449,-0.22933320117373,0.329949788314817,7
1.13999938964844,-0.564740717411041,2.83721852302551,1.30244112014771,-0.300154365346813,2.83666834237095,1.3286669406667,1153.006,1413.954,3120.737,3191.68,-0.106699,0.0314728,0.05710862,-0.642090916633606,-0.194770634174347,0.314564675092697,-0.546515580872639,-0.235150386571708,0.338319178707607,7
1.16000366210938,-0.577685534954071,2.83311986923218,1.30882656574249,-0.311222084148811,2.83190621216671,1.33551838583369,1149.374,1417.488,3124.869,3197.725,-0.1088045,0.02990778,0.0592064,-0.647241055965424,-0.204929068684578,0.319271504878998,-0.560014026276883,-0.240958390526247,0.34667535943296,7
1.18000793457031,-0.590741455554962,2.82881736755371,1.31530511379242,-0.322559451663168,2.82702805965467,1.34253675639879,1153.701,1420.655,3124.263,3201.567,-0.110697,0.0283827,0.06140747,-0.652797222137451,-0.215121060609818,0.32392680644989,-0.573473482003304,-0.246749618311663,0.355007403690405,7
1.19999694824219,-0.603916883468628,2.82431125640869,1.32187926769257,-0.334156660511822,2.8220381046756,1.34971598112778,1158.028,1422.988,3126.421,3204.688,-0.112411,0.02689985,0.06370767,-0.65877240896225,-0.225311130285263,0.328708976507187,-0.58687652428584,-0.252516572968185,0.36330452533874,7
1.22000122070313,-0.617220222949982,2.81960201263428,1.32855224609375,-0.346030421585499,2.81692915700008,1.35706640485806,1152.889,1423.437,3132.607,3215.171,-0.1139503,0.02545617,0.06612062,-0.665164649486542,-0.235466703772545,0.333648890256882,-0.600236516861372,-0.258265004538453,0.371574997167698,7
1.24000549316406,-0.630659401416779,2.81469130516052,1.33532392978668,-0.358170848086624,2.8117054706409,1.36458190719098,1156.723,1423.605,3134.19,3221.574,-0.1152701,0.02408028,0.0685761,-0.671959757804871,-0.245536580681801,0.338584512472153,-0.613536214864368,-0.263987493038594,0.379808143784027,7
1.260009765625,-0.644242584705353,2.80958151817322,1.3421972990036,-0.37057666480527,2.80636759428526,1.37226169871082,1163.993,1423.877,3137.3,3223.926,-0.1163849,0.02278213,0.0710454,-0.679159462451935,-0.255488693714142,0.343667656183243,-0.626768731761373,-0.26968107538565,0.387999702095469,7
1.27999877929688,-0.65797746181488,2.80427575111389,1.34917533397675,-0.383236695417198,2.80092033679326,1.3800988607405,1166.487,1423.29,3141.928,3230.637,-0.1173234,0.02155937,0.07353525,-0.686744332313538,-0.265289515256882,0.348899275064468,-0.639917282339435,-0.275338529371412,0.396139281255613,8
1.30000305175781,-0.671871364116669,2.79877758026123,1.35626101493835,-0.396168722856641,2.79535604666509,1.38810440176341,1168.62,1421.378,3148.657,3236.851,-0.1180585,0.02042184,0.07602287,-0.69469952583313,-0.274910897016525,0.354286909103394,-0.652995275331231,-0.280965624398954,0.404235181908735,8
1.32000732421875,-0.685931265354156,2.79309153556824,1.36345505714417,-0.409361504843077,2.78967956113998,1.39627136227237,1179.467,1420.171,3149.894,3239.384,-0.1185938,0.01938706,0.07846327,-0.702993392944336,-0.284306883811951,0.35970202088356,-0.6659860834168,-0.286555206197011,0.41227711095171,8
1.33999633789063,-0.700163662433624,2.78722238540649,1.37076151371002,-0.422802873722428,2.78389611561957,1.40459220990988,1190.222,1418.609,3154.066,3240.263,-0.118981,0.01845086,0.08085535,-0.71161937713623,-0.293458878993988,0.365321815013885,-0.678873453515705,-0.29210028151913,0.420255006953505,8
1.36000061035156,-0.714574694633484,2.78117537498474,1.37818503379822,-0.436511415158101,2.77799771321212,1.41307845008695,1191.084,1415.231,3163.066,3247.594,-0.1192356,0.01760069,0.08322737,-0.720554292201996,-0.302354663610458,0.371174097061157,-0.691670720740693,-0.297606588091785,0.42817712498415,8
1.3800048828125,-0.729169964790344,2.77495622634888,1.3857262134552,-0.450474904562636,2.77198961381608,1.4217225152016,1200.341,1412.155,3166.611,3251.168,-0.1193288,0.01685567,0.08552871,-0.729760110378265,-0.310960054397583,0.377060502767563,-0.704361775018035,-0.303067194200314,0.436033492140578,8
1.40000915527344,-0.743954479694366,2.76857089996338,1.39338862895966,-0.464691155755482,2.76587275808388,1.43052305190393,1212.322,1409.188,3171.519,3251.079,-0.1192883,0.01621544,0.08774701,-0.739227652549744,-0.319261878728867,0.383123606443405,-0.716940488958393,-0.308479463400265,0.443820315276901,8
1.41999816894531,-0.758933126926422,2.76202583312988,1.40117585659027,-0.47914673136562,2.75965292774086,1.43947174182117,1218.159,1405.378,3178.164,3255.948,-0.1191488,0.01566781,0.08990338,-0.748928606510162,-0.327248364686966,0.389362365007401,-0.729391385793766,-0.313836736470737,0.451528013536465,8
1.44000244140625,-0.774109899997711,2.7553277015686,1.40909123420715,-0.493861275572861,2.75332167044526,1.4485807456364,1222.091,1400.396,3186.791,3261.203,-0.1188819,0.01521395,0.09198474,-0.758840084075928,-0.334912151098251,0.39576718211174,-0.741727567798258,-0.319144650954242,0.459164697851088,8
1.46000671386719,-0.789488255977631,2.74848318099976,1.41713488101959,-0.508821304757097,2.74688478782212,1.45784171634646,1234.688,1396.878,3188.591,3262.861,-0.1184878,0.01486864,0.09394531,-0.768920838832855,-0.342225134372711,0.402181506156921,-0.753933682518823,-0.324396601119133,0.466720864320996,8
1.48001098632813,-0.805071532726288,2.74149942398071,1.42531061172485,-0.524024159888143,2.74034342397783,1.467253007885,1247.148,1393.385,3193.139,3262.32,-0.1180185,0.01462274,0.09578343,-0.779162228107452,-0.349187523126602,0.40878826379776,-0.766004036374583,-0.329590137176618,0.474192988348404,8
1.5,-0.820862174034119,2.73438334465027,1.4336222410202,-0.539455198877605,2.73370387899399,1.4768055561018,1251.647,1388.913,3200.731,3266.966,-0.1175029,0.01446042,0.09752566,-0.789532482624054,-0.355803817510605,0.415580749511719,-0.777924000354858,-0.334718964672088,0.481572013878822,8
1.52000427246094,-0.836862146854401,2.72714185714722,1.4420725107193,-0.555135099954955,2.72695725560613,1.48651216180595,1254.887,1383.455,3210.169,3270.906,-0.1168952,0.01438401,0.0991622,-0.800002753734589,-0.362078785896301,0.42251393198967,-0.789706299681991,-0.339788558913217,0.48886581843107,8
1.54000854492188,-0.853072702884674,2.71978211402893,1.45066058635712,-0.571049184024557,2.72010986981902,1.49636373793799,1268.205,1379.917,3211.427,3270.578,-0.1161932,0.01440669,0.100654,-0.81052577495575,-0.367991209030151,0.429401367902756,-0.801336412291853,-0.344792671461508,0.496065412155667,8
1.55999755859375,-0.869494557380676,2.71231126785278,1.45938920974731,-0.587181951496087,2.71316839067337,1.50635068951315,1281.462,1376.449,3214.958,3268.398,-0.1154592,0.01451474,0.1020092,-0.821095108985901,-0.373547255992889,0.436434268951416,-0.812800388649436,-0.349725300221754,0.503162159625937,8
1.58000183105469,-0.8861283659935,2.70473599433899,1.46826243400574,-0.60355483331529,2.70612359703193,1.51648628330776,1282.48,1371.159,3224.29,3273.499,-0.1147141,0.01468436,0.1032719,-0.831687331199646,-0.378765970468521,0.443659842014313,-0.824110582941666,-0.354591760855452,0.510163708672098,8
1.60000610351563,-0.902973473072052,2.69706320762634,1.47727942466736,-0.620152298932711,2.69898217125626,1.52676090517188,1290.36,1367.064,3227.442,3275.523,-0.1139263,0.01492946,0.1044012,-0.842256307601929,-0.383643209934235,0.450849622488022,-0.835253140422976,-0.35938609205264,0.51706148254665,8
1.62001037597656,-0.920029282569885,2.68929934501648,1.48644196987152,-0.636970945360177,2.69174557755711,1.53717244849371,1301.234,1363.459,3231.622,3273.024,-0.113113,0.01524676,0.1053887,-0.852793514728546,-0.388190507888794,0.45812851190567,-0.846223126656604,-0.364106170663034,0.523852426598179,8
1.63999938964844,-0.937294781208038,2.68145084381104,1.49575173854828,-0.653994195024907,2.68442094880091,1.54771065096602,1305.956,1359.363,3237.282,3274.975,-0.1123023,0.01561826,0.1062666,-0.863270401954651,-0.39242085814476,0.465485751628876,-0.857007552155828,-0.368746407673381,0.530528499715628,8
1.66000366210938,-0.954768002033234,2.67352390289307,1.50520980358124,-0.671244443874359,2.67699864863716,1.55838937674714,1308.132,1354.412,3244.67,3277.51,-0.1114639,0.01603994,0.1070368,-0.873665571212769,-0.39634981751442,0.472902953624725,-0.867618167158098,-0.373311858882592,0.53709697585572,8
1.68000793457031,-0.972446739673615,2.66552448272705,1.5148138999939,-0.688705090349012,2.66948582025311,1.56919834868089,1318.656,1351.59,3244.116,3276.896,-0.1106016,0.01652229,0.1076642,-0.883938550949097,-0.399970471858978,0.480204671621323,-0.878042061913515,-0.377796969585941,0.543549863268291,8
1.69999694824219,-0.990328550338745,2.65745854377747,1.52456569671631,-0.706358800111611,2.66188992212981,1.58012683598675,1328.358,1348.861,3246.669,3274.089,-0.1097654,0.01705139,0.1081565,-0.894091308116913,-0.403302073478699,0.487587928771973,-0.888267004546665,-0.382196476749158,0.549879589839776,8
1.72000122070313,-1.00841057300568,2.64933109283447,1.5344672203064,-0.724228658537036,2.6542010212754,1.5911891296115,1325.941,1344.44,3255.014,3278.095,-0.1089584,0.01760446,0.1085604,-0.904104232788086,-0.406374126672745,0.495078057050705,-0.898304216251578,-0.386515208538549,0.556093102023817,8
1.74000549316406,-1.02668929100037,2.64114737510681,1.54451560974121,-0.742297311768984,2.64642658456943,1.60237448669139,1331.816,1341.729,3255.891,3278.337,-0.1081435,0.0181987,0.1088368,-0.913933396339417,-0.409189343452454,0.502422213554382,-0.908141534469281,-0.390747931744771,0.562182870617028,8
1.760009765625,-1.04516088962555,2.63291215896606,1.55471086502075,-0.760560719141003,2.63856835059778,1.61368040586141,1340.987,1339.6,3257.679,3273.903,-0.107344,0.01882785,0.1089844,-0.923579216003418,-0.411763608455658,0.509763240814209,-0.91777478390713,-0.394892849856044,0.568146310914365,8
1.77999877929688,-1.06382143497467,2.62462973594666,1.56505286693573,-0.779000609654483,2.63063418086074,1.62509557650306,1342.703,1336.876,3261.388,3274.901,-0.1065925,0.01947125,0.1090457,-0.933022141456604,-0.414116889238358,0.517102479934692,-0.927192788821983,-0.398945154262308,0.57397650459845,8
1.80000305175781,-1.08266639709473,2.61630439758301,1.57554137706757,-0.797640935141499,2.62261376955408,1.63663482594136,1341.1,1333.213,3267.31,3276.772,-0.1058505,0.02012496,0.1090271,-0.942250728607178,-0.416271895170212,0.524423778057098,-0.936405971974637,-0.402909329586356,0.579679903854719,7
1.82000732421875,-1.10169100761414,2.60793995857239,1.58617198467255,-0.816463410111527,2.61451498441355,1.64828683458664,1348.062,1331.817,3264.79,3275.578,-0.1051123,0.02080134,0.108894,-0.951231300830841,-0.418226003646851,0.53153258562088,-0.94540321420156,-0.406780591562751,0.585249625391268,7
1.83999633789063,-1.12089049816132,2.59953999519348,1.59694457054138,-0.835449117627072,2.60634596486888,1.66003989195343,1354.983,1330.639,3265.17,3271.583,-0.1044209,0.02148887,0.1086532,-0.959975898265839,-0.419999212026596,0.538631916046143,-0.954174163352093,-0.410554485950274,0.590679260733698,7
1.86000061035156,-1.1402599811554,2.59110760688782,1.60785961151123,-0.854622615239374,2.59809614449182,1.6719092003358,1349.35,1327.811,3271.421,3274.815,-0.1037797,0.02216514,0.108356,-0.968474507331848,-0.421622067689896,0.545754671096802,-0.962728579444532,-0.414235212212131,0.595974851798267,7
1.8800048828125,-1.15979385375977,2.58264565467834,1.6189124584198,-0.873964974649439,2.58977366760063,1.68388304221498,1351.977,1326.734,3269.926,3274.627,-0.103148,0.02284845,0.1079634,-0.976691961288452,-0.42309832572937,0.552642524242401,-0.971056158224177,-0.417818336715394,0.601130019760457,7
1.90000915527344,-1.17948651313782,2.57415676116943,1.63010156154633,-0.893471623792247,2.58138050142717,1.69595858726494,1358.176,1326.242,3269.698,3269.254,-0.102544,0.0235346,0.1074739,-0.98463898897171,-0.42444384098053,0.559454619884491,-0.979153483542501,-0.421302389586788,0.606142649861596,7
1.91999816894531,-1.19933271408081,2.56564331054688,1.64142537117004,-0.913122862707269,2.57292512231409,1.70812364027167,1356.464,1325.154,3271.497,3269.743,-0.1019991,0.02420436,0.1069336,-0.992303967475891,-0.425677686929703,0.566189646720886,-0.987011339258123,-0.424683405378145,0.611007036871143,7
1.94000244140625,-1.21932625770569,2.55710697174072,1.65288197994232,-0.932943991899774,2.5643966441608,1.72039386345315,1351.66,1323.121,3275.402,3271.091,-0.1014675,0.02485615,0.106349,-0.999683856964111,-0.42682009935379,0.572828710079193,-0.994638524886308,-0.427965170275055,0.615728628108227,7
1.96000671386719,-1.23946142196655,2.54854965209961,1.66446554660797,-0.952915303453826,2.55580354673295,1.73275705667061,1356.066,1323.314,3270.742,3269.052,-0.1009402,0.02550454,0.105685,-1.0067538022995,-0.427865713834763,0.579178988933563,-1.00202586176059,-0.431143734953757,0.620301741541062,7
1.98001098632813,-1.25973212718964,2.53997302055359,1.67617464065552,-0.973031969359004,2.54714790738853,1.74521023115561,1360.333,1323.678,3269.175,3264.337,-0.1004598,0.02613911,0.104951,-1.01353406906128,-0.428830325603485,0.585454940795898,-1.00917036754089,-0.434217816196637,0.624724530959079,7
2,-1.28013253211975,2.53137826919556,1.6880077123642,-0.993273599084619,2.53843849960327,1.7577407641983,1354.738,1323.157,3270.994,3266.176,-0.1000459,0.02674196,0.1041906,-1.0200183391571,-0.429736256599426,0.591651201248169,-1.01606400046349,-0.437183953857422,0.628992018127441,6
2.02000427246094,-1.30065655708313,2.52276611328125,1.69996201992035,-1.01366615605493,2.52966415204104,1.77036472839513,1347.401,1321.81,3274.689,3267.503,-0.09962939,0.0273188,0.1034016,-1.02620422840118,-0.430602461099625,0.597716987133026,-1.02271452148052,-0.440045487257004,0.633109007445237,6
2.04000854492188,-1.32129788398743,2.51413774490356,1.71203076839447,-1.03418924440916,2.52083364047092,1.78306949773667,1351.516,1322.849,3268.748,3264.267,-0.09919316,0.0278883,0.1025453,-1.03206717967987,-0.431416690349579,0.60343861579895,-1.02911391720548,-0.442798968459032,0.637070538244476,6
2.05999755859375,-1.34205043315887,2.50549387931824,1.72421169281006,-1.05482201812353,2.5119559343546,1.79584216754118,1356.25,1324.119,3265.453,3258.292,-0.09879209,0.02843916,0.1016356,-1.03762996196747,-0.432187646627426,0.609047412872314,-1.03525504859546,-0.445441325732794,0.640872191117535,6
2.08000183105469,-1.36290836334229,2.49683523178101,1.73650372028351,-1.07559088172821,2.50301967256038,1.80869908347065,1346.576,1323.554,3268.665,3261.244,-0.09844109,0.02894761,0.1007325,-1.04289603233337,-0.432938128709793,0.6146040558815,-1.04114485287423,-0.447975543971863,0.644518260536375,6
2.10000610351563,-1.38386523723602,2.48816180229187,1.74890077114105,-1.09647498538954,2.49403382618922,1.82162733848484,1344.55,1324.217,3264.814,3261.327,-0.09809221,0.02943497,0.09979408,-1.04784452915192,-0.433666050434113,0.619850039482117,-1.04677621342161,-0.450398561093403,0.648004340974112,5
2.12001037597656,-1.4049152135849,2.47947406768799,1.76139974594116,-1.11746913671118,2.48500062938421,1.83462371824305,1346.795,1325.387,3262.635,3255.346,-0.09774867,0.02990324,0.09881305,-1.05249631404877,-0.434379935264587,0.624950766563416,-1.05214690704168,-0.452709420518306,0.651329056166548,5
2.13999938964844,-1.42605197429657,2.47077250480652,1.77399754524231,-1.138551967509,2.47592927627801,1.8476749948214,1341.547,1326.046,3261.911,3255.504,-0.09743388,0.03033716,0.09783405,-1.05684661865234,-0.435087323188782,0.629890322685242,-1.05725102347782,-0.454905579228273,0.654488747383304,4
2.16000366210938,-1.447270154953,2.4620566368103,1.7866907119751,-1.15975039167652,2.46680818657414,1.86079782920208,1334.376,1325.741,3262.91,3256.067,-0.09710152,0.03073971,0.09685822,-1.06090140342712,-0.435796052217484,0.634657502174377,-1.0620943502576,-0.456989527434725,0.657486997379635,4
2.18000793457031,-1.46856307983398,2.4533269405365,1.79947233200073,-1.18104303873349,2.45764655539322,1.87397899203979,1336.55,1327.28,3255.812,3253.342,-0.09674465,0.03112757,0.09584897,-1.06464648246765,-0.436490178108215,0.639078378677368,-1.06667099276523,-0.458958728849171,0.660320157107579,3
2.19999694824219,-1.48992514610291,2.44458341598511,1.81233990192413,-1.20240821395574,2.44845371736898,1.88720505326679,1338.345,1328.887,3252.241,3248.081,-0.09640643,0.03149249,0.09481563,-1.06810760498047,-0.437176078557968,0.643381118774414,-1.07097597819164,-0.460811043810786,0.662985148161421,1
2.22000122070313,-1.51135098934174,2.43582606315613,1.82529187202454,-1.22387315175433,2.43921795429519,1.90049287228091,1326.716,1328.848,3254.649,3251.095,-0.09608792,0.03181664,0.09381067,-1.07128834724426,-0.43786945939064,0.64760035276413,-1.07501419914593,-0.462548577472581,0.665484999299265,0
2.24000549316406,-1.53283429145813,2.42705488204956,1.83832132816315,-1.24541615591711,2.42994860144581,1.91382901809327,1324.715,1329.919,3249.436,3250.141,-0.09573478,0.03212534,0.09278584,-1.07417023181915,-0.4385586977005,0.651470184326172,-1.07878069424208,-0.464169195088763,0.667816639186824,0
2.260009765625,-1.55436992645264,2.41827011108398,1.85142481327057,-1.26703177594152,2.42064800401982,1.92721011658316,1327.463,1331.505,3245.713,3243.11,-0.09536088,0.0324204,0.09173536,-1.07677507400513,-0.439243733882904,0.655173480510712,-1.08227399942825,-0.465672266718726,0.669979161506271,0
2.27999877929688,-1.57595181465149,2.40947151184082,1.86459910869598,-1.28869796983554,2.41132564607061,1.9406225227075,1321.646,1332.434,3243.902,3243.141,-0.09500135,0.03268484,0.09070737,-1.07910096645355,-0.439926147460938,0.658712565898895,-1.08549040888332,-0.467056197851165,0.67197027217779,0
2.30000305175781,-1.59757518768311,2.40065932273865,1.87784075737,-1.31044231452835,2.40196966201596,1.95408330789913,1313.344,1332.144,3244.518,3243.72,-0.09460667,0.03292309,0.08970176,-1.08115661144257,-0.440610021352768,0.662082970142365,-1.08843358680109,-0.468322565086307,0.673792239511894,0
2.32000732421875,-1.61923360824585,2.39183378219604,1.89114260673523,-1.33224276726637,2.39258953623693,1.96757882664355,1314.728,1333.431,3237.008,3240.966,-0.09416138,0.03315387,0.08867817,-1.08292865753174,-0.441274255514145,0.665094196796417,-1.09109983431736,-0.469469776906228,0.675442773735451,0
2.33999633789063,-1.64092242717743,2.38299536705017,1.90450215339661,-1.35407709248145,2.38319483607731,1.98109531406483,1316.925,1334.86,3232.736,3234.824,-0.09370758,0.03337183,0.08764137,-1.08444237709045,-0.441919088363647,0.6679767370224,-1.09348640563071,-0.470496651869278,0.67692017506657,0
2.36000061035156,-1.66263651847839,2.3741443157196,1.91791749000549,-1.37597305876702,2.37377361348711,1.99464996024512,1305.398,1334.742,3234.1,3237.648,-0.09325165,0.03355905,0.08664434,-1.08570063114166,-0.442553281784058,0.670768082141876,-1.09559602313537,-0.471404361345641,0.678226128796969,0
2.3800048828125,-1.68437016010284,2.3652811050415,1.93138182163239,-1.39790843013262,2.36433543599182,2.00822900004707,1303.672,1335.371,3228.322,3236.316,-0.09274245,0.03374135,0.0856352,-1.08668828010559,-0.443160891532898,0.673214018344879,-1.09742594550583,-0.472191725819537,0.679358937915576,0
2.40000915527344,-1.70611870288849,2.35640645027161,1.94489181041718,-1.41987760424917,2.35488271411715,2.02182896536211,1306.458,1336.481,3224.285,3228.982,-0.09219331,0.03392044,0.08460708,-1.08742570877075,-0.443738728761673,0.675502240657806,-1.09897546783438,-0.472858441988871,0.680318166050934,0
2.41999816894531,-1.72787690162659,2.34752082824707,1.95844435691833,-1.44185817738692,2.34542508756209,2.03543598721428,1300.714,1336.96,3222.082,3228.758,-0.09163884,0.03408131,0.08360589,-1.08790993690491,-0.444284737110138,0.677630186080933,-1.10024313330221,-0.473403883025206,0.681102911362803,0
2.44000244140625,-1.74963986873627,2.33862495422363,1.97203624248505,-1.46387808506052,2.33595053645515,2.04906735901791,1292.885,1336.167,3222.219,3228.888,-0.0910311,0.03422904,0.0826285,-1.08814835548401,-0.444798827171326,0.679592251777649,-1.10123038958312,-0.473828671822132,0.681714070030222,0
2.46000671386719,-1.77140247821808,2.32971954345703,1.98566031455994,-1.48591492338117,2.32646870056377,2.06270921169857,1295.123,1336.738,3214.445,3225.375,-0.09035467,0.03438224,0.08163318,-1.08812820911407,-0.445257395505905,0.68120276927948,-1.10193578218388,-0.474132182551855,0.682150741652607,0
2.47999572753906,-1.79315996170044,2.3208065032959,1.99931418895721,-1.50794623031618,2.31698924467309,2.07634764018804,1297.971,1337.444,3209.988,3218.663,-0.08965372,0.03453489,0.08062596,-1.08787167072296,-0.445658206939697,0.682695925235748,-1.10235882472314,-0.474314205938057,0.682412625136718,0
2.5,-1.81490755081177,2.31188631057739,2.01299619674683,-1.52999999932945,2.30750012397766,2.08999997377396,1287.004,1336.707,3210.764,3221.336,-0.08894106,0.03466988,0.0796579,-1.0873795747757,-0.446006774902344,0.684101819992065,-1.10250000050292,-0.474374949932098,0.682500019669533,0
2.52000427246094,-1.8366402387619,2.30296039581299,2.02669978141785,-1.55205376834272,2.29801100328223,2.10365230735988,1286.133,1336.43,3204.981,3219.309,-0.08816235,0.03481266,0.07867404,-1.08663892745972,-0.446286857128143,0.68518054485321,-1.10235882472314,-0.474314205938057,0.682412625136718,0
2.54000854492188,-1.85835373401642,2.29403066635132,2.04042196273804,-1.57410188948011,2.28852431271001,2.11730114464159,1289.402,1336.66,3200.94,3211.619,-0.08733357,0.03496427,0.07766856,-1.08566629886627,-0.446494430303574,0.68611466884613,-1.10193535162022,-0.474131997292339,0.682150475113189,0
2.55999755859375,-1.88004279136658,2.2850980758667,2.05415987968445,-1.59612191359838,2.27904971150017,2.13093258853001,1284.434,1336.324,3198.429,3210.994,-0.08648989,0.03511048,0.07668433,-1.0844566822052,-0.446625649929047,0.686895251274109,-1.10123038958312,-0.473828671822132,0.681714070030222,0
2.58000183105469,-1.90170311927795,2.27616453170776,2.06791043281555,-1.61814182127198,2.26957516039323,2.14456396033363,1277.772,1334.739,3198.272,3210.355,-0.08558547,0.03525649,0.07571599,-1.08301663398743,-0.446680039167404,0.687523245811462,-1.10024313330221,-0.473403883025206,0.681102911362804,0
2.60000610351563,-1.92332983016968,2.26723194122314,2.08166670799255,-1.64013916343638,2.26011031859448,2.15818136301212,1280.738,1334.318,3190.57,3206.359,-0.08460756,0.03541906,0.07472327,-1.08133292198181,-0.446635037660599,0.687816977500916,-1.09897439291323,-0.472857979480329,0.680317500623536,0
2.62001037597656,-1.94491815567017,2.25830221176147,2.09542679786682,-1.66210831390746,2.25065760689379,2.17178131368948,1284.413,1334.092,3186.026,3199.145,-0.08360142,0.0355923,0.07371092,-1.07942354679108,-0.446488618850708,0.688004672527313,-1.09742465646102,-0.47219117117957,0.679358139935436,0
2.63999938964844,-1.966463804245,2.24937725067139,2.10918831825256,-1.68402693989188,2.24122663446822,2.18534998730279,1277.76,1333.091,3184.424,3199.633,-0.08259581,0.03576142,0.07271979,-1.07728517055511,-0.446243315935135,0.688081026077271,-1.09559602313537,-0.471404361345641,0.67822612879697,0
2.66000366210938,-1.98796224594116,2.24045920372009,2.12294840812683,-1.70592290617745,2.23180541187802,2.19890463348308,1269.984,1330.896,3184.985,3199.429,-0.08152522,0.03593601,0.07173664,-1.07492136955261,-0.445901453495026,0.688009440898895,-1.09348640563071,-0.470496651869278,0.67692017506657,0
2.68000793457031,-2.00940871238708,2.23155045509338,2.13670015335083,-1.72777388024004,2.22240354818443,2.21243142733407,1274.204,1329.983,3177.281,3194.13,-0.08036568,0.0361358,0.0707154,-1.07231688499451,-0.445440202951431,0.687591969966888,-1.09109790637238,-0.469468947365361,0.675441580245664,0
2.69999694824219,-2.0307981967926,2.22265338897705,2.15044140815735,-1.74955768413056,2.21303058593937,2.22591663964878,1279.829,1329.446,3172.081,3185.563,-0.07917312,0.03635266,0.06966564,-1.06948590278625,-0.444855272769928,0.687061011791229,-1.08843358680109,-0.468322565086308,0.673792239511893,0
2.72000122070313,-2.05212688446045,2.21377038955688,2.16417074203491,-1.77130202882336,2.20367460188472,2.23937742484041,1271.045,1327.639,3172.178,3186.873,-0.07797789,0.03656634,0.06864374,-1.0664279460907,-0.44415271282196,0.686468839645386,-1.08549040888332,-0.467056197851165,0.671970272177789,0
2.74000549316406,-2.07338953018188,2.2049036026001,2.17788243293762,-1.79298473688851,2.19434513834902,2.25280005402337,1270.446,1325.763,3166.776,3184.791,-0.076731,0.03679736,0.06759958,-1.06313240528107,-0.443322420120239,0.685584247112274,-1.08227143928024,-0.465671165158559,0.669977576652695,0
2.760009765625,-2.09458184242249,2.1960563659668,2.19157409667969,-1.81460030360772,2.18504456385877,2.26618111951479,1274.199,1324.451,3163.224,3176.516,-0.0754383,0.03704811,0.0665227,-1.05961215496063,-0.442364424467087,0.684578835964203,-1.07877792518082,-0.464168003639063,0.667814925005998,0
2.77999877929688,-2.11569905281067,2.18723082542419,2.20524263381958,-1.83612684690458,2.17578229366013,2.27950707526701,1270.269,1322.85,3160.507,3175.126,-0.07413229,0.03730499,0.06545281,-1.05585968494415,-0.441276878118515,0.683425962924957,-1.07501419914593,-0.462548577472581,0.665484999299265,0
2.80000305175781,-2.13673639297485,2.17842984199524,2.21888518333435,-1.85759178470316,2.16654653058634,2.29279489428112,1265.477,1320.153,3159.717,3173.252,-0.07277088,0.03757289,0.0643814,-1.05187964439392,-0.440061002969742,0.682128727436066,-1.07097597819164,-0.460811043810786,0.662985148161422,0
2.82000732421875,-2.15768957138062,2.16965579986572,2.23249578475952,-1.87897323600723,2.1573466894188,2.30603103117811,1269.729,1318.424,3152.074,3168.154,-0.07134875,0.03786526,0.06327178,-1.04766070842743,-0.438700675964355,0.680524408817291,-1.06666760390385,-0.458957270716794,0.660318059240952,0
2.83999633789063,-2.17855381965637,2.16091179847717,2.24607253074646,-1.90024960698239,2.14819206138118,2.31920211834584,1274.019,1316.999,3147.729,3160.19,-0.06991064,0.03817406,0.06213188,-1.04321539402008,-0.437197506427765,0.678835928440094,-1.06209435025759,-0.456989527434725,0.657486997379635,0
2.86000061035156,-2.1993248462677,2.15220069885254,2.25961422920227,-1.9214480311499,2.13907097167731,2.33232495272651,1264.937,1314.593,3147.893,3161.415,-0.06847306,0.03848292,0.06101039,-1.03854131698608,-0.435559689998627,0.677080869674683,-1.05725102347782,-0.454905579228273,0.654488747383304,0
2.8800048828125,-2.21999740600586,2.14352512359619,2.2731146812439,-1.94254691640495,2.12999271078668,2.34538616777867,1265.622,1312.115,3142.227,3158.083,-0.06698276,0.03881329,0.05985344,-1.03362905979156,-0.433779805898666,0.675028204917908,-1.0521429102862,-0.45270770082608,0.651326581984514,0
2.90000915527344,-2.24056696891785,2.13488793373108,2.28657174110413,-1.96354098577478,2.12095954924324,2.35838249680481,1270.804,1310.405,3138.086,3148.66,-0.06545518,0.039165,0.05865485,-1.02848839759827,-0.431858330965042,0.672856450080872,-1.04677201701582,-0.450396755497224,0.648001743199023,0
2.91999816894531,-2.26102948188782,2.12629199028015,2.29998278617859,-1.98440911693069,2.11198057539494,2.37130086407726,1267.454,1308.442,3135.159,3146.6,-0.06393237,0.03952216,0.05745983,-1.02311253547668,-0.429796636104584,0.670553624629974,-1.04114485287423,-0.447975543971863,0.644518260536375,0
2.94000244140625,-2.28137969970703,2.11773991584778,2.31334519386292,-2.00517798053537,2.10304431360073,2.38415778000673,1262.327,1305.331,3134.277,3144.846,-0.06237496,0.03988757,0.05626234,-1.01750659942627,-0.427599787712097,0.668115198612213,-1.03525504859546,-0.445441325732794,0.640872191117535,0
2.96000671386719,-2.30161261558533,2.10923480987549,2.32665276527405,-2.02582645724542,2.09415985092405,2.3969401707136,1266.369,1303.008,3127.084,3139.318,-0.06076694,0.04027516,0.05502399,-1.01166224479675,-0.425257474184036,0.665382981300354,-1.02910913225408,-0.442796909628122,0.637067576131623,0
2.97999572753906,-2.32172441482544,2.10077905654907,2.33990383148193,-2.04633384260397,2.08533609591429,2.40963521915279,1270.935,1301.208,3122.5,3130.871,-0.059152,0.04067745,0.05375249,-1.00558888912201,-0.422772079706192,0.662558734416962,-1.02271452148052,-0.440045487257004,0.633109007445237,0
3,-2.34171032905579,2.09237623214722,2.35309720039368,-2.06672639957428,2.07656174835205,2.42225918334961,1262.654,1298.668,3122.105,3131.267,-0.05754931,0.04107761,0.05249595,-0.999285340309143,-0.420152842998505,0.659668207168579,-1.01606400046349,-0.437183953857422,0.628992018127441,0
3.02000427246094,-2.36156511306763,2.08402824401855,2.3662269115448,-2.0869834279768,2.06784571494631,2.43479924890685,1263.209,1295.858,3116.278,3127.867,-0.0559104,0.04149482,0.05120432,-0.992745697498322,-0.417396545410156,0.656488418579102,-1.00916501115878,-0.434215511495054,0.624721215103391,0
3.04000854492188,-2.38128471374512,2.07573819160461,2.37929081916809,-2.10709998486405,2.05919012250926,2.44725235590455,1268.278,1293.882,3112.186,3118.058,-0.05424699,0.04192895,0.04987049,-0.985978960990906,-0.414506465196609,0.653199851512909,-1.00202031904361,-0.431141350077486,0.620298310335216,0
3.05999755859375,-2.40086460113525,2.06750822067261,2.39228630065918,-2.12705600675913,2.05060360379452,2.45960608409476,1264.607,1291.816,3109.013,3115.933,-0.05260116,0.04236424,0.04854032,-0.978978931903839,-0.411485940217972,0.649779915809631,-0.994638524886308,-0.427965170275055,0.615728628108227,0
3.08000183105469,-2.4202995300293,2.05934143066406,2.4052107334137,-2.14687713595163,2.04207512564123,2.47187630727625,1259.966,1288.682,3107.754,3113.415,-0.05093136,0.04280435,0.04720573,-0.971752166748047,-0.408341884613037,0.646225154399872,-0.987011339258122,-0.424683405378145,0.611007036871143,0
3.10000610351563,-2.43958520889282,2.05124020576477,2.41805839538574,-2.16654331551667,2.03361331798384,2.48405060925705,1263.857,1286.213,3100.487,3107.621,-0.04922534,0.04326075,0.04583289,-0.964292943477631,-0.405067652463913,0.642383575439453,-0.979147395688901,-0.421299770153459,0.606138881190213,0
3.12001037597656,-2.45871758460999,2.04320669174194,2.43082737922668,-2.18604984110275,2.02522020497339,2.49612607781951,1268.221,1284.331,3095.847,3098.873,-0.04752358,0.04372582,0.04443032,-0.956609487533569,-0.401666909456253,0.638455152511597,-0.971049893464309,-0.41781564116424,0.601126141575667,0
3.13999938964844,-2.47769141197205,2.03524398803711,2.44351577758789,-2.20537738341953,2.01690410346351,2.50809074721212,1262.768,1282.153,3093.231,3097.807,-0.04585804,0.04418585,0.04303782,-0.948700189590454,-0.398147791624069,0.634423613548279,-0.962728579444533,-0.414235212212131,0.595974851798267,0
3.16000366210938,-2.49650287628174,2.02735352516174,2.45612072944641,-2.22455088103183,2.00865428308644,2.51996005559448,1256.856,1279.049,3092.112,3095.954,-0.04417332,0.04464779,0.04164005,-0.940572202205658,-0.394519418478012,0.630253553390503,-0.954174163352092,-0.410554485950274,0.590679260733698,0
3.18000793457031,-2.51514744758606,2.01953768730164,2.46863675117493,-2.24355101420387,2.00047905658478,2.53172204312984,1260.971,1276.639,3085.19,3089.156,-0.04244546,0.04512488,0.04020008,-0.932221293449402,-0.390776842832565,0.625800788402557,-0.945396434568188,-0.406777674475913,0.585245428475253,0
3.19999694824219,-2.53362059593201,2.01179933547974,2.48106169700623,-2.2623590635174,1.99238647840124,2.54336512160655,1265.829,1274.945,3080.135,3079.838,-0.0407192,0.0456086,0.03873244,-0.923652112483978,-0.386921495199203,0.621246993541718,-0.936405971974636,-0.402909329586355,0.579679903854719,0
3.22000122070313,-2.551917552948,2.00414037704468,2.49339389801025,-2.28099938900442,1.98436606709459,2.55490437104486,1258.733,1272.76,3078.238,3079.435,-0.03902756,0.04608316,0.03728475,-0.91486531496048,-0.382961452007294,0.616613805294037,-0.927192788821982,-0.398945154262308,0.573976504598449,0
3.24000549316406,-2.57003498077393,1.99656248092651,2.50562858581543,-2.29945328359428,1.9764258717947,2.56632821087688,1259.027,1269.969,3072.605,3075.464,-0.03732633,0.04656285,0.03581401,-0.905864000320435,-0.378899902105331,0.61173141002655,-0.91776751470058,-0.394889722119544,0.568141810929231,0
3.260009765625,-2.58796787261963,1.98906767368317,2.51776361465454,-2.31771654397337,1.96856770107001,2.57763403905129,1261.79,1268.042,3068.784,3066.868,-0.03562564,0.04704618,0.03431839,-0.896655976772308,-0.374742269515991,0.606753528118134,-0.908134108040216,-0.390744736359816,0.562178273303667,0
3.27999877929688,-2.605712890625,1.98165774345398,2.52979636192322,-2.33577134012187,1.96079922667992,2.58881081793642,1257.7,1266.141,3065.32,3064.496,-0.03394945,0.04752292,0.03283294,-0.887239754199982,-0.370493441820145,0.601640343666077,-0.898304216251578,-0.386515208538549,0.556093102023818,0
3.30000305175781,-2.62326526641846,1.97433459758759,2.54172420501709,-2.35364119854729,1.95311032582551,2.59987311156116,1253.668,1263.446,3063.096,3061.295,-0.032261,0.04799679,0.03134801,-0.877623498439789,-0.36615976691246,0.59638899564743,-0.888267004546666,-0.382196476749158,0.549879589839776,0
3.32000732421875,-2.64062118530273,1.96709966659546,2.55354189872742,-2.37130830610839,1.94550866300381,2.61080989274252,1257.17,1261.189,3055.945,3055.104,-0.03055125,0.04847641,0.02983628,-0.867806971073151,-0.361738443374634,0.590880334377289,-0.878034183119985,-0.377793579561194,0.543544985919778,0
3.33999633789063,-2.65777730941772,1.95995497703552,2.56524777412415,-2.38875555478454,1.93800159931817,2.62161057080077,1260.569,1259.599,3051.226,3046.622,-0.02886014,0.04895447,0.02830955,-0.857796013355255,-0.357232630252838,0.585294604301453,-0.867618167158097,-0.373311858882592,0.53709697585572,0
3.36000061035156,-2.67472887039185,1.95290207862854,2.5768404006958,-2.406005803634,1.93057929915441,2.6322892965819,1252.436,1257.733,3049.297,3046.733,-0.02720898,0.04941812,0.02681001,-0.847593486309052,-0.352650791406631,0.57963490486145,-0.857007552155826,-0.36874640767338,0.530528499715627,0
3.3800048828125,-2.69147324562073,1.94594216346741,2.5883150100708,-2.42304196557559,1.92324911460621,2.64283549236868,1252.474,1255.132,3043.771,3042.554,-0.02554717,0.04988269,0.02529215,-0.837206065654755,-0.347997218370438,0.573733985424042,-0.846214826007803,-0.364102599125748,0.523847288101157,0
3.40000915527344,-2.70800590515137,1.9390766620636,2.59966969490051,-2.43986044461333,1.91601259293018,2.6532469320683,1255.585,1253.54,3039.573,3033.587,-0.02388536,0.05034726,0.02375508,-0.826639533042908,-0.343275099992752,0.567738890647888,-0.835244706287931,-0.359382463079953,0.517056261415284,0
3.41999816894531,-2.72432374954224,1.9323068857193,2.61090207099915,-2.45644516534361,1.90887665092339,2.66351366424015,1251.907,1252.042,3035.629,3030.953,-0.02225604,0.05080111,0.02223565,-0.815893769264221,-0.338488280773163,0.561619102954865,-0.824110582941664,-0.354591760855451,0.510163708672097,0
3.44000244140625,-2.74042344093323,1.92563414573669,2.62200975418091,-2.47281804716281,1.90183185728196,2.67364925803476,1247.947,1249.733,3033.088,3027.768,-0.02062725,0.05124693,0.02072633,-0.804978668689728,-0.333643019199371,0.555378973484039,-0.812800388649434,-0.349725300221754,0.503162159625937,0
3.46000671386719,-2.75630140304565,1.91905927658081,2.63298797607422,-2.4889630419904,1.89488511704659,2.68364377892579,1250.224,1247.661,3026.537,3022.168,-0.01898887,0.05169223,0.01920364,-0.793897688388824,-0.328738838434219,0.548913836479187,-0.801327600455845,-0.344788879974649,0.496059957209413,0
3.47999572753906,-2.77195453643799,1.91258358955383,2.64383554458618,-2.50486489870395,1.88804299234919,2.69348778574196,1252.774,1246.259,3022.04,3014.208,-0.01736967,0.05213179,0.01767662,-0.782655954360962,-0.323778301477432,0.542377889156342,-0.789706299681989,-0.339788558913217,0.488865818431069,0
3.5,-2.7873797416687,1.90620839595795,2.65455102920532,-2.5205447997813,1.88129636896134,2.70319439144611,1245.443,1244.763,3019.619,3013.838,-0.01579095,0.05255473,0.01618248,-0.771257877349854,-0.318767696619034,0.535769164562225,-0.777924000354857,-0.334718964672089,0.481572013878822,0
3.52000427246094,-2.80257391929626,1.89993405342102,2.66512989997864,-2.53598752699493,1.87465179486116,2.71275417523047,1245.376,1242.419,3014.156,3009.792,-0.01420743,0.05297447,0.0146809,-0.759712994098663,-0.313711315393448,0.528945505619049,-0.765994882555673,-0.32958619854407,0.474187321698442,0
3.54000854492188,-2.81753444671631,1.89376187324524,2.67557072639465,-2.55119019794619,1.86811051026429,2.72216535275294,1248.121,1241.076,3010.024,3001.226,-0.01263031,0.05339013,0.01317145,-0.748026430606842,-0.308611422777176,0.522046685218811,-0.753924423002452,-0.324392617007921,0.466715132239272,0
3.55999755859375,-2.8322582244873,1.88769245147705,2.68587160110474,-2.56613872308604,1.86167857751006,2.73141920191151,1244.103,1239.862,3006.002,2999.113,-0.01108993,0.053792,0.01168869,-0.736200153827667,-0.303471207618713,0.515039384365082,-0.741727567798258,-0.319144650954242,0.459164697851087,0
3.58000183105469,-2.84674310684204,1.88172674179077,2.6960301399231,-2.58085326729328,1.85534732021446,2.74052820572674,1240.51,1237.872,3003.336,2995.838,-0.009555422,0.05418386,0.01022203,-0.724245190620422,-0.298296302556992,0.507930815219879,-0.729391385793765,-0.313836736470737,0.451528013536464,0
3.60000610351563,-2.86098647117615,1.87586486339569,2.70604276657104,-2.59531978247425,1.84912278287974,2.74948366775945,1242.226,1236.066,2997.259,2990.588,-0.00801718,0.05457201,0.008752439,-0.712166905403137,-0.293087035417557,0.500630855560303,-0.716930938559024,-0.308475354130224,0.443814403124743,0
3.62001037597656,-2.87498617172241,1.87010788917542,2.71590828895569,-2.60953584173048,1.8430060097325,2.75828408564387,1244.292,1234.882,2993.006,2983.15,-0.006500244,0.05495189,0.007288609,-0.699969470500946,-0.287844777107239,0.49327552318573,-0.704352136620513,-0.303063047067126,0.436027525513372,0
3.63999938964844,-2.88873934745789,1.86445617675781,2.72562503814697,-2.6234885835008,1.83700253474321,2.76692149746096,1239.589,1233.669,2989.316,2981.808,-0.005029113,0.05531633,0.005858307,-0.687658190727234,-0.282573997974396,0.485835015773773,-0.691670720740692,-0.297606588091786,0.428177124984152,0
3.66000366210938,-2.90224432945251,1.85891079902649,2.73519110679626,-2.63719712493647,1.83110413233575,2.77540773763803,1235.566,1231.815,2986.907,2978.955,-0.003565973,0.05566992,0.004447187,-0.67524516582489,-0.277280777692795,0.47830930352211,-0.678873453515702,-0.29210028151913,0.420255006953505,0
3.68000793457031,-2.91549873352051,1.85347175598145,2.74460315704346,-2.65064865588166,1.82531631436231,2.78373487607838,1237.07,1230.139,2981.137,2973.881,-0.002097506,0.0560196,0.003035415,-0.662736415863037,-0.271965593099594,0.470606774091721,-0.665976209205203,-0.286550957599616,0.412270998344358,0
3.69999694824219,-2.92850160598755,1.8481388092041,2.75386023521423,-2.66383127580226,1.81964420129024,2.79189554578451,1239.632,1229.098,2976.837,2966.3,-0.000648746,0.05636165,0.001630845,-0.650134801864624,-0.266628861427307,0.46285480260849,-0.65299527533123,-0.280965624398954,0.404235181908735,0
3.72000122070313,-2.94125032424927,1.84291338920593,2.76296138763428,-2.6767633032417,1.81407991116207,2.79990108680742,1233.824,1228.112,2974.135,2965.335,0.0007574142,0.05668718,0.0002686665,-0.637445449829102,-0.261274069547653,0.455058246850967,-0.639917282339434,-0.275338529371411,0.396139281255611,0
3.74000549316406,-2.95374417304993,1.83779549598694,2.77190351486206,-2.6894328975087,1.80862853869646,2.80774416919516,1233.538,1226.089,2969.226,2961.927,0.002153597,0.05700538,-0.001082309,-0.624680936336517,-0.255905866622925,0.447102099657059,-0.626758665639204,-0.269676744214497,0.387993470686332,0
3.760009765625,-2.96598100662231,1.83278489112854,2.78068566322327,-2.70183851231475,1.80329074921818,2.81542383572149,1235.445,1224.953,2965.542,2954.793,0.003533159,0.05731606,-0.002424009,-0.611846148967743,-0.250525712966919,0.439108431339264,-0.613526094901139,-0.263983138701136,0.379801879044709,0
3.77999877929688,-2.97795987129211,1.82788217067719,2.789306640625,-2.7139695770734,1.79807109095524,2.82293354268985,1231.751,1224.034,2961.992,2952.903,0.004871839,0.05761217,-0.003728426,-0.598945915699005,-0.245136141777039,0.431050002574921,-0.60023651686137,-0.258265004538452,0.371574997167698,0
3.80000305175781,-2.98967933654785,1.82308733463287,2.79776501655579,-2.72584333814708,1.79296214327972,2.83028396642013,1228.727,1222.429,2959.264,2950.16,0.00619655,0.05789746,-0.00500621,-0.585991442203522,-0.239741504192352,0.422922402620316,-0.586876524285838,-0.252516572968186,0.363304525338741,0
3.82000732421875,-3.00113964080811,1.81840062141418,2.80605840682983,-2.73744929742843,1.78796842323393,2.8374686080838,1230.399,1220.906,2954.193,2945.199,0.007515885,0.05817692,-0.006273875,-0.57299017906189,-0.23434279859066,0.414670020341873,-0.573463232144022,-0.246745208083563,0.355001058539243,0
3.83999633789063,-3.01233863830566,1.81382179260254,2.81418633460999,-2.74877791451009,1.78309403578861,2.84448156171422,1231.635,1219.975,2950.34,2939.418,0.008805676,0.05844669,-0.007520767,-0.559945106506348,-0.228940322995186,0.406393557786942,-0.560014026276881,-0.240958390526246,0.346675359432959,0
3.86000061035156,-3.02327585220337,1.80935072898865,2.8221480846405,-2.75984563331209,1.77833190558438,2.85133300688122,1226.938,1219.033,2947.661,2938.357,0.01005147,0.05870127,-0.008725048,-0.546863317489624,-0.223537549376488,0.398090839385986,-0.546515580872635,-0.235150386571708,0.338319178707605,0
3.8800048828125,-3.03395104408264,1.80498802661896,2.82994174957275,-2.77064299647982,1.77368610185671,2.85801708903178,1226.766,1217.331,2943.599,2934.876,0.01128109,0.05894776,-0.009911221,-0.533757150173187,-0.21813902258873,0.389684557914734,-0.532985466132484,-0.229328756186666,0.329943393154704,0
3.90000915527344,-3.0443639755249,1.8007333278656,2.83756685256958,-2.78116944461445,1.76915686529929,2.86453346187138,1228.012,1216.341,2940.144,2929.153,0.01248684,0.05918603,-0.01107768,-0.520631015300751,-0.212745815515518,0.381255179643631,-0.519431110871129,-0.223496695782554,0.321552601564443,0
3.91999816894531,-3.05451345443726,1.79658615589142,2.84502267837524,-2.79141684911929,1.7647476934202,2.87087709341145,1225.466,1215.478,2936.827,2927.063,0.01365012,0.059411,-0.01220633,-0.507490932941437,-0.207360491156578,0.372789829969406,-0.505870408491346,-0.2176619043907,0.313157880805522,0
