t,x_s1,x_s2,x_s3,x_s_d1,x_s_d2,x_s_d3,propellers_rpms1,propellers_rpms2,propellers_rpms3,propellers_rpms4,rollRad,pitchRad,yawRad,v_s1,v_s2,v_s3,v_s_d1,v_s_d2,v_s_d3,insideCount
0,-0.0599999986588955,2.94000005722046,1.17999994754791,-0.0599999986588955,2.94000005722046,1.17999994754791,0,0,0,0,0,0,0,0,0,0,-1.06581410364015E-15,4.44089209850063E-16,4.44089209850063E-16,0
0.0200004577636719,-0.0599999986588955,2.94000005722046,1.17811644077301,-0.0600018691155303,2.93999925241522,1.18000110544967,0,0,0,0,-0.01635288,0.0001297794,-0.01587137,-1.10653664009419E-09,-7.76775763711157E-08,-0.0941759571433067,-0.000279999361409376,-0.000120475902936966,0.000173332942931458,5
0.0399999618530273,-0.0599999986588955,2.94000005722046,1.17242503166199,-0.0600148713609498,2.93999365791226,1.18000915445897,0,0,0,0,-0.03270202,0.0005238493,-0.03175127,-1.08383135799528E-09,-7.60859677484405E-08,-0.284568399190903,-0.0011109667920326,-0.000478017973791642,0.00068774136695538,5
0.0600004196166992,-0.0599058829247952,2.93990302085876,1.16596508026123,-0.0600498928311876,2.939978589152,1.18003083441735,1868.14,3252.796,3183.895,1722.42,-0.04942188,0.0003295453,-0.01369504,0.0047056982293725,-0.00484923040494323,-0.32299616932869,-0.00247959620523307,-0.00106690097521242,0.00153498817058669,5
0.0799999237060547,-0.059820368885994,2.93960738182068,1.16000306606293,-0.0601175490846357,2.93994947855624,1.18007271686115,1925.496,2314.354,3252.104,2829.459,-0.07543191,-0.002136388,0.02094807,0.00427572894841433,-0.0147784873843193,-0.298098415136337,-0.00437248097278563,-0.00188135640961186,0.00270677401230774,5
0.100000381469727,-0.0599374435842037,2.93904495239258,1.15498650074005,-0.0602282016920704,2.93990186783054,1.18014121609627,980.1826,1498.855,3914.958,3896.597,-0.1031954,-0.008062987,0.06330818,-0.00585372280329466,-0.0281166136264801,-0.2508265376091,-0.0067766330492767,-0.00291579588389246,0.00419505867330113,4
0.119999885559082,-0.0604638420045376,2.93818354606628,1.15081310272217,-0.0603919322905141,2.93983141912813,1.18024257313627,346.4103,980.3711,4172.878,4613.366,-0.1214322,-0.01542077,0.104002,-0.0263199843466282,-0.0430683977901936,-0.208669289946556,-0.00967876380620726,-0.00416450167245241,0.0059916158595008,4
0.140000343322754,-0.0615636110305786,2.93704128265381,1.14728271961212,-0.0606185892063818,2.9397338949893,1.18038288456436,352.8895,747.0813,3975.396,4854.953,-0.1254013,-0.0211668,0.1351061,-0.0549884960055351,-0.0571138709783554,-0.176517874002457,-0.0130661982161321,-0.0056220200650813,0.00808859912512287,4
0.159999847412109,-0.0633408576250076,2.93568110466003,1.14427483081818,-0.0609177249752248,2.93960518522485,1.18056806385509,820.9662,814.9536,3462.708,4692.397,-0.118459,-0.02352423,0.15227,-0.0888622850179672,-0.0680148154497147,-0.150395825505257,-0.0169257706321904,-0.00728268625174051,0.0104778583075938,3
0.180000305175781,-0.0658468976616859,2.93417239189148,1.1418251991272,-0.0612986871007165,2.9394412678651,1.18080389755851,1348.715,1083.371,3006.696,4255.259,-0.1079805,-0.02277961,0.155778,-0.125302165746689,-0.0754305869340897,-0.122479856014252,-0.0212451141043368,-0.00914117907931815,0.0131517376757159,3
0.199999809265137,-0.0690849721431732,2.93255400657654,1.140061378479,-0.0617705040344579,2.93923825821955,1.18109597471625,1636.47,1381.203,2918.44,3666.304,-0.09982753,-0.02030074,0.1501557,-0.161903738975525,-0.0809152498841286,-0.0881884321570396,-0.0260111908665737,-0.0111918887613384,0.0161021662312618,3
0.220000267028809,-0.0730103105306625,2.93082618713379,1.13903546333313,-0.0623420346830322,2.93899234454818,1.1814497794135,1641.373,1580.667,3148.29,3113.091,-0.09583918,-0.01735475,0.1421882,-0.196266904473305,-0.0863863602280617,-0.0512935966253281,-0.0312119371883744,-0.0134296246115773,0.0193216759503603,3
0.239999771118164,-0.0775500386953354,2.92897367477417,1.13863301277161,-0.063021788625926,2.93869986541668,1.18187057948532,1524.121,1624.249,3417.742,2777.441,-0.09475687,-0.01467775,0.1377331,-0.226986482739449,-0.0926250070333481,-0.0201223343610764,-0.0368344480011416,-0.0158488339395432,0.022802277980796,3
0.260000228881836,-0.0826389268040657,2.92699241638184,1.1386353969574,-0.0638181482056218,2.93835721413725,1.18236356400102,1438.984,1500.84,3533.252,2744.203,-0.09439041,-0.01258823,0.1393021,-0.254444599151611,-0.099058210849762,0.000118382275104523,-0.0428669580186739,-0.0184444544712678,0.0265366890499518,3
0.279999732971191,-0.0882447957992554,2.92490077018738,1.13885200023651,-0.0647391095323355,2.93796095020705,1.18293368293373,1400.55,1275.973,3476.617,2977.67,-0.09321117,-0.01110591,0.1456842,-0.280293613672256,-0.104584693908691,0.0108313644304872,-0.0492966996036246,-0.0212109926490873,0.0305170053821034,3
0.300000190734863,-0.0943705588579178,2.92273259162903,1.1392068862915,-0.0657925902280848,2.93750766689451,1.18358583766864,1350.573,1061.543,3345.174,3324.846,-0.09053309,-0.009935189,0.1533108,-0.306288301944733,-0.10840717703104,0.0177429728209972,-0.0561122012216104,-0.0241435125922341,0.0347361255510024,3
0.319999694824219,-0.101035863161087,2.92052578926086,1.13972496986389,-0.0669860785243584,2.93699414222283,1.18432466377777,1280.936,941.1565,3237.488,3590.534,-0.08597856,-0.008523713,0.1583601,-0.333265364170074,-0.110342688858509,0.0259042307734489,-0.0633008373176985,-0.0272365818771378,0.0391862337367069,3
0.340000152587891,-0.108251452445984,2.91831207275391,1.14046156406403,-0.0683270389802989,2.93641716440073,1.1851547821788,1253.103,944.1672,3171.067,3649.826,-0.07944635,-0.006291984,0.158477,-0.360779285430908,-0.110680215060711,0.036830797791481,-0.0708514254995047,-0.0304853890327553,0.0438604075056398,4
0.359999656677246,-0.11600299179554,2.91611480712891,1.14145267009735,-0.0698224577236039,2.93577372749265,1.18608051761758,1319.705,1047.21,3120.704,3498.105,-0.07154796,-0.002963033,0.1534735,-0.387577563524246,-0.109858870506287,0.0495536774396896,-0.0787514868629855,-0.033884564735297,0.0487509218217456,4
0.380000114440918,-0.12425135076046,2.91394972801208,1.14270758628845,-0.0714793577253918,2.93506080971031,1.18710621764778,1455.341,1181.639,3090.814,3231.316,-0.06361386,0.001258828,0.1450388,-0.412418276071548,-0.108257263898849,0.0627481788396835,-0.0869901236306233,-0.0374294199755457,0.0538510304416078,4
0.40000057220459,-0.132943138480186,2.91182637214661,1.14421713352203,-0.0733043200941456,2.93427557938658,1.18823595628905,1579.597,1273.67,3104.708,2981.764,-0.05701775,0.005826315,0.1357478,-0.434589803218842,-0.10616559535265,0.0754778608679771,-0.0955554240566093,-0.0411148294620555,0.0591533594271355,4
0.420000076293945,-0.142023503780365,2.90975022315979,1.14595770835876,-0.075303664122713,2.9334153175063,1.1894736454847,1631.324,1288.621,3158.966,2844.755,-0.0524403,0.01017585,0.1278568,-0.454018831253052,-0.103802226483822,0.0870278999209404,-0.104435522469179,-0.0449356877277546,0.0646505633622661,4
0.440000534057617,-0.151445925235748,2.90772438049316,1.1478955745697,-0.0774837715189226,2.93247727819886,1.19082323581587,1606.808,1238.052,3219.519,2842.97,-0.04965837,0.01397512,0.1224621,-0.471121519804001,-0.101290732622147,0.0968948751688004,-0.113619939708908,-0.0488874858830966,0.0703361551481246,4
0.460000038146973,-0.161176636815071,2.90575170516968,1.14999687671661,-0.0798503995908051,2.93145898425546,1.19228829133049,1541.445,1158.215,3252.761,2938.301,-0.04788683,0.017186,0.1193414,-0.486535727977753,-0.0986394733190536,0.105067037045956,-0.123096582945329,-0.0529650207209661,0.0762026487465902,4
0.480000495910645,-0.171193495392799,2.90383625030518,1.15223896503448,-0.0824095163676451,2.93035786779983,1.193872506523,1474.405,1086.196,3248.208,3066.934,-0.0462884,0.0199874,0.1173779,-0.500842094421387,-0.0957783237099648,0.112105041742325,-0.132855246677761,-0.0571639010995283,0.0822437264665856,5
0.500000953674316,-0.181480929255486,2.90198349952698,1.15461564064026,-0.0851665349354081,2.92917159973231,1.19557923235145,1431.783,1046.319,3216.378,3169.634,-0.04433471,0.02264395,0.1152232,-0.51437246799469,-0.0926395282149315,0.118833221495152,-0.142884484562545,-0.0614792019768808,0.088452302476121,5
0.519999504089355,-0.192024141550064,2.9001989364624,1.15713465213776,-0.0881264656342169,2.9278980242435,1.19741157045506,1423.566,1045.052,3177.466,3210.376,-0.04192082,0.02537899,0.1118861,-0.52716064453125,-0.0892277881503105,0.125950425863266,-0.153172410406804,-0.0659058090562906,0.0948210186555881,5
0.539999961853027,-0.202804446220398,2.89848613739014,1.15980994701385,-0.0912949583872701,2.9265347103293,1.19937301840545,1445.512,1073.353,3148.965,3184.564,-0.03929388,0.02828917,0.10705,-0.539015054702759,-0.0856396481394768,0.133762627840042,-0.163710202910777,-0.0704399267789093,0.101344414200218,5
0.560000419616699,-0.213797762989998,2.89684557914734,1.16265296936035,-0.0946766117873131,2.92507967934372,1.20146642295056,1484.214,1113.893,3138.57,3114.21,-0.03688585,0.03132795,0.101059,-0.549664974212646,-0.0820325165987015,0.142149493098259,-0.174486216900072,-0.0750765445515235,0.108015280192325,5
0.580000877380371,-0.224976047873497,2.89527416229248,1.16566801071167,-0.0982760845121266,2.92353092678786,1.20369466803389,1521.249,1148.814,3145.711,3034.831,-0.0351271,0.03434582,0.09465507,-0.558914721012115,-0.0785767659544945,0.150752991437912,-0.185489884584516,-0.0798111153492527,0.114827074666379,5
0.59999942779541,-0.236310735344887,2.8937656879425,1.16885149478912,-0.102097449767833,2.92188670007492,1.20606027516404,1540.587,1167.031,3163.284,2979.207,-0.03429246,0.03716113,0.0886168,-0.566734313964844,-0.0754191055893898,0.159175261855125,-0.196709666458176,-0.0846386740450703,0.121772654118504,5
0.619999885559082,-0.247776061296463,2.8923122882843,1.17219471931458,-0.10614567643992,2.92014486123228,1.20856632031784,1534.652,1167.261,3182.36,2964.06,-0.03442136,0.03963197,0.08345823,-0.573267161846161,-0.0726656168699265,0.167158573865891,-0.208137352487149,-0.0895556880907493,0.128846936146616,5
0.640000343322754,-0.259351313114166,2.89090466499329,1.17568719387054,-0.110424445106246,2.91830382661012,1.21121508194831,1506.585,1156.369,3194.839,2987.057,-0.03534601,0.04169842,0.07929669,-0.578763365745544,-0.0703808516263962,0.174624472856522,-0.21976164015288,-0.0945572943283111,0.136042923953316,5
0.660000801086426,-0.271021097898483,2.88953280448914,1.17932069301605,-0.114937586364168,2.9163619480094,1.2140089313777,1467.132,1144.379,3197.485,3031.034,-0.03678038,0.04338582,0.07590467,-0.583489716053009,-0.0685965269804001,0.181672587990761,-0.231572395215193,-0.0996391322773261,0.143354343961174,5
0.679999351501465,-0.282774090766907,2.88818621635437,1.18308985233307,-0.119688264653569,2.91431786386006,1.21694982754503,1429.445,1139.673,3190.506,3075.083,-0.03844593,0.04477705,0.07288322,-0.587649703025818,-0.0673254206776619,0.188458368182182,-0.243558440565689,-0.104796392740303,0.150774277007652,5
0.699999809265137,-0.294601112604141,2.88685464859009,1.18699264526367,-0.124680815451169,2.91216970872758,1.22004045431692,1403.988,1146.185,3177.569,3102.245,-0.04017005,0.04596686,0.06985875,-0.591350972652435,-0.0665753483772278,0.195139899849892,-0.255712145849759,-0.11002579258882,0.158297999539763,5
0.720000267028809,-0.306493401527405,2.88552737236023,1.19102895259857,-0.129918029371826,2.90991628188833,1.2232825392169,1393.533,1162.865,3163.389,3106.904,-0.04193201,0.04702054,0.06663043,-0.594615161418915,-0.0663608536124229,0.201814487576485,-0.268022567080658,-0.115322622931121,0.165918736708376,5
0.74000072479248,-0.318441838026047,2.88419318199158,1.1951996088028,-0.135402943616441,2.90755627651964,1.22667796241702,1392.663,1185.143,3153.425,3093.777,-0.04383031,0.04795274,0.06321828,-0.597422659397125,-0.0667100846767426,0.208535358309746,-0.280480003568206,-0.120682709831227,0.173630483324162,5
0.75999927520752,-0.330437004566193,2.8828399181366,1.19950473308563,-0.141137843456805,2.90508870933289,1.23022813860937,1392.548,1207.618,3149.667,3074.509,-0.04600185,0.04873457,0.05981054,-0.599757254123688,-0.0676620453596115,0.215258792042732,-0.293073655650631,-0.126101406496387,0.181426553882027,5
0.779999732971191,-0.342469811439514,2.88145470619202,1.20394253730774,-0.147126476115806,2.90251196800275,1.23393538750343,1387.101,1226.504,3151.085,3059.222,-0.0485425,0.04931809,0.0566506,-0.601642727851868,-0.0692560076713562,0.221891686320305,-0.305796442389055,-0.131575666196417,0.189302564943491,5
0.800000190734863,-0.354532837867737,2.88002419471741,1.20850896835327,-0.153370771540813,2.89982522212679,1.23780090382855,1373.933,1240.599,3154.06,3054.548,-0.05147464,0.04966076,0.05393564,-0.603150844573975,-0.071520559489727,0.228320747613907,-0.318637793543012,-0.137100940852145,0.197251973026177,5
0.820000648498535,-0.366620689630508,2.87853479385376,1.21319890022278,-0.159873008220232,2.89702749133509,1.24182609807759,1353.035,1250.878,3156.247,3061.711,-0.05474607,0.04973976,0.05175914,-0.60439258813858,-0.0744689479470253,0.234498411417007,-0.331588441972317,-0.142673243072043,0.205269041328855,4
0.839999198913574,-0.37873050570488,2.87697291374207,1.21800708770752,-0.166634623033381,2.89411815737865,1.24601185974731,1326.797,1259.578,3155.642,3078.16,-0.05825398,0.04956016,0.0501024,-0.605490684509277,-0.0780981853604317,0.240410983562469,-0.344637979849426,-0.148288094658679,0.213347326910481,4
0.859999656677246,-0.390861630439758,2.87532496452332,1.2229288816452,-0.17365881773609,2.89109584263135,1.25036017087709,1300.038,1269.077,3151.926,3097.411,-0.06187588,0.04915116,0.04886429,-0.606556355953217,-0.0823922604322433,0.246090114116669,-0.357779846710616,-0.153942672827792,0.221482768531492,4
0.880000114440918,-0.403015077114105,2.8735785484314,1.22796034812927,-0.180946692094438,2.88796007389459,1.25487171227451,1277.292,1280.929,3145.466,3113.541,-0.06551376,0.04855418,0.04792027,-0.607671022415161,-0.08732570707798,0.251575410366058,-0.371003860614678,-0.159632596574531,0.229669063085248,4
0.90000057220459,-0.415192753076553,2.8717212677002,1.23309886455536,-0.188499800568307,2.88471018232771,1.25954744622428,1259.762,1295.22,3138.427,3123.569,-0.06911489,0.04780666,0.04717918,-0.608885765075684,-0.0928697511553764,0.256927818059921,-0.384301187971424,-0.165354065051819,0.237900742158619,4
0.919999122619629,-0.427397340536118,2.86974143981934,1.23834252357483,-0.1963187635447,2.88134590099551,1.26438775677553,1246.606,1310.931,3132.418,3127.887,-0.07266755,0.04693419,0.04660924,-0.610228300094604,-0.0989956110715866,0.262181639671326,-0.397661826513629,-0.1711027745635,0.246171613871719,4
0.939999580383301,-0.439631700515747,2.8676278591156,1.24368953704834,-0.204406277836843,2.87786606953459,1.2693943133841,1236.138,1326.587,3128.44,3128.6,-0.07618185,0.04594878,0.04623285,-0.611717760562897,-0.105675011873245,0.267349898815155,-0.411079708635155,-0.176876114388162,0.254477922087309,4
0.960000038146973,-0.451899230480194,2.86537027359009,1.24913775920868,-0.212762644653501,2.87427055834325,1.27456730251256,1227.157,1340.993,3125.902,3128.546,-0.07967379,0.04485318,0.04610146,-0.613376080989838,-0.112877413630486,0.272413700819016,-0.424545054585529,-0.182669876572392,0.262813612673971,3
0.980000495910645,-0.464203983545303,2.86295890808105,1.25468528270721,-0.221388729110001,2.87055899518651,1.27990725970853,1217.2,1353.393,3124.967,3130.634,-0.08314975,0.04364538,0.04627098,-0.615237295627594,-0.120571248233318,0.277377933263779,-0.438049464324553,-0.188480446813562,0.271173485606674,3
0.999999046325684,-0.476550877094269,2.86038446426392,1.26032996177673,-0.230284368072819,2.8667314502562,1.28541408398456,1204.987,1363.663,3124.792,3136.874,-0.08659428,0.04232654,0.0467745,-0.617344617843628,-0.128721117973328,0.282234907150269,-0.451583354209927,-0.194303701538126,0.279551608154302,3
1.01999950408936,-0.488945811986923,2.85763883590698,1.26606976985931,-0.239451791780541,2.86278696394293,1.29108915596459,1191.759,1372.281,3124.714,3146.146,-0.08996531,0.04090714,0.0476058,-0.619746565818787,-0.137287259101868,0.286989450454712,-0.465141123198519,-0.2001372307737,0.287944513004341,3
1.03999996185303,-0.501395523548126,2.85471439361572,1.27190256118774,-0.248890535593461,2.85872573616821,1.29693218801451,1179.885,1380.075,3123.438,3156.681,-0.09321436,0.03940716,0.04872515,-0.622486352920532,-0.146223217248917,0.291639178991318,-0.478713406960566,-0.205977005310796,0.296346403190583,3
1.0600004196167,-0.513907492160797,2.8516047000885,1.27782726287842,-0.258600809966311,2.85454767637923,1.30294331041582,1170.051,1387.569,3121.995,3166.488,-0.09630257,0.03785008,0.05008122,-0.62559986114502,-0.155481785535812,0.296232491731644,-0.492292239005866,-0.211819597391238,0.304752347076097,3
1.07999897003174,-0.526489675045013,2.84830451011658,1.2838431596756,-0.268581702235539,2.85025317726963,1.3091219581863,1161.887,1394.86,3120.684,3175.561,-0.09920435,0.03625851,0.05162828,-0.629108667373657,-0.165014043450356,0.300797253847122,-0.505868466720141,-0.217661068900797,0.313156678756645,3
1.09999942779541,-0.539150178432465,2.84480905532837,1.28995037078857,-0.278835012382414,2.84584146435776,1.31546924560012,1156.436,1401.79,3119.993,3182.571,-0.1019016,0.03465446,0.053328,-0.633024454116821,-0.174771666526794,0.305360794067383,-0.519436930651686,-0.223499199871542,0.321556204285843,3
1.11999988555908,-0.551897168159485,2.84111499786377,1.29614901542664,-0.289359543659529,2.84131305257058,1.3219844318136,1154.278,1408.229,3119.626,3187.403,-0.1043916,0.03305567,0.05515747,-0.637350142002106,-0.184705659747124,0.309934377670288,-0.532988694459927,-0.229330145245776,0.329945391643178,3
1.14000034332275,-0.564738929271698,2.83721947669983,1.3024400472641,-0.300154886544993,2.83666811811393,1.3286672633132,1153.578,1413.735,3120.487,3191.408,-0.1066857,0.0314726,0.05711271,-0.642087042331696,-0.194770440459251,0.314550936222076,-0.546516225204657,-0.235150663809775,0.33831957757982,3
1.15999889373779,-0.577683687210083,2.83312106132507,1.30882453918457,-0.311219413801503,2.83190736114256,1.33551673276151,1153.018,1417.942,3122.543,3196.079,-0.1087907,0.02991267,0.05919621,-0.647235155105591,-0.204921886324883,0.319222301244736,-0.560010813041225,-0.24095700796071,0.34667337028702,3
1.17999935150146,-0.590739607810974,2.82881879806519,1.31530356407166,-0.322554529525533,2.82703017751298,1.34253370936112,1152.748,1420.785,3125.387,3201.578,-0.1107049,0.02838372,0.06140288,-0.652795910835266,-0.215116903185844,0.323953449726105,-0.573467716460767,-0.24674713755978,0.355003834544924,3
1.19999980926514,-0.603914976119995,2.82431268692017,1.32187831401825,-0.334158339581766,2.82203738221871,1.34971702055206,1154.095,1422.62,3127.973,3207.252,-0.1124232,0.02689618,0.06371491,-0.658770024776459,-0.225311070680618,0.328740477561951,-0.58687843901888,-0.252517396824321,0.363305710649704,3
1.22000026702881,-0.61721807718277,2.81960344314575,1.32855069637299,-0.346029849155652,2.81692940330065,1.35706605049672,1155.939,1423.606,3131.048,3213.338,-0.1139471,0.02545928,0.06611193,-0.66515839099884,-0.235463932156563,0.333616405725479,-0.600235881325354,-0.258264731085059,0.371574603740628,3
1.24000072479248,-0.630657255649567,2.814692735672,1.3353226184845,-0.358167922525513,2.81170672942811,1.36458009612928,1157.844,1423.853,3134.57,3220.045,-0.1152728,0.02408261,0.0685693,-0.671956479549408,-0.245536312460899,0.338594943284988,-0.613533052380059,-0.263986132309945,0.37980618605559,2
1.25999927520752,-0.644240319728851,2.80958294868469,1.34219622612,-0.37057008977591,2.80637042333671,1.37225762845444,1161.129,1423.572,3138.246,3226.094,-0.1163961,0.02277835,0.07105585,-0.679155051708221,-0.255490720272064,0.343683183193207,-0.626761811307006,-0.269678097707471,0.387995418004549,2
1.27999973297119,-0.657975137233734,2.80427718162537,1.34917414188385,-0.383237305690173,2.80092007420985,1.38009923852854,1165.775,1422.879,3142.269,3231.203,-0.1173165,0.02155639,0.07354562,-0.686740338802338,-0.265291929244995,0.348896563053131,-0.639917907787828,-0.275338798484382,0.396139668437963,2
1.30000019073486,-0.671869039535522,2.79877901077271,1.35625874996185,-0.39616685462484,2.79535685051304,1.38810324523893,1172.32,1421.879,3145.98,3235.36,-0.1180457,0.02042506,0.07601687,-0.694692611694336,-0.274905502796173,0.354231297969818,-0.652993410987514,-0.280964822223937,0.404234027791164,2
1.32000064849854,-0.685928881168365,2.79309296607971,1.36345314979553,-0.409357058920736,2.78968147409616,1.39626861003465,1179.511,1420.373,3150.599,3238.778,-0.1186002,0.01938791,0.07845785,-0.702993333339691,-0.284303545951843,0.359718978404999,-0.665981763455932,-0.286553347438536,0.412274436690144,2
1.33999919891357,-0.700161218643188,2.78722381591797,1.37076032161713,-0.422804815997587,2.78389527991283,1.40459341227073,1186.203,1418.218,3155.91,3242.713,-0.1189948,0.0184459,0.08086307,-0.711619734764099,-0.293460726737976,0.365358740091324,-0.678875291086781,-0.292101072174628,0.420256144497537,2
1.35999965667725,-0.714572191238403,2.78117680549622,1.37818324565887,-0.436510755529789,2.77799799703175,1.41307804174561,1193.226,1415.419,3161.739,3246.388,-0.119235,0.01760141,0.08322264,-0.720549762248993,-0.302354544401169,0.371148079633713,-0.691670113132305,-0.29760632665487,0.428176748845614,2
1.38000011444092,-0.729167401790619,2.77495765686035,1.38572454452515,-0.450471545911146,2.77199105894998,1.42172043603634,1201.593,1412.334,3166.867,3249.647,-0.1193293,0.01685721,0.08552337,-0.729758739471436,-0.310961872339249,0.377066373825073,-0.704358763025832,-0.303065898224215,0.436031627573923,2
1.40000057220459,-0.743951857089996,2.76857233047485,1.39338719844818,-0.46468500222896,2.76587540577443,1.43051924257788,1210.108,1408.893,3172.329,3252.749,-0.1192936,0.01621229,0.08775574,-0.739225566387177,-0.319265455007553,0.383135050535202,-0.716935116867223,-0.308477151939513,0.443816989696559,2
1.41999912261963,-0.758930385112762,2.76202726364136,1.40117430686951,-0.479147426967733,2.75965262844271,1.43947217243201,1217.766,1405.074,3178.217,3256.432,-0.1191408,0.01566536,0.0899118,-0.748926043510437,-0.327251315116882,0.389355182647705,-0.729391976911601,-0.313836990812228,0.451528379466564,2
1.4399995803833,-0.774107158184052,2.75532913208008,1.40908873081207,-0.493859153475778,2.75332258352435,1.44857943195721,1225.264,1400.952,3184.38,3259.959,-0.1188723,0.01521717,0.09197888,-0.758834838867188,-0.334907919168472,0.395720034837723,-0.741725812632978,-0.319143895755656,0.45916361132017,2
1.46000003814697,-0.78948563337326,2.74848461151123,1.41713273525238,-0.508816271720294,2.74688695339725,1.45783860065692,1234.236,1396.946,3189.565,3262.566,-0.1184963,0.01486892,0.09394093,-0.768922865390778,-0.342223256826401,0.402203321456909,-0.753929631490131,-0.32439485807466,0.466718356541259,2
1.48000049591064,-0.805068910121918,2.74150085449219,1.42530918121338,-0.524016124219019,2.74034688150177,1.46724803342302,1243.503,1392.91,3195.042,3264.385,-0.1180292,0.01461813,0.09579053,-0.779164612293243,-0.349191069602966,0.408824980258942,-0.765997743132917,-0.329587429370542,0.474189092532024,2
1.49999904632568,-0.820859551429749,2.73438477516174,1.43362069129944,-0.539454456991735,2.73370419820675,1.47680509683911,1251.668,1388.691,3200.856,3266.721,-0.1174864,0.01445994,0.09752727,-0.789530992507935,-0.355807960033417,0.415578126907349,-0.777923435108109,-0.334718721462203,0.481571663964158,1
1.51999950408936,-0.836859405040741,2.72714328765869,1.44206976890564,-0.555131334348531,2.72695887584137,1.48650983071619,1259.536,1384.271,3206.972,3268.723,-0.1168728,0.01439144,0.09914713,-0.799994111061096,-0.362073332071304,0.422452330589294,-0.789703509085649,-0.339787358197571,0.488864090918999,1
1.53999996185303,-0.853069841861725,2.71978354454041,1.45065808296204,-0.571042306120232,2.7201128291891,1.49635948018757,1268.391,1380.032,3212.073,3270.059,-0.1161969,0.01441019,0.1006439,-0.810523509979248,-0.367985427379608,0.429415345191956,-0.801331455645371,-0.344790538755,0.496062343755378,1
1.5600004196167,-0.869491696357727,2.71231269836426,1.45938766002655,-0.587184276938983,2.71316739010025,1.50635212907308,1277.07,1375.793,3217.268,3271.043,-0.1154747,0.0145102,0.1020172,-0.821094155311584,-0.373547226190567,0.436478137969971,-0.812802017987128,-0.349726001280244,0.503163168263584,1
1.57999897003174,-0.886125266551971,2.70473742485046,1.46826028823853,-0.603552475518296,2.70612461152611,1.51648482371911,1284.431,1371.459,3222.65,3272.653,-0.1147189,0.01468507,0.1032697,-0.831679582595825,-0.378764480352402,0.443632036447525,-0.824108977218079,-0.354591069957451,0.510162714652706,0
1.59999942779541,-0.902970373630524,2.69706463813782,1.47727763652802,-0.620146723028754,2.69898457041196,1.52675745342171,1291.148,1367.053,3228.236,3274.088,-0.1139311,0.0149302,0.1043998,-0.842254519462585,-0.383644938468933,0.450865298509598,-0.835249450501249,-0.359384504382406,0.517059198309326,0
1.61999988555908,-0.920026123523712,2.68930077552795,1.48644042015076,-0.636962068156229,2.69174939716997,1.53716695308159,1298.689,1363.015,3232.523,3274.987,-0.1131156,0.01524277,0.1054018,-0.852790713310242,-0.388194262981415,0.458139479160309,-0.846217419971642,-0.364103715235921,0.52384889388834,0
1.64000034332275,-0.937291443347931,2.68145227432251,1.49574983119965,-0.653995012331241,2.68442059713683,1.54771115691757,1306.198,1359.151,3236.861,3275.176,-0.1122858,0.01561709,0.1062755,-0.863266468048096,-0.392422467470169,0.465468466281891,-0.857008062379105,-0.368746627208203,0.530528815568141,0
1.65999889373779,-0.954764604568481,2.67352533340454,1.50520670413971,-0.671240306754524,2.67700042872424,1.55838681567288,1312.168,1355.318,3241.383,3276.014,-0.1114522,0.01604538,0.1070268,-0.873657703399658,-0.39634171128273,0.47284209728241,-0.867615659998421,-0.373310780121824,0.537095423804448,0
1.67999935150146,-0.972443521022797,2.66552591323853,1.51481151580811,-0.688697554072563,2.66948906290232,1.56919368336676,1317.489,1351.519,3245.957,3276.666,-0.1106144,0.01652279,0.1076571,-0.88394159078598,-0.399965524673462,0.480243682861328,-0.878037630105846,-0.377795062702911,0.543547119768228,0
1.69999980926514,-0.990325331687927,2.65745973587036,1.52456426620483,-0.706361341465969,2.66188882865603,1.58012840920616,1323.694,1348.177,3249.209,3276.634,-0.1097766,0.01704607,0.108164,-0.894093751907349,-0.403304696083069,0.48763644695282,-0.888268454164168,-0.382197100479071,0.549880487222065,0
1.72000026702881,-1.00840723514557,2.64933228492737,1.5344649553299,-0.724227801847602,2.65420138988493,1.59118859927993,1329.576,1345.041,3252.482,3276.149,-0.1089505,0.01760866,0.1085515,-0.90409642457962,-0.406373649835587,0.495032995939255,-0.898303742473229,-0.386515004684961,0.55609280873245,0
1.73999881744385,-1.02668583393097,2.64114856719971,1.544513463974,-0.74229124928103,2.64642919308863,1.60237073372255,1333.809,1341.954,3255.948,3276.372,-0.108144,0.01820247,0.1088286,-0.913930356502533,-0.409188538789749,0.502423226833344,-0.908138285421175,-0.39074653377014,0.562180859301477,0
1.75999927520752,-1.04515743255615,2.63291335105896,1.55470931529999,-0.760551091326579,2.63857249317736,1.61367444578565,1337.275,1338.932,3259.472,3276.476,-0.1073547,0.01882318,0.1089985,-0.923577845096588,-0.411766171455383,0.509790658950806,-0.917769786340637,-0.394890699542798,0.568143217182639,0
1.77999973297119,-1.06381797790527,2.62463092803955,1.56505119800568,-0.779001493894644,2.6306338003969,1.62509612388984,1341.61,1336.414,3261.573,3275.964,-0.1065824,0.01946767,0.1090604,-0.933019399642944,-0.414119720458984,0.51709657907486,-0.927193233133305,-0.398945345437057,0.573976779648323,0
1.80000019073486,-1.08266282081604,2.6163055896759,1.57553827762604,-0.797638256064386,2.62261492228612,1.63663316746501,1345.669,1334.139,3263.684,3274.958,-0.1058356,0.02013,0.1090193,-0.942242741584778,-0.416265279054642,0.524355709552765,-0.936404669649015,-0.402908769232023,0.579679097653121,0
1.8199987411499,-1.10168743133545,2.60794115066528,1.58616948127747,-0.816455295667017,2.61451847583233,1.64828181135894,1348.098,1331.964,3265.899,3274.717,-0.1051219,0.02080319,0.1088851,-0.951233804225922,-0.418219953775406,0.531557738780975,-0.945399400673516,-0.406778950708172,0.585247264635746,0
1.83999919891357,-1.12088704109192,2.59954118728638,1.5969432592392,-0.835451847543024,2.60634479026231,1.66004158190145,1349.734,1329.88,3268.169,3274.411,-0.1044353,0.02148311,0.1086621,-0.959980368614197,-0.420001000165939,0.538688719272614,-0.954175402861954,-0.410555019276739,0.590680028049348,0
1.85999965667725,-1.14025640487671,2.59110879898071,1.60785746574402,-0.854621697110046,2.59809653953722,1.67190863197001,1352.201,1328.309,3269.035,3273.552,-0.1037743,0.02216787,0.1083499,-0.968468368053436,-0.421621769666672,0.545711696147919,-0.962728177004542,-0.414235039053446,0.595974602668742,0
1.88000011444092,-1.15979015827179,2.58264684677124,1.61891031265259,-0.873960344297517,2.58977565991171,1.68388017580657,1354.435,1326.987,3269.958,3272.161,-0.1031458,0.0228525,0.1079539,-0.976690649986267,-0.423097938299179,0.552643358707428,-0.97105420050111,-0.417817494361851,0.601128807836619,0
1.89999866485596,-1.17948293685913,2.57415795326233,1.63009977340698,-0.893461352085381,2.58138492105568,1.69595222858908,1355.052,1325.755,3271.056,3271.527,-0.1025541,0.02353119,0.107485,-0.984638094902039,-0.424445807933807,0.559475302696228,-0.979149298157749,-0.421300588732656,0.606140058909057,0
1.91999912261963,-1.19932901859283,2.56564426422119,1.6414235830307,-0.913123803994809,2.57292471730436,1.7081242229735,1354.955,1324.6,3272.169,3270.875,-0.1019905,0.02420066,0.1069482,-0.992303252220154,-0.425680935382843,0.566192746162415,-0.987011708541262,-0.424683564270364,0.611007265474998,0
1.9399995803833,-1.21932256221771,2.55710792541504,1.6528787612915,-0.932941146217664,2.56439786857832,1.72039210184037,1355.872,1323.936,3271.881,3269.592,-0.1014531,0.02486042,0.1063436,-0.999676883220673,-0.426814615726471,0.572761297225952,-0.994637451118501,-0.427964708262765,0.615727963394805,0
1.96000003814697,-1.23945772647858,2.5485508441925,1.66446280479431,-0.952908614217619,2.55580642492441,1.73275291571475,1356.519,1323.49,3271.63,3267.955,-0.1009471,0.02550648,0.1056773,-1.00675666332245,-0.427860021591187,0.579199433326721,-1.00202343683929,-0.431142691577869,0.620300240399267,0
1.98000049591064,-1.25972843170166,2.53997421264648,1.67617285251617,-0.973021382759855,2.54715246250639,1.74520367754642,1355.529,1323.096,3271.6,3267.17,-0.1004752,0.0261337,0.1049595,-1.01353847980499,-0.428830802440643,0.585502326488495,-1.00916668504355,-0.434216231720907,0.6247222513178,0
1.99999904632568,-1.28012883663177,2.53137946128845,1.68800592422485,-0.993272630090632,2.53843891653431,1.75774016434487,1354.292,1322.837,3271.444,3266.087,-0.1000299,0.02674112,0.1041938,-1.02001905441284,-0.429739445447922,0.591655135154724,-1.01606367746516,-0.437183814880264,0.628991818176089,0
2.01999950408936,-1.30065262317657,2.52276754379272,1.69995880126953,-1.01366127937578,2.52966625033984,1.77036170949842,1352.763,1322.72,3271.026,3264.941,-0.09960382,0.02732759,0.1033849,-1.02619576454163,-0.430596470832825,0.597646117210388,-1.02271296603094,-0.440044817990502,0.633108044547848,0
2.03999996185303,-1.32129406929016,2.51413941383362,1.71202778816223,-1.03418041146511,2.52083744103998,1.78306402972353,1352.288,1323.026,3269.29,3263.273,-0.09919529,0.02789293,0.102533,-1.03206491470337,-0.431408494710922,0.603450357913971,-1.02911122568848,-0.44279781037446,0.637068872067239,0
2.0600004196167,-1.34204661846161,2.50549578666687,1.72420966625214,-1.05482498001321,2.51195465993621,1.79584400109199,1351.18,1323.436,3267.909,3261.521,-0.09881073,0.02843424,0.101645,-1.03762936592102,-0.432184785604477,0.609094560146332,-1.03525590932768,-0.44544169608182,0.640872723951779,0
2.07999897003174,-1.36290431022644,2.49683713912964,1.73650109767914,-1.07558790299007,2.50302095422819,1.80869723948985,1348.49,1323.823,3266.889,3260.577,-0.09845014,0.02894825,0.10073,-1.04288899898529,-0.43293496966362,0.614573299884796,-1.04114402893537,-0.447975189453992,0.644517750478974,0
2.09999942779541,-1.38386130332947,2.4881637096405,1.74889862537384,-1.09646799741054,2.49403683292136,1.82162301259295,1345.431,1324.201,3265.96,3259.456,-0.09809913,0.02943579,0.09979123,-1.04784464836121,-0.433667004108429,0.619874000549316,-1.04677437751274,-0.450397771153105,0.648003204459064,0
2.11999988555908,-1.40491116046906,2.47947597503662,1.76139795780182,-1.11745809926529,2.48500537848883,1.83461688553826,1343.758,1324.946,3263.615,3257.675,-0.09775239,0.02989904,0.09882718,-1.05249464511871,-0.434383630752563,0.624963939189911,-1.05214415928871,-0.452708238236968,0.651327355176567,0
2.14000034332275,-1.42604792118073,2.47077417373657,1.77399528026581,-1.13855297578226,2.4759288424462,1.84767561899058,1342.2,1325.819,3261.302,3255.474,-0.09741364,0.03033646,0.09784254,-1.05684351921082,-0.435088843107224,0.629867613315582,-1.05725126070317,-0.454905681299716,0.654488894237099,0
2.15999889373779,-1.44726586341858,2.46205854415894,1.78668701648712,-1.15974532721868,2.46681036566887,1.86079469406142,1339.069,1326.618,3259.353,3254.258,-0.0970866,0.03074569,0.09684668,-1.06089401245117,-0.435787439346313,0.634588479995728,-1.06209322746877,-0.456989044330058,0.657486302319864,0
2.17999935150146,-1.46855866909027,2.45332884788513,1.79946947097778,-1.18103388343111,2.45765049466407,1.87397332447148,1335.207,1327.293,3257.72,3253.201,-0.09675957,0.03112754,0.09584235,-1.06464958190918,-0.43648374080658,0.639120936393738,-1.06666908654993,-0.45895790865798,0.660318977069501,0
2.19999980926514,-1.48992097377777,2.44458532333374,1.81233811378479,-1.20241127804344,2.44845239897765,1.88720695008305,1332.802,1328.257,3254.892,3251.315,-0.09642348,0.03148558,0.09482586,-1.068110704422,-0.43717747926712,0.643435001373291,-1.07097657509516,-0.460811300641696,0.662985517673136,0
2.22000026702881,-1.51134645938873,2.43582797050476,1.82528913021088,-1.22387212654098,2.43921839541585,1.90049223762501,1330.542,1329.281,3252.153,3249.038,-0.09608153,0.03182002,0.0938009,-1.07128274440765,-0.437868922948837,0.647552728652954,-1.07501401309437,-0.462548497419792,0.665484884124485,0
2.23999881744385,-1.53282999992371,2.42705678939819,1.83831858634949,-1.24540895428307,2.42995170010775,1.91382455993874,1327.202,1330.215,3249.614,3247.505,-0.09573425,0.03212928,0.09277485,-1.07416903972626,-0.438558638095856,0.651475071907043,-1.07877948279734,-0.464168673837935,0.667815889244821,0
2.25999927520752,-1.55436563491821,2.41827178001404,1.85142266750336,-1.26702042244467,2.42065288911233,1.92720308822777,1323.286,1330.975,3247.401,3246.115,-0.09537312,0.03241511,0.09175002,-1.07677400112152,-0.439246892929077,0.655201554298401,-1.08227223934366,-0.465671509403495,0.669978071930061,0
2.27999973297119,-1.57594752311707,2.40947318077087,1.86459672451019,-1.28869900503993,2.41132520065108,1.94062316354833,1320.688,1331.923,3244.054,3244.146,-0.09499069,0.03268112,0.09072234,-1.07909905910492,-0.439929634332657,0.65870463848114,-1.08549055577816,-0.467056261055908,0.671970363112688,0
2.30000019073486,-1.5975706577301,2.4006609916687,1.87783694267273,-1.31043920049545,2.40197100189732,1.95408138016442,1318.375,1332.884,3240.897,3241.644,-0.09459016,0.03292802,0.08969357,-1.08115041255951,-0.440604448318481,0.662010371685028,-1.08843318564072,-0.46832239247821,0.673791991174518,0
2.3199987411499,-1.61922919750214,2.39183568954468,1.89113938808441,-1.33223340228603,2.39259356572634,1.9675730292746,1314.744,1333.677,3238.136,3240.045,-0.09417204,0.03315489,0.08867075,-1.08293163776398,-0.441269338130951,0.665122389793396,-1.09109874986821,-0.469469310298053,0.675442102409764,0
2.33999919891357,-1.64091813564301,2.3829972743988,1.90450012683868,-1.35408022097161,2.38319348997539,1.98109725074927,1310.882,1334.271,3235.544,3238.455,-0.09372676,0.0333645,0.08765377,-1.08444678783417,-0.441921353340149,0.668034374713898,-1.09348672731021,-0.470496790278978,0.676920374201502,0
2.35999965667725,-1.66263210773468,2.37414622306824,1.91791462898254,-1.37597201392528,2.37377406305332,1.99464931343831,1308.549,1335.003,3231.886,3236.124,-0.09324792,0.03356108,0.08663746,-1.08569741249084,-0.442553967237473,0.670724153518677,-1.09559592922313,-0.471404320937828,0.67822607066082,0
2.38000011444092,-1.68436586856842,2.36528301239014,1.93137896060944,-1.39790319719889,2.36433768757702,2.00822576061181,1306.368,1335.689,3228.499,3233.416,-0.09273979,0.03374515,0.08562368,-1.08668947219849,-0.443162441253662,0.673219680786133,-1.09742554269685,-0.472191552502088,0.679358688557632,0
2.39999866485596,-1.70611429214478,2.35640811920166,1.94488942623138,-1.41986607554159,2.35488767459794,2.02182182854293,1302.998,1336.17,3225.458,3231.597,-0.09220343,0.0339164,0.08461805,-1.08742582798004,-0.443742424249649,0.675523102283478,-1.09897472884365,-0.472858124021805,0.680317708580471,0
2.41999912261963,-1.72787261009216,2.34752225875854,1.95844209194183,-1.44185922666057,2.34542463608896,2.03543663676465,1299.433,1336.404,3222.72,3229.704,-0.09163032,0.03407763,0.08361965,-1.08791041374207,-0.44428950548172,0.677632808685303,-1.100243187081,-0.473403906164717,0.681102944654437,0
2.4399995803833,-1.74963545799255,2.33862638473511,1.97203254699707,-1.46387493441528,2.33595189208978,2.04906540861841,1297.33,1336.73,3218.884,3227.234,-0.09101459,0.03423283,0.08262262,-1.08814406394958,-0.444795370101929,0.679523706436157,-1.10123026853065,-0.473828619736639,0.681713995092981,0
2.46000003814697,-1.77139806747437,2.32972097396851,1.98565709590912,-1.48590756716682,2.32647186573729,2.06270465785147,1295.626,1336.997,3215.286,3224.211,-0.09036106,0.03438329,0.08162676,-1.08813178539276,-0.445253878831863,0.681225001811981,-1.10193559383248,-0.474132101509508,0.682150625054116,0
2.47999858856201,-1.79315543174744,2.32080793380737,1.99931192398071,-1.50794938419014,2.31698788764924,2.07634959258625,1292.681,1337.042,3212.198,3222.015,-0.08967236,0.03452838,0.08063764,-1.08787620067596,-0.445660024881363,0.682743966579437,-1.10235886510105,-0.474314223311542,0.682412650132567,0
2.49999904632568,-1.81490325927734,2.31188774108887,2.01299333572388,-1.52999894790352,2.30750057637687,2.08999932289122,1289.423,1336.818,3209.199,3220.099,-0.08894159,0.03467077,0.07965371,-1.08737933635712,-0.446008056402206,0.684070825576782,-1.10250000050259,-0.47437494993196,0.682500019669334,0
2.51999950408936,-1.83663594722748,2.30296206474304,2.02669715881348,-1.55204851188607,2.29801326498868,2.10364905336281,1287.953,1336.647,3205.377,3217.076,-0.08816182,0.0348148,0.07866692,-1.08664238452911,-0.446289777755737,0.685191333293915,-1.10235889201645,-0.474314234892486,0.68241266679448,0
2.53999996185303,-1.85834932327271,2.29403209686279,2.04041981697083,-1.57409243149209,2.28852838221803,2.11729528969645,1286.58,1336.423,3201.743,3213.842,-0.08733997,0.03496087,0.07767872,-1.08566832542419,-0.446498721837997,0.686128854751587,-1.10193559383248,-0.474132101509508,0.682150625054116,0
2.55999851226807,-1.88003849983215,2.28509950637817,2.05415749549866,-1.5961229638135,2.27904925962195,2.1309332386632,1284.168,1335.95,3198.536,3211.347,-0.08647923,0.03510871,0.07669328,-1.08445882797241,-0.446629583835602,0.686888992786407,-1.10123034923294,-0.473828654460576,0.681714045051538,0
2.57999897003174,-1.90169882774353,2.27616596221924,2.06790685653687,-1.61813867345089,2.2695765148127,2.14456201168243,1281.524,1335.206,3195.599,3208.896,-0.08557269,0.03526019,0.07570897,-1.08301556110382,-0.446677029132843,0.687468647956848,-1.10024329463667,-0.473403952442914,0.681103011236517,0
2.59999942779541,-1.92332541942596,2.26723337173462,2.0816638469696,-1.64013182698924,2.26011347526273,2.15817682140186,1280.462,1334.5,3191.632,3205.75,-0.08461609,0.03541949,0.07471856,-1.08133792877197,-0.446632772684097,0.687844753265381,-1.09897486321135,-0.472858181836472,0.680317791760476,0
2.61999988555908,-1.94491410255432,2.25830364227295,2.09542489051819,-1.66209680146001,2.25066256037831,2.1717741869361,1279.708,1333.732,3187.957,3202.104,-0.08361687,0.03558676,0.07372157,-1.07942891120911,-0.446491092443466,0.688047528266907,-1.09742554269685,-0.472191552502089,0.679358688557632,0
2.63999843597412,-1.96645975112915,2.24937868118286,2.10918641090393,-1.68402589505004,2.24122708403447,2.18534934049592,1277.631,1332.742,3184.706,3199.451,-0.08257983,0.03576082,0.07272252,-1.07728886604309,-0.446247488260269,0.688081085681915,-1.09559611704697,-0.47140440175318,0.678226186932726,0
2.65999889373779,-1.98795819282532,2.24046039581299,2.1229453086853,-1.70591769202667,2.23180765538143,2.19890140567537,1275.506,1331.491,3181.783,3196.58,-0.08149699,0.03594419,0.07171862,-1.07491886615753,-0.445897668600082,0.687942981719971,-1.09348694176004,-0.470496882550748,0.676920506956161,0
2.67999935150146,-2.00940465927124,2.23155188560486,2.13669753074646,-1.72776451526694,2.22240757767073,2.2124256299696,1274.843,1330.278,3177.883,3193.079,-0.08036514,0.03613982,0.07070366,-1.07231736183167,-0.445434600114822,0.687609314918518,-1.09109899086133,-0.469469413990661,0.675442251595988,0
2.69999980926514,-2.03079414367676,2.22265481948853,2.15043950080872,-1.74956079816345,2.21302924605801,2.22591856738349,1274.554,1329.02,3174.018,3189.242,-0.07919229,0.03634795,0.06967653,-1.06948578357697,-0.444853127002716,0.68710333108902,-1.08843318564072,-0.46832239247821,0.673791991174518,0
2.71999835968018,-2.0521228313446,2.21377182006836,2.16416835784912,-1.77129892320976,2.20367593814349,2.23937550231765,1273.311,1327.589,3170.736,3185.854,-0.07798428,0.03656726,0.0686407,-1.06642472743988,-0.444150358438492,0.686439096927643,-1.08549084956594,-0.467056387464584,0.671970544981323,0
2.73999881744385,-2.07338547706604,2.20490527153015,2.17788052558899,-1.79297751194345,2.19434824704104,2.2527955814382,1271.17,1325.883,3167.84,3183.029,-0.07673685,0.03679805,0.06759694,-1.06313407421112,-0.44332355260849,0.685610771179199,-1.08227255936465,-0.46567164709959,0.669978270038303,0
2.75999927520752,-2.09457778930664,2.19605779647827,2.19157242774963,-1.81458898676693,2.1850494331792,2.26617411385125,1270.977,1324.201,3163.906,3179.134,-0.07544363,0.03704403,0.06653621,-1.05961215496063,-0.442367345094681,0.684590935707092,-1.07877982892751,-0.464168822768079,0.667816103515886,0
2.77999973297119,-2.11569499969482,2.18723225593567,2.20524048805237,-1.83612787211792,2.17578185253947,2.27950770992291,1271.122,1322.531,3160.163,3174.74,-0.07411364,0.03730495,0.06545886,-1.05585992336273,-0.441278457641602,0.683408439159393,-1.07501401309436,-0.462548497419792,0.665484884124485,0
2.80000019073486,-2.13673257827759,2.17843151092529,2.21888184547424,-1.85758872061546,2.16654784897768,2.29279299746487,1270.035,1320.701,3156.688,3171.347,-0.07275383,0.03757857,0.0643696,-1.05187678337097,-0.440054804086685,0.682065606117249,-1.07097657509516,-0.460811300641695,0.662985517673136,0
2.8199987411499,-2.15768575668335,2.16965770721436,2.23249292373657,-1.87896408071757,2.15735062868417,2.30602536361768,1268.985,1318.687,3153.323,3167.817,-0.07136206,0.03786605,0.06326507,-1.04766273498535,-0.438695073127747,0.680558443069458,-1.0666695101576,-0.458958090924526,0.660319239302829,0
2.83999919891357,-2.17855000495911,2.16091370582581,2.24607086181641,-1.90025264565773,2.14819075392407,2.31920399943063,1268.031,1316.597,3150.22,3163.863,-0.06993301,0.038168,0.06214403,-1.04321801662445,-0.437198102474213,0.678892314434052,-1.06209367658612,-0.456989237572707,0.657486580344898,0
2.85999965667725,-2.19932079315186,2.15220260620117,2.2596116065979,-1.92144702287664,2.13907140550912,2.33232432855733,1268.09,1314.546,3146.129,3159.734,-0.06846881,0.03848548,0.06100327,-1.0385400056839,-0.435560435056686,0.677040994167328,-1.05725126070317,-0.454905681299715,0.654488894237099,0
2.88000011444092,-2.21999311447144,2.14352703094482,2.27311229705811,-1.94254189939361,2.1299948694665,2.34538306200966,1268.494,1312.468,3142.269,3155.079,-0.06697743,0.03881763,0.05984211,-1.03363001346588,-0.433781027793884,0.675032198429108,-1.05214415928871,-0.452708238236968,0.651327355176567,0
2.89999866485596,-2.240562915802,2.13488984107971,2.28656983375549,-1.96353000468418,2.12096427409975,2.35837569898662,1267.566,1310.288,3138.834,3151.298,-0.06546582,0.03916202,0.05866561,-1.02848768234253,-0.431860446929932,0.672872006893158,-1.04677490206109,-0.450397996851607,0.648003529179483,0
2.91999912261963,-2.26102542877197,2.12629389762878,2.29998087882996,-1.98441010984367,2.11198014817223,2.37130147873769,1266.104,1307.907,3135.74,3147.695,-0.06392865,0.03951899,0.05747282,-1.02311336994171,-0.429799795150757,0.670555889606476,-1.04114457822853,-0.447975425799492,0.644518090517605,0
2.9399995803833,-2.28137564659119,2.11774206161499,2.31334209442139,-2.00517501864569,2.10304558801911,2.38415594645592,1266.251,1305.596,3131.675,3143.257,-0.06236165,0.03989078,0.0562566,-1.01750552654266,-0.427597910165787,0.668057799339294,-1.03525590932768,-0.44544169608182,0.640872723951779,0
2.96000003814697,-2.30160880088806,2.1092369556427,2.32665014266968,-2.02581958719379,2.09416280691534,2.39693591782438,1266.854,1303.363,3127.762,3138.165,-0.0607728,0.04027647,0.05501733,-1.01166522502899,-0.42525526881218,0.665404260158539,-1.02911122568848,-0.44279781037446,0.637068872067239,0
2.97999858856201,-2.32172060012817,2.10078144073486,2.33990216255188,-2.04633676861235,2.08533483693462,2.40963703049136,1266.148,1301.055,3124.17,3134.023,-0.05916958,0.04067265,0.05376179,-1.00559186935425,-0.422773450613022,0.662599146366119,-1.02271358821248,-0.44004508569784,0.633108429707863,0
2.99999904632568,-2.34170627593994,2.09237837791443,2.35309505462646,-2.06672543057999,2.07656216528323,2.42225858349598,1264.925,1298.558,3120.872,3130.102,-0.05754985,0.04107896,0.05248992,-0.999286472797394,-0.42015478014946,0.659639060497284,-1.01606432346125,-0.437184092834336,0.628992218078444,0
3.01999950408936,-2.36156129837036,2.08403038978577,2.36622500419617,-2.08697861589905,2.06784778544893,2.43479627000149,1265.043,1296.127,3116.705,3125.523,-0.05590934,0.04149741,0.05119562,-0.99274867773056,-0.417399883270264,0.656501352787018,-1.00916668504355,-0.434216231720906,0.6247222513178,0
3.03999996185303,-2.38128089904785,2.07574009895325,2.37928915023804,-2.10709138444128,2.05919382303091,2.44724703183317,1265.406,1293.789,3112.801,3120.368,-0.05425498,0.04192625,0.0498797,-0.985980093479156,-0.414510846138,0.653212904930115,-1.00202343683929,-0.431142691577869,0.620300240399267,0
3.05999851226807,-2.40086054801941,2.06751036643982,2.39228463172913,-2.12705695532017,2.0506031956552,2.45960667129923,1264.502,1291.41,3109.105,3116.19,-0.05259317,0.0423628,0.04854823,-0.978980898857117,-0.41149052977562,0.64977240562439,-0.99463816696425,-0.427965016271193,0.615728406537424,0
3.07999897003174,-2.42029595375061,2.05934381484985,2.40520811080933,-2.14687431208796,2.04207634067088,2.47187455917011,1263.411,1288.897,3105.58,3112,-0.05091964,0.04280727,0.04719992,-0.971752762794495,-0.408342182636261,0.646176338195801,-0.987012447105925,-0.424683882054105,0.611007722681707,0
3.09999942779541,-2.43958187103271,2.0512421131134,2.41805624961853,-2.16653677899372,2.03361613046706,2.48404656283797,1263.532,1286.481,3101.279,3107.198,-0.04923332,0.04326065,0.04582989,-0.964296102523804,-0.405067563056946,0.642406940460205,-0.979150059141572,-0.421300916162735,0.606140529994295,0
3.11999988555908,-2.4587140083313,2.043208360672,2.43082618713379,-2.18603965436139,2.02522458804362,2.49611977174134,1263.847,1284.173,3097.412,3101.691,-0.04753955,0.04372098,0.04444078,-0.956613123416901,-0.401669919490814,0.638493239879608,-0.97105420050111,-0.417817494361851,0.601128807836619,0
3.13999843597412,-2.47768831253052,2.03524541854858,2.443514585495,-2.20537646528982,2.01690449850907,2.50809017884609,1262.69,1281.817,3093.498,3097.62,-0.04584525,0.04418541,0.04304,-0.948704361915588,-0.398152679204941,0.6344233751297,-0.962728981884007,-0.414235385370594,0.595975100927473,0
3.15999889373779,-2.49649930000305,2.0273551940918,2.4561185836792,-2.22454633116994,2.00865624076491,2.51995723901323,1261.728,1279.336,3089.721,3093.233,-0.04414615,0.04465441,0.04162404,-0.94057309627533,-0.394519805908203,0.630198955535889,-0.954176229199323,-0.410555374826624,0.590680539591543,0
3.17999935150146,-2.51514387130737,2.01953935623169,2.46863484382629,-2.24354289978482,2.00048254799261,2.5317170199179,1261.832,1277.012,3085.378,3088.138,-0.0424412,0.04512851,0.04018957,-0.932220995426178,-0.390774339437485,0.625810086727142,-0.945400248127688,-0.406779315344027,0.585247789250248,0
3.19999980926514,-2.53361678123474,2.01180124282837,2.48106050491333,-2.26236174259452,1.99238532566921,2.5433667800829,1261.414,1274.771,3081.512,3083.021,-0.04073678,0.04560534,0.03874158,-0.923650741577148,-0.38692033290863,0.621280312538147,-0.936404669649014,-0.402908769232023,0.57967909765312,0
3.21999835968018,-2.55191373825073,2.00414204597473,2.4933922290802,-2.28099673628266,1.98436720848665,2.55490272888372,1260.215,1272.476,3077.358,3078.909,-0.03903555,0.04608333,0.03728322,-0.914864182472229,-0.382961481809616,0.616591095924377,-0.927194121754502,-0.398945727785933,0.573977329747175,0
3.23999881744385,-2.57003092765808,1.99656391143799,2.50562739372253,-2.29944715682451,1.97642850797257,2.56632441811454,1259.568,1270.161,3073.613,3073.818,-0.03733272,0.04656301,0.0358122,-0.905865550041199,-0.378902435302734,0.611758708953857,-0.917770694993346,-0.394891090510675,0.568143779681951,0
3.25999927520752,-2.58796405792236,1.98906898498535,2.51776266098022,-2.31770701724067,1.96857180015694,2.57762814154992,1258.98,1267.964,3069.191,3069.175,-0.0356315,0.04704326,0.03433045,-0.89665675163269,-0.374746233224869,0.606762409210205,-0.908139213722953,-0.39074693319246,0.562181433964499,0
3.27999973297119,-2.60570883750916,1.98165917396545,2.52979516983032,-2.3357721968113,1.96079885807039,2.58881134826798,1258.773,1265.79,3064.964,3063.977,-0.03393346,0.04752316,0.03283767,-0.887241780757904,-0.370496839284897,0.601621091365814,-0.898303742473227,-0.386515004684962,0.55609280873245,0
3.29999828338623,-2.62326145172119,1.97433590888977,2.5417218208313,-2.35363696295439,1.95311214828281,2.59987048952738,1257.628,1263.683,3060.86,3059.489,-0.03224449,0.048001,0.03133871,-0.877624034881592,-0.36615851521492,0.596336960792542,-0.888269420573613,-0.382197516298058,0.549881085475548,0
3.3199987411499,-2.64061737060547,1.96710133552551,2.55353999137878,-2.37130076986152,1.9455119056403,2.61080522744671,1256.168,1261.526,3057.061,3054.994,-0.03056031,0.0484763,0.02983436,-0.867807984352112,-0.361736118793488,0.590912461280823,-0.878038614955035,-0.377795486456005,0.543547729436792,0
3.33999919891357,-2.65777349472046,1.95995652675629,2.56524658203125,-2.38875803705788,1.9380005312653,2.62161210744622,1255.726,1259.434,3052.486,3050.167,-0.02887932,0.04894967,0.02832159,-0.857797086238861,-0.357232809066772,0.585325539112091,-0.867616662863564,-0.373311211626679,0.537096044625745,0
3.35999965667725,-2.67472505569458,1.9529036283493,2.57683873176575,-2.40600498632766,1.93057965081849,2.63228879063034,1255.475,1257.472,3048.294,3044.744,-0.02720579,0.04942017,0.02680261,-0.847595989704132,-0.35265251994133,0.579606056213379,-0.857008062379104,-0.368746627208203,0.530528815568142,0
3.37999820709229,-2.69146919250488,1.94594347476959,2.58831357955933,-2.42303631647004,1.92325154525851,2.64283199530324,1254.05,1255.536,3044.027,3040.51,-0.02554557,0.04988508,0.02528377,-0.837208390235901,-0.347999334335327,0.573745131492615,-0.846218457554353,-0.364104161678776,0.523849536201467,0
3.39999866485596,-2.70800232887268,1.93907809257507,2.5996687412262,-2.43985168251725,1.91601636301534,2.65324150791343,1252.653,1253.526,3040.202,3035.865,-0.02389335,0.05034492,0.02376436,-0.82664030790329,-0.343277841806412,0.567753314971924,-0.835250504766559,-0.359384958003316,0.517059850949774,0
3.41999912261963,-2.72432017326355,1.93230819702148,2.61090087890625,-2.45644595127645,1.90887631275845,2.66351415077002,1251.713,1251.595,3035.614,3031.441,-0.02224911,0.05080004,0.02224308,-0.815895915031433,-0.338491320610046,0.561607480049133,-0.824110047700851,-0.354591530556282,0.510163377332536,0
3.4399995803833,-2.74041962623596,1.92563545703888,2.6220076084137,-2.47281572171992,1.90183285785507,2.67364781847483,1251.592,1249.777,3031.376,3025.869,-0.0206134,0.05125006,0.0207194,-0.804980754852295,-0.333643466234207,0.555335998535156,-0.812802017987126,-0.349726001280244,0.503163168263584,0
3.45999813079834,-2.75629758834839,1.91906070709229,2.63298630714417,-2.48895616411916,1.89488807640244,2.68363952119586,1249.978,1248.045,3027.115,3021.741,-0.01899473,0.05169225,0.01920169,-0.793899118900299,-0.328737944364548,0.548934161663055,-0.801332557124873,-0.344791012690858,0.496063025623659,0
3.47999858856201,-2.7719509601593,1.9125851392746,2.64383435249329,-2.5048671580694,1.88804202020736,2.69348918439681,1248.456,1246.193,3023.204,3017.294,-0.01738725,0.05212719,0.01768868,-0.782657623291016,-0.323779076337814,0.542407631874084,-0.789704625325221,-0.339787838484275,0.48886478192447,0
3.49999904632568,-2.78737616539001,1.90620958805084,2.65454912185669,-2.52054405789489,1.88129668817433,2.70319393218309,1247.588,1244.428,3018.736,3012.707,-0.01578988,0.05255542,0.01617895,-0.771261632442474,-0.318769991397858,0.535741806030273,-0.777924565601271,-0.33471920788183,0.48157236379328,0
3.51999950408936,-2.80257081985474,1.89993524551392,2.66512823104858,-2.53598387443988,1.87465336645356,2.7127519141249,1247.095,1242.771,3014.479,3007.567,-0.01420424,0.05297639,0.01467379,-0.759716808795929,-0.313713818788528,0.528957605361938,-0.765997743132915,-0.329587429370541,0.474189092532023,0
3.53999805450439,-2.8175311088562,1.89376306533813,2.67556929588318,-2.55118228893085,1.86811391329264,2.72216045669569,1245.507,1241.161,3010.262,3003.49,-0.01263723,0.05338818,0.01317908,-0.748028635978699,-0.308614015579224,0.522054314613342,-0.753930788928443,-0.32439535608803,0.466719073050709,0
3.55999851226807,-2.83225512504578,1.88769340515137,2.68586993217468,-2.56613943045229,1.86167827315012,2.73141963980492,1244.123,1239.481,3006.246,2999.12,-0.01108408,0.0537913,0.01169342,-0.736203968524933,-0.303474277257919,0.515035569667816,-0.741726982743458,-0.319144399221507,0.459164335674297,0
3.57999897003174,-2.84673976898193,1.88172769546509,2.6960277557373,-2.58085118048525,1.85534821810966,2.74052691389317,1243.207,1237.889,3001.964,2994.547,-0.009543704,0.05418627,0.0102166,-0.724248826503754,-0.298297643661499,0.507896542549133,-0.729393159146423,-0.313837499494844,0.451529111326235,0
3.59999942779541,-2.86098337173462,1.87586569786072,2.70604062080383,-2.59531499642994,1.8491248421809,2.74948070497003,1242.358,1236.364,2997.677,2989.979,-0.008019843,0.0545723,0.008750317,-0.712169289588928,-0.293086975812912,0.500646233558655,-0.716935116867222,-0.308477151939514,0.443816989696558,0
3.61999988555908,-2.8749828338623,1.87010908126831,2.71590662002563,-2.60952845274776,1.84300918900534,2.75827951151158,1240.967,1234.883,2993.775,2985.63,-0.006514092,0.05494864,0.007298378,-0.699971735477448,-0.287845462560654,0.493297338485718,-0.704358763025832,-0.303065898224215,0.436031627573922,0
3.63999843597412,-2.8887357711792,1.86445736885071,2.72562336921692,-2.62348792387191,1.83700281856309,2.76692108911926,1239.461,1233.351,2989.554,2981.816,-0.005025918,0.05531544,0.005861042,-0.687662959098816,-0.282576203346252,0.485835075378418,-0.691671328348836,-0.297606849528596,0.428177501122537,0
3.65999889373779,-2.90224099159241,1.8589118719101,2.73518896102905,-2.63719388780829,1.83110552518157,2.77540573370148,1238.645,1231.88,2985.75,2976.989,-0.003551592,0.05567325,0.004437095,-0.675249814987183,-0.277282059192657,0.478281408548355,-0.678876516133027,-0.292101599277805,0.420256902859522,0
3.67999935150146,-2.91549587249756,1.85347270965576,2.74460124969482,-2.65064293973817,1.82531877385916,2.78373133751326,1237.383,1230.471,2981.362,2973.233,-0.002095908,0.05602117,0.00303011,-0.662738442420959,-0.271965235471725,0.470617949962616,-0.66598176345593,-0.286553347438535,0.412274436690144,0
3.69999980926514,-2.92849850654602,1.848140001297,2.75385856628418,-2.66383314403406,1.81964339744228,2.79189670230899,1236.927,1229.048,2977.396,2968.458,-0.0006583334,0.05635979,0.001637823,-0.65013575553894,-0.26662865281105,0.462869733572006,-0.652993410987513,-0.280964822223937,0.404234027791164,0
3.71999835968018,-2.94124746322632,1.84291458129883,2.76295924186707,-2.67676147242099,1.81408069891307,2.79989995344218,1235.359,1227.765,2973.569,2964.625,0.0007553127,0.05668759,0.0002670352,-0.637448251247406,-0.26127490401268,0.455039203166962,-0.639919158684063,-0.275339336710087,0.396140442802322,0
3.73999881744385,-2.9537410736084,1.83779644966125,2.77190160751343,-2.68942871342851,1.80863033898928,2.80774157905021,1233.76,1226.351,2969.777,2961.004,0.002149071,0.05700533,-0.001082841,-0.624683618545532,-0.255907088518143,0.447121143341064,-0.626763069572948,-0.269678639104154,0.387996196931105,0
3.75999927520752,-2.96597838401794,1.83278572559357,2.78068399429321,-2.70183207613339,1.80329351852721,2.81541985141863,1233.249,1224.974,2965.781,2956.629,0.003525654,0.0573137,-0.002415487,-0.611849069595337,-0.250527650117874,0.4391168653965,-0.613533052380058,-0.263986132309944,0.379806186055589,0
3.77999973297119,-2.97795701026917,1.82788288593292,2.78930473327637,-2.71397014950325,1.79807084465467,2.8229338970512,1232.371,1223.749,2961.974,2952.487,0.004879663,0.05761217,-0.003725762,-0.598950803279877,-0.245138600468636,0.431042969226837,-0.600235881325351,-0.258264731085059,0.371574603740626,0
3.79999828338623,-2.98967742919922,1.8230881690979,2.79776263237,-2.72584053969413,1.79296334737585,2.83028223404445,1231.241,1222.469,2958.151,2948.799,0.006208705,0.0578998,-0.005012602,-0.585996091365814,-0.239742517471313,0.422895401716232,-0.586879715506965,-0.252517946061484,0.363306500856638,0
3.8199987411499,-3.00113677978516,1.81840133666992,2.80605626106262,-2.73744437532928,1.78797054107568,2.83746556106996,1229.902,1221.191,2954.585,2945.223,0.007513619,0.05817705,-0.00627494,-0.572992503643036,-0.234342202544212,0.414685696363449,-0.573468997693175,-0.246747688838293,0.355004627688818,0
3.83999919891357,-3.01233601570129,1.81382250785828,2.81418442726135,-2.74877951672031,1.78309334640231,2.84448255355867,1229.28,1219.935,2950.853,2941.226,0.00879583,0.05844466,-0.007514375,-0.559947431087494,-0.228940159082413,0.406408905982971,-0.560012098335753,-0.240957560987039,0.346674165945561,0
3.85999965667725,-3.02327370643616,1.80935156345367,2.82214593887329,-2.75984511211391,1.77833212984139,2.85133268423472,1228.346,1218.777,2947.303,2937.475,0.01005165,0.05870197,-0.008727712,-0.546867668628693,-0.22353857755661,0.398079127073288,-0.546516225204654,-0.235150663809775,0.338319577579819,0
3.87999820709229,-3.03394842147827,1.80498874187469,2.82993984222412,-2.77063943840288,1.77368763279781,2.85801488641266,1227.257,1217.588,2943.82,2934.001,0.01128025,0.05894848,-0.009913883,-0.533760726451874,-0.218140035867691,0.389696210622787,-0.532989985790516,-0.229330700869253,0.329946191038328,0
3.89999866485596,-3.04436135292053,1.80073404312134,2.83756518363953,-2.78116399552794,1.76915920988899,2.86453008862725,1226.481,1216.391,2940.36,2930.377,0.01248211,0.05918494,-0.01107289,-0.520634174346924,-0.212747067213058,0.381263822317123,-0.519438223935834,-0.223499756335581,0.321557004890338,0
3.91999912261963,-3.05451130867004,1.79658675193787,2.84502100944519,-2.7914173315546,1.76474748584176,2.87087739206188,1225.735,1215.238,2936.828,2926.962,0.01365458,0.05941112,-0.0122042,-0.507495284080505,-0.207362160086632,0.372785776853561,-0.5058697612343,-0.217661625894075,0.313157480122576,0
