t,x_s1,x_s2,x_s3,x_s_d1,x_s_d2,x_s_d3,propellers_rpms1,propellers_rpms2,propellers_rpms3,propellers_rpms4,rollRad,pitchRad,yawRad,v_s1,v_s2,v_s3,v_s_d1,v_s_d2,v_s_d3,insideCount
0,-0.0599999986588955,2.94000005722046,1.17999994754791,-0.0599999986588955,2.94000005722046,1.17999994754791,0,0,0,0,0,0,0,0,0,0,-1.06581410364015E-15,4.44089209850063E-16,4.44089209850063E-16,0
0.0200042724609375,-0.0599999986588955,2.94000005722046,1.17811644077301,-0.0600018701838461,2.93999925195556,1.18000110611101,0,0,0,0,-0.01635288,0.0001297794,-0.01587137,-1.10653664009419E-09,-7.76775763711157E-08,-0.0941759571433067,-0.000280105751305916,-0.000120521679537258,0.00017339880334547,9
0.0399932861328125,-0.0599999986588955,2.94000005722046,1.17242503166199,-0.060014863945674,2.93999366110285,1.18000914986856,0,0,0,0,-0.03270202,0.0005238493,-0.03175127,-1.08383135799528E-09,-7.60859677484405E-08,-0.284568399190903,-0.00111059898697896,-0.000477859717552347,0.000687513678106196,9
0.05999755859375,-0.0599058829247952,2.93990302085876,1.16596519947052,-0.0600498857373401,2.93997859220429,1.18003083002592,1867.904,3252.744,3184.064,1722.533,-0.04942081,0.0003291642,-0.01369451,0.00470578344538808,-0.00484931888058782,-0.322993487119675,-0.00247936261166862,-0.00106680046642749,0.00153484356504269,9
0.0800018310546875,-0.0598203651607037,2.93960738182068,1.16000318527222,-0.0601175574246769,2.93994947496775,1.18007272202403,1925.689,2314.406,3251.882,2829.42,-0.07542925,-0.002135855,0.02094752,0.00427580904215574,-0.0147780273109674,-0.298102557659149,-0.00437268608126799,-0.00188144466206175,0.00270690098422899,9
0.0999908447265625,-0.0599374361336231,2.93904495239258,1.15498661994934,-0.0602281370710988,2.93990189563514,1.18014117609281,980.3461,1498.873,3914.857,3896.541,-0.1031932,-0.008062454,0.06330631,-0.00585355889052153,-0.0281156711280346,-0.250828981399536,-0.00677536694902951,-0.00291525111632684,0.0041942748969354,8
0.1199951171875,-0.060463834553957,2.93818354606628,1.15081334114075,-0.0603918861403606,2.93983143898525,1.18024254456713,346.1977,980.26,4173.206,4613.362,-0.1214295,-0.01542077,0.1040004,-0.0263199284672737,-0.0430677868425846,-0.20866422355175,-0.00967801353495435,-0.00416417885169243,0.00599115140585487,8
0.139999389648438,-0.0615635700523853,2.93704128265381,1.1472829580307,-0.0606185767455666,2.93973390035084,1.18038287685052,353.0333,747.2346,3975.123,4854.899,-0.1253987,-0.02116627,0.1351041,-0.0549868755042553,-0.0571124851703644,-0.176520496606827,-0.0130660253322238,-0.00562194567796536,0.00808849210174802,7
0.160003662109375,-0.0633407756686211,2.93568110466003,1.14427495002747,-0.0609177895434042,2.93960515744296,1.18056810382587,821.0941,815.0187,3462.568,4692.36,-0.118459,-0.02352317,0.1522677,-0.0888603180646896,-0.0680128633975983,-0.150397926568985,-0.0169265510445065,-0.00728302204135792,0.0104783414199936,7
0.17999267578125,-0.065846785902977,2.93417263031006,1.14182543754578,-0.0612985250199726,2.93944133760391,1.18080379722281,1348.71,1083.38,3006.764,4255.208,-0.1079832,-0.02277908,0.155776,-0.12530043721199,-0.0754290074110031,-0.122478008270264,-0.0212433804254414,-0.00914043312572283,0.0131506644458931,7
0.199996948242188,-0.0690848380327225,2.93255424499512,1.14006185531616,-0.0617704296168641,2.93923829023936,1.18109592864822,1636.077,1380.892,2919.077,3666.346,-0.09982806,-0.02030128,0.1501562,-0.16190280020237,-0.080915242433548,-0.0881805270910263,-0.0260104776919234,-0.0111915819022102,0.0161017247421801,7
0.220001220703125,-0.073010116815567,2.93082642555237,1.139035820961,-0.0623420644491781,2.93899233174064,1.18144979784016,1641.519,1580.823,3147.889,3113.139,-0.09583758,-0.01735475,0.1421895,-0.196263834834099,-0.086386151611805,-0.0512993223965168,-0.03121219533433,-0.0134297356845702,0.019321835755004,7
0.239990234375,-0.0775497853755951,2.92897391319275,1.13863325119019,-0.0630214373585105,2.93870001655724,1.18187036203406,1524.439,1624.352,3417.368,2777.422,-0.09475687,-0.01467721,0.1377334,-0.226983532309532,-0.0926236659288406,-0.0201296862214804,-0.0368316683029241,-0.015847637913056,0.022800557215184,7
0.259994506835938,-0.0826386585831642,2.92699265480042,1.13863575458527,-0.0638179029240226,2.93835731967507,1.18236341216003,1438.579,1500.522,3533.855,2744.336,-0.09438935,-0.01258876,0.1393034,-0.254443824291229,-0.099057249724865,0.000124411657452583,-0.0428651747123285,-0.0184436871643672,0.0265355850983733,7
0.279998779296875,-0.0882444828748703,2.92490100860596,1.13885235786438,-0.0647390625194898,2.93796097043536,1.18293365383054,1400.588,1276.089,3476.342,2977.746,-0.09320798,-0.01110591,0.1456843,-0.280291497707367,-0.104583360254765,0.010827487334609,-0.0492963837173861,-0.0212108567320638,0.030516809833474,7
0.300003051757813,-0.0943702012300491,2.92273283004761,1.13920712471008,-0.0657927507678135,2.93750759781875,1.18358593705038,1350.97,1061.788,3344.724,3324.672,-0.09053203,-0.009934124,0.153308,-0.306285858154297,-0.108404822647572,0.0177371725440025,-0.0561132031658829,-0.0241439437008635,0.0347367458022363,7
0.319992065429688,-0.101035475730896,2.92052602767944,1.13972520828247,-0.0669855955880233,2.93699435001684,1.18432436481717,1280.978,941.1936,3237.583,3590.4,-0.08598229,-0.008523181,0.1583567,-0.33326381444931,-0.11034045368433,0.0259067416191101,-0.0632980253096114,-0.0272353719486164,0.0391844929697465,7
0.339996337890625,-0.108251065015793,2.91831231117249,1.14046216011047,-0.068326768706371,2.93641728069206,1.18515461486636,1252.403,943.7586,3172.106,3649.861,-0.07944742,-0.006292517,0.1584773,-0.360779315233231,-0.110680237412453,0.0368454642593861,-0.0708499516420146,-0.0304847548730522,0.0438594951176439,7
0.360000610351563,-0.116002537310123,2.91611504554749,1.14145302772522,-0.0698225328270578,2.93577369517774,1.1860805641102,1319.853,1047.346,3120.22,3498.214,-0.07154422,-0.002963033,0.1534754,-0.387573957443237,-0.109859175980091,0.0495450682938099,-0.0787518717320621,-0.0338847303337087,0.0487511600740379,8
0.379989624023438,-0.124250799417496,2.91394996643066,1.14270770549774,-0.0714784451857985,2.93506120235061,1.1871056527423,1456.145,1181.959,3089.952,3231.099,-0.06361333,0.001260035,0.1450383,-0.41241380572319,-0.10825552046299,0.0627332478761673,-0.0869857157641562,-0.0374275233937465,0.0538483017622888,8
0.399993896484375,-0.132942572236061,2.91182661056519,1.1442174911499,-0.0733036822025899,2.9342758538535,1.18823556140379,1578.919,1273.216,3105.674,2981.978,-0.05701828,0.005825697,0.1357498,-0.434588968753815,-0.106163688004017,0.0754882618784904,-0.0955525119207663,-0.0411135764513579,0.0591515566763244,8
0.419998168945313,-0.142022892832756,2.90975069999695,1.14595794677734,-0.0753034649285836,2.93341540321397,1.18947352217404,1631.031,1288.617,3158.8,2845.138,-0.05243764,0.01017519,0.1278584,-0.454016387462616,-0.103800646960735,0.08702352643013,-0.104434660908044,-0.0449353170220673,0.0646500300148815,8
0.44000244140625,-0.151445254683495,2.90772485733032,1.1478955745697,-0.077483988232608,2.93247718495301,1.19082336997196,1607.598,1238.41,3218.794,2842.564,-0.04965623,0.01397622,0.1224584,-0.47111839056015,-0.10128815472126,0.0968843325972557,-0.113620829717891,-0.048887868829098,0.0703367061060819,8
0.459991455078125,-0.161175921559334,2.90575218200684,1.1499969959259,-0.0798493430620752,2.93145943885026,1.19228763728888,1541.649,1158.305,3252.846,2937.995,-0.04789109,0.01718686,0.1193364,-0.486533433198929,-0.0986366048455238,0.105069547891617,-0.123092454730403,-0.0529632444654124,0.0762000931848968,8
0.479995727539063,-0.17119275033474,2.90383672714233,1.15223956108093,-0.0824088828700873,2.93035814037613,1.19387211435783,1473.136,1085.77,3249.53,3067.268,-0.0462916,0.01998593,0.1173789,-0.500841498374939,-0.0957776680588722,0.112125687301159,-0.132852887402757,-0.0571628859694044,0.0822422659629699,8
0.5,-0.18148010969162,2.90198397636414,1.15461599826813,-0.085166398670376,2.92917165836334,1.1955791479969,1431.915,1046.394,3215.817,3169.854,-0.04433045,0.02264385,0.115225,-0.51436847448349,-0.0926400423049927,0.118820950388908,-0.142884000065179,-0.0614789935111996,0.0884520025491718,8
0.519989013671875,-0.19202321767807,2.90019941329956,1.15713465213776,-0.0881248588203387,2.92789871561062,1.19741057576073,1424.966,1045.393,3176.508,3209.656,-0.04191762,0.02538084,0.1118836,-0.527155935764313,-0.0892264097929001,0.125932276248932,-0.153166947611899,-0.0659034585682559,0.0948176369253132,9
0.539993286132813,-0.20280347764492,2.89848661422729,1.15981018543243,-0.091293865515634,2.92653518056143,1.19937234186584,1444.644,1072.988,3149.918,3184.913,-0.03929441,0.0282884,0.1070521,-0.539012968540192,-0.0856375321745872,0.133773908019066,-0.163706645289342,-0.0704383960337938,0.101342211863077,9
0.55999755859375,-0.213796734809875,2.8968460559845,1.16265308856964,-0.094676112580471,2.92507989413848,1.20146611391775,1483.723,1113.84,3138.35,3114.886,-0.03688478,0.03132695,0.1010613,-0.54966139793396,-0.0820308029651642,0.142142400145531,-0.17448465888317,-0.0750758741803766,0.108014315705644,9
0.580001831054688,-0.224974945187569,2.89527463912964,1.16566801071167,-0.0982762614093182,2.92353085067394,1.20369477754168,1522.247,1149.115,3145.151,3034.114,-0.0351255,0.03434693,0.09465126,-0.558911323547363,-0.0785743221640587,0.15074434876442,-0.185490414529404,-0.0798113433697334,0.11482740272751,9
0.599990844726563,-0.236309558153152,2.89376640319824,1.16885149478912,-0.102095761416081,2.92188742652551,1.20605922999388,1540.721,1167.107,3163.343,2979.003,-0.03429725,0.03716164,0.08861289,-0.566731095314026,-0.0754164457321167,0.159176379442215,-0.19670480600515,-0.0846365827279185,0.121769645266545,9
0.6199951171875,-0.247774839401245,2.89231300354004,1.17219507694244,-0.106144683970236,2.92014528826426,1.20856570593183,1533.174,1166.952,3183.544,2964.623,-0.03442615,0.03963038,0.08346058,-0.573265373706818,-0.0726648718118668,0.167178153991699,-0.208134604141382,-0.0895545055543457,0.128845234789665,9
0.639999389648438,-0.259350031614304,2.89090538024902,1.17568731307983,-0.110424235525481,2.91830391678686,1.21121495220784,1506.782,1156.384,3194.273,2987.275,-0.03534228,0.04169812,0.07929795,-0.578759551048279,-0.0703811571002007,0.174609929323196,-0.219761081350814,-0.0945570538913933,0.136042578028218,9
0.660003662109375,-0.271019756793976,2.88953351974487,1.17932045459747,-0.114938248900541,2.91636166293851,1.21400934151928,1468.865,1144.647,3196.675,3029.917,-0.03677559,0.0433878,0.07590026,-0.583485662937164,-0.0685953870415688,0.181655436754227,-0.231574097577923,-0.0996398647564507,0.143355397804799,9
0.67999267578125,-0.28277263045311,2.88818717002869,1.18308961391449,-0.119686638739014,2.91431856344567,1.21694882102647,1429.447,1139.707,3190.531,3075.15,-0.03845391,0.04477703,0.07288193,-0.587645828723907,-0.0673234462738037,0.18845708668232,-0.243554411173546,-0.104794659005432,0.150771782621969,9
0.699996948242188,-0.294599622488022,2.8868556022644,1.18699288368225,-0.124680083855354,2.91217002351282,1.22004000142426,1401.825,1145.844,3178.963,3103.319,-0.04018071,0.0459636,0.06986578,-0.591349542140961,-0.0665756538510323,0.195164382457733,-0.255710395848158,-0.11002503961202,0.158296916205407,9
0.720001220703125,-0.306491911411285,2.88552832603455,1.19102895259857,-0.129918284978346,2.90991617190799,1.22328269744952,1393.46,1162.822,3162.896,3107.327,-0.04193201,0.0470191,0.06663474,-0.594613015651703,-0.0663625597953796,0.201800912618637,-0.268023157655716,-0.11532287703907,0.16591910230247,9
0.739990234375,-0.318440318107605,2.88419413566589,1.19519925117493,-0.135400001298574,2.90755754251682,1.2266761409821,1394.79,1185.436,3152.556,3092.286,-0.04382445,0.04795457,0.06321353,-0.597420930862427,-0.0667107403278351,0.208516836166382,-0.280473432677602,-0.12067988256057,0.173626415629864,9
0.759994506835938,-0.330435425043106,2.88284087181091,1.19950473308563,-0.14113644597991,2.90508931062815,1.2302272735046,1391.085,1207.452,3150.777,3075.104,-0.04600025,0.04873355,0.05981311,-0.599756836891174,-0.0676626786589622,0.215277031064034,-0.293070637251543,-0.126100107763583,0.181424685349205,9
0.779998779296875,-0.342468231916428,2.88145565986633,1.20394217967987,-0.147126184485884,2.90251209348295,1.23393520697061,1387.028,1226.449,3150.296,3060.025,-0.04853771,0.04931778,0.05665145,-0.601639866828918,-0.0692555829882622,0.221870169043541,-0.305795832832518,-0.131575403921268,0.189302187598958,9
0.800003051757813,-0.354531228542328,2.8800253868103,1.20850837230682,-0.153371683173492,2.89982482987671,1.2378014681726,1375.974,1240.872,3153.515,3052.897,-0.05147038,0.04966306,0.05392724,-0.603148639202118,-0.0715188235044479,0.228310242295265,-0.318639638509124,-0.13710173468952,0.197253115148089,9
0.819992065429688,-0.366619020700455,2.87853598594666,1.21319842338562,-0.159870162197751,2.89702871589906,1.2418243362541,1352.482,1250.98,3156.461,3062.064,-0.05475726,0.04973974,0.05175571,-0.604389786720276,-0.0744674652814865,0.234504491090775,-0.33158286215529,-0.142670842232658,0.205265587156312,9
0.839996337890625,-0.378728806972504,2.87697386741638,1.2180073261261,-0.166633637018892,2.89411858163313,1.24601124935738,1324.086,1259.275,3157.424,3079.302,-0.05826517,0.04955658,0.05010917,-0.605489790439606,-0.0781007334589958,0.240446284413338,-0.344636106234817,-0.148287288494656,0.213346167053785,8
0.860000610351563,-0.390859842300415,2.87532591819763,1.22292864322662,-0.173659158941841,2.89109569582005,1.2503603820997,1300.574,1268.981,3151.028,3097.625,-0.06187109,0.0491504,0.04886718,-0.606553554534912,-0.0823949500918388,0.246065691113472,-0.357780475378537,-0.153942943326036,0.221483157706883,8
0.879989624023438,-0.403013229370117,2.87357950210571,1.22795963287354,-0.18094280014554,2.88796174849148,1.25486930297274,1280.436,1281.2,3144.396,3111.331,-0.06550418,0.04855708,0.04791337,-0.607668817043304,-0.087326355278492,0.251550406217575,-0.370996904517929,-0.159629603560431,0.229664756929996,8
0.899993896484375,-0.415190935134888,2.87172198295593,1.23309862613678,-0.18849723509595,2.8847112861788,1.25954585807468,1257.397,1295.106,3139.674,3124.923,-0.06911649,0.04780455,0.04718558,-0.608884751796722,-0.0928711295127869,0.256950974464417,-0.384296738353309,-0.165352150505452,0.237897987633041,8
0.919998168945313,-0.427395403385162,2.86974215507507,1.23834192752838,-0.196318384305134,2.8813460641717,1.26438752200817,1245.821,1310.712,3131.958,3129.177,-0.07266435,0.04693221,0.04661485,-0.610225796699524,-0.0989954844117165,0.262165427207947,-0.397661187980262,-0.171102499820431,0.246171218589148,8
0.94000244140625,-0.439629733562469,2.86762881278992,1.24368858337402,-0.204407453948074,2.87786556348678,1.26939504145298,1238.845,1326.832,3127.553,3126.612,-0.07617386,0.04595119,0.04622439,-0.611716210842133,-0.105673089623451,0.267330855131149,-0.411081631631503,-0.176876941799768,0.254479112513653,8
0.959991455078125,-0.451897203922272,2.8653712272644,1.24913692474365,-0.212759000778906,2.87427212620069,1.27456504678061,1227.146,1341.259,3125.942,3128.429,-0.07968231,0.04485386,0.04609582,-0.613374352455139,-0.112875647842884,0.272418767213821,-0.424539267042903,-0.182667386354485,0.262810029909387,8
0.979995727539063,-0.464201927185059,2.86295962333679,1.25468528270721,-0.22138664033507,2.87055989392801,1.27990596665734,1213.762,1353.101,3127.021,3132.236,-0.08316306,0.04364113,0.04627856,-0.615237057209015,-0.120574578642845,0.277420312166214,-0.438046240701377,-0.188479059778567,0.271171490030365,8
1,-0.476548761129379,2.86038517951965,1.26032960414886,-0.230284798736574,2.86673126495361,1.28541435058594,1205.223,1363.467,3124.119,3137.207,-0.08658842,0.04232521,0.04677809,-0.617341756820679,-0.128723546862602,0.28221407532692,-0.451584000205995,-0.194303979492187,0.279552008056641,8
1.01998901367188,-0.488943606615067,2.85763955116272,1.26606869697571,-0.239446912293295,2.86278906344998,1.29108613532954,1195.731,1372.574,3123.202,3143.518,-0.08995146,0.04091087,0.04759633,-0.619743704795837,-0.137286275625229,0.286954164505005,-0.46513400752272,-0.200134169097193,0.287940108062054,8
1.03999328613281,-0.50139331817627,2.85471510887146,1.2719019651413,-0.248887339851819,2.85872711120656,1.2969302096982,1177.614,1380.059,3124.732,3157.864,-0.09321543,0.03940542,0.0487299,-0.622485458850861,-0.146223977208138,0.291665077209473,-0.478708875293167,-0.205975055460915,0.29634359787259,8
1.05999755859375,-0.51390528678894,2.85160541534424,1.2778263092041,-0.258599401509697,2.85454828239877,1.30294243851408,1168.737,1387.3,3121.654,3168.231,-0.09630203,0.03784775,0.05008775,-0.625596523284912,-0.155480474233627,0.296218991279602,-0.492290296490434,-0.211818761581115,0.30475114456651,8
1.08000183105469,-0.526487350463867,2.84830522537231,1.2838419675827,-0.268583149539609,2.85025255453512,1.30912285413647,1164.378,1395.018,3120.041,3173.597,-0.09919689,0.03626058,0.05162055,-0.629106819629669,-0.165011420845985,0.300782710313797,-0.50587040849135,-0.217661904390701,0.313157880805523,8
1.09999084472656,-0.539147794246674,2.84480977058411,1.28994917869568,-0.278830554044452,2.84584338265603,1.31546648567654,1156.91,1402.125,3119.703,3182.215,-0.1019091,0.03465563,0.05332144,-0.63302206993103,-0.174768835306168,0.305359870195389,-0.519431110871131,-0.223496695782555,0.321552601564445,7
1.1199951171875,-0.551894783973694,2.84111547470093,1.29614877700806,-0.289357002179081,2.84131414609862,1.32198285851614,1150.938,1407.91,3121.811,3188.835,-0.1044044,0.03305167,0.05516494,-0.637349963188171,-0.18470898270607,0.309978812932968,-0.532985466132485,-0.229328756186667,0.329943393154705,7
1.13999938964844,-0.564736425876617,2.83721995353699,1.30243945121765,-0.300154365346813,2.83666834237095,1.3286669406667,1153.541,1413.519,3119.848,3191.992,-0.1066798,0.03147091,0.05711824,-0.642082870006561,-0.19477191567421,0.314530909061432,-0.546515580872639,-0.235150386571708,0.338319178707607,7
1.16000366210938,-0.577681124210358,2.83312153816223,1.30882322788239,-0.311222084148811,2.83190621216671,1.33551838583369,1156.755,1418.217,3121.062,3193.651,-0.1087763,0.02991611,0.0591888,-0.647231340408325,-0.204919517040253,0.319187641143799,-0.560014026276883,-0.240958390526247,0.34667535943296,7
1.17999267578125,-0.590736985206604,2.82881927490234,1.31530213356018,-0.322550701230474,2.8270318247214,1.34253133946411,1153.356,1421.111,3124.826,3201.506,-0.1107151,0.0283844,0.06140026,-0.652793169021606,-0.21511298418045,0.323944389820099,-0.573463232144024,-0.246745208083563,0.355001058539242,7
1.19999694824219,-0.60391241312027,2.82431292533875,1.32187795639038,-0.334156660511822,2.8220381046756,1.34971598112778,1149.6,1422.125,3130.66,3209.545,-0.112445,0.02688936,0.0637297,-0.658772468566895,-0.225315019488335,0.328793823719025,-0.58687652428584,-0.252516572968185,0.36330452533874,7
1.22000122070313,-0.617215573787689,2.81960368156433,1.32855010032654,-0.346030421585499,2.81692915700008,1.35706640485806,1155.214,1423.335,3130.742,3214.246,-0.1139471,0.0254552,0.06612282,-0.665157616138458,-0.235467493534088,0.333604425191879,-0.600236516861372,-0.258265004538453,0.371574997167698,7
1.239990234375,-0.630654633045197,2.81469297409058,1.33532118797302,-0.358161486344149,2.81170949873715,1.36457611182642,1161.93,1424.237,3132.877,3217.31,-0.1152568,0.02408595,0.06856212,-0.67195600271225,-0.245535850524902,0.33855739235878,-0.613526094901141,-0.263983138701136,0.379801879044709,7
1.25999450683594,-0.644237875938416,2.80958318710327,1.34219527244568,-0.3705671011502,2.80637170925886,1.37225577835275,1159.476,1423.551,3139.356,3226.849,-0.1163881,0.02277789,0.07105805,-0.679158091545105,-0.255491703748703,0.343702614307404,-0.626758665639206,-0.269676744214496,0.387993470686331,7
1.27999877929688,-0.657972633838654,2.80427742004395,1.34917271137238,-0.383236695417198,2.80092033679326,1.3800988607405,1165.414,1422.816,3141.418,3232.375,-0.117309,0.02155674,0.07354624,-0.686738789081573,-0.265288442373276,0.348874419927597,-0.639917282339435,-0.275338529371412,0.396139281255613,8
1.30000305175781,-0.671866416931152,2.79877948760986,1.3562570810318,-0.396168722856641,2.79535604666509,1.38810440176341,1174.721,1422.161,3145.354,3233.452,-0.1180404,0.02042929,0.076005,-0.694692611694336,-0.274900376796722,0.354220390319824,-0.652995275331231,-0.280965624398954,0.404235181908735,8
1.31999206542969,-0.68592631816864,2.79309344291687,1.36345171928406,-0.409351342777246,2.78968393359302,1.39626507146953,1178.961,1420.579,3150.969,3238.915,-0.1186145,0.01938915,0.07845151,-0.70299357175827,-0.284300416707993,0.359733045101166,-0.665976209205206,-0.286550957599616,0.412270998344359,8
1.33999633789063,-0.700158774852753,2.78722405433655,1.37075996398926,-0.422802873722428,2.78389611561957,1.40459220990988,1182.449,1417.575,3158.66,3244.208,-0.1190071,0.0184418,0.08087268,-0.711622595787048,-0.293466091156006,0.365410894155502,-0.678873453515705,-0.29210028151913,0.420255006953505,8
1.36000061035156,-0.714569628238678,2.78117704391479,1.37818229198456,-0.436511415158101,2.77799771321212,1.41307845008695,1194.338,1415.361,3160.344,3246.386,-0.1192233,0.01760156,0.08322813,-0.720544934272766,-0.302356034517288,0.371114075183868,-0.691670720740693,-0.297606588091785,0.42817712498415,8
1.37998962402344,-0.729164779186249,2.77495789527893,1.3857227563858,-0.450464156928423,2.77199423822282,1.42171586190405,1205.837,1412.829,3164.786,3247.204,-0.119316,0.01686225,0.0855164,-0.729754686355591,-0.310957223176956,0.377022355794907,-0.704352136620515,-0.303063047067127,0.436027525513373,8
1.39999389648438,-0.743949234485626,2.76857256889343,1.39338612556458,-0.464680216184654,2.76587746507559,1.43051627978847,1206.872,1408.529,3174.3,3254.59,-0.1192984,0.01620966,0.08776456,-0.73922872543335,-0.31926417350769,0.38316997885704,-0.716930938559026,-0.308475354130225,0.443814403124744,8
1.41999816894531,-0.758927881717682,2.76202750205994,1.40117311477661,-0.47914673136562,2.75965292774086,1.43947174182117,1216.171,1404.837,3178.043,3258.177,-0.1191381,0.01566291,0.08991953,-0.748925507068634,-0.327248513698578,0.389348030090332,-0.729391385793766,-0.313836736470737,0.451528013536465,8
1.44000244140625,-0.774104535579681,2.75532937049866,1.40908706188202,-0.493861275572861,2.75332167044526,1.4485807456364,1228.565,1401.441,3182.943,3257.634,-0.1188617,0.01522184,0.09196673,-0.758833944797516,-0.334901809692383,0.395694732666016,-0.741727567798258,-0.319144650954242,0.459164697851088,8
1.45999145507813,-0.78948301076889,2.74848508834839,1.41713118553162,-0.508809800712713,2.74688973769103,1.45783459479497,1234.991,1397.358,3189.482,3261.739,-0.1185048,0.01487235,0.0939289,-0.768923163414001,-0.342217475175858,0.402208805084229,-0.753924423002454,-0.324392617007921,0.466715132239272,8
1.47999572753906,-0.805066406726837,2.74150133132935,1.42530882358551,-0.524012471663969,2.74034845309416,1.46724577231745,1239.288,1392.174,3198.1,3266.203,-0.1180414,0.01461417,0.09579785,-0.779168367385864,-0.349193871021271,0.408881664276123,-0.765994882555672,-0.329586198544069,0.474187321698441,8
1.5,-0.820856869220734,2.7343852519989,1.43361985683441,-0.539455198877605,2.73370387899399,1.4768055561018,1251.926,1388.543,3199.901,3267.185,-0.1174758,0.01445938,0.0975333,-0.789526164531708,-0.355808764696121,0.415553480386734,-0.777924000354858,-0.334718964672088,0.481572013878822,8
1.51998901367188,-0.836856603622437,2.72714400291443,1.44206786155701,-0.555123050061237,2.72696244033876,1.48650470234772,1264.239,1384.914,3204.401,3266.112,-0.1168584,0.01439753,0.09913774,-0.79998779296875,-0.362066984176636,0.422400921583176,-0.789697369743256,-0.339784716610053,0.488860290373601,8
1.53999328613281,-0.85306704044342,2.71978425979614,1.45065689086914,-0.571036956668503,2.72011513090874,1.49635616862212,1265.659,1379.621,3214.123,3271.41,-0.1162012,0.01440838,0.100649,-0.81052577495575,-0.367982059717178,0.429450422525406,-0.801327600455846,-0.344788879974649,0.496059957209413,8
1.55999755859375,-0.869488894939423,2.71231341362,1.45938634872437,-0.587181951496087,2.71316839067337,1.50635068951315,1275.091,1375.547,3217.27,3273.018,-0.1154752,0.01450737,0.1020246,-0.821092188358307,-0.373543441295624,0.436475396156311,-0.812800388649436,-0.349725300221754,0.503162159625937,8
1.58000183105469,-0.886122524738312,2.7047381401062,1.46825861930847,-0.60355483331529,2.70612359703193,1.51648628330776,1287.184,1371.877,3221.466,3270.648,-0.1147098,0.01468893,0.1032597,-0.831677138805389,-0.378758251667023,0.443611621856689,-0.824110582941666,-0.354591760855452,0.510163708672098,8
1.59999084472656,-0.902967512607574,2.69706535339355,1.47727584838867,-0.620139554045575,2.69898765502515,1.52675301547962,1292.442,1367.542,3227.608,3273.16,-0.113938,0.01493393,0.1043874,-0.84225195646286,-0.383637607097626,0.450859665870667,-0.835244706287931,-0.359382463079953,0.517056261415284,8
1.6199951171875,-0.920023381710052,2.68930149078369,1.48643982410431,-0.636958033083316,2.69175113334911,1.53716445517924,1294.873,1362.244,3235.743,3276.337,-0.1131279,0.0152391,0.1054078,-0.852793872356415,-0.3881955742836,0.45819815993309,-0.846214826007804,-0.364102599125749,0.523847288101157,8
1.63999938964844,-0.937288582324982,2.68145298957825,1.49574875831604,-0.653994195024907,2.68442094880091,1.54771065096602,1305.831,1358.993,3236.035,3276.141,-0.1122783,0.01561549,0.1062833,-0.863260388374329,-0.392422944307327,0.465447068214417,-0.857007552155828,-0.368746407673381,0.530528499715628,8
1.66000366210938,-0.954761564731598,2.67352628707886,1.50520467758179,-0.671244443874359,2.67699864863716,1.55838937674714,1316.482,1355.903,3239.021,3273.595,-0.1114378,0.01605049,0.1070195,-0.873650252819061,-0.39633584022522,0.472794264554977,-0.867618167158098,-0.373311858882592,0.53709697585572,8
1.67999267578125,-0.972440302371979,2.66552710533142,1.51480937004089,-0.688691692550512,2.66949158495151,1.56919005480539,1318.292,1351.933,3245.228,3276.576,-0.1106314,0.01652442,0.107652,-0.883937895298004,-0.399956911802292,0.480233252048492,-0.878034183119987,-0.377793579561193,0.543544985919778,8
1.69999694824219,-0.990322291851044,2.65746092796326,1.5245635509491,-0.706358800111611,2.66188992212981,1.58012683598675,1318.25,1347.161,3253.274,3279.001,-0.1098037,0.01703787,0.1081789,-0.894100785255432,-0.403307199478149,0.487711668014526,-0.888267004546665,-0.382196476749158,0.549879589839776,8
1.72000122070313,-1.00840413570404,2.64933347702026,1.53446400165558,-0.724228658537036,2.6542010212754,1.5911891296115,1328.546,1344.822,3252.103,3277.245,-0.1089483,0.01760415,0.1085641,-0.904095590114594,-0.406378597021103,0.495021998882294,-0.898304216251578,-0.386515208538549,0.556093102023817,8
1.739990234375,-1.02668261528015,2.6411497592926,1.54451131820679,-0.74228345468553,2.64643254688532,1.60236590849663,1339.012,1342.72,3253.184,3273.214,-0.1081238,0.01820825,0.1088191,-0.913926661014557,-0.409187316894531,0.502368330955505,-0.908134108040217,-0.390744736359816,0.562178273303667,8
1.75999450683594,-1.04515421390533,2.63291454315186,1.55470740795135,-0.760546715064628,2.63857437616062,1.61367173667103,1336.201,1338.761,3260.656,3276.851,-0.1073478,0.0188239,0.1089977,-0.923580765724182,-0.411764293909073,0.509807229042053,-0.917767514700581,-0.394889722119545,0.568141810929231,8
1.77999877929688,-1.06381464004517,2.62463188171387,1.56504917144775,-0.779000609654483,2.63063418086074,1.62509557650306,1340.115,1336.332,3261.264,3277.775,-0.1065818,0.01946642,0.1090631,-0.933018147945404,-0.414115875959396,0.517088234424591,-0.927192788821983,-0.398945154262308,0.57397650459845,8
1.80000305175781,-1.08265948295593,2.61630702018738,1.57553613185883,-0.797640935141499,2.62261376955408,1.63663482594136,1347.54,1334.476,3263.056,3273.436,-0.1058356,0.0201327,0.1090098,-0.942242324352264,-0.416260570287704,0.524348080158234,-0.936405971974637,-0.402909329586356,0.579679903854719,7
1.81999206542969,-1.10168397426605,2.60794258117676,1.58616745471954,-0.816448984455027,2.61452119137054,1.64827790441807,1348.188,1332.208,3266.005,3274.417,-0.1051373,0.02080417,0.1088771,-0.951233804225922,-0.418216943740845,0.531566441059113,-0.945396434568188,-0.406777674475912,0.585245428475252,7
1.83999633789063,-1.1208838224411,2.59954237937927,1.59694230556488,-0.835449117627072,2.60634596486888,1.66003989195343,1346.506,1329.137,3271.066,3275.378,-0.1044465,0.02147886,0.1086697,-0.959984958171844,-0.420006483793259,0.538741409778595,-0.954174163352093,-0.410554485950274,0.590679260733698,7
1.86000061035156,-1.1402530670166,2.59110975265503,1.60785591602325,-0.854622615239374,2.59809614449182,1.6719092003358,1352.638,1328.268,3267.774,3274.079,-0.1037647,0.02216671,0.1083581,-0.968463957309723,-0.421626001596451,0.545681715011597,-0.962728579444532,-0.414235212212131,0.595974851798267,7
1.87998962402344,-1.15978682041168,2.58264780044556,1.61890780925751,-0.873950157556149,2.58978004298193,1.6838738697284,1358.694,1327.568,3267.574,3269.896,-0.1031341,0.02285708,0.107949,-0.976685762405396,-0.423095434904099,0.552594900131226,-0.971049893464309,-0.417815641164241,0.601126141575667,7
1.89999389648438,-1.17947971820831,2.57415890693665,1.63009810447693,-0.893456683142228,2.58138692997148,1.69594933829086,1351.915,1325.199,3273.38,3273.115,-0.1025567,0.02352764,0.1074946,-0.984642863273621,-0.424445241689682,0.559513866901398,-0.979147395688901,-0.421299770153459,0.606138881190213,7
1.91999816894531,-1.19932568073273,2.56564545631409,1.64142167568207,-0.913122862707269,2.57292512231409,1.70812364027167,1353.632,1324.553,3271.392,3272.763,-0.1019879,0.02419793,0.1069553,-0.992302417755127,-0.42567852139473,0.566176235675812,-0.987011339258123,-0.424683405378145,0.611007036871143,7
1.94000244140625,-1.2193192243576,2.55710935592651,1.652876496315,-0.932943991899774,2.5643966441608,1.72039386345315,1359.189,1324.51,3270.568,3267.1,-0.1014457,0.02486493,0.1063294,-0.999677181243896,-0.426809549331665,0.572741150856018,-0.994638524886308,-0.427965170275055,0.615728628108227,7
1.95999145507813,-1.23945438861847,2.54855227470398,1.6644606590271,-0.952900013794853,2.55581012544606,1.73274759164336,1356.751,1323.851,3271.795,3267.44,-0.1009604,0.02550901,0.1056641,-1.00675809383392,-0.427855789661407,0.579210996627808,-1.00202031904361,-0.431141350077486,0.620298310335216,7
1.97999572753906,-1.25972533226013,2.53997564315796,1.67617201805115,-0.973016570682103,2.54715453300902,1.74520069864106,1351.176,1322.22,3275.198,3268.682,-0.1004875,0.02612922,0.1049663,-1.01354444026947,-0.428836166858673,0.585569202899933,-1.00916501115878,-0.434215511495054,0.624721215103391,7
2,-1.28012549877167,2.53138089179993,1.68800437450409,-0.993273599084619,2.53843849960327,1.7577407641983,1354.761,1322.749,3270.013,3266.707,-0.1000155,0.02674093,0.1042,-1.0200138092041,-0.429743558168411,0.591620922088623,-1.01606400046349,-0.437183953857422,0.628992018127441,6
2.01998901367188,-1.30064940452576,2.5227689743042,1.69995605945587,-1.01365055070775,2.52967086658596,1.77035506794184,1358.494,1323.476,3267.922,3261.797,-0.09958625,0.02733491,0.103373,-1.02618837356567,-0.430592000484467,0.597584068775177,-1.02270954399163,-0.440043345582587,0.633105926142498,6
2.03999328613281,-1.32129073143005,2.51414084434509,1.71202600002289,-1.03417354141348,2.52084039703127,1.78305977683431,1348.972,1322.533,3271.867,3264.838,-0.09920169,0.02789043,0.1025394,-1.03206789493561,-0.431405991315842,0.603496670722961,-1.02910913225408,-0.442796909628122,0.637067576131623,6
2.05999755859375,-1.34204316139221,2.50549721717834,1.72420787811279,-1.05482201812353,2.5119559343546,1.79584216754118,1348.345,1323.12,3267.965,3264.3,-0.09881446,0.0284297,0.1016559,-1.03762757778168,-0.432182788848877,0.60909378528595,-1.03525504859546,-0.445441325732794,0.640872191117535,6
2.08000183105469,-1.36290097236633,2.49683856964111,1.73649883270264,-1.07559088172821,2.50301967256038,1.80869908347065,1351.878,1324.265,3265.545,3258.042,-0.09843896,0.02895227,0.1007189,-1.04288709163666,-0.432930886745453,0.614550411701202,-1.04114485287423,-0.447975543971863,0.644518260536375,6
2.09999084472656,-1.38385772705078,2.48816537857056,1.74889612197876,-1.09645901288412,2.49404069871208,1.82161745074311,1347.039,1324.767,3265.214,3258.289,-0.09810606,0.02943992,0.09977667,-1.04784226417542,-0.433661341667175,0.619867384433746,-1.04677201701582,-0.450396755497224,0.648001743199023,5
2.1199951171875,-1.40490782260895,2.47947764396667,1.76139664649963,-1.11745308225396,2.48500753716864,1.83461377976925,1339.512,1324.219,3267.037,3259.229,-0.09776677,0.02989482,0.09883314,-1.05249798297882,-0.434386193752289,0.62502908706665,-1.0521429102862,-0.45270770082608,0.651326581984514,5
2.13999938964844,-1.42604458332062,2.47077584266663,1.77399349212646,-1.138551967509,2.47592927627801,1.8476749948214,1341.611,1325.605,3260.435,3256.723,-0.09740778,0.03033482,0.09785064,-1.05683791637421,-0.435091465711594,0.629844963550568,-1.05725102347782,-0.454905579228273,0.654488747383304,4
2.16000366210938,-1.44726228713989,2.46206021308899,1.78668427467346,-1.15975039167652,2.46680818657414,1.86079782920208,1343.964,1327.132,3257.013,3251.314,-0.09707062,0.03075179,0.09683736,-1.06088733673096,-0.43578428030014,0.634539723396301,-1.0620943502576,-0.456989527434725,0.657486997379635,4
2.17999267578125,-1.46855521202087,2.45333075523376,1.79946649074554,-1.18102676265167,2.45765355853653,1.8739689163698,1336.136,1327.736,3256.979,3252.998,-0.09677661,0.03112931,0.09583704,-1.06464564800262,-0.436477690935135,0.639111459255219,-1.06666760390386,-0.458957270716794,0.660318059240953,3
2.19999694824219,-1.48991751670837,2.44458723068237,1.8123368024826,-1.20240821395574,2.44845371736898,1.88720505326679,1326.744,1327.344,3259.007,3254.147,-0.09645437,0.03147667,0.09484385,-1.06811678409576,-0.437181740999222,0.643515050411224,-1.07097597819164,-0.460811043810786,0.662985148161421,1
2.22000122070313,-1.51134324073792,2.43582963943481,1.82528758049011,-1.22387315175433,2.43921795429519,1.90049287228091,1329.347,1328.999,3251.622,3250.474,-0.09608153,0.03181498,0.09381533,-1.07128238677979,-0.437875777482986,0.64753794670105,-1.07501419914593,-0.462548577472581,0.665484999299265,0
2.239990234375,-1.53282642364502,2.42705845832825,1.83831596374512,-1.24539969505118,2.42995568409656,1.91381882803312,1332.995,1330.851,3247.037,3243.71,-0.09571188,0.03213513,0.09276402,-1.07416760921478,-0.438560158014297,0.651421546936035,-1.07877792518082,-0.464168003639063,0.667814925005999,0
2.25999450683594,-1.55436182022095,2.41827344894409,1.85142040252686,-1.26701526177039,2.4206551096063,1.92719989352455,1321.954,1330.947,3248.592,3246.608,-0.0953646,0.03241555,0.09174992,-1.0767776966095,-0.439247459173203,0.655221998691559,-1.08227143928024,-0.465671165158559,0.669977576652695,0
2.27999877929688,-1.57594394683838,2.40947484970093,1.86459422111511,-1.28869796983554,2.41132564607061,1.9406225227075,1319.208,1331.838,3243.508,3246.17,-0.0949891,0.03267973,0.09072565,-1.0790981054306,-0.439927399158478,0.658691167831421,-1.08549040888332,-0.467056197851165,0.67197027217779,0
2.30000305175781,-1.59756708145142,2.40066289901733,1.87783420085907,-1.31044231452835,2.40196966201596,1.95408330789913,1320.621,1333.158,3240.246,3239.865,-0.09458909,0.03293078,0.08968257,-1.08115077018738,-0.440600901842117,0.662000954151154,-1.08843358680109,-0.468322565086307,0.673792239511894,0
2.31999206542969,-1.61922550201416,2.39183759689331,1.89113688468933,-1.33222611841886,2.3925966997709,1.96756852021384,1314.647,1333.952,3238.401,3239.766,-0.09418909,0.03315588,0.08866213,-1.08293271064758,-0.441267639398575,0.665136396884918,-1.09109790637238,-0.469468947365361,0.675441580245663,0
2.33999633789063,-1.64091455936432,2.38299894332886,1.90449869632721,-1.35407709248145,2.38319483607731,1.98109531406483,1307.091,1333.656,3238.476,3239.798,-0.09374114,0.03335979,0.08766227,-1.08445143699646,-0.441928118467331,0.668092250823975,-1.09348640563071,-0.470496651869278,0.67692017506657,0
2.36000061035156,-1.6626284122467,2.37414789199829,1.91791248321533,-1.37597305876702,2.37377361348711,1.99464996024512,1309.175,1334.869,3230.598,3236.55,-0.0932378,0.03356034,0.0866446,-1.08569443225861,-0.442559629678726,0.670692026615143,-1.09559602313537,-0.471404361345641,0.678226128796969,0
2.37998962402344,-1.68436229228973,2.36528444290161,1.93137586116791,-1.39789168475144,2.36434264106153,2.00821863385843,1311.263,1336.146,3226.175,3230.601,-0.09272487,0.03375018,0.08561621,-1.08668613433838,-0.44316178560257,0.673169612884521,-1.09742465646102,-0.47219117117957,0.679358139935436,0
2.39999389648438,-1.70611083507538,2.35640954971313,1.94488716125488,-1.41986083522252,2.35488992936084,2.02181858453579,1299.581,1335.851,3227.686,3233.359,-0.09220716,0.03391292,0.0846284,-1.08743000030518,-0.443743646144867,0.675565659999847,-1.09897439291323,-0.472857979480329,0.680317500623536,0
2.41999816894531,-1.72786903381348,2.34752368927002,1.95843946933746,-1.44185817738692,2.34542508756209,2.03543598721428,1297.802,1336.243,3221.919,3232.026,-0.09162979,0.03407413,0.08362881,-1.08790981769562,-0.444288551807404,0.677614390850067,-1.10024313330221,-0.473403883025206,0.681102911362803,0
2.44000244140625,-1.74963188171387,2.338627576828,1.97202956676483,-1.46387808506052,2.33595053645515,2.04906735901791,1301.049,1337.138,3217.79,3224.291,-0.09100607,0.03423678,0.08260892,-1.08814561367035,-0.444792300462723,0.679505586624146,-1.10123038958312,-0.473828671822132,0.681714070030222,0
2.45999145507813,-1.77139449119568,2.32972288131714,1.98565435409546,-1.48589810917879,2.32647593524532,2.06269880290633,1295.685,1337.425,3215.45,3223.804,-0.09037384,0.03438488,0.08161611,-1.08813369274139,-0.445251643657684,0.681238949298859,-1.10193535162022,-0.474131997292339,0.68215047511319,0
2.47999572753906,-1.79315209388733,2.32080936431885,1.99931049346924,-1.50794623031618,2.31698924467309,2.07634764018804,1288.027,1336.411,3215.268,3224.103,-0.08968674,0.03452342,0.08064646,-1.08788096904755,-0.445665717124939,0.682805359363556,-1.10235882472314,-0.474314205938057,0.682412625136718,0
2.5,-1.81489944458008,2.31188917160034,2.01299118995667,-1.52999999932945,2.30750012397766,2.08999997377396,1290.546,1336.686,3207.752,3220.167,-0.08892934,0.03467079,0.07965696,-1.08737647533417,-0.446012258529663,0.684035778045654,-1.10250000050292,-0.474374949932098,0.682500019669533,0
2.51998901367188,-1.83663237094879,2.3029637336731,2.02669405937195,-1.5520369476803,2.29801824074336,2.10364189456856,1293.169,1337.127,3203.225,3213.78,-0.08814584,0.03482069,0.07865518,-1.08663928508759,-0.44628831744194,0.68514609336853,-1.10235904000526,-0.474314298567936,0.682412758406603,0
2.53999328613281,-1.85834574699402,2.29403376579285,2.04041743278503,-1.57408507527774,2.28853154739156,2.11729073584934,1282.736,1336.162,3203.958,3215.984,-0.08734636,0.03495757,0.07768831,-1.08567094802856,-0.44649937748909,0.686173677444458,-1.10193578218388,-0.474132182551855,0.682150741652607,0
2.55999755859375,-1.88003492355347,2.28510117530823,2.05415487289429,-1.59612191359838,2.27904971150017,2.13093258853001,1282.14,1335.625,3198.184,3213.744,-0.08647923,0.03510509,0.07670388,-1.08445775508881,-0.446629256010056,0.686878204345703,-1.10123038958312,-0.473828671822132,0.681714070030222,0
2.58000183105469,-1.90169525146484,2.27616763114929,2.06790375709534,-1.61814182127198,2.26957516039323,2.14456396033363,1285.699,1335.581,3194.066,3205.925,-0.08556151,0.03526463,0.07569586,-1.08301520347595,-0.44667375087738,0.687439858913422,-1.10024313330221,-0.473403883025206,0.681102911362804,0
2.59999084472656,-1.92332208156586,2.26723504066467,2.08166074752808,-1.64012239440973,2.26011753383818,2.15817098218581,1281.089,1334.993,3191.573,3204.992,-0.0846278,0.03542174,0.07470699,-1.08133840560913,-0.446629494428635,0.687854409217834,-1.09897546783438,-0.47285844198887,0.680318166050934,0
2.6199951171875,-1.94491076469421,2.25830483436584,2.09542298316956,-1.66209156852628,2.2506648119635,2.17177094750084,1274.49,1333.16,3191.284,3204.48,-0.08363551,0.03558094,0.07373232,-1.07943284511566,-0.44649600982666,0.688117027282715,-1.09742594550583,-0.472191725819537,0.679358937915576,0
2.63999938964844,-1.96645641326904,2.24938011169434,2.10918402671814,-1.68402693989188,2.24122663446822,2.18534998730279,1277.813,1332.437,3183.74,3200.083,-0.08256918,0.03575957,0.07273012,-1.0772864818573,-0.446252137422562,0.688054502010345,-1.09559602313537,-0.471404361345641,0.67822612879697,0
2.65998840332031,-1.98795485496521,2.24046206474304,2.12294173240662,-1.70590622088595,2.23181259109281,2.19889430449282,1281.518,1331.961,3179.059,3193.012,-0.08147568,0.03595086,0.0717061,-1.07491517066956,-0.445895791053772,0.687883973121643,-1.09348812118877,-0.470497390025984,0.676921237078733,0
2.67999267578125,-2.00940155982971,2.23155331611633,2.13669466972351,-1.72775723139253,2.2224107117184,2.21242112090437,1271.99,1330.242,3179.762,3194.441,-0.08036834,0.03613813,0.07070874,-1.0723192691803,-0.445433527231216,0.687650263309479,-1.09109983431736,-0.469469776906228,0.675442773735451,0
2.69999694824219,-2.03079104423523,2.22265648841858,2.15043663978577,-1.74955768413056,2.21303058593937,2.22591663964878,1271.713,1328.698,3174.031,3192.142,-0.07919655,0.03634411,0.06968687,-1.06948459148407,-0.444851607084274,0.687102079391479,-1.08843358680109,-0.468322565086308,0.673792239511893,0
2.72000122070313,-2.05211973190308,2.21377325057983,2.16416501998901,-1.77130202882336,2.20367460188472,2.23937742484041,1276.523,1327.755,3169.785,3183.396,-0.07797469,0.03657051,0.06862982,-1.06642460823059,-0.44414746761322,0.686420977115631,-1.08549040888332,-0.467056197851165,0.671970272177789,0
2.739990234375,-2.07338213920593,2.20490717887878,2.17787718772888,-1.79296822271738,2.1943522439355,2.25278983096475,1272.636,1326.412,3167.314,3181.797,-0.07674272,0.03680115,0.06758367,-1.06313323974609,-0.443319916725159,0.68561065196991,-1.08227399942825,-0.465672266718727,0.669979161506271,0
2.75999450683594,-2.09457445144653,2.1960597038269,2.19157028198242,-1.81458384274179,2.18505164650952,2.26617092945464,1266.67,1323.832,3166.688,3181.021,-0.07545961,0.03704032,0.06654304,-1.05961394309998,-0.442370027303696,0.684651613235474,-1.07878069424208,-0.464169195088763,0.667816639186824,0
2.77999877929688,-2.11569142341614,2.1872341632843,2.20523810386658,-1.83612684690458,2.17578229366013,2.27950707526701,1270.767,1322.205,3159.414,3175.784,-0.07410938,0.03730383,0.06546528,-1.0558568239212,-0.441281467676163,0.683387458324432,-1.07501419914593,-0.462548577472581,0.665484999299265,0
2.80000305175781,-2.13672924041748,2.17843294143677,2.21887850761414,-1.85759178470316,2.16654653058634,2.29279489428112,1274.903,1320.958,3154.882,3168.154,-0.07273732,0.03758375,0.06435937,-1.05187356472015,-0.440054059028625,0.68202531337738,-1.07097597819164,-0.460811043810786,0.662985148161422,0
2.81999206542969,-2.15768218040466,2.16965937614441,2.23248958587646,-1.87895695992541,2.1573536925621,2.30602095550813,1269.313,1319.062,3153.003,3167.8,-0.07137431,0.03786694,0.06326306,-1.04766047000885,-0.438692420721054,0.680559039115906,-1.06667099276523,-0.458958728849171,0.660320157107579,0
2.83999633789063,-2.17854690551758,2.16091537475586,2.24606847763062,-1.90024960698239,2.14819206138118,2.31920211834584,1262.776,1316.12,3152.923,3166.844,-0.06995911,0.03816043,0.06216243,-1.04322052001953,-0.437201231718063,0.678950786590576,-1.06209435025759,-0.456989527434725,0.657486997379635,0
2.86000061035156,-2.19931745529175,2.15220403671265,2.25960898399353,-1.9214480311499,2.13907097167731,2.33232495272651,1267.472,1314.217,3145.645,3160.74,-0.0684704,0.03848177,0.06101475,-1.03854155540466,-0.435565292835236,0.677026867866516,-1.05725102347782,-0.454905579228273,0.654488747383304,0
2.87998962402344,-2.21999001502991,2.1435284614563,2.273108959198,-1.94253086194772,2.12999961857111,2.34537622930486,1273.277,1312.818,3140.626,3151.662,-0.06696039,0.03882175,0.05983204,-1.03363251686096,-0.433783203363419,0.674997329711914,-1.05214690704168,-0.452709420518306,0.651329056166547,0
2.89999389648438,-2.24056005477905,2.13489127159119,2.28656697273254,-1.96352501326936,2.1209664217661,2.35837260906308,1265.376,1310.422,3140.158,3152.246,-0.06545943,0.03916141,0.05866808,-1.02849197387695,-0.431862503290176,0.672903001308441,-1.04677621342161,-0.450398561093403,0.648004340974112,0
2.91999816894531,-2.26102209091187,2.12629508972168,2.29997754096985,-1.98440911693069,2.11198057539494,2.37130086407726,1265.574,1307.765,3134.702,3149.267,-0.06392173,0.03951921,0.05747417,-1.02311325073242,-0.429798811674118,0.670530736446381,-1.04114485287423,-0.447975543971863,0.644518260536375,0
2.94000244140625,-2.28137254714966,2.11774349212646,2.3133385181427,-2.00517798053537,2.10304431360073,2.38415778000673,1269.639,1305.808,3131.026,3140.49,-0.06235472,0.03989536,0.05624253,-1.01750659942627,-0.427595108747482,0.66804713010788,-1.03525504859546,-0.445441325732794,0.640872191117535,0
2.95999145507813,-2.30160593986511,2.10923838615417,2.32664704322815,-2.02581075424974,2.0941666074844,2.39693044981124,1265.852,1303.685,3128.081,3138.726,-0.06079091,0.04027666,0.05501239,-1.01166534423828,-0.425253212451935,0.665423035621643,-1.02911391720548,-0.442798968459032,0.637070538244476,0
2.97999572753906,-2.32171773910522,2.10078287124634,2.33990025520325,-2.04633384260397,2.08533609591429,2.40963521915279,1261.629,1300.584,3126.973,3136.047,-0.05918822,0.04066727,0.05377416,-1.00559484958649,-0.422778069972992,0.662660837173462,-1.02271452148052,-0.440045487257004,0.633109007445237,0
3,-2.34170341491699,2.09237957000732,2.35309243202209,-2.06672639957428,2.07656174835205,2.42225918334961,1265.88,1298.28,3119.52,3130.379,-0.05753972,0.04107864,0.05249529,-0.99928617477417,-0.420159369707108,0.659604370594025,-1.01606400046349,-0.437183953857422,0.628992018127441,0
3.01998901367188,-2.36155819892883,2.08403158187866,2.36622166633606,-2.0869680292999,2.06785234056679,2.43478971639231,1270.435,1296.431,3114.93,3121.833,-0.05588963,0.04150287,0.05118403,-0.992748856544495,-0.417400449514389,0.656461894512177,-1.00917036754089,-0.434217816196637,0.624724530959079,0
3.03999328613281,-2.3812780380249,2.07574129104614,2.37928676605225,-2.10708469520508,2.05919670122237,2.4472428908773,1262.031,1293.907,3114.325,3122.359,-0.05425871,0.04192383,0.04988819,-0.98598176240921,-0.41451096534729,0.65325140953064,-1.00202586176059,-0.431143734953757,0.620301741541063,0
3.05999755859375,-2.40085744857788,2.06751132011414,2.39228200912476,-2.12705600675913,2.05060360379452,2.45960608409476,1262.475,1291.042,3108.811,3118.634,-0.05259477,0.04235982,0.04855801,-0.978981137275696,-0.411489874124527,0.649762988090515,-0.994638524886308,-0.427965170275055,0.615728628108227,0
3.08000183105469,-2.42029285430908,2.05934476852417,2.40520524978638,-2.14687713595163,2.04207512564123,2.47187630727625,1267.156,1289.042,3104.645,3109.086,-0.05090952,0.0428109,0.04718824,-0.971754491329193,-0.408340066671371,0.646158337593079,-0.987011339258122,-0.424683405378145,0.611007036871143,0
3.09999084472656,-2.43957853317261,2.05124354362488,2.41805362701416,-2.16652837486666,2.03361974652815,2.48404136028297,1263.826,1286.968,3101.206,3106.714,-0.04924238,0.04326233,0.04582105,-0.964296817779541,-0.405065059661865,0.642418146133423,-0.979153483542501,-0.421302389586788,0.606142649861596,0
3.1199951171875,-2.45871114730835,2.04320979118347,2.43082451820374,-2.18603502400946,2.02522658035469,2.49611690533293,1259.548,1283.924,3099.726,3103.843,-0.04755607,0.04371707,0.04444949,-0.956615030765533,-0.401671946048737,0.638547301292419,-0.971056158224178,-0.417818336715394,0.601130019760458,0
3.13999938964844,-2.47768521308899,2.03524684906006,2.44351243972778,-2.20537738341953,2.01690410346351,2.50809074721212,1262.82,1281.452,3092.799,3098.198,-0.0458394,0.04418508,0.04304412,-0.948704600334167,-0.398155748844147,0.634402275085449,-0.962728579444533,-0.414235212212131,0.595974851798267,0
3.15998840332031,-2.49649667739868,2.02735614776611,2.45611572265625,-2.22453632143911,2.00866054767245,2.51995104251302,1266.824,1279.535,3088.009,3089.798,-0.04412805,0.04466013,0.04161114,-0.94057297706604,-0.394519984722137,0.630159795284271,-0.954180774018563,-0.410557330335374,0.590683353051152,0
3.17999267578125,-2.51514101028442,2.01954078674316,2.46863269805908,-2.24353658854737,2.00048526354177,2.53171311296128,1259.184,1277.22,3086.864,3089.348,-0.04244386,0.04512735,0.04019483,-0.932221353054047,-0.390774011611938,0.62584912776947,-0.945403214201559,-0.406780591562751,0.585249625391267,0
3.19999694824219,-2.53361368179321,2.01180267333984,2.48105812072754,-2.2623590635174,1.99238647840124,2.54336512160655,1259.297,1274.415,3081.027,3085.75,-0.04073997,0.04560289,0.0387512,-0.923649370670319,-0.38691920042038,0.621266067028046,-0.936405971974636,-0.402909329586355,0.579679903854719,0
3.22000122070313,-2.55191087722778,2.00414347648621,2.49338960647583,-2.28099938900442,1.98436606709459,2.55490437104486,1263.63,1272.479,3076.76,3076.132,-0.0390265,0.04608649,0.03727351,-0.914864838123322,-0.382959574460983,0.616577386856079,-0.927192788821982,-0.398945154262308,0.573976504598449,0
3.239990234375,-2.57002830505371,1.99656534194946,2.50562477111816,-2.2994392795179,1.97643189735754,2.5663195416865,1259.821,1270.63,3073.308,3073.587,-0.03734178,0.04656425,0.03580494,-0.905864834785461,-0.378899931907654,0.611763894557953,-0.917774783907129,-0.394892849856044,0.568146310914365,0
3.25999450683594,-2.58796143531799,1.98907041549683,2.51776099205017,-2.31770268688992,1.96857366338589,2.57762546085652,1255.17,1267.822,3071.371,3070.897,-0.03564748,0.04703956,0.03433827,-0.896657288074493,-0.374747455120087,0.606814801692963,-0.90814153446928,-0.390747931744771,0.562182870617026,0
3.27999877929688,-2.60570621490479,1.98166048526764,2.52979302406311,-2.33577134012187,1.96079922667992,2.58881081793642,1258.563,1265.445,3064.328,3064.829,-0.03392974,0.04752225,0.03284228,-0.887241661548615,-0.370499461889267,0.601601660251617,-0.898304216251578,-0.386515208538549,0.556093102023818,0
3.30000305175781,-2.62325859069824,1.97433733940125,2.54171919822693,-2.35364119854729,1.95311032582551,2.59987311156116,1262.173,1263.774,3059.6,3056.23,-0.03222638,0.04800564,0.0313275,-0.877624154090881,-0.366159290075302,0.596305847167969,-0.888267004546666,-0.382196476749158,0.549879589839776,0
3.31999206542969,-2.64061450958252,1.96710276603699,2.55353736877441,-2.37129490830989,1.94551442770222,2.61080159886703,1256.788,1261.934,3056.388,3054.951,-0.0305683,0.04847727,0.02983047,-0.867805957794189,-0.361734479665756,0.590905725955963,-0.878042061913513,-0.37779696958594,0.54354986326829,0
3.33999633789063,-2.65777063369751,1.95995807647705,2.5652449131012,-2.38875555478454,1.93800159931817,2.62161057080077,1251.157,1259.271,3054.738,3052.664,-0.02890489,0.04894375,0.02833654,-0.857797145843506,-0.357234239578247,0.585380375385284,-0.867618167158097,-0.373311858882592,0.53709697585572,0
3.36000061035156,-2.67472267150879,1.9529048204422,2.57683682441711,-2.406005803634,1.93057929915441,2.6322892965819,1254.091,1257.059,3048.095,3046.351,-0.02721271,0.04941586,0.02681429,-0.847598135471344,-0.352656692266464,0.579597771167755,-0.857007552155826,-0.36874640767338,0.530528499715627,0
3.37998962402344,-2.69146680831909,1.94594490528107,2.58831119537354,-2.42302905329872,1.92325467039821,2.6428274990542,1258.25,1255.599,3043.066,3037.223,-0.0255296,0.04988783,0.02527529,-0.83721262216568,-0.348003149032593,0.573721349239349,-0.846223126656603,-0.364106170663035,0.523852426598178,0
3.39999389648438,-2.70799946784973,1.93907940387726,2.59966659545898,-2.43984769972619,1.91601807669906,2.65323904237604,1251.561,1253.92,3040.537,3036.406,-0.02388642,0.050345,0.02376427,-0.82664293050766,-0.343279987573624,0.567767858505249,-0.835253140422974,-0.35938609205264,0.51706148254665,0
3.41999816894531,-2.72431755065918,1.93230938911438,2.61089849472046,-2.45644516534361,1.90887665092339,2.66351366424015,1251.371,1251.415,3035.074,3032.458,-0.02224485,0.05079996,0.02224348,-0.815897107124329,-0.338491976261139,0.561592519283295,-0.824110582941664,-0.354591760855451,0.510163708672097,0
3.44000244140625,-2.74041700363159,1.92563652992249,2.62200522422791,-2.47281804716281,1.90183185728196,2.67364925803476,1253.437,1249.801,3031.169,3024.321,-0.0206102,0.0512516,0.02071169,-0.80498206615448,-0.33364325761795,0.555332660675049,-0.812800388649434,-0.349725300221754,0.503162159625937,0
3.45999145507813,-2.7562952041626,1.9190616607666,2.63298416137695,-2.48895081463434,1.8948903781363,2.68363620960993,1249.282,1248.287,3027.313,3022.095,-0.01900751,0.05169149,0.01919982,-0.793899357318878,-0.32873797416687,0.548947870731354,-0.80133641229185,-0.344792671461508,0.496065412155666,0
3.47999572753906,-2.77194833755493,1.91258597373962,2.64383316040039,-2.50486489870395,1.88804299234919,2.69348778574196,1245.58,1246.08,3024.704,3018.679,-0.01740163,0.05212348,0.01769732,-0.782658994197845,-0.323781907558441,0.542445123195648,-0.789706299681989,-0.339788558913217,0.488865818431069,0
3.5,-2.78737354278564,1.90621066093445,2.65454769134521,-2.5205447997813,1.88129636896134,2.70319439144611,1248.031,1244.134,3018.113,3012.931,-0.01578509,0.05255435,0.01618284,-0.771264255046844,-0.318774104118347,0.535722970962524,-0.777924000354857,-0.334718964672089,0.481572013878822,0
3.51998901367188,-2.80256795883179,1.89993631839752,2.66512632369995,-2.53597583877076,1.87465682397749,2.71274693966292,1250.629,1242.827,3013.448,3005.127,-0.01419092,0.05297899,0.01466614,-0.759719669818878,-0.313716500997543,0.528932094573975,-0.766004036374581,-0.329590137176618,0.474192988348404,0
3.53999328613281,-2.81752824783325,1.89376425743103,2.6755678653717,-2.55117869390181,1.86811546013321,2.72215823120146,1243.505,1241.453,3011.059,3004.572,-0.01263883,0.05338659,0.01318394,-0.748030066490173,-0.308615326881409,0.522079706192017,-0.753933682518821,-0.324396601119134,0.466720864320997,0
3.55999755859375,-2.83225226402283,1.88769447803497,2.68586826324463,-2.56613872308604,1.86167857751006,2.73141920191151,1243.067,1239.191,3005.789,3000.779,-0.01108621,0.05378971,0.01169876,-0.736205577850342,-0.30347529053688,0.515022039413452,-0.741727567798258,-0.319144650954242,0.459164697851087,0
3.58000183105469,-2.84673762321472,1.88172841072083,2.69602608680725,-2.58085326729328,1.85534732021446,2.74052820572674,1245.587,1237.876,3001.83,2992.376,-0.00953891,0.05418776,0.01020926,-0.724251627922058,-0.298298507928848,0.507893800735474,-0.729391385793765,-0.313836736470737,0.451528013536464,0
3.59999084472656,-2.86098098754883,1.87586677074432,2.70603919029236,-2.59530884290342,1.84912748987145,2.74947689564398,1241.651,1236.708,2997.748,2990.358,-0.008028366,0.05457198,0.008748663,-0.712170600891113,-0.293087661266327,0.500657856464386,-0.716940488958392,-0.308479463400265,0.4438203152769,0
3.6199951171875,-2.87498021125793,1.87010955810547,2.71590566635132,-2.60952509409627,1.84301063413925,2.75827743234631,1238.539,1234.785,2994.896,2986.943,-0.006523147,0.05494633,0.007304942,-0.699973523616791,-0.2878477871418,0.493324726819992,-0.704361775018033,-0.303067194200314,0.436033492140578,0
3.63999938964844,-2.88873386383057,1.86445808410645,2.72562193870544,-2.6234885835008,1.83700253474321,2.76692149746096,1240.209,1233.084,2989.103,2981.6,-0.005018461,0.05531558,0.005862217,-0.687666118144989,-0.282579392194748,0.485819637775421,-0.691670720740692,-0.297606588091786,0.428177124984152,0
3.65998840332031,-2.9022388458252,1.85891270637512,2.73518705368042,-2.63718676607487,1.8311085894645,2.77540132500924,1241.593,1231.926,2984.775,2975.089,-0.003538276,0.05567603,0.004429564,-0.675252497196198,-0.277283787727356,0.478257149457932,-0.678883253871145,-0.292104498338286,0.420261073840379,0
3.67999267578125,-2.91549348831177,1.85347318649292,2.74459981918335,-2.65063849381582,1.82532068681534,2.78372858527554,1235.76,1230.749,2982.064,2974.043,-0.002097506,0.05602056,0.00303323,-0.662739038467407,-0.271965533494949,0.470640897750854,-0.665986083416798,-0.286555206197011,0.41227711095171,0
3.69999694824219,-2.92849636077881,1.84814071655273,2.75385713577271,-2.66383127580226,1.81964420129024,2.79189554578451,1235.515,1228.806,2977.328,2970.049,-0.0006615292,0.05635835,0.001643908,-0.650136947631836,-0.266628980636597,0.462866395711899,-0.65299527533123,-0.280965624398954,0.404235181908735,0
3.72000122070313,-2.94124507904053,1.84291505813599,2.76295781135559,-2.6767633032417,1.81407991116207,2.79990108680742,1237.176,1227.651,2973.327,2963.162,0.0007608568,0.05668915,0.0002623604,-0.637450635433197,-0.261275291442871,0.455031901597977,-0.639917282339434,-0.275338529371411,0.396139281255611,0
3.739990234375,-2.95373868942261,1.8377970457077,2.77190017700195,-2.68942333385363,1.80863265367006,2.80773824883709,1234.289,1226.629,2969.574,2960.495,0.002146791,0.05700621,-0.001087102,-0.624684751033783,-0.255906999111176,0.447123885154724,-0.62676873176137,-0.26968107538565,0.387999702095468,0
3.75999450683594,-2.96597576141357,1.83278632164001,2.7806830406189,-2.70182915057228,1.80329477731443,2.81541804035694,1230.996,1225.05,2966.74,2957.831,0.003516278,0.05731193,-0.002409628,-0.61184960603714,-0.250528216362,0.43914395570755,-0.613536214864365,-0.263987493038594,0.379808143784027,0
3.77999877929688,-2.97795510292053,1.82788348197937,2.78930377960205,-2.7139695770734,1.79807109095524,2.82293354268985,1232.28,1223.452,2961.667,2953.004,0.004880453,0.05761152,-0.003722567,-0.598953068256378,-0.245140299201012,0.431031376123428,-0.60023651686137,-0.258265004538452,0.371574997167698,0
3.80000305175781,-2.98967504501343,1.82308864593506,2.7977614402771,-2.72584333814708,1.79296214327972,2.83028396642013,1233.547,1222.446,2957.713,2947.013,0.006218074,0.05790155,-0.005017928,-0.585998773574829,-0.239743903279305,0.422883242368698,-0.586876524285838,-0.252516572968186,0.363304525338741,0
3.81999206542969,-3.00113487243652,1.81840181350708,2.80605506896973,-2.73744054699573,1.78797218830065,2.83746319114912,1230.199,1221.424,2954.244,2945.166,0.007510731,0.05817741,-0.006276005,-0.572993457317352,-0.234342515468597,0.414683282375336,-0.573473482003301,-0.246749618311662,0.355007403690404,0
3.83999633789063,-3.01233386993408,1.81382298469543,2.81418371200562,-2.74877791451009,1.78309403578861,2.84448156171422,1226.897,1219.963,2951.823,2942.616,0.008783489,0.058442,-0.007505853,-0.559948205947876,-0.228940814733505,0.406435072422028,-0.560014026276881,-0.240958390526246,0.346675359432959,0
3.86000061035156,-3.02327108383179,1.8093523979187,2.82214522361755,-2.75984563331209,1.77833190558438,2.85133300688122,1227.817,1218.502,2947.14,2938.255,0.01004875,0.05870016,-0.008722385,-0.54687112569809,-0.223540589213371,0.398071825504303,-0.546515580872635,-0.235150386571708,0.338319178707605,0
3.87998962402344,-3.03394675254822,1.80498933792114,2.8299388885498,-2.7706348636882,1.77368960116974,2.85801205444635,1229.622,1217.561,2943.356,2932.149,0.01128844,0.0589499,-0.009919742,-0.533765256404877,-0.218142181634903,0.389683544635773,-0.532995796775444,-0.22933320117373,0.329949788314816,0
3.89999389648438,-3.04435896873474,1.8007345199585,2.83756446838379,-2.78116151864576,1.76916027562219,2.86452855531919,1225.476,1216.732,2940.701,2930.795,0.01248317,0.05918458,-0.01107236,-0.520636737346649,-0.212748184800148,0.381278932094574,-0.519441457145543,-0.223501147495394,0.321559006401168,0
3.91999816894531,-3.05450916290283,1.79658722877502,2.84502005577087,-2.79141684911929,1.7647476934202,2.87087709341145,1225.365,1215.045,2936.575,2927.704,0.01365598,0.05941075,-0.0122026,-0.507498204708099,-0.207363128662109,0.372776746749878,-0.505870408491346,-0.2176619043907,0.313157880805522,0
