t,x_s1,x_s2,x_s3,x_s_d1,x_s_d2,x_s_d3,propellers_rpms1,propellers_rpms2,propellers_rpms3,propellers_rpms4,rollRad,pitchRad,yawRad,v_s1,v_s2,v_s3,v_s_d1,v_s_d2,v_s_d3,insideCount
0,-0.0599999986588955,2.94000005722046,1.17999994754791,-0.0599999986588955,2.94000005722046,1.17999994754791,0,0,0,0,0,45.0048027038574,0,0,0,0,-1.06581410364015E-15,4.44089209850063E-16,-7.105427357601E-16,0
0.019989013671875,-0.0599999986588955,2.94000005722046,1.1790189743042,-0.0600018659130177,2.93999925379318,1.18000108822432,0,0,0,0,0.00112506025470793,44.8630180358887,0.909283995628357,-3.60929135467813E-08,2.95208444356376E-08,-0.0490499772131443,-0.000279680311988734,-0.000120338624884473,0.000170852338267345,5
0.0399932861328125,-0.0599999986588955,2.94000005722046,1.17411398887634,-0.060014863945674,2.93999366110285,1.18000902851964,0,0,0,0,0.00304076820611954,44.7212371826172,1.81856417655945,-3.62307304158094E-08,2.93641413406931E-08,-0.245249927043915,-0.00111059898697896,-0.000477859717552347,0.000678447590588643,6
0.05999755859375,-0.0600350871682167,2.94003486633301,1.16684281826019,-0.0600498857373401,2.93997859220429,1.18003042278566,2307.214,2000.318,2127.489,3382.293,-0.00213747564703226,44.8046226501465,1.28313136100769,-0.00175436097197235,0.00174318393692374,-0.363556146621704,-0.00247936261166862,-0.00106680046642749,0.00151460392977639,6
0.0800018310546875,-0.0601342283189297,2.9401330947876,1.15967166423798,-0.0601175574246769,2.93994947496775,1.18007176236346,2848.286,2759.992,2606.547,2299.076,359.914093017578,44.8777122497559,0.620032489299774,-0.00495709478855133,0.00491350051015615,-0.358560144901276,-0.00437268608126799,-0.00188144466206175,0.00267120569262453,6
0.0999908447265625,-0.0602753050625324,2.94026303291321,1.15338182449341,-0.0602281370710988,2.93990189563514,1.1801393137439,2871.913,2897.476,2628.074,2213.485,359.724304199219,44.9188232421875,0.190366223454475,-0.00705383718013763,0.00649291230365634,-0.314490884542465,-0.00677536694902951,-0.00291525111632684,0.00413896594164447,5
0.1199951171875,-0.0604445151984692,2.94038772583008,1.14806056022644,-0.0603918861403606,2.93983143898525,1.18023934549506,2725.353,2926.393,2635.208,2219.502,359.42724609375,44.9351463317871,0.0503921546041965,-0.00846053659915924,0.00623334292322397,-0.266064524650574,-0.00967801353495435,-0.00416417885169243,0.00591214744607921,5
0.139999389648438,-0.0606514923274517,2.94048070907593,1.1437304019928,-0.0606185767455666,2.93973390035084,1.18037782724834,2551.869,2770.046,2667.498,2379.344,359.090484619141,44.9478874206543,0.144099950790405,-0.0103488294407725,0.00464676925912499,-0.216509684920311,-0.0130660253322238,-0.00562194567796536,0.00798183098414958,5
0.159988403320313,-0.0609214529395103,2.94052791595459,1.14032292366028,-0.0609175312885481,2.93960526856281,1.18056045391355,2443.532,2553.67,2686.977,2529.295,358.804565429688,44.9653053283691,0.340539067983627,-0.0134981106966734,0.00235449778847396,-0.17037445306778,-0.0169234294955564,-0.00728167892605071,0.0103382589939246,5
0.17999267578125,-0.0612811855971813,2.94052505493164,1.13772797584534,-0.0612985250199726,2.93944133760391,1.18079319703879,2417.205,2394.94,2654.834,2596.547,358.625793457031,44.9838943481445,0.518628239631653,-0.0179866254329681,-0.000147125450894237,-0.129747107625008,-0.0212433804254414,-0.00914043312572283,0.0129772496054864,5
0.199996948242188,-0.0617490485310555,2.94047331809998,1.13583743572235,-0.0617704296168641,2.93923829023936,1.1810814761931,2451.084,2338.022,2561.476,2580.069,358.551666259766,44.9966125488281,0.617785394191742,-0.0233932174742222,-0.00259253825061023,-0.0945244133472443,-0.0260104776919234,-0.0111915819022102,0.0158893949364944,5
0.220001220703125,-0.0623328350484371,2.94037485122681,1.13456809520721,-0.0623420644491781,2.93899233174064,1.18143067899198,2497.204,2360.06,2442.579,2516.164,358.526245117188,44.9992370605469,0.641108810901642,-0.0291892848908901,-0.00492256414145231,-0.0634659007191658,-0.03121219533433,-0.0134297356845702,0.0190670430730375,5
0.239990234375,-0.0630338340997696,2.94023036956787,1.133864402771,-0.0630214373585105,2.93870001655724,1.18184569730089,2511.878,2408.227,2348.267,2446.475,358.476867675781,44.9927101135254,0.627759337425232,-0.0350497849285603,-0.00722967740148306,-0.0351847037672997,-0.0368316683029241,-0.015847637913056,0.0224998914194052,5
0.259994506835938,-0.0638530403375626,2.94003653526306,1.13368904590607,-0.0638179029240226,2.93835731967507,1.18233224568626,2474.779,2436.909,2312.325,2397.241,358.355529785156,44.9817771911621,0.619231045246124,-0.0409604758024216,-0.00969066843390465,-0.00876680016517639,-0.0428651747123285,-0.0184436871643672,0.0261856663338995,4
0.279998779296875,-0.0647957623004913,2.93978667259216,1.13400995731354,-0.0647390625194898,2.93796097043536,1.18289496770872,2398.659,2429.116,2331.253,2372.387,358.162689208984,44.971508026123,0.638258397579193,-0.0471359603106976,-0.0124895423650742,0.016044445335865,-0.0492963837173861,-0.0212108567320638,0.0301143915580518,4
0.29998779296875,-0.065872497856617,2.93947196006775,1.13479280471802,-0.0657918945890516,2.93750796620855,1.18353812639089,2313.813,2391.355,2375.418,2363.91,357.940124511719,44.9649963378906,0.685029327869415,-0.053836926817894,-0.0157387927174568,0.0391405783593655,-0.0561078595514081,-0.0241416444928383,0.0342754158540715,4
0.319992065429688,-0.0670965164899826,2.93908333778381,1.13599848747253,-0.0669855955880233,2.93699435001684,1.18426733970383,2254.33,2343.236,2404.85,2358.972,357.74462890625,44.9626884460449,0.745488107204437,-0.0612010732293129,-0.0194322597235441,0.0602858364582062,-0.0632980253096114,-0.0272353719486164,0.0386677759154339,4
0.339996337890625,-0.068480022251606,2.93861436843872,1.13758552074432,-0.068326768706371,2.93641728069206,1.18508664143323,2239.947,2303.582,2392.1,2348.17,357.615356445313,44.9632148742676,0.803731679916382,-0.0691754966974258,-0.0234502032399178,0.0793519765138626,-0.0708499516420146,-0.0304847548730522,0.0432811298664125,4
0.360000610351563,-0.0700314566493034,2.93806195259094,1.13951468467712,-0.0698225328270578,2.93577369517774,1.18600038039362,2262.325,2279.445,2340.489,2330.681,357.553039550781,44.9647369384766,0.850359797477722,-0.0775716751813889,-0.0276189707219601,0.0964555293321609,-0.0787518717320621,-0.0338847303337087,0.0481082895423912,4
0.379989624023438,-0.0717551410198212,2.93742609024048,1.14175093173981,-0.0714784451857985,2.93506120235061,1.18701195141357,2297.398,2269.462,2273.311,2308.706,357.525146484375,44.9657516479492,0.884512007236481,-0.0861841440200806,-0.0317945815622807,0.111812487244606,-0.0869857157641562,-0.0374275233937465,0.0531382163749952,4
0.399993896484375,-0.0736531019210815,2.93670749664307,1.14426493644714,-0.0733036822025899,2.9342758538535,1.18812696022487,2316.131,2265.802,2222.035,2287.118,357.486663818359,44.965648651123,0.911170959472656,-0.0948979705572128,-0.0359248891472816,0.125697538256645,-0.0955525119207663,-0.0411135764513579,0.0583715384648505,4
0.419998168945313,-0.075727641582489,2.93590617179871,1.14703106880188,-0.0753034649285836,2.93341540321397,1.18934859628618,2304.855,2262.224,2203.534,2268.16,357.406768798828,44.9645843505859,0.936865925788879,-0.103726990520954,-0.0400606989860535,0.138305231928825,-0.104434660908044,-0.0449353170220673,0.0637975046779765,4
0.439987182617188,-0.0779832527041435,2.93501996994019,1.15002727508545,-0.0774822545706558,2.93247793089932,1.19067958487918,2264.385,2253.321,2219.317,2254.323,357.282257080078,44.9632682800293,0.965949594974518,-0.11278061568737,-0.0443141311407089,0.149812310934067,-0.113613709720558,-0.0488848052931553,0.0694048423613094,4
0.459991455078125,-0.080426886677742,2.93404412269592,1.15323305130005,-0.0798493430620752,2.93145943885026,1.1921256023009,2213.869,2239.649,2250.457,2244.221,357.137939453125,44.962474822998,0.998899281024933,-0.122181922197342,-0.0487906485795975,0.1602912992239,-0.123092454730403,-0.0529632444654124,0.0751952597749251,4
0.479995727539063,-0.0830666720867157,2.93297362327576,1.15662848949432,-0.0824088828700873,2.93035814037613,1.19368918522879,2178.407,2225.734,2270.076,2235.085,357.009674072266,44.9625778198242,1.03375732898712,-0.131988912820816,-0.0535291768610477,0.16977222263813,-0.132852887402757,-0.0571628859694044,0.0811577557859174,4
0.5,-0.0859100073575974,2.93180394172668,1.16019582748413,-0.085166398670376,2.92917165836334,1.195373708601,2168.472,2213.135,2265.78,2227.337,356.921752929688,44.9636421203613,1.06788349151611,-0.142166927456856,-0.0584839396178722,0.178364545106888,-0.142884000065179,-0.0614789935111996,0.0872856059789651,5
0.519989013671875,-0.0889622494578362,2.93053293228149,1.16391861438751,-0.0881248588203387,2.92789871561062,1.19718098574075,2183.153,2204.432,2237.169,2219.445,356.876678466797,44.9653472900391,1.09928059577942,-0.152612492442131,-0.063554547727108,0.186139196157455,-0.153166947611899,-0.0659034585682559,0.0935672981730243,5
0.539993286132813,-0.092226542532444,2.92916011810303,1.16778290271759,-0.091293865515634,2.92653518056143,1.19911688247953,2206.854,2198.926,2199.771,2212.06,356.855377197266,44.9672584533691,1.12740910053253,-0.163214728236198,-0.0686419308185577,0.193212538957596,-0.163706645289342,-0.0704383960337938,0.100005835015435,5
0.55999755859375,-0.0957047119736671,2.92768621444702,1.17177605628967,-0.094676112580471,2.92507989413848,1.20118304443252,2224.939,2196.758,2168.826,2204.22,356.830932617188,44.9688491821289,1.15329277515411,-0.173908367753029,-0.0736962482333183,0.19965772330761,-0.17448465888317,-0.0750758741803766,0.106589955332319,5
0.579986572265625,-0.0993987545371056,2.92611145973206,1.17588829994202,-0.0982734311149,2.92353206847056,1.20338059019015,2222.713,2194.017,2160.409,2198.259,356.781829833984,44.9700126647949,1.17855954170227,-0.184702217578888,-0.0787345170974731,0.205613523721695,-0.185481935470438,-0.0798076950675377,0.113308019990364,5
0.599990844726563,-0.103311941027641,2.92443513870239,1.18011116981506,-0.102095761416081,2.92188742652551,1.20571559212485,2201.359,2189.879,2174.096,2193.661,356.705291748047,44.9708976745605,1.20399379730225,-0.195659279823303,-0.0838215351104736,0.211144313216209,-0.19670480600515,-0.0846365827279185,0.120163896470579,5
0.6199951171875,-0.107448935508728,2.92265462875366,1.1844367980957,-0.106144683970236,2.92014528826426,1.208189015731,2175.5,2186.17,2194.682,2189.087,356.616729736328,44.9717178344727,1.22977101802826,-0.206849306821823,-0.0890258774161339,0.216281205415726,-0.208134604141382,-0.0895545055543457,0.127146181793521,5
0.639999389648438,-0.111815094947815,2.92076706886292,1.18885934352875,-0.110424235525481,2.91830391678686,1.21080332699501,2155.208,2181.636,2211.51,2186.249,356.53662109375,44.972827911377,1.25549876689911,-0.218307912349701,-0.0943786948919296,0.221126183867455,-0.219761081350814,-0.0945570538913933,0.134248615293163,5
0.659988403320313,-0.116415396332741,2.91876983642578,1.19337368011475,-0.114934715429503,2.91636318329238,1.21355870878373,2150.911,2178.149,2213.031,2183.956,356.481292724609,44.9743766784668,1.28021049499512,-0.230015382170677,-0.0998597219586372,0.225715830922127,-0.231565018351745,-0.0996359582190702,0.141459456210227,5
0.67999267578125,-0.121253609657288,2.91666150093079,1.19797599315643,-0.119686638739014,2.91431856344567,1.2164615845812,2160.819,2175.788,2200.484,2182.519,356.453308105469,44.9763031005859,1.30303275585175,-0.241910815238953,-0.105411216616631,0.230114638805389,-0.243554411173546,-0.104794659005432,0.14878358919428,5
0.699996948242188,-0.126332059502602,2.91444206237793,1.20266282558441,-0.124680083855354,2.91217002351282,1.2195120022816,2180.517,2176.567,2177.832,2180.271,356.442779541016,44.9782752990723,1.32393801212311,-0.253922283649445,-0.110970340669155,0.234338968992233,-0.255710395848158,-0.11002503961202,0.1562094905416,5
0.720001220703125,-0.13165220618248,2.91211199760437,1.20743262767792,-0.129918284978346,2.90991617190799,1.22271193760712,2194.374,2177.179,2161.656,2179.505,356.431091308594,44.9800567626953,1.34359955787659,-0.266007602214813,-0.116501428186893,0.238491758704185,-0.268023157655716,-0.11532287703907,0.163731164592979,5
0.739990234375,-0.137215554714203,2.90967178344727,1.21228444576263,-0.135400001298574,2.90755754251682,1.22606063256665,2196.568,2177.825,2158.395,2178.938,356.404998779297,44.9814910888672,1.36253046989441,-0.278167515993118,-0.122010834515095,0.242588058114052,-0.280473432677602,-0.12067988256057,0.171336843321139,5
0.759994506835938,-0.143024325370789,2.90712094306946,1.21721792221069,-0.14113644597991,2.90508931062815,1.22956493710703,2185.756,2177.278,2169.854,2179.202,356.362091064453,44.9826583862305,1.38089060783386,-0.290438711643219,-0.127537488937378,0.246673494577408,-0.293070637251543,-0.126100107763583,0.179032279019858,5
0.779998779296875,-0.149081528186798,2.90445852279663,1.22223258018494,-0.147126184485884,2.90251209348295,1.2332239748923,2173.15,2178.036,2184.099,2178.435,356.312194824219,44.9836616516113,1.39876759052277,-0.302860498428345,-0.13312403857708,0.250732600688934,-0.305795832832518,-0.131575403921268,0.186805902427515,5
0.79998779296875,-0.155390620231628,2.90168261528015,1.22732961177826,-0.153366821193532,2.89982692185086,1.23703628247379,2162.583,2177.585,2197.209,2179.218,356.267120361328,44.984748840332,1.4161331653595,-0.315454453229904,-0.138791382312775,0.254852086305618,-0.318629798715703,-0.137097500901303,0.194645971915464,5
0.819992065429688,-0.161954775452614,2.89879202842712,1.23251032829285,-0.159870162197751,2.89702871589906,1.24100907201063,2160.166,2177.01,2202.481,2180.521,356.237274169922,44.9860954284668,1.4322282075882,-0.32820788025856,-0.14452913403511,0.259037911891937,-0.33158286215529,-0.142670842232658,0.202558796242139,5
0.839996337890625,-0.168776348233223,2.89578604698181,1.2377758026123,-0.166633637018892,2.89411858163313,1.24514077323692,2170.586,2179.121,2194.198,2180.672,356.226043701172,44.9875755310059,1.44675171375275,-0.341078639030457,-0.15030212700367,0.263271391391754,-0.344636106234817,-0.148287288494656,0.210532819358465,5
0.860000610351563,-0.175856783986092,2.89266467094421,1.24312841892242,-0.173659158941841,2.89109569582005,1.24943255494854,2183.437,2180.803,2183.357,2182.199,356.225219726563,44.9890823364258,1.45995795726776,-0.354021787643433,-0.15607026219368,0.267633765935898,-0.357780475378537,-0.153942943326036,0.218562509354528,5
0.879989624023438,-0.183196932077408,2.88942837715149,1.24857068061829,-0.18094280014554,2.88796174849148,1.2538820177009,2193.723,2182.893,2175.167,2183.635,356.224395751953,44.9904327392578,1.47196507453918,-0.367007434368134,-0.161810636520386,0.272112607955933,-0.370996904517929,-0.159629603560431,0.226636219677473,5
0.899993896484375,-0.190797626972198,2.88607788085938,1.25410532951355,-0.18849723509595,2.8847112861788,1.25849690412748,2195.194,2184.102,2176.47,2185.614,356.215362548828,44.9915466308594,1.48282551765442,-0.380034267902374,-0.167526975274086,0.276731848716736,-0.384296738353309,-0.165352150505452,0.234760880627692,5
0.919998168945313,-0.198659971356392,2.88261294364929,1.25973439216614,-0.196318384305134,2.8813460641717,1.26327472213274,2193.217,2186.94,2181.407,2186.13,356.198120117188,44.9923439025879,1.49284052848816,-0.393117249011993,-0.17324136197567,0.281451463699341,-0.397661187980262,-0.171102499820431,0.242925014356675,5
0.939987182617188,-0.206785559654236,2.87903332710266,1.26546120643616,-0.204401181418416,2.87786826238106,1.26821237675968,2185.846,2188.045,2192.548,2187.977,356.175659179688,44.9930381774902,1.50241947174072,-0.406279414892197,-0.178978443145752,0.286341845989227,-0.411071375662203,-0.176872528942697,0.25111708874972,5
0.959991455078125,-0.215176194906235,2.87533831596375,1.27128899097443,-0.212759000778906,2.87427212620069,1.27331803818581,2178.885,2188.132,2203.743,2190.278,356.156158447266,44.9937858581543,1.51104080677032,-0.419531971216202,-0.184751912951469,0.29139107465744,-0.424539267042903,-0.182667386354485,0.259344413431889,5
0.979995727539063,-0.223833426833153,2.87152719497681,1.27722001075745,-0.22138664033507,2.87055989392801,1.27858852855901,2181.251,2190.563,2204.949,2190.973,356.147613525391,44.9945869445801,1.51844549179077,-0.432862132787704,-0.190555527806282,0.296550124883652,-0.438046240701377,-0.188479059778567,0.267595612867683,5
1,-0.232758313417435,2.86759996414185,1.2832578420639,-0.230284798736574,2.86673126495361,1.28402427467346,2187.015,2191.984,2202.563,2193.05,356.149505615234,44.9954948425293,1.52478051185608,-0.446244329214096,-0.196367040276527,0.301892191171646,-0.451584000205995,-0.194303979492187,0.275865618896484,5
1.01998901367188,-0.241951271891594,2.86355662345886,1.28940558433533,-0.239446912293295,2.86278906344998,1.2896212668733,2195.417,2193.79,2197.134,2194.909,356.158233642578,44.9964141845703,1.52986550331116,-0.45964789390564,-0.202162221074104,0.307387053966522,-0.46513400752272,-0.200134169097193,0.284143106922576,5
1.03999328613281,-0.251412332057953,2.85939812660217,1.29566645622253,-0.248887339851819,2.85872711120656,1.29538827675384,2200.448,2194.911,2195.114,2197.175,356.167694091797,44.9972381591797,1.53351092338562,-0.473053246736526,-0.207927405834198,0.313045412302017,-0.478708875293167,-0.205975055460915,0.292435781811908,5
1.05999755859375,-0.261141359806061,2.85512495040894,1.30204272270203,-0.258599401509697,2.85454828239877,1.3013212236669,2205.558,2198.232,2192.439,2197.67,356.174835205078,44.9978103637695,1.53599536418915,-0.486451208591461,-0.213662698864937,0.318812042474747,-0.492290296490434,-0.211818761581115,0.30073246008742,5
1.07998657226563,-0.271138370037079,2.85073733329773,1.3085378408432,-0.268575430648764,2.85025587575821,1.30741542419509,2203.883,2199.664,2197.024,2199.552,356.176208496094,44.9982032775879,1.53792679309845,-0.499849259853363,-0.219378799200058,0.324755638837814,-0.50586005237609,-0.217657448443621,0.309022012206103,5
1.09999084472656,-0.281403511762619,2.84623551368713,1.3151547908783,-0.278830554044452,2.84584338265603,1.31368011904947,2198.133,2199.811,2206.131,2201.729,356.174560546875,44.9985466003418,1.53897964954376,-0.513258695602417,-0.225090771913528,0.330849200487137,-0.519431110871131,-0.223496695782555,0.317312360068532,5
1.1199951171875,-0.291937112808228,2.84161949157715,1.32189536094666,-0.289357002179081,2.84131414609862,1.32011056195293,2197.51,2202.153,2209.51,2202.042,356.176422119141,44.9988288879395,1.53908407688141,-0.526680707931519,-0.230806648731232,0.337029993534088,-0.532985466132485,-0.229328756186667,0.32559250418615,5
1.13999938964844,-0.302739292383194,2.83688902854919,1.3287627696991,-0.300154365346813,2.83666834237095,1.32670650262257,2197.423,2202.846,2212.395,2203.84,356.18359375,44.9991874694824,1.53846287727356,-0.540108859539032,-0.236521974205971,0.343369722366333,-0.546515580872639,-0.235150386571708,0.333857840147634,5
1.15998840332031,-0.313809812068939,2.83204460144043,1.33575928211212,-0.31121353909136,2.83190988886621,1.33346237928811,2200.573,2203.778,2211.673,2205.231,356.197326660156,44.9996070861816,1.53681814670563,-0.553525030612946,-0.242224007844925,0.349823385477066,-0.560003743914979,-0.240953966313175,0.342097548471566,6
1.17999267578125,-0.325148016214371,2.82708668708801,1.34288728237152,-0.322550701230474,2.8270318247214,1.34038807472597,2203.36,2203.87,2211.143,2207.147,356.215972900391,45.0000686645508,1.533731341362,-0.566910743713379,-0.247899174690247,0.356401711702347,-0.573463232144024,-0.246745208083563,0.350319739799517,6
1.19999694824219,-0.336752891540527,2.82201600074768,1.35014796257019,-0.334156660511822,2.8220381046756,1.34747797414352,2210.292,2206.738,2205.487,2206.908,356.238037109375,45.0003662109375,1.52935826778412,-0.580245316028595,-0.253536641597748,0.363033145666122,-0.58687652428584,-0.252516572968185,0.358513710658656,6
1.22000122070313,-0.348623335361481,2.81683325767517,1.35754382610321,-0.346030421585499,2.81692915700008,1.35473146949704,2212.196,2207.722,2205,2208.249,356.257995605469,45.0005531311035,1.52434682846069,-0.593522012233734,-0.259133249521255,0.369796216487885,-0.600236516861372,-0.258265004538453,0.366675121644476,6
1.239990234375,-0.360758155584335,2.8115394115448,1.36507666110992,-0.358161486344149,2.81170949873715,1.36214214765657,2211.233,2208.424,2207.42,2209.227,356.274780273438,45.0006370544434,1.51870012283325,-0.606741189956665,-0.264694660902023,0.37664207816124,-0.613526094901141,-0.263983138701136,0.374793517489195,6
1.25999450683594,-0.373156368732452,2.80613470077515,1.37274825572968,-0.3705671011502,2.80637170925886,1.36972054415578,2206.397,2207.734,2213.997,2210.769,356.289886474609,45.0007171630859,1.51205193996429,-0.619909763336182,-0.270230501890182,0.383577436208725,-0.626758665639206,-0.269676744214496,0.382877088462885,6
1.27999877929688,-0.385816812515259,2.80061984062195,1.38055872917175,-0.383236695417198,2.80092033679326,1.37746020158837,2206.817,2209.698,2214.523,2210.058,356.308319091797,45.0007057189941,1.50441658496857,-0.633024275302887,-0.275745391845703,0.390524715185165,-0.639917282339435,-0.275338529371412,0.39091548206889,6
1.29998779296875,-0.398738384246826,2.79499506950378,1.38851010799408,-0.396158759015336,2.79536033382764,1.38535408859565,2206.283,2209.746,2216.046,2211.048,356.330169677734,45.0007362365723,1.49620151519775,-0.646079123020172,-0.281235605478287,0.397566586732864,-0.652985332144132,-0.280961346123326,0.398898549771684,6
1.31999206542969,-0.411919623613358,2.78926110267639,1.39660346508026,-0.409351342777246,2.78968393359302,1.39341323214959,2205.613,2208.804,2217.678,2212.301,356.356323242188,45.0008659362793,1.48688924312592,-0.659061908721924,-0.286693155765533,0.404666900634766,-0.665976209205206,-0.286550957599616,0.406834473849655,6
1.33999633789063,-0.425358712673187,2.78341889381409,1.40483844280243,-0.422802873722428,2.78389611561957,1.401630562497,2210.984,2210.736,2212.271,2211.306,356.387786865234,45.0009117126465,1.47651398181915,-0.671954333782196,-0.292107939720154,0.411751538515091,-0.678873453515705,-0.29210028151913,0.41471319914141,6
1.36000061035156,-0.439053624868393,2.77746939659119,1.41321647167206,-0.436511415158101,2.77799771321212,1.41000489654248,2212.952,2210.727,2210.33,2212.032,356.419799804688,45.0009346008301,1.46558654308319,-0.68474555015564,-0.29747149348259,0.418904513120651,-0.691670720740693,-0.297606588091785,0.422530849991739,6
1.37998962402344,-0.453002244234085,2.77141380310059,1.42173790931702,-0.450464156928423,2.77199423822282,1.41852840876173,2213.273,2210.666,2209.938,2212.291,356.45068359375,45.0009078979492,1.45399475097656,-0.697429358959198,-0.302782297134399,0.426071912050247,-0.704352136620515,-0.303063047067127,0.430277729063129,6
1.39999389648438,-0.467202365398407,2.76525282859802,1.43040323257446,-0.464680216184654,2.76587746507559,1.42721277752413,2209.444,2209.285,2213.903,2213.143,356.480072021484,45.0008697509766,1.44134509563446,-0.710007607936859,-0.308045297861099,0.433263808488846,-0.716930938559026,-0.308475354130225,0.437961922879032,6
1.41999816894531,-0.481651902198792,2.75898742675781,1.43921113014221,-0.47914673136562,2.75965292774086,1.43605014590267,2210.24,2210.879,2212.422,2211.488,356.511444091797,45.0007019042969,1.42776215076447,-0.722476184368134,-0.313264608383179,0.440396547317505,-0.729391385793766,-0.313836736470737,0.445573815653291,6
1.43998718261719,-0.496348530054092,2.75261855125427,1.44816243648529,-0.49384995777978,2.75332654017544,1.44503211747976,2208.316,2210.306,2213.811,2211.755,356.543792724609,45.0005531311035,1.41380453109741,-0.734833598136902,-0.318440228700638,0.447564423084259,-0.741718206886022,-0.319140623215221,0.4531040783023,6
1.45999145507813,-0.511290013790131,2.74614715576172,1.45725703239441,-0.508809800712713,2.74688973769103,1.45417085208374,2205.202,2208.532,2216.509,2212.37,356.578521728516,45.0004920959473,1.39895963668823,-0.747074127197266,-0.323569506406784,0.454729110002518,-0.753924423002454,-0.324392617007921,0.460560665253582,6
1.47999572753906,-0.526473701000214,2.73957419395447,1.46649324893951,-0.524012471663969,2.74034845309416,1.46345792653486,2208.578,2209.744,2211.833,2210.572,356.618255615234,45.000373840332,1.38324737548828,-0.759184718132019,-0.328646630048752,0.461810797452927,-0.765994882555672,-0.329586198544069,0.467934320638836,6
1.5,-0.541896820068359,2.73290085792542,1.47587132453918,-0.539455198877605,2.73370387899399,1.47289164761066,2209.134,2208.923,2210.078,2210.634,356.659423828125,45.0002632141113,1.36715447902679,-0.771156132221222,-0.333663702011108,0.468901604413986,-0.777924000354858,-0.334718964672088,0.475221632552146,6
1.51998901367188,-0.557556450366974,2.72612857818604,1.4853903055191,-0.555123050061237,2.72696244033876,1.48246289340675,2209.196,2208.125,2208.694,2210.244,356.700988769531,45.0001564025879,1.35049796104431,-0.782980620861053,-0.338616669178009,0.475946933031082,-0.789697369743256,-0.339784716610053,0.482413800191712,6
1.53999328613281,-0.573449552059174,2.71925854682922,1.49504947662354,-0.571036956668503,2.72011513090874,1.49218445062151,2205.721,2206.048,2211.007,2210.521,356.742340087891,45.0000801086426,1.33281600475311,-0.79465663433075,-0.343506276607513,0.482959866523743,-0.801327600455846,-0.344788879974649,0.489518526647862,6
1.55999755859375,-0.589573085308075,2.71229195594788,1.50484657287598,-0.587181951496087,2.71316839067337,1.50204717602401,2207.396,2207.201,2207.347,2208.123,356.786041259766,44.999870300293,1.31425523757935,-0.806177198886871,-0.34833362698555,0.489853054285049,-0.812800388649436,-0.349725300221754,0.496527073925997,6
1.57998657226563,-0.60592395067215,2.70522999763489,1.51478111743927,-0.603542258451077,2.7061290076447,1.51204143224525,2205.468,2206.131,2207.464,2207.789,356.829711914063,44.9996681213379,1.29544425010681,-0.817540168762207,-0.353097498416901,0.496729671955109,-0.82410201904291,-0.354588076049064,0.503431063574906,6
1.59999084472656,-0.62249881029129,2.69807410240173,1.5248521566391,-0.620139554045575,2.69898765502515,1.52218046112824,2201.278,2203.754,2210.054,2207.886,356.874237060547,44.9995384216309,1.27587926387787,-0.828743040561676,-0.357797801494598,0.503552436828613,-0.835244706287931,-0.359382463079953,0.510237957334684,5
1.6199951171875,-0.639294326305389,2.69082546234131,1.53505682945251,-0.636958033083316,2.69175113334911,1.53245460752521,2203.415,2204.522,2205.564,2205.365,356.922637939453,44.9993324279785,1.25563073158264,-0.839777112007141,-0.362432271242142,0.510235965251923,-0.846214826007804,-0.364102599125749,0.516939432286212,5
1.63999938964844,-0.65630704164505,2.68348550796509,1.54539453983307,-0.653994195024907,2.68442094880091,1.54286173301126,2202.435,2203.085,2204.345,2204.944,356.971984863281,44.9991645812988,1.23520123958588,-0.850636780261993,-0.366995364427567,0.516884207725525,-0.857007552155828,-0.368746407673381,0.523532540272869,5
1.65998840332031,-0.673533380031586,2.67605590820313,1.55586338043213,-0.67123120513297,2.67700434489773,1.55339155350804,2201.486,2201.671,2203.045,2204.061,357.022186279297,44.9990158081055,1.21435332298279,-0.86131626367569,-0.371483892202377,0.523439407348633,-0.867610144209785,-0.373308406832068,0.530009498308446,5
1.67999267578125,-0.690969586372375,2.66853785514832,1.56646168231964,-0.688691692550512,2.66949158495151,1.56405789280588,2197.549,2198.991,2204.887,2203.924,357.073059082031,44.9989433288574,1.19254004955292,-0.871813416481018,-0.375897258520126,0.529918074607849,-0.878034183119987,-0.377793579561193,0.536377381014768,5
1.69999694824219,-0.708611965179443,2.66093325614929,1.57718622684479,-0.706358800111611,2.66188992212981,1.57485045312518,2199.7,2199.829,2199.867,2200.868,357.127166748047,44.9987335205078,1.16993176937103,-0.882119596004486,-0.380234181880951,0.536227524280548,-0.888267004546665,-0.382196476749158,0.542628451944297,5
1.72000122070313,-0.726456642150879,2.65324354171753,1.58803594112396,-0.724228658537036,2.6542010212754,1.58576687078363,2198.144,2198.306,2198.667,2200.194,357.181365966797,44.99853515625,1.14716732501984,-0.892230868339539,-0.384491205215454,0.542486011981964,-0.898304216251578,-0.386515208538549,0.548760027947228,5
1.739990234375,-0.744499504566193,2.6454701423645,1.59900856018066,-0.74228345468553,2.64643254688532,1.59679626401121,2196.365,2196.767,2197.737,2199.021,357.235778808594,44.998363494873,1.12409722805023,-0.902143716812134,-0.388667285442352,0.548630177974701,-0.908134108040217,-0.390744736359816,0.554764955448471,5
1.75999450683594,-0.762736618518829,2.63761496543884,1.61010217666626,-0.760546715064628,2.63857437616062,1.60795300478424,2191.593,2193.905,2200.003,2198.649,357.290802001953,44.9982719421387,1.10021996498108,-0.911857903003693,-0.392763078212738,0.554679036140442,-0.917767514700581,-0.394889722119545,0.560649853250941,4
1.77999877929688,-0.781163990497589,2.62967944145203,1.62131297588348,-0.779000609654483,2.63063418086074,1.61922620102184,2193.566,2194.437,2194.822,2195.45,357.349517822266,44.9980621337891,1.07568800449371,-0.921365916728973,-0.396777361631393,0.56054162979126,-0.927192788821983,-0.398945154262308,0.566407606133204,4
1.79998779296875,-0.799777209758759,2.62166500091553,1.63263964653015,-0.797626646773287,2.62261991743975,1.63060455644414,2192.037,2192.674,2193.267,2194.595,357.408782958984,44.9978942871094,1.05108785629272,-0.930662512779236,-0.400704979896545,0.566334366798401,-0.936399026186941,-0.402906341007953,0.572031552878955,4
1.81999206542969,-0.818572103977203,2.61357426643372,1.64407992362976,-0.816448984455027,2.61452119137054,1.64210282881713,2187.905,2189.69,2194.558,2194.147,357.468597412109,44.9978141784668,1.02585518360138,-0.939744532108307,-0.404543906450272,0.572016417980194,-0.945396434568188,-0.406777674475912,0.57752792925727,3
1.83999633789063,-0.837544143199921,2.60540843009949,1.65562999248505,-0.835449117627072,2.60634596486888,1.6537097136807,2190.125,2189.947,2188.916,2190.958,357.531341552734,44.9976272583008,1.00008606910706,-0.948605477809906,-0.408293038606644,0.577502071857452,-0.954174163352093,-0.410554485950274,0.582890106797601,3
1.86000061035156,-0.856689035892487,2.59716939926147,1.66728806495667,-0.854622615239374,2.59809614449182,1.66542250417552,2188.124,2188.033,2187.647,2189.977,357.593566894531,44.9974632263184,0.974303781986237,-0.957242012023926,-0.411948502063751,0.582903504371643,-0.962728579444532,-0.414235212212131,0.588115866099442,0
1.87998962402344,-0.876002132892609,2.58885908126831,1.67905139923096,-0.873950157556149,2.58978004298193,1.67722939817649,2185.781,2186.094,2186.778,2188.591,357.655548095703,44.9973258972168,0.948281824588776,-0.965653300285339,-0.41551074385643,0.588164567947388,-0.971049893464309,-0.417815641164241,0.593199226982579,0
1.89999389648438,-0.895478904247284,2.58047938346863,1.69091749191284,-0.893456683142228,2.58138692997148,1.6891456302637,2180.378,2182.898,2189.15,2188.022,357.717987060547,44.9972724914551,0.921432852745056,-0.973840355873108,-0.418981373310089,0.593304574489594,-0.979147395688901,-0.421299770153459,0.598145864732551,0
1.91999816894531,-0.91511482000351,2.57203221321106,1.7028820514679,-0.913122862707269,2.57292512231409,1.7011593924753,2182.213,2183.328,2183.694,2184.357,357.784301757813,44.9970932006836,0.893966197967529,-0.981796562671661,-0.422359853982925,0.598227262496948,-0.987011339258123,-0.424683405378145,0.60294982514457,0
1.93998718261719,-0.934905052185059,2.56351947784424,1.71494328975677,-0.932928814964021,2.56440317437226,1.71325853964316,2180.583,2181.39,2181.732,2183.297,357.851257324219,44.9969367980957,0.866511523723602,-0.989516198635101,-0.425640434026718,0.603062748908997,-0.994632798067981,-0.427962706185118,0.607605655400993,0
1.95999145507813,-0.954844892024994,2.5549430847168,1.7270987033844,-0.952900013794853,2.55581012544606,1.7254586333645,2176.371,2178.16,2182.622,2182.728,357.918731689453,44.9968795776367,0.838482320308685,-0.996996343135834,-0.428820908069611,0.607768297195435,-1.00202031904361,-0.431141350077486,0.612118576685011,0
1.97999572753906,-0.974929511547089,2.54630517959595,1.73934364318848,-0.973016570682103,2.54715453300902,1.73774752405424,2178.659,2178.38,2176.603,2179.08,357.988952636719,44.9967079162598,0.810064196586609,-1.00423121452332,-0.431900084018707,0.612249195575714,-1.00916501115878,-0.434215511495054,0.616483157607448,0
2,-0.995153844356537,2.53760766983032,1.75167632102966,-0.993273599084619,2.53843849960327,1.75012222660065,2176.498,2176.176,2175.089,2178.093,358.058258056641,44.9965782165527,0.781767904758453,-1.01121819019318,-0.434874325990677,0.616636753082275,-1.01606400046349,-0.437183953857422,0.620697642517089,0
2.01998901367188,-1.01551294326782,2.52885270118713,1.76409351825714,-1.01365055070775,2.52967086658596,1.76257018837116,2173.903,2174.063,2174.162,2176.496,358.126953125,44.996467590332,0.753333866596222,-1.01795780658722,-0.437744587659836,0.620861887931824,-1.02270954399163,-0.440043345582587,0.624757301356767,0
2.03999328613281,-1.03600203990936,2.52004241943359,1.77659249305725,-1.03417354141348,2.52084039703127,1.77510736313833,2168.059,2170.663,2176.63,2175.855,358.195739746094,44.9964485168457,0.724131882190704,-1.02445244789124,-0.440513372421265,0.624951899051666,-1.02910913225408,-0.442796909628122,0.628666709962695,0
2.05999755859375,-1.05661594867706,2.51117873191833,1.7891685962677,-1.05482201812353,2.5119559343546,1.78772119534738,2169.764,2170.943,2171.116,2171.941,358.268310546875,44.9962959289551,0.694387674331665,-1.03069710731506,-0.443180978298187,0.628804683685303,-1.03525504859546,-0.445441325732794,0.632421154350513,0
2.07998657226563,-1.07734966278076,2.50226402282715,1.80181980133057,-1.07557499515204,2.50302650811029,1.80039886517028,2167.971,2168.923,2169.035,2170.732,358.341491699219,44.9961814880371,0.664733469486237,-1.03668582439423,-0.445741534233093,0.632557511329651,-1.04114045847258,-0.4479736531836,0.636016459404434,0
2.09999084472656,-1.09819793701172,2.49330019950867,1.8145432472229,-1.09645901288412,2.49404069871208,1.81315658571413,2163.634,2165.528,2169.762,2170.135,358.415130615234,44.9961547851563,0.634558796882629,-1.0424165725708,-0.448192924261093,0.636169612407684,-1.04677201701582,-0.450396755497224,0.639456690639761,0
2.1199951171875,-1.11915576457977,2.4842894077301,1.82733404636383,-1.11745308225396,2.48500753716864,1.82598153508617,2166.09,2165.678,2163.455,2166.229,358.491485595703,44.9960174560547,0.60408890247345,-1.04788434505463,-0.450534135103226,0.639538884162903,-1.0521429102862,-0.45270770082608,0.642737685527497,0
2.13999938964844,-1.14021742343903,2.47523427009583,1.84019017219543,-1.138551967509,2.47592927627801,1.83887051484687,2163.874,2163.385,2161.771,2165.177,358.566650390625,44.9959106445313,0.573831915855408,-1.05308628082275,-0.452761262655258,0.642807006835938,-1.05725102347782,-0.454905579228273,0.645858152165725,0
2.15998840332031,-1.16137778759003,2.46613669395447,1.85310816764832,-1.15973418543027,2.46681515966915,1.85181040123298,2161.266,2161.151,2160.674,2163.524,358.640899658203,44.9958419799805,0.543514549732208,-1.05802416801453,-0.454875856637955,0.645902216434479,-1.06209075728,-0.456987981476842,0.64881467002292,0
2.17999267578125,-1.18263185024261,2.45699906349182,1.86608517169952,-1.18102676265167,2.45765355853653,1.86481770439342,2155.168,2157.705,2163.189,2162.815,358.714904785156,44.9958610534668,0.512484014034271,-1.06270122528076,-0.456880897283554,0.648851573467255,-1.06666760390386,-0.458957270716794,0.65161059420515,0
2.19999694824219,-1.20397424697876,2.4478235244751,1.8791161775589,-1.20240821395574,2.44845371736898,1.8778792993441,2156.79,2157.9,2157.718,2158.743,358.792419433594,44.9957466125488,0.481012761592865,-1.06711447238922,-0.458777993917465,0.651552200317383,-1.07097597819164,-0.460811043810786,0.654242512826705,0
2.21998596191406,-1.22539925575256,2.43861222267151,1.89219915866852,-1.22385674836213,2.4392250122166,1.89098187431519,2154.814,2155.789,2155.674,2157.533,358.870361328125,44.9956588745117,0.449698656797409,-1.07125782966614,-0.460561037063599,0.654147624969482,-1.07501122224684,-0.462547296596067,0.65670758045128,0
2.239990234375,-1.24690186977386,2.42936754226685,1.90533101558685,-1.24539969505118,2.42995568409656,1.90414212427648,2150.358,2152.435,2156.364,2156.832,358.948669433594,44.9956665039063,0.417937278747559,-1.07513010501862,-0.462228387594223,0.656592071056366,-1.07877792518082,-0.464168003639063,0.659008600495412,0
2.25999450683594,-1.26847648620605,2.4200918674469,1.91850674152374,-1.26701526177039,2.4206551096063,1.91734673668097,2152.924,2152.45,2149.958,2152.873,359.029632568359,44.9955406188965,0.385991007089615,-1.07872784137726,-0.463779538869858,0.658787250518799,-1.08227143928024,-0.465671165158559,0.661142733743536,0
2.27999877929688,-1.29011726379395,2.41078758239746,1.93172419071198,-1.28869796983554,2.41132564607061,1.93059236468599,2150.806,2150.112,2148.08,2151.811,359.109283447266,44.9954681396484,0.354316920042038,-1.0820472240448,-0.4652099609375,0.660875618457794,-1.08549040888332,-0.467056197851165,0.663109152043028,0
2.29998779296875,-1.31181907653809,2.40145707130432,1.94497990608215,-1.31042570636616,2.40197680804417,1.9438654998779,2148.212,2147.88,2146.919,2150.079,359.187744140625,44.995433807373,0.322655856609344,-1.08509135246277,-0.466521769762039,0.662783324718475,-1.08843144721369,-0.468321644481621,0.664905786465049,0
2.31999206542969,-1.33357632160187,2.39210271835327,1.95827078819275,-1.33222611841886,2.3925966997709,1.95718303141218,2142.02,2144.385,2149.407,2149.451,359.265625,44.9954872131348,0.290322154760361,-1.08786416053772,-0.467718154191971,0.664543271064758,-1.09109790637238,-0.469468947365361,0.666534684755819,0
2.33999633789063,-1.35538375377655,2.38272666931152,1.97159171104431,-1.35407709248145,2.38319483607731,1.97053145048929,2143.671,2144.577,2143.977,2145.23,359.346771240234,44.9953994750977,0.257629334926605,-1.09036433696747,-0.468801856040955,0.666044354438782,-1.09348640563071,-0.470496651869278,0.667993781680938,0
2.36000061035156,-1.37723529338837,2.37333130836487,1.98494052886963,-1.37597305876702,2.37377361348711,1.98390735461333,2141.557,2142.465,2142.014,2144.048,359.428039550781,44.9953308105469,0.225162550806999,-1.09258556365967,-0.469766795635223,0.667439520359039,-1.09559602313537,-0.471404361345641,0.669282514094601,0
2.37998962402344,-1.39912593364716,2.3639190196991,1.99831354618073,-1.39789168475144,2.36434264106153,1.9972971011938,2139.967,2140.396,2139.785,2142.243,359.509521484375,44.9952774047852,0.19278958439827,-1.09452760219574,-0.470611989498138,0.668653964996338,-1.09742465646102,-0.47219117117957,0.670399597657984,0
2.39999389648438,-1.42104971408844,2.3544921875,2.01170802116394,-1.41986083522252,2.35488992936084,2.01071771239474,2135.021,2136.956,2140.966,2141.658,359.590911865234,44.9953422546387,0.159877672791481,-1.09619104862213,-0.471336901187897,0.669722259044647,-1.09897439291323,-0.472857979480329,0.671346307473475,0
2.41999816894531,-1.44300103187561,2.34505367279053,2.02511858940125,-1.44185817738692,2.34542508756209,2.02415554546122,2137.529,2137.102,2134.762,2137.43,359.674926757813,44.9952507019043,0.126763641834259,-1.09757435321808,-0.471942961215973,0.670529663562775,-1.10024313330221,-0.473403883025206,0.672121361178802,0
2.43998718261719,-1.46497464179993,2.33560490608215,2.03854322433472,-1.46386128162322,2.33595776650478,2.03759689848751,2135.492,2134.878,2132.747,2136.382,359.757720947266,44.9952011108398,0.0939564481377602,-1.09867227077484,-0.472424983978271,0.671233236789703,-1.10122974390336,-0.473828394004169,0.672724066199287,0
2.45999145507813,-1.48696422576904,2.32614922523499,2.05197882652283,-1.48589810917879,2.32647593524532,2.05105885256329,2130.024,2131.533,2134.421,2135.732,359.839324951172,44.995246887207,0.0607846826314926,-1.09948861598969,-0.472785294055939,0.671778917312622,-1.10193535162022,-0.474131997292339,0.673155110942729,0
2.47999572753906,-1.5089647769928,2.31668877601624,2.06542015075684,-1.50794623031618,2.31698924467309,2.06452770571198,2131.793,2131.512,2129.042,2131.649,359.922821044922,44.9951629638672,0.0275633223354816,-1.10002565383911,-0.473027616739273,0.672067105770111,-1.10235882472314,-0.474314205938057,0.673413804053135,0
2.5,-1.530970454216,2.30722570419312,2.07886505126953,-1.52999999932945,2.30750012397766,2.0780000090599,2129.028,2129.176,2127.823,2130.698,0.00514977518469095,44.9951324462891,-0.00531073799356818,-1.10027945041656,-0.473147869110107,0.672250390052795,-1.10250000050292,-0.474374949932098,0.673500046133994,0
2.51998901367188,-1.55297541618347,2.29776239395142,2.09230995178223,-1.5520369476803,2.29801824074336,2.09146203692764,2126.497,2127.014,2126.672,2128.959,0.0869356691837311,44.9951286315918,359.9619140625,-1.10025417804718,-0.473148256540298,0.672248184680939,-1.10235904000526,-0.474314298567936,0.67341393556562,0
2.53999328613281,-1.57497441768646,2.28830194473267,2.10575175285339,-1.57408507527774,2.28853154739156,2.10493089402267,2121.052,2123.771,2128.387,2128.296,0.168800190091133,44.9952087402344,359.928588867188,-1.09995174407959,-0.473030090332031,0.672095835208893,-1.10193578218388,-0.474132182551855,0.673155373967352,0
2.55999755859375,-1.59696197509766,2.27884602546692,2.11918544769287,-1.59612191359838,2.27904971150017,2.11839285467467,2123.631,2123.824,2122.291,2124.173,0.253893852233887,44.9951553344727,359.895080566406,-1.09937131404877,-0.47279480099678,0.671687126159668,-1.10123038958312,-0.473828671822132,0.672724460634977,0
2.57998657226563,-1.61893200874329,2.26939725875854,2.13260889053345,-1.61812503288753,2.26958238396605,2.1318342168965,2122.045,2121.814,2119.891,2123.032,0.338398218154907,44.9951133728027,359.861907958984,-1.09850478172302,-0.472434967756271,0.671170949935913,-1.1002439936861,-0.473404253224357,0.672121886773894,0
2.59999084472656,-1.64087915420532,2.25995826721191,2.14601898193359,-1.64012239440973,2.26011753383818,2.14527206178836,2117.559,2118.617,2120.601,2122.45,0.421954929828644,44.995174407959,359.828460693359,-1.09735500812531,-0.471951603889465,0.670501589775085,-1.09897546783438,-0.47285844198887,0.671346964126033,0
2.6199951171875,-1.66279768943787,2.25053119659424,2.15941047668457,-1.66209156852628,2.2506648119635,2.15869268743396,2119.74,2118.541,2115.032,2118.427,0.506851613521576,44.9951057434082,359.795104980469,-1.09592473506927,-0.471347987651825,0.669576644897461,-1.09742594550583,-0.472191725819537,0.67040038511534,0
2.63999938964844,-1.68468189239502,2.24111890792847,2.17278146743774,-1.68402693989188,2.24122663446822,2.17209266350648,2117.059,2116.347,2113.835,2117.474,0.589677333831787,44.9950790405273,359.76220703125,-1.09421038627625,-0.470620512962341,0.668547213077545,-1.09559602313537,-0.471404361345641,0.669282514094601,0
2.65998840332031,-1.70652616024017,2.23172354698181,2.18612813949585,-1.70590622088595,2.23181259109281,2.18545837484632,2114.249,2114.153,2113.084,2115.913,0.671085298061371,44.9950942993164,359.7294921875,-1.09221911430359,-0.469773530960083,0.667338728904724,-1.09348812118877,-0.470497390025984,0.667994829688588,0
2.67999267578125,-1.72832536697388,2.22234725952148,2.19944763183594,-1.72775723139253,2.2224107117184,2.19880681618649,2108.368,2111.021,2115.323,2115.327,0.751982927322388,44.9952125549316,359.696258544922,-1.08995485305786,-0.468810111284256,0.665980637073517,-1.09109983431736,-0.469469776906228,0.666535862507326,0
2.69999694824219,-1.75007379055023,2.21299266815186,2.21273493766785,-1.74955768413056,2.21303058593937,2.21212437257479,2110.427,2111.169,2109.998,2111.153,0.835943222045898,44.9951705932617,359.662994384766,-1.0874195098877,-0.467733412981033,0.66436630487442,-1.08843358680109,-0.468322565086308,0.664907093505606,0
2.71998596191406,-1.77176570892334,2.20366191864014,2.22598791122437,-1.77128546553625,2.20368172860443,2.22539753518019,2108.969,2109.208,2107.594,2110.168,0.919715523719788,44.9951286315918,359.630126953125,-1.08460402488708,-0.466535598039627,0.662652909755707,-1.08549275912543,-0.467057209094684,0.663110587769255,0
2.739990234375,-1.79339599609375,2.1943576335907,2.23920369148254,-1.79296822271738,2.1943522439355,2.23864319318939,2104.962,2106.174,2107.948,2109.632,1.00288462638855,44.9952049255371,359.597106933594,-1.08151090145111,-0.465216606855392,0.660787999629974,-1.08227399942825,-0.465672266718727,0.661144297698006,0
2.75999450683594,-1.81495881080627,2.18508195877075,2.25237727165222,-1.81458384274179,2.18505164650952,2.2518478381572,2107.619,2106.05,2102.19,2105.72,1.08736801147461,44.9951515197754,359.564270019531,-1.07814335823059,-0.463779151439667,0.658673405647278,-1.07878069424208,-0.464169195088763,0.659010292071722,0
2.77999877929688,-1.83644866943359,2.17583751678467,2.26550650596619,-1.83612684690458,2.17578229366013,2.2650081232283,2105.388,2103.97,2100.72,2104.833,1.16946351528168,44.9951477050781,359.531951904297,-1.07449662685394,-0.462218761444092,0.656458020210266,-1.07501419914593,-0.462548577472581,0.656709398992482,0
2.79998779296875,-1.85786032676697,2.16662645339966,2.27858781814575,-1.85757544288233,2.1665535620153,2.27811073581237,2102.691,2101.903,2100.044,2103.338,1.24950659275055,44.9951820373535,359.499877929688,-1.07057929039001,-0.46054071187973,0.6540687084198,-1.07097916161324,-0.460812413548163,0.654244457529281,0
2.81999206542969,-1.8791880607605,2.15745162963867,2.29161858558655,-1.87895695992541,2.1573536925621,2.29117237092199,2096.737,2098.952,2102.482,2102.852,1.32838797569275,44.9953231811523,359.467437744141,-1.06639683246613,-0.458749145269394,0.651536226272583,-1.06667099276523,-0.458958728849171,0.651612664407684,0
2.83999633789063,-1.90042734146118,2.14831471443176,2.30459380149841,-1.90024960698239,2.14819206138118,2.30417971674389,2098.594,2099.064,2097.65,2098.83,1.40979766845703,44.9953002929688,359.435028076172,-1.06195378303528,-0.456848978996277,0.648755133152008,-1.06209435025759,-0.456989527434725,0.648816864916866,0
2.86000061035156,-1.92157232761383,2.13921785354614,2.31751132011414,-1.9214480311499,2.13907097167731,2.31712950327294,2096.835,2097.218,2095.735,2097.958,1.49079322814941,44.9952812194824,359.403076171875,-1.05724120140076,-0.454832822084427,0.645880460739136,-1.05725102347782,-0.454905579228273,0.645858152165725,0
2.87998962402344,-1.94261741638184,2.13016414642334,2.33036804199219,-1.94253086194772,2.12999961857111,2.33000867561624,2095.683,2095.438,2093.617,2096.346,1.57130658626556,44.995288848877,359.371520996094,-1.05226337909698,-0.452701479196548,0.642833530902863,-1.05214690704168,-0.452709420518306,0.642740127083052,0
2.89999389648438,-1.96355795860291,2.12115478515625,2.34316110610962,-1.96352501326936,2.1209664217661,2.34283367505136,2091.627,2092.556,2094.284,2095.962,1.65091335773468,44.9953918457031,359.339721679688,-1.04702186584473,-0.450454890727997,0.639653027057648,-1.04677621342161,-0.450398561093403,0.639459254158576,0
2.91999816894531,-1.98438823223114,2.11219310760498,2.35588574409485,-1.98440911693069,2.11198057539494,2.35559144808806,2093.975,2092.636,2089.188,2092.023,1.73168969154358,44.995361328125,359.308135986328,-1.04152166843414,-0.448097378015518,0.636228621006012,-1.04114485287423,-0.447975543971863,0.636019143875825,0
2.93998718261719,-2.00510358810425,2.10328054428101,2.36854004859924,-2.00516218376194,2.10305111051103,2.36826917277004,2092.122,2090.741,2087.554,2091.3,1.81036019325256,44.9953575134277,359.277160644531,-1.03575646877289,-0.445623755455017,0.632716834545135,-1.03525963910674,-0.445443300901551,0.632423958622216,0
2.95999145507813,-2.02569818496704,2.09441947937012,2.38112139701843,-2.02581075424974,2.0941666074844,2.38088306226645,2087.148,2087.965,2089.176,2090.943,1.88702273368835,44.9954719543457,359.246063232422,-1.02973473072052,-0.443038582801819,0.629063427448273,-1.02911391720548,-0.442798968459032,0.628669633014836,0
2.97999572753906,-2.04616713523865,2.08561277389526,2.39362478256226,-2.04633384260397,2.08533609591429,2.39342029668558,2088.742,2087.988,2084.972,2087.153,1.96457648277283,44.9954528808594,359.21533203125,-1.02346432209015,-0.440348356962204,0.625171959400177,-1.02271452148052,-0.440045487257004,0.624760342027062,0
3,-2.06650590896606,2.07686185836792,2.40604877471924,-2.06672639957428,2.07656174835205,2.40587779151916,2086.512,2086.076,2083.829,2086.563,2.04047346115112,44.9954681396484,359.185211181641,-1.01693952083588,-0.437548130750656,0.62119722366333,-1.01606400046349,-0.437183953857422,0.620697642517089,0
3.01998901367188,-2.08670926094055,2.06816911697388,2.41839003562927,-2.0869680292999,2.06785234056679,2.41824308725414,2084.456,2084.277,2082.905,2085.202,2.11519265174866,44.995532989502,359.155456542969,-1.01016855239868,-0.434641718864441,0.617059171199799,-1.00917036754089,-0.434217816196637,0.616486429737696,0
3.03999328613281,-2.10677266120911,2.05953645706177,2.43064594268799,-2.10708469520508,2.05919670122237,2.43053204454123,2080.025,2081.725,2084.185,2084.803,2.18923139572144,44.995677947998,359.125457763672,-1.00315427780151,-0.431630611419678,0.612791299819946,-1.00202586176059,-0.431143734953757,0.612121962644322,0
3.05999755859375,-2.12669038772583,2.0509660243988,2.44281196594238,-2.12705600675913,2.05060360379452,2.44273220712343,2082.477,2081.834,2079.308,2081.104,2.26510167121887,44.9956512451172,359.095733642578,-0.995901823043823,-0.428518772125244,0.608296155929565,-0.994638524886308,-0.427965170275055,0.607609153824944,0
3.07998657226563,-2.14645862579346,2.0424599647522,2.45488619804382,-2.14686207530873,2.04208160581513,2.45483142533277,2081.41,2080.336,2077.171,2080.275,2.33958101272583,44.9956359863281,359.066680908203,-0.988402366638184,-0.425299108028412,0.60371720790863,-0.987017247723776,-0.424685947625853,0.602953434534038,0
3.09999084472656,-2.16607189178467,2.03402042388916,2.4668664932251,-2.16652837486666,2.03361974652815,2.46684526084616,2077.609,2077.731,2077.883,2080.128,2.41219592094421,44.9957466125488,359.037719726563,-0.98066258430481,-0.421974062919617,0.599015116691589,-0.979153483542501,-0.421302389586788,0.598149583707317,0
3.1199951171875,-2.18552541732788,2.0256495475769,2.4787483215332,-2.18603502400946,2.02522658035469,2.47876156841225,2079.644,2077.687,2073.637,2076.617,2.48493218421936,44.9957313537598,359.009246826172,-0.972691535949707,-0.418549716472626,0.594089448451996,-0.971056158224178,-0.417818336715394,0.593203054026623,0
3.13999938964844,-2.20481514930725,2.01734900474548,2.49053001403809,-2.20537738341953,2.01690410346351,2.49057751394429,2077.491,2076.007,2072.758,2076.064,2.55502557754517,44.9957580566406,358.9814453125,-0.96448427438736,-0.415022224187851,0.589087188243866,-0.962728579444533,-0.414235212212131,0.588115866099442,0
3.15998840332031,-2.22393608093262,2.00912094116211,2.5022087097168,-2.22453632143911,2.00866054767245,2.50228141021112,2075.116,2074.367,2072.453,2074.899,2.62303686141968,44.9958343505859,358.9541015625,-0.956052005290985,-0.41139754652977,0.583937704563141,-0.954180774018563,-0.410557330335374,0.582894145150591,0
3.17999267578125,-2.24288439750671,2.00096702575684,2.51378202438354,-2.24353658854737,2.00048526354177,2.51388837689424,2070.489,2072.115,2074.214,2074.581,2.68988013267517,44.9959907531738,358.926696777344,-0.947399795055389,-0.407679170370102,0.578669607639313,-0.945403214201559,-0.406780591562751,0.577532070829503,0
3.19999694824219,-2.26165533065796,1.99288964271545,2.52524590492249,-2.2623590635174,1.99238647840124,2.5253867331345,2072.425,2072.23,2070.195,2071.214,2.75836396217346,44.9959945678711,358.899658203125,-0.938534498214722,-0.403871983289719,0.573194205760956,-0.936405971974636,-0.402909329586355,0.572035795952272,0
3.21998596191406,-2.28024387359619,1.98489046096802,2.53659892082214,-2.280985241111,1.98437215453788,2.53676517437065,2071.564,2070.806,2068.199,2070.629,2.82586669921875,44.9959945678711,358.873291015625,-0.929447174072266,-0.399968475103378,0.567647457122803,-0.927199897745278,-0.398948213033402,0.566411948863512,0
3.239990234375,-2.29864692687988,1.97697103023529,2.54783844947815,-2.2994392795179,1.97643189735754,2.54803845846384,2068.759,2068.694,2068.297,2070.301,2.89189124107361,44.99609375,358.847137451172,-0.920144200325012,-0.395970523357391,0.561982035636902,-0.917774783907129,-0.394892849856044,0.560654293895788,0
3.25999450683594,-2.31685924530029,1.96913325786591,2.55896091461182,-2.31770268688992,1.96857366338589,2.55919528903255,2070.957,2068.578,2064.233,2067.268,2.95771360397339,44.9960861206055,358.821594238281,-0.910633504390717,-0.39188289642334,0.556123316287994,-0.90814153446928,-0.390747931744771,0.554769492138098,0
3.27999877929688,-2.33487772941589,1.96137928962708,2.56996488571167,-2.33577134012187,1.96079922667992,2.57023314733618,2069.304,2067.181,2063.258,2066.717,3.02057695388794,44.9961204528809,358.796875,-0.900911152362823,-0.387701988220215,0.550193428993225,-0.898304216251578,-0.386515208538549,0.548760027947228,0
3.29998779296875,-2.35269737243652,1.95371031761169,2.58084774017334,-2.35362764460945,1.95311615770631,2.58114128510551,2067.168,2065.603,2063.083,2065.872,3.08078193664551,44.996208190918,358.772674560547,-0.890988945960999,-0.383434236049652,0.544138848781586,-0.888274735793772,-0.382199803288803,0.542633174842512,0
3.31999206542969,-2.37031507492065,1.94612896442413,2.59160709381104,-2.37129490830989,1.94551442770222,2.59193394080789,2062.761,2063.782,2064.998,2065.491,3.13919234275818,44.9963798522949,358.74853515625,-0.880873918533325,-0.379084348678589,0.537973701953888,-0.878042061913513,-0.37779696958594,0.536382194046788,0
3.33999633789063,-2.38772630691528,1.93863582611084,2.60223960876465,-2.38875555478454,1.93800159931817,2.60260037727124,2064.366,2063.789,2061.68,2062.652,3.19858551025391,44.9964065551758,358.724884033203,-0.870574235916138,-0.374658018350601,0.531631767749786,-0.867618167158097,-0.373311858882592,0.530014399402376,0
3.36000061035156,-2.40492820739746,1.93123269081116,2.61274409294128,-2.406005803634,1.93057929915441,2.61313828510855,2063.375,2062.79,2060.21,2061.984,3.25679683685303,44.9964141845703,358.701995849609,-0.860082983970642,-0.370149463415146,0.525222659111023,-0.857007552155826,-0.36874640767338,0.523532540272868,0
3.37998962402344,-2.42191624641418,1.92392146587372,2.62311816215515,-2.42302905329872,1.92325467039821,2.62353752268616,2062.732,2061.51,2058.754,2061.116,3.31361865997314,44.9964485168457,358.679840087891,-0.849407374858856,-0.365560710430145,0.518701434135437,-0.846223126656603,-0.364106170663035,0.516944503023036,0
3.39999389648438,-2.43868732452393,1.91670346260071,2.63335990905762,-2.43984769972619,1.91601807669906,2.63381177133889,2060.064,2059.708,2059.225,2060.916,3.36869120597839,44.9965705871582,358.657897949219,-0.83855152130127,-0.36089301109314,0.512085378170013,-0.835253140422974,-0.35938609205264,0.510243109616171,0
3.41999816894531,-2.455237865448,1.90958046913147,2.64346599578857,-2.45644516534361,1.90887665092339,2.64395090408624,2062.09,2059.767,2055.798,2058.178,3.42339372634888,44.9965858459473,358.636627197266,-0.827524483203888,-0.356151819229126,0.505302131175995,-0.824110582941664,-0.354591760855451,0.503436295127018,0
3.43998718261719,-2.47156429290771,1.90255379676819,2.65343546867371,-2.47280564474684,1.90183719369507,2.65394526565342,2060.804,2058.603,2054.908,2057.869,3.47533011436462,44.9966316223145,358.616180419922,-0.816322147846222,-0.35133358836174,0.498468518257141,-0.812809078412023,-0.349729039183832,0.496532382366361,0
3.45999145507813,-2.48766326904297,1.89562511444092,2.66326642036438,-2.48895081463434,1.8948903781363,2.66380809799729,2057.467,2056.936,2056.148,2057.779,3.52467346191406,44.9967613220215,358.596069335938,-0.804955303668976,-0.346444010734558,0.491544097661972,-0.80133641229185,-0.344792671461508,0.489523909660973,0
3.47999572753906,-2.50353193283081,1.88879537582397,2.67295575141907,-2.50486489870395,1.88804299234919,2.67352976362102,2058.749,2057.009,2053.599,2055.263,3.57343411445618,44.9967918395996,358.576690673828,-0.793434977531433,-0.341490030288696,0.484463691711426,-0.789706299681989,-0.339788558913217,0.482419255351936,0
3.5,-2.51916718482971,1.88206589221954,2.68250250816345,-2.5205447997813,1.88129636896134,2.68310837050915,2057.199,2055.988,2053.134,2055.016,3.61992859840393,44.9968414306641,358.558135986328,-0.781757652759552,-0.336468577384949,0.477338552474976,-0.777924000354857,-0.334718964672089,0.475221632552147,0
3.51998901367188,-2.53456592559814,1.87543821334839,2.6919047832489,-2.53597583877076,1.87465682397749,2.69253495143119,2056.068,2055,2052.623,2054.253,3.66463804244995,44.9969215393066,358.540344238281,-0.769933998584747,-0.33138445019722,0.470114946365356,-0.766004036374581,-0.329590137176618,0.467939912563966,0
3.53999328613281,-2.54972553253174,1.86891317367554,2.70116114616394,-2.55117869390181,1.86811546013321,2.70182213839487,2053.464,2053.543,2053.441,2054.209,3.70783305168152,44.9970588684082,358.522857666016,-0.757968425750732,-0.326239347457886,0.46281898021698,-0.753933682518821,-0.324396601119134,0.46056632174764,0
3.55999755859375,-2.56464266777039,1.86249268054962,2.71026873588562,-2.56613872308604,1.86167857751006,2.71096098677687,2055.48,2053.75,2050.421,2051.841,3.75101733207703,44.9970855712891,358.506134033203,-0.745869696140289,-0.321038037538528,0.45538341999054,-0.741727567798258,-0.319144650954242,0.45310979673751,0
3.57998657226563,-2.57931566238403,1.85617709159851,2.71922707557678,-2.58084213759183,1.85535210901407,2.7199430732562,2055.155,2052.889,2049.079,2051.621,3.79197669029236,44.9971122741699,358.490295410156,-0.733632862567902,-0.3157759308815,0.447913765907288,-0.72940084364523,-0.31384080592,0.445579593307163,0
3.59999084472656,-2.59374070167542,1.84996819496155,2.72803473472595,-2.59530884290342,1.84912748987145,2.72878055778257,2052.818,2051.527,2049.804,2051.696,3.83026552200317,44.9972343444824,358.474975585938,-0.721267402172089,-0.310457020998001,0.440377473831177,-0.716940488958392,-0.308479463400265,0.437967757068975,0
3.6199951171875,-2.60791635513306,1.84386610984802,2.73668909072876,-2.60952509409627,1.84301063413925,2.73746504379605,2054.422,2051.707,2047.422,2049.537,3.86722636222839,44.9972724914551,358.460479736328,-0.708784937858582,-0.305088192224503,0.432713538408279,-0.704361775018033,-0.303067194200314,0.43028361700977,0
3.63999938964844,-2.62184047698975,1.83787286281586,2.74518966674805,-2.6234885835008,1.83700253474321,2.74599512157732,2052.946,2050.949,2047.38,2049.469,3.9011082649231,44.9973449707031,358.446960449219,-0.696183741092682,-0.299667626619339,0.425024777650833,-0.691670720740692,-0.297606588091786,0.422530849991739,0
3.65998840332031,-2.63550972938538,1.83198881149292,2.75353503227234,-2.63718676607487,1.8311085894645,2.7543631275559,2051.747,2050.054,2047.42,2049.1,3.93254375457764,44.9974517822266,358.434234619141,-0.683476388454437,-0.294201552867889,0.417266458272934,-0.678883253871145,-0.292104498338286,0.414719186025619,0
3.67999267578125,-2.64892292022705,1.82621502876282,2.76172399520874,-2.65063849381582,1.82532068681534,2.76258057812278,2049.348,2049.166,2048.554,2048.943,3.96207404136658,44.9975929260254,358.421966552734,-0.670669734477997,-0.288693696260452,0.40944916009903,-0.665986083416798,-0.286555206197011,0.406840505851433,0
3.69999694824219,-2.66207838058472,1.820552110672,2.76975464820862,-2.66383127580226,1.81964420129024,2.77063984276899,2050.95,2049.416,2046.33,2047.186,3.99125528335571,44.9976425170898,358.410552978516,-0.657772064208984,-0.283148407936096,0.401534199714661,-0.65299527533123,-0.280965624398954,0.398904623909523,0
