t,x_s1,x_s2,x_s3,x_s_d1,x_s_d2,x_s_d3,propellers_rpms1,propellers_rpms2,propellers_rpms3,propellers_rpms4,rollRad,pitchRad,yawRad,v_s1,v_s2,v_s3,v_s_d1,v_s_d2,v_s_d3,insideCount
0,-0.0599999986588955,2.94000005722046,1.17999994754791,-0.0599999986588955,2.94000005722046,1.17999994754791,0,0,0,0,0,45.0048027038574,0,0,0,0,-1.06581410364015E-15,4.44089209850063E-16,-7.105427357601E-16,0
0.019989013671875,-0.0599999986588955,2.94000005722046,1.1790189743042,-0.0600018659130177,2.93999925379318,1.18000108822432,0,0,0,0,0.00112506025470793,44.8630180358887,0.909283995628357,-3.60929135467813E-08,2.95208444356376E-08,-0.0490499772131443,-0.000279680311988734,-0.000120338624884473,0.000170852338267345,5
0.0399932861328125,-0.0599999986588955,2.94000005722046,1.17411398887634,-0.060014863945674,2.93999366110285,1.18000902851964,0,0,0,0,0.00304076820611954,44.7212371826172,1.81856417655945,-3.62307304158094E-08,2.93641413406931E-08,-0.245249927043915,-0.00111059898697896,-0.000477859717552347,0.000678447590588643,6
0.05999755859375,-0.0600350871682167,2.94003486633301,1.16684281826019,-0.0600498857373401,2.93997859220429,1.18003042278566,2307.214,2000.318,2127.489,3382.293,-0.00213747564703226,44.8046226501465,1.28313136100769,-0.00175436097197235,0.00174318393692374,-0.363556146621704,-0.00247936261166862,-0.00106680046642749,0.00151460392977639,6
0.079986572265625,-0.0601342283189297,2.9401330947876,1.15967166423798,-0.0601174907153006,2.93994950367094,1.18007172161174,2848.286,2759.992,2606.547,2299.076,359.914093017578,44.8777122497559,0.620032489299774,-0.00495709478855133,0.00491350051015615,-0.358560144901276,-0.00437104534358026,-0.00188073869847162,0.0026702033915743,6
0.0999908447265625,-0.0602753050625324,2.94026303291321,1.1533819437027,-0.0602281370710988,2.93990189563514,1.1801393137439,2871.649,2897.36,2628.339,2213.585,359.724304199219,44.9188232421875,0.190323501825333,-0.0070538567379117,0.00649292720481753,-0.314488589763641,-0.00677536694902951,-0.00291525111632684,0.00413896594164447,5
0.1199951171875,-0.0604445114731789,2.94038772583008,1.14806056022644,-0.0603918861403606,2.93983143898525,1.18023934549506,2725.774,2926.586,2634.792,2219.291,359.427459716797,44.9351387023926,0.0503475740551949,-0.00846035964787006,0.00623316550627351,-0.266069740056992,-0.00967801353495435,-0.00416417885169243,0.00591214744607921,5
0.139999389648438,-0.0606514662504196,2.94048070907593,1.1437304019928,-0.0606185767455666,2.93973390035084,1.18037782724834,2551.861,2770.028,2667.472,2379.42,359.090576171875,44.9478797912598,0.14410300552845,-0.0103477714583278,0.00464715529233217,-0.21650855243206,-0.0130660253322238,-0.00562194567796536,0.00798183098414958,5
0.159988403320313,-0.0609214007854462,2.94052791595459,1.14032292366028,-0.0609175312885481,2.93960526856281,1.18056045391355,2443.507,2553.64,2687.003,2529.319,358.804534912109,44.9653053283691,0.340571284294128,-0.0134967844933271,0.00235523609444499,-0.170373916625977,-0.0169234294955564,-0.00728167892605071,0.0103382589939246,5
0.17999267578125,-0.0612811110913754,2.94052505493164,1.13772797584534,-0.0612985250199726,2.93944133760391,1.18079319703879,2417.1,2394.901,2654.953,2596.57,358.625640869141,44.9839057922363,0.518666684627533,-0.0179854594171047,-0.000146498903632164,-0.129746660590172,-0.0212433804254414,-0.00914043312572283,0.0129772496054864,5
0.199996948242188,-0.0617489628493786,2.94047331809998,1.13583743572235,-0.0617704296168641,2.93923829023936,1.1810814761931,2450.979,2338.009,2561.596,2580.066,358.551483154297,44.9966316223145,0.617815017700195,-0.0233925599604845,-0.00259224674664438,-0.0945246368646622,-0.0260104776919234,-0.0111915819022102,0.0158893949364944,5
0.220001220703125,-0.0623327493667603,2.94037485122681,1.13456809520721,-0.0623420644491781,2.93899233174064,1.18143067899198,2497.158,2360.058,2442.63,2516.162,358.526153564453,44.9992408752441,0.641125679016113,-0.0291893184185028,-0.00492268614470959,-0.0634661167860031,-0.03121219533433,-0.0134297356845702,0.0190670430730375,5
0.239990234375,-0.063033752143383,2.94023013114929,1.133864402771,-0.0630214373585105,2.93870001655724,1.18184569730089,2511.905,2408.23,2348.239,2446.475,358.476898193359,44.9927215576172,0.627762079238892,-0.0350502282381058,-0.00723008811473846,-0.0351848527789116,-0.0368316683029241,-0.015847637913056,0.0224998914194052,5
0.259994506835938,-0.0638529658317566,2.94003629684448,1.13368904590607,-0.0638179029240226,2.93835731967507,1.18233224568626,2474.835,2436.948,2312.267,2397.205,358.355651855469,44.9817771911621,0.619236469268799,-0.0409608483314514,-0.00969112664461136,-0.00876767188310623,-0.0428651747123285,-0.0184436871643672,0.0261856663338995,4
0.279998779296875,-0.0647956877946854,2.93978643417358,1.13400995731354,-0.0647390625194898,2.93796097043536,1.18289496770872,2398.756,2429.113,2331.146,2372.405,358.162841796875,44.971508026123,0.638276159763336,-0.047136090695858,-0.0124897072091699,0.0160448718816042,-0.0492963837173861,-0.0212108567320638,0.0301143915580518,4
0.29998779296875,-0.065872423350811,2.93947172164917,1.13479280471802,-0.0657918945890516,2.93750796620855,1.18353812639089,2313.874,2391.344,2375.354,2363.923,357.940246582031,44.9650077819824,0.685052275657654,-0.0538366697728634,-0.0157384071499109,0.0391409434378147,-0.0561078595514081,-0.0241416444928383,0.0342754158540715,4
0.319992065429688,-0.067096434533596,2.93908309936523,1.13599848747253,-0.0669855955880233,2.93699435001684,1.18426733970383,2254.327,2343.225,2404.854,2358.98,357.74462890625,44.9626884460449,0.745508253574371,-0.0612005554139614,-0.0194315332919359,0.060286071151495,-0.0632980253096114,-0.0272353719486164,0.0386677759154339,4
0.339996337890625,-0.0684799328446388,2.93861413002014,1.13758552074432,-0.068326768706371,2.93641728069206,1.18508664143323,2239.883,2303.583,2392.169,2348.164,357.615264892578,44.9632225036621,0.803746819496155,-0.0691750273108482,-0.0234493184834719,0.0793518573045731,-0.0708499516420146,-0.0304847548730522,0.0432811298664125,4
0.360000610351563,-0.0700313597917557,2.93806171417236,1.13951468467712,-0.0698225328270578,2.93577369517774,1.18600038039362,2262.246,2279.441,2340.572,2330.682,357.552917480469,44.9647407531738,0.850370407104492,-0.0775714665651321,-0.0276182759553194,0.0964555442333221,-0.0787518717320621,-0.0338847303337087,0.0481082895423912,4
0.379989624023438,-0.0717550441622734,2.9374258518219,1.14175093173981,-0.0714784451857985,2.93506120235061,1.18701195141357,2297.349,2269.467,2273.364,2308.698,357.525054931641,44.9657516479492,0.884519100189209,-0.0861843004822731,-0.031794186681509,0.11181228607893,-0.0869857157641562,-0.0374275233937465,0.0531382163749952,4
0.399993896484375,-0.0736530125141144,2.93670725822449,1.14426493644714,-0.0733036822025899,2.9342758538535,1.18812696022487,2316.133,2265.803,2222.033,2287.118,357.486633300781,44.9656562805176,0.911176919937134,-0.0948983728885651,-0.0359246656298637,0.125697433948517,-0.0955525119207663,-0.0411135764513579,0.0583715384648505,4
0.419998168945313,-0.0757275596261024,2.93590593338013,1.14703106880188,-0.0753034649285836,2.93341540321397,1.18934859628618,2304.907,2262.224,2203.479,2268.162,357.406829833984,44.9645881652832,0.936870396137238,-0.103727445006371,-0.040060468018055,0.138305187225342,-0.104434660908044,-0.0449353170220673,0.0637975046779765,4
0.439987182617188,-0.0779831781983376,2.93501973152161,1.15002727508545,-0.0774822545706558,2.93247793089932,1.19067958487918,2264.448,2253.323,2219.251,2254.324,357.282348632813,44.9632682800293,0.965951502323151,-0.112780876457691,-0.0443136915564537,0.149812236428261,-0.113613709720558,-0.0488848052931553,0.0694048423613094,4
0.459991455078125,-0.080426812171936,2.93404388427734,1.15323305130005,-0.0798493430620752,2.93145943885026,1.1921256023009,2213.909,2239.654,2250.413,2244.221,357.138000488281,44.962474822998,0.99889999628067,-0.122181929647923,-0.0487899743020535,0.160291194915771,-0.123092454730403,-0.0529632444654124,0.0751952597749251,4
0.479995727539063,-0.0830665826797485,2.93297338485718,1.15662848949432,-0.0824088828700873,2.93035814037613,1.19368918522879,2178.401,2225.737,2270.082,2235.083,357.009674072266,44.962574005127,1.03376030921936,-0.131988734006882,-0.0535283759236336,0.169772148132324,-0.132852887402757,-0.0571628859694044,0.0811577557859174,4
0.5,-0.0859099179506302,2.93180370330811,1.16019582748413,-0.085166398670376,2.92917165836334,1.195373708601,2168.43,2213.138,2265.822,2227.334,356.921691894531,44.9636459350586,1.06788980960846,-0.142166763544083,-0.0584830790758133,0.178364440798759,-0.142884000065179,-0.0614789935111996,0.0872856059789651,5
0.519989013671875,-0.0889621675014496,2.93053269386292,1.16391861438751,-0.0881248588203387,2.92789871561062,1.19718098574075,2183.104,2204.422,2237.222,2219.452,356.876586914063,44.9653549194336,1.0992888212204,-0.152612507343292,-0.0635538697242737,0.186139330267906,-0.153166947611899,-0.0659034585682559,0.0935672981730243,5
0.539993286132813,-0.092226468026638,2.92915987968445,1.16778290271759,-0.091293865515634,2.92653518056143,1.19911688247953,2206.821,2198.922,2199.809,2212.058,356.855316162109,44.9672584533691,1.1274174451828,-0.163214936852455,-0.0686414986848831,0.193212509155273,-0.163706645289342,-0.0704383960337938,0.100005835015435,5
0.55999755859375,-0.0957046449184418,2.92768597602844,1.17177605628967,-0.094676112580471,2.92507989413848,1.20118304443252,2224.941,2196.759,2168.824,2204.218,356.830932617188,44.9688568115234,1.1532998085022,-0.173908740282059,-0.0736959427595139,0.199657708406448,-0.17448465888317,-0.0750758741803766,0.106589955332319,5
0.579986572265625,-0.0993987023830414,2.92611122131348,1.17588829994202,-0.0982734311149,2.92353206847056,1.20338059019015,2222.748,2194.016,2160.372,2198.262,356.781860351563,44.9700202941895,1.17856442928314,-0.184702605009079,-0.0787342488765717,0.205613702535629,-0.185481935470438,-0.0798076950675377,0.113308019990364,5
0.599990844726563,-0.103311881422997,2.92443490028381,1.18011116981506,-0.102095761416081,2.92188742652551,1.20571559212485,2201.401,2189.882,2174.053,2193.659,356.705352783203,44.9708976745605,1.2039966583252,-0.195659533143044,-0.0838211625814438,0.211144402623177,-0.19670480600515,-0.0846365827279185,0.120163896470579,5
0.6199951171875,-0.107448868453503,2.92265439033508,1.1844367980957,-0.106144683970236,2.92014528826426,1.208189015731,2175.528,2186.175,2194.651,2189.084,356.616790771484,44.9717102050781,1.22977483272552,-0.20684939622879,-0.0890253484249115,0.216281294822693,-0.208134604141382,-0.0895545055543457,0.127146181793521,5
0.639999389648438,-0.11181503534317,2.92076683044434,1.18885934352875,-0.110424235525481,2.91830391678686,1.21080332699501,2155.203,2181.637,2211.51,2186.25,356.536651611328,44.972827911377,1.25550389289856,-0.218307927250862,-0.0943780764937401,0.221126392483711,-0.219761081350814,-0.0945570538913933,0.134248615293163,5
0.659988403320313,-0.116415336728096,2.9187695980072,1.19337368011475,-0.114934715429503,2.91636318329238,1.21355870878373,2150.879,2178.146,2213.063,2183.959,356.481262207031,44.9743728637695,1.28021669387817,-0.230015397071838,-0.0998590365052223,0.225716039538383,-0.231565018351745,-0.0996359582190702,0.141459456210227,5
0.67999267578125,-0.121253557503223,2.91666150093079,1.19797599315643,-0.119686638739014,2.91431856344567,1.2164615845812,2160.789,2175.784,2200.516,2182.52,356.453277587891,44.9763069152832,1.30303752422333,-0.241910934448242,-0.105410650372505,0.23011477291584,-0.243554411173546,-0.104794659005432,0.14878358919428,5
0.699996948242188,-0.126331999897957,2.91444206237793,1.20266282558441,-0.124680083855354,2.91217002351282,1.2195120022816,2180.522,2176.54,2177.826,2180.299,356.442749023438,44.9782791137695,1.32392764091492,-0.253922581672668,-0.110969938337803,0.234339714050293,-0.255710395848158,-0.11002503961202,0.1562094905416,5
0.720001220703125,-0.131652161478996,2.91211199760437,1.20743262767792,-0.129918284978346,2.90991617190799,1.22271193760712,2194.365,2177.203,2161.672,2179.47,356.431060791016,44.9800643920898,1.34357738494873,-0.266007900238037,-0.116501055657864,0.238491013646126,-0.268023157655716,-0.11532287703907,0.163731164592979,5
0.739990234375,-0.137215510010719,2.90967178344727,1.21228432655334,-0.135400001298574,2.90755754251682,1.22606063256665,2196.571,2177.834,2158.389,2178.936,356.404998779297,44.9814987182617,1.36250841617584,-0.278167873620987,-0.12201064825058,0.242588013410568,-0.280473432677602,-0.12067988256057,0.171336843321139,5
0.759994506835938,-0.143024280667305,2.90712094306946,1.2172178030014,-0.14113644597991,2.90508931062815,1.22956493710703,2185.767,2177.288,2169.843,2179.195,356.362091064453,44.9826698303223,1.38087499141693,-0.29043897986412,-0.127537354826927,0.246673420071602,-0.293070637251543,-0.126100107763583,0.179032279019858,5
0.779998779296875,-0.149081513285637,2.90445852279663,1.22223246097565,-0.147126184485884,2.90251209348295,1.2332239748923,2173.17,2178.035,2184.08,2178.438,356.312225341797,44.9836540222168,1.39876163005829,-0.302860707044601,-0.133123904466629,0.250732809305191,-0.305795832832518,-0.131575403921268,0.186805902427515,5
0.79998779296875,-0.155390590429306,2.90168261528015,1.22732949256897,-0.153366821193532,2.89982692185086,1.23703628247379,2162.589,2177.574,2197.204,2179.229,356.267120361328,44.984748840332,1.41613113880157,-0.315454572439194,-0.138791263103485,0.254852592945099,-0.318629798715703,-0.137097500901303,0.194645971915464,5
0.819992065429688,-0.161954745650291,2.89879202842712,1.23251020908356,-0.159870162197751,2.89702871589906,1.24100907201063,2160.165,2177.014,2202.481,2180.516,356.237274169922,44.9860954284668,1.43222808837891,-0.328207910060883,-0.14452899992466,0.259038090705872,-0.33158286215529,-0.142670842232658,0.202558796242139,5
0.839996337890625,-0.168776333332062,2.89578604698181,1.23777568340302,-0.166633637018892,2.89411858163313,1.24514077323692,2170.575,2179.119,2194.208,2180.675,356.226043701172,44.9875755310059,1.44675314426422,-0.341078668832779,-0.150301918387413,0.263271689414978,-0.344636106234817,-0.148287288494656,0.210532819358465,5
0.860000610351563,-0.175856754183769,2.89266467094421,1.24312841892242,-0.173659158941841,2.89109569582005,1.24943255494854,2183.426,2180.795,2183.367,2182.208,356.225219726563,44.989086151123,1.45995652675629,-0.354021847248077,-0.156070083379745,0.267634212970734,-0.357780475378537,-0.153942943326036,0.218562509354528,5
0.879989624023438,-0.183196902275085,2.88942837715149,1.24857068061829,-0.18094280014554,2.88796174849148,1.2538820177009,2193.719,2182.899,2175.171,2183.626,356.224365234375,44.9904289245605,1.47196161746979,-0.367007523775101,-0.161810517311096,0.2721126973629,-0.370996904517929,-0.159629603560431,0.226636219677473,5
0.899993896484375,-0.190797597169876,2.88607788085938,1.25410532951355,-0.18849723509595,2.8847112861788,1.25849690412748,2195.189,2184.104,2176.472,2185.614,356.215362548828,44.9915466308594,1.48282253742218,-0.380034416913986,-0.167526915669441,0.276732087135315,-0.384296738353309,-0.165352150505452,0.234760880627692,5
0.919998168945313,-0.198659926652908,2.88261294364929,1.25973439216614,-0.196318384305134,2.8813460641717,1.26327472213274,2193.22,2186.94,2181.402,2186.131,356.198120117188,44.9923439025879,1.49283838272095,-0.393117398023605,-0.173241302371025,0.281451672315598,-0.397661187980262,-0.171102499820431,0.242925014356675,5
0.939987182617188,-0.206785529851913,2.87903332710266,1.26546120643616,-0.204401181418416,2.87786826238106,1.26821237675968,2185.858,2188.047,2192.534,2187.976,356.175689697266,44.9930305480957,1.50241887569427,-0.406279534101486,-0.178978323936462,0.286341965198517,-0.411071375662203,-0.176872528942697,0.25111708874972,5
0.959991455078125,-0.215176165103912,2.87533831596375,1.27128899097443,-0.212759000778906,2.87427212620069,1.27331803818581,2178.891,2188.127,2203.737,2190.283,356.156188964844,44.9937896728516,1.51103973388672,-0.419532060623169,-0.18475179374218,0.291391313076019,-0.424539267042903,-0.182667386354485,0.259344413431889,5
0.979995727539063,-0.223833382129669,2.87152719497681,1.27722001075745,-0.22138664033507,2.87055989392801,1.27858852855901,2181.251,2190.565,2204.952,2190.968,356.147613525391,44.9945907592773,1.51844382286072,-0.432862162590027,-0.190555363893509,0.296550124883652,-0.438046240701377,-0.188479059778567,0.267595612867683,5
1,-0.232758283615112,2.86759996414185,1.2832578420639,-0.230284798736574,2.86673126495361,1.28402427467346,2187.013,2191.984,2202.566,2193.048,356.149475097656,44.9954948425293,1.52478086948395,-0.446244329214096,-0.196366891264915,0.301892250776291,-0.451584000205995,-0.194303979492187,0.275865618896484,5
1.01998901367188,-0.24195122718811,2.86355662345886,1.28940558433533,-0.239446912293295,2.86278906344998,1.2896212668733,2195.407,2193.787,2197.144,2194.911,356.158203125,44.9964218139648,1.52986633777618,-0.459647923707962,-0.202162131667137,0.307387202978134,-0.46513400752272,-0.200134169097193,0.284143106922576,5
1.03999328613281,-0.25141230225563,2.85939812660217,1.29566645622253,-0.248887339851819,2.85872711120656,1.29538827675384,2200.442,2194.913,2195.12,2197.172,356.167694091797,44.9972381591797,1.5335134267807,-0.473053336143494,-0.20792730152607,0.31304544210434,-0.478708875293167,-0.205975055460915,0.292435781811908,5
1.05999755859375,-0.261141330003738,2.85512495040894,1.30204272270203,-0.258599401509697,2.85454828239877,1.3013212236669,2205.556,2198.224,2192.441,2197.679,356.174835205078,44.9978103637695,1.53599572181702,-0.486451357603073,-0.213662654161453,0.318812340497971,-0.492290296490434,-0.211818761581115,0.30073246008742,5
1.07998657226563,-0.271138310432434,2.85073733329773,1.3085378408432,-0.268575430648764,2.85025587575821,1.30741542419509,2203.888,2199.667,2197.021,2199.545,356.176208496094,44.9982032775879,1.53792500495911,-0.499849408864975,-0.219378739595413,0.324755609035492,-0.50586005237609,-0.217657448443621,0.309022012206103,5
1.09999084472656,-0.281403481960297,2.84623551368713,1.3151547908783,-0.278830554044452,2.84584338265603,1.31368011904947,2198.144,2199.816,2206.117,2201.726,356.174560546875,44.9985504150391,1.53897774219513,-0.513258814811707,-0.225090697407722,0.330849230289459,-0.519431110871131,-0.223496695782555,0.317312360068532,5
1.1199951171875,-0.291937083005905,2.84161949157715,1.32189536094666,-0.289357002179081,2.84131414609862,1.32011056195293,2197.511,2202.148,2209.509,2202.046,356.176452636719,44.9988288879395,1.53908240795135,-0.526680827140808,-0.230806529521942,0.337030172348022,-0.532985466132485,-0.229328756186667,0.32559250418615,5
1.13999938964844,-0.302739262580872,2.83688902854919,1.3287627696991,-0.300154365346813,2.83666834237095,1.32670650262257,2197.423,2202.846,2212.395,2203.84,356.18359375,44.9991874694824,1.53845930099487,-0.540108919143677,-0.23652184009552,0.3433698117733,-0.546515580872639,-0.235150386571708,0.333857840147634,5
1.15998840332031,-0.313809752464294,2.83204460144043,1.33575928211212,-0.31121353909136,2.83190988886621,1.33346237928811,2200.57,2203.782,2211.675,2205.227,356.197326660156,44.9996070861816,1.53681492805481,-0.55352509021759,-0.242223858833313,0.349823325872421,-0.560003743914979,-0.240953966313175,0.342097548471566,6
1.17999267578125,-0.325147956609726,2.82708668708801,1.34288728237152,-0.322550701230474,2.8270318247214,1.34038807472597,2203.357,2203.873,2211.145,2207.146,356.215972900391,45.0000648498535,1.53373110294342,-0.566910803318024,-0.247898980975151,0.356401681900024,-0.573463232144024,-0.246745208083563,0.350319739799517,6
1.19999694824219,-0.336752891540527,2.82201600074768,1.35014796257019,-0.334156660511822,2.8220381046756,1.34747797414352,2210.289,2206.733,2205.49,2206.914,356.238006591797,45.000373840332,1.52935898303986,-0.580245435237885,-0.253536522388458,0.363033324480057,-0.58687652428584,-0.252516572968185,0.358513710658656,6
1.21998596191406,-0.348623335361481,2.81683325767517,1.3575439453125,-0.34602126278068,2.81693309777792,1.3547258745261,2212.184,2207.713,2205.016,2208.253,356.257965087891,45.000560760498,1.52434515953064,-0.593522191047668,-0.259133130311966,0.369796395301819,-0.600226348268632,-0.258260629277074,0.366668909809849,6
1.239990234375,-0.360758155584335,2.8115394115448,1.36507713794708,-0.358161486344149,2.81170949873715,1.36214214765657,2209.29,2207.406,2209.608,2209.877,356.274780273438,45.0006904602051,1.5184109210968,-0.606742441654205,-0.264694899320602,0.376657068729401,-0.613526094901141,-0.263983138701136,0.374793517489195,6
1.25999450683594,-0.373156309127808,2.80613470077515,1.3727480173111,-0.3705671011502,2.80637170925886,1.36972054415578,2209.458,2209.447,2210.502,2209.41,356.291717529297,45.0006866455078,1.51162958145142,-0.619907081127167,-0.270230054855347,0.383543431758881,-0.626758665639206,-0.269676744214496,0.382877088462885,6
1.27999877929688,-0.385816663503647,2.80061984062195,1.38055860996246,-0.383236695417198,2.80092033679326,1.37746020158837,2206.915,2209.495,2214.35,2210.504,356.309112548828,45.0006942749023,1.50439536571503,-0.633018434047699,-0.275742441415787,0.3905308842659,-0.639917282339435,-0.275338529371412,0.39091548206889,6
1.29998779296875,-0.398738086223602,2.79499530792236,1.38850998878479,-0.396158759015336,2.79536033382764,1.38535408859565,2206,2209.498,2216.365,2211.234,356.329803466797,45.0007476806641,1.49641573429108,-0.646071135997772,-0.281230688095093,0.397570818662643,-0.652985332144132,-0.280961346123326,0.398898549771684,6
1.31999206542969,-0.411919176578522,2.78926157951355,1.39660334587097,-0.409351342777246,2.78968393359302,1.39341323214959,2204.813,2208.489,2218.608,2212.471,356.355041503906,45.0008773803711,1.48716056346893,-0.659055411815643,-0.286688596010208,0.404670000076294,-0.665976209205206,-0.286550957599616,0.406834473849655,6
1.33999633789063,-0.425358176231384,2.78341937065125,1.40483832359314,-0.422802873722428,2.78389611561957,1.401630562497,2210.201,2210.559,2213.184,2211.343,356.386352539063,45.0009346008301,1.47669160366058,-0.671951532363892,-0.292105793952942,0.411750853061676,-0.678873453515705,-0.29210028151913,0.41471319914141,6
1.36000061035156,-0.439053148031235,2.77746987342834,1.41321635246277,-0.436511415158101,2.77799771321212,1.41000489654248,2212.593,2210.739,2210.764,2211.951,356.418975830078,45.0009651184082,1.46563017368317,-0.68474668264389,-0.297472447156906,0.418900549411774,-0.691670720740693,-0.297606588091785,0.422530849991739,6
1.37998962402344,-0.453001767396927,2.77141427993774,1.42173767089844,-0.450464156928423,2.77199423822282,1.41852840876173,2213.503,2210.755,2209.703,2212.229,356.450775146484,45.0009307861328,1.45393598079681,-0.69743275642395,-0.302785277366638,0.426068335771561,-0.704352136620515,-0.303063047067127,0.430277729063129,6
1.39999389648438,-0.467202007770538,2.76525330543518,1.43040287494659,-0.464680216184654,2.76587746507559,1.42721277752413,2210.098,2209.418,2213.189,2213.089,356.480926513672,45.0009002685547,1.44124507904053,-0.710010647773743,-0.308048158884048,0.433260917663574,-0.716930938559026,-0.308475354130225,0.437961922879032,6
1.41999816894531,-0.481651544570923,2.75898790359497,1.43921077251434,-0.47914673136562,2.75965292774086,1.43605014590267,2210.884,2210.957,2211.711,2211.494,356.512451171875,45.0007247924805,1.42767512798309,-0.722476959228516,-0.313265681266785,0.4403957426548,-0.729391385793766,-0.313836736470737,0.445573815653291,6
1.43998718261719,-0.496348202228546,2.75261902809143,1.44816207885742,-0.49384995777978,2.75332654017544,1.44503211747976,2208.615,2210.351,2213.471,2211.76,356.544342041016,45.0005645751953,1.41376197338104,-0.734831631183624,-0.318438917398453,0.447564154863358,-0.741718206886022,-0.319140623215221,0.4531040783023,6
1.45999145507813,-0.511289536952972,2.74614763259888,1.45725667476654,-0.508809800712713,2.74688973769103,1.45417085208374,2205.016,2208.506,2216.693,2212.406,356.578338623047,45.0004997253418,1.39896559715271,-0.747070670127869,-0.323566943407059,0.454729855060577,-0.753924423002454,-0.324392617007921,0.460560665253582,6
1.47999572753906,-0.526473224163055,2.73957467079163,1.46649289131165,-0.524012471663969,2.74034845309416,1.46345792653486,2208.083,2209.718,2212.36,2210.568,356.617492675781,45.0003776550293,1.38329148292542,-0.759181678295135,-0.328644543886185,0.461810797452927,-0.765994882555672,-0.329586198544069,0.467934320638836,6
1.5,-0.541896343231201,2.73290133476257,1.47587096691132,-0.539455198877605,2.73370387899399,1.47289164761066,2208.606,2208.859,2210.652,2210.659,356.658538818359,45.0002708435059,1.36721456050873,-0.771155178546906,-0.333663463592529,0.468902230262756,-0.777924000354858,-0.334718964672088,0.475221632552146,6
1.51998901367188,-0.557555973529816,2.72612905502319,1.48538994789124,-0.555123050061237,2.72696244033876,1.48246289340675,2208.958,2208.083,2208.971,2210.249,356.700469970703,45.0001640319824,1.3505437374115,-0.782981991767883,-0.338618487119675,0.475947141647339,-0.789697369743256,-0.339784716610053,0.482413800191712,6
1.53999328613281,-0.573449075222015,2.7192587852478,1.49504911899567,-0.571036956668503,2.72011513090874,1.49218445062151,2205.875,2206.045,2210.865,2210.515,356.742431640625,45.0000991821289,1.3328332901001,-0.794659376144409,-0.34350922703743,0.482959777116776,-0.801327600455846,-0.344788879974649,0.489518526647862,6
1.55999755859375,-0.589572727680206,2.71229195594788,1.50484621524811,-0.587181951496087,2.71316839067337,1.50204717602401,2207.787,2207.255,2206.945,2208.085,356.786560058594,44.9998970031738,1.31425869464874,-0.806179761886597,-0.34833624958992,0.489852279424667,-0.812800388649436,-0.349725300221754,0.496527073925997,6
1.57998657226563,-0.605923473834991,2.70522999763489,1.5147807598114,-0.603542258451077,2.7061290076447,1.51204143224525,2205.856,2206.156,2207.045,2207.802,356.830352783203,44.9996910095215,1.29545080661774,-0.817541480064392,-0.353098750114441,0.496730297803879,-0.82410201904291,-0.354588076049064,0.503431063574906,6
1.59999084472656,-0.622498393058777,2.69807410240173,1.52485179901123,-0.620139554045575,2.69898765502515,1.52218046112824,2201.513,2203.775,2209.79,2207.896,356.874633789063,44.9995536804199,1.2758960723877,-0.828742742538452,-0.357797354459763,0.50355327129364,-0.835244706287931,-0.359382463079953,0.510237957334684,5
1.6199951171875,-0.639293849468231,2.69082546234131,1.53505659103394,-0.636958033083316,2.69175113334911,1.53245460752521,2203.315,2204.501,2205.659,2205.392,356.922576904297,44.9993476867676,1.25565505027771,-0.839775860309601,-0.362430721521378,0.510237276554108,-0.846214826007804,-0.364102599125749,0.516939432286212,5
1.63999938964844,-0.656306624412537,2.68348550796509,1.54539430141449,-0.653994195024907,2.68442094880091,1.54286173301126,2202.132,2203.081,2204.662,2204.932,356.971557617188,44.9991645812988,1.23522818088531,-0.850635707378387,-0.366993844509125,0.516884624958038,-0.857007552155828,-0.368746407673381,0.523532540272869,5
1.65998840332031,-0.673532962799072,2.67605590820313,1.55586314201355,-0.67123120513297,2.67700434489773,1.55339155350804,2201.137,2201.644,2203.414,2204.071,357.021636962891,44.9990234375,1.21437740325928,-0.861316382884979,-0.371483415365219,0.523440182209015,-0.867610144209785,-0.373308406832068,0.530009498308446,5
1.67999267578125,-0.690969228744507,2.66853785514832,1.56646144390106,-0.688691692550512,2.66949158495151,1.56405789280588,2197.38,2198.988,2205.073,2203.91,357.072723388672,44.9989471435547,1.19255554676056,-0.871814906597137,-0.375898063182831,0.529918253421783,-0.878034183119987,-0.377793579561193,0.536377381014768,5
1.69999694824219,-0.708611667156219,2.66093325614929,1.57718598842621,-0.706358800111611,2.66188992212981,1.57485045312518,2199.771,2199.826,2199.799,2200.87,357.127227783203,44.9987411499023,1.16993618011475,-0.882121920585632,-0.38023579120636,0.536228001117706,-0.888267004546665,-0.382196476749158,0.542628451944297,5
1.71998596191406,-0.72645628452301,2.65324330329895,1.58803570270538,-0.724214951560321,2.65420691900456,1.58575849740545,2198.395,2198.318,2198.407,2200.192,357.181701660156,44.9985580444336,1.14716029167175,-0.892233073711395,-0.384492725133896,0.542486429214478,-0.898296635743475,-0.386511946857687,0.54875539713312,5
1.739990234375,-0.744499266147614,2.64546990394592,1.59900867938995,-0.74228345468553,2.64643254688532,1.59679626401121,2194.07,2195.563,2200.24,2199.869,357.236206054688,44.9984321594238,1.12371933460236,-0.902145981788635,-0.388668358325958,0.54865026473999,-0.908134108040217,-0.390744736359816,0.554764955448471,5
1.75999450683594,-0.762736320495605,2.63761472702026,1.61010134220123,-0.760546715064628,2.63857437616062,1.60795300478424,2195.73,2196.004,2195.467,2196.85,357.293426513672,44.9982223510742,1.09973382949829,-0.911855101585388,-0.392762720584869,0.554634928703308,-0.917767514700581,-0.394889722119545,0.560649853250941,4
1.77999877929688,-0.781163513660431,2.62967920303345,1.62131237983704,-0.779000609654483,2.63063418086074,1.61922620102184,2193.623,2194.158,2194.633,2196.088,357.350524902344,44.9980278015137,1.07571125030518,-0.921357810497284,-0.396772742271423,0.560551822185516,-0.927192788821983,-0.398945154262308,0.566407606133204,4
1.79998779296875,-0.799776494503021,2.62166523933411,1.63263916969299,-0.797626646773287,2.62261991743975,1.63060455644414,2191.497,2192.349,2193.861,2194.827,357.408050537109,44.9978828430176,1.05140149593353,-0.930651783943176,-0.400697708129883,0.566340625286102,-0.936399026186941,-0.402906341007953,0.572031552878955,4
1.81999206542969,-0.818571269512177,2.61357450485229,1.64407956600189,-0.816448984455027,2.61452119137054,1.64210282881713,2186.692,2189.275,2195.925,2194.389,357.466644287109,44.9978179931641,1.0262176990509,-0.939736425876617,-0.404537796974182,0.572021901607513,-0.945396434568188,-0.406777674475912,0.57752792925727,3
1.83999633789063,-0.837543308734894,2.60540866851807,1.65562963485718,-0.835449117627072,2.60634596486888,1.6537097136807,2188.933,2189.786,2190.262,2190.945,357.529266357422,44.9976348876953,1.0003262758255,-0.948602974414825,-0.408290773630142,0.577500879764557,-0.954174163352093,-0.410554485950274,0.582890106797601,3
1.86000061035156,-0.85668820142746,2.59716963768005,1.66728758811951,-0.854622615239374,2.59809614449182,1.66542250417552,2187.673,2188.035,2188.158,2189.927,357.592498779297,44.9974708557129,0.974373340606689,-0.957245230674744,-0.411950707435608,0.582900702953339,-0.962728579444532,-0.414235212212131,0.588115866099442,0
1.87998962402344,-0.876001358032227,2.58885931968689,1.67905080318451,-0.873950157556149,2.58978004298193,1.67722939817649,2186.259,2186.227,2186.28,2188.498,357.655944824219,44.9973373413086,0.948221921920776,-0.965659260749817,-0.415515422821045,0.588160932064056,-0.971049893464309,-0.417815641164241,0.593199226982579,0
1.89999389648438,-0.895478188991547,2.58047962188721,1.69091689586639,-0.893456683142228,2.58138692997148,1.6891456302637,2181.406,2183.053,2188.053,2187.96,357.719421386719,44.9972648620605,0.921327412128448,-0.973845183849335,-0.418985277414322,0.593302190303802,-0.979147395688901,-0.421299770153459,0.598145864732551,0
1.91999816894531,-0.915114223957062,2.57203245162964,1.70288145542145,-0.913122862707269,2.57292512231409,1.7011593924753,2183.166,2183.431,2182.67,2184.342,357.785797119141,44.9970855712891,0.893887758255005,-0.981797695159912,-0.422360599040985,0.59822678565979,-0.987011339258123,-0.424683405378145,0.60294982514457,0
1.93998718261719,-0.934904515743256,2.56351971626282,1.71494269371033,-0.932928814964021,2.56440317437226,1.71325853964316,2180.918,2181.404,2181.358,2183.332,357.851959228516,44.9969291687012,0.866489887237549,-0.989513516426086,-0.425637781620026,0.603064060211182,-0.994632798067981,-0.427962706185118,0.607605655400993,0
1.95999145507813,-0.954844295978546,2.55494332313538,1.72709810733795,-0.952900013794853,2.55581012544606,1.7254586333645,2175.985,2178.126,2183.015,2182.758,357.918304443359,44.9968681335449,0.838510453701019,-0.99699193239212,-0.428816586732864,0.607769787311554,-1.00202031904361,-0.431141350077486,0.612118576685011,0
1.97999572753906,-0.974928915500641,2.54630541801453,1.73934316635132,-0.973016570682103,2.54715453300902,1.73774752405424,2177.857,2178.33,2177.442,2179.095,357.987762451172,44.9967002868652,0.810121417045593,-1.00422787666321,-0.431896775960922,0.61225038766861,-1.00916501115878,-0.434215511495054,0.616483157607448,0
2,-0.995153188705444,2.5376079082489,1.75167596340179,-0.993273599084619,2.53843849960327,1.75012222660065,2175.757,2176.125,2175.874,2178.103,358.057037353516,44.9965782165527,0.781828343868256,-1.0112179517746,-0.434873759746552,0.616637706756592,-1.01606400046349,-0.437183953857422,0.620697642517089,0
2.01998901367188,-1.01551234722137,2.52885293960571,1.76409316062927,-1.01365055070775,2.52967086658596,1.76257018837116,2173.65,2174.039,2174.443,2176.492,358.126342773438,44.9964790344238,0.753377199172974,-1.01796066761017,-0.437746912240982,0.620862424373627,-1.02270954399163,-0.440043345582587,0.624757301356767,0
2.03999328613281,-1.03600144386292,2.52004265785217,1.77659225463867,-1.03417354141348,2.52084039703127,1.77510736313833,2168.362,2170.659,2176.334,2175.854,358.196014404297,44.996467590332,0.724148750305176,-1.02445685863495,-0.440517038106918,0.624952375888824,-1.02910913225408,-0.442796909628122,0.628666709962695,0
2.05999755859375,-1.05661559104919,2.51117897033691,1.78916835784912,-1.05482201812353,2.5119559343546,1.78772119534738,2170.412,2170.969,2170.455,2171.929,358.269195556641,44.9963188171387,0.69438374042511,-1.03070092201233,-0.443183958530426,0.628804981708527,-1.03525504859546,-0.445441325732794,0.632421154350513,0
2.07998657226563,-1.0773491859436,2.50226402282715,1.80181956291199,-1.07557499515204,2.50302650811029,1.80039886517028,2168.52,2168.92,2168.467,2170.755,358.342407226563,44.9961929321289,0.66471004486084,-1.03668749332428,-0.445742458105087,0.632558763027191,-1.04114045847258,-0.4479736531836,0.636016459404434,0
2.09999084472656,-1.09819746017456,2.49330019950867,1.81454288959503,-1.09645901288412,2.49404069871208,1.81315658571413,2163.833,2165.62,2169.545,2170.059,358.415557861328,44.9961547851563,0.634547233581543,-1.04241585731506,-0.448191672563553,0.636168777942657,-1.04677201701582,-0.450396755497224,0.639456690639761,0
2.1199951171875,-1.11915516853333,2.48428964614868,1.82733368873596,-1.11745308225396,2.48500753716864,1.82598153508617,2165.864,2165.663,2163.663,2166.272,358.491271972656,44.9960136413574,0.604108810424805,-1.04788267612457,-0.450531929731369,0.639540791511536,-1.0521429102862,-0.45270770082608,0.642737685527497,0
2.13999938964844,-1.14021682739258,2.4752345085144,1.84018981456757,-1.138551967509,2.47592927627801,1.83887051484687,2163.43,2163.339,2162.223,2165.21,358.565979003906,44.9959106445313,0.573862671852112,-1.05308508872986,-0.45275953412056,0.64280891418457,-1.05725102347782,-0.454905579228273,0.645858152165725,0
2.15998840332031,-1.16137719154358,2.46613693237305,1.85310781002045,-1.15973418543027,2.46681515966915,1.85181040123298,2160.811,2161.137,2161.152,2163.511,358.640167236328,44.9958343505859,0.543542385101318,-1.05802464485168,-0.45487579703331,0.645902931690216,-1.06209075728,-0.456987981476842,0.64881467002292,0
2.17999267578125,-1.18263125419617,2.4569993019104,1.86608481407166,-1.18102676265167,2.45765355853653,1.86481770439342,2154.979,2157.7,2163.39,2162.809,358.714508056641,44.9958648681641,0.512505948543549,-1.06270360946655,-0.45688259601593,0.648852348327637,-1.06666760390386,-0.458957270716794,0.65161059420515,0
2.19999694824219,-1.2039737701416,2.4478235244751,1.87911581993103,-1.20240821395574,2.44845371736898,1.8778792993441,2156.948,2157.898,2157.56,2158.746,358.792572021484,44.9957466125488,0.48102605342865,-1.06711792945862,-0.458780586719513,0.651553153991699,-1.07097597819164,-0.460811043810786,0.654242512826705,0
2.21998596191406,-1.22539889812469,2.43861246109009,1.89219880104065,-1.22385674836213,2.4392250122166,1.89098187431519,2155.147,2155.808,2155.335,2157.519,358.870880126953,44.9956474304199,0.449707984924316,-1.07126092910767,-0.460563212633133,0.654148161411285,-1.07501122224684,-0.462547296596067,0.65670758045128,0
2.239990234375,-1.246901512146,2.42936778068542,1.90533065795898,-1.24539969505118,2.42995568409656,1.90414212427648,2150.763,2152.394,2155.945,2156.889,358.949279785156,44.995662689209,0.417926162481308,-1.07513201236725,-0.462229251861572,0.656594216823578,-1.07877792518082,-0.464168003639063,0.659008600495412,0
2.25999450683594,-1.26847612857819,2.42009210586548,1.91850638389587,-1.26701526177039,2.4206551096063,1.91734673668097,2153.09,2152.486,2149.793,2152.831,359.029968261719,44.9955444335938,0.385959714651108,-1.07872831821442,-0.463779032230377,0.658787190914154,-1.08227143928024,-0.465671165158559,0.661142733743536,0
2.27999877929688,-1.29011702537537,2.41078782081604,1.9317239522934,-1.28869796983554,2.41132564607061,1.93059236468599,2150.675,2150.136,2148.207,2151.796,359.109191894531,44.9954605102539,0.35428711771965,-1.08204698562622,-0.46520870923996,0.660876035690308,-1.08549040888332,-0.467056197851165,0.663109152043028,0
2.29998779296875,-1.3118189573288,2.4014573097229,1.94497966766357,-1.31042570636616,2.40197680804417,1.9438654998779,2147.885,2147.865,2147.241,2150.1,359.187316894531,44.995418548584,0.322629272937775,-1.08509135246277,-0.466520816087723,0.66278463602066,-1.08843144721369,-0.468321644481621,0.664905786465049,0
2.31999206542969,-1.33357608318329,2.39210295677185,1.95827054977417,-1.33222611841886,2.3925966997709,1.95718303141218,2141.718,2144.377,2149.712,2149.452,359.265197753906,44.9954795837402,0.290292859077454,-1.08786511421204,-0.46771839261055,0.66454416513443,-1.09109790637238,-0.469468947365361,0.666534684755819,0
2.33999633789063,-1.35538339614868,2.3827269077301,1.97159147262573,-1.35407709248145,2.38319483607731,1.97053145048929,2143.578,2144.61,2144.073,2145.194,359.346557617188,44.9953842163086,0.257609665393829,-1.09036636352539,-0.468803256750107,0.666044354438782,-1.09348640563071,-0.470496651869278,0.667993781680938,0
2.36000061035156,-1.37723517417908,2.37333154678345,1.98494029045105,-1.37597305876702,2.37377361348711,1.98390735461333,2141.68,2142.465,2141.886,2144.055,359.428161621094,44.9953117370605,0.225162878632545,-1.09258806705475,-0.469768762588501,0.667440474033356,-1.09559602313537,-0.471404361345641,0.669282514094601,0
2.37998962402344,-1.39912593364716,2.36391925811768,1.99831342697144,-1.39789168475144,2.36434264106153,1.9972971011938,2140.175,2140.344,2139.576,2142.294,359.509857177734,44.9952735900879,0.192788243293762,-1.09452986717224,-0.470613598823547,0.66865599155426,-1.09742465646102,-0.47219117117957,0.670399597657984,0
2.39999389648438,-1.42104959487915,2.35449242591858,2.01170778274536,-1.41986083522252,2.35488992936084,2.01071771239474,2135.243,2136.945,2140.749,2141.655,359.591278076172,44.9953384399414,0.15985244512558,-1.09619247913361,-0.471337735652924,0.669723093509674,-1.09897439291323,-0.472857979480329,0.671346307473475,0
2.41999816894531,-1.44300103187561,2.34505367279053,2.02511835098267,-1.44185817738692,2.34542508756209,2.02415554546122,2137.643,2137.147,2134.648,2137.383,359.675140380859,44.995246887207,0.126730680465698,-1.09757483005524,-0.471942931413651,0.670529246330261,-1.10024313330221,-0.473403883025206,0.672121361178802,0
2.43998718261719,-1.46497452259064,2.33560514450073,2.03854298591614,-1.46386128162322,2.33595776650478,2.03759689848751,2135.366,2134.9,2132.864,2136.375,359.757659912109,44.9951858520508,0.093938797712326,-1.09867227077484,-0.472424507141113,0.671233713626862,-1.10122974390336,-0.473828394004169,0.672724066199287,0
2.45999145507813,-1.48696446418762,2.32614946365356,2.05197858810425,-1.48589810917879,2.32647593524532,2.05105885256329,2129.897,2131.502,2134.54,2135.772,359.839111328125,44.995231628418,0.0607736706733704,-1.09948873519897,-0.472784876823425,0.671780586242676,-1.10193535162022,-0.474131997292339,0.673155110942729,0
2.47999572753906,-1.50896489620209,2.31668901443481,2.06541991233826,-1.50794623031618,2.31698924467309,2.06452770571198,2131.573,2131.462,2129.265,2131.689,359.922576904297,44.9951477050781,0.0275281984359026,-1.10002624988556,-0.473027765750885,0.67206883430481,-1.10235882472314,-0.474314205938057,0.673413804053135,0
2.5,-1.53097057342529,2.30722594261169,2.07886481285095,-1.52999999932945,2.30750012397766,2.0780000090599,2128.987,2129.235,2127.872,2130.626,0.00503817806020379,44.9951095581055,-0.00536093488335609,-1.10028064250946,-0.473148703575134,0.672249436378479,-1.10250000050292,-0.474374949932098,0.673500046133994,0
2.51998901367188,-1.55297565460205,2.29776287078857,2.09230971336365,-1.5520369476803,2.29801824074336,2.09146203692764,2126.551,2127.027,2126.607,2128.965,0.0870095044374466,44.9951019287109,359.961853027344,-1.10025548934937,-0.473149508237839,0.672248899936676,-1.10235904000526,-0.474314298567936,0.67341393556562,0
2.53999328613281,-1.57497465610504,2.28830218315125,2.10575175285339,-1.57408507527774,2.28853154739156,2.10493089402267,2121.208,2123.733,2128.228,2128.338,0.169006571173668,44.9952011108398,359.928527832031,-1.09995269775391,-0.47303119301796,0.672097504138947,-1.10193578218388,-0.474132182551855,0.673155373967352,0
2.55999755859375,-1.59696197509766,2.2788462638855,2.11918544769287,-1.59612191359838,2.27904971150017,2.11839285467467,2123.732,2123.879,2122.195,2124.104,0.254093617200851,44.9951362609863,359.895050048828,-1.09937167167664,-0.472795516252518,0.671686172485352,-1.10123038958312,-0.473828671822132,0.672724460634977,0
2.57998657226563,-1.61893212795258,2.26939725875854,2.13260889053345,-1.61812503288753,2.26958238396605,2.1318342168965,2122.124,2121.829,2119.807,2123.028,0.338504880666733,44.9950942993164,359.861907958984,-1.09850454330444,-0.472435355186462,0.671171367168427,-1.1002439936861,-0.473404253224357,0.672121886773894,0
2.59999084472656,-1.64087915420532,2.25995826721191,2.14601898193359,-1.64012239440973,2.26011753383818,2.14527206178836,2117.448,2118.595,2120.709,2122.473,0.42189821600914,44.9951553344727,359.828491210938,-1.09735453128815,-0.471951693296432,0.670502722263336,-1.09897546783438,-0.47285844198887,0.671346964126033,0
2.6199951171875,-1.66279757022858,2.25053119659424,2.15941047668457,-1.66209156852628,2.2506648119635,2.15869268743396,2119.664,2118.509,2115.112,2118.449,0.506727755069733,44.9950981140137,359.795166015625,-1.0959244966507,-0.471348136663437,0.669577658176422,-1.09742594550583,-0.472191725819537,0.67040038511534,0
2.63999938964844,-1.68468189239502,2.24111890792847,2.17278146743774,-1.68402693989188,2.24122663446822,2.17209266350648,2116.988,2116.332,2113.911,2117.479,0.589554250240326,44.9950752258301,359.762237548828,-1.09421062469482,-0.470620840787888,0.668547630310059,-1.09559602313537,-0.471404361345641,0.669282514094601,0
2.65998840332031,-1.70652616024017,2.23172354698181,2.18612813949585,-1.70590622088595,2.23181259109281,2.18545837484632,2114.2,2114.12,2113.135,2115.942,0.671028017997742,44.9950904846191,359.7294921875,-1.09221971035004,-0.469774127006531,0.667339622974396,-1.09348812118877,-0.470497390025984,0.667994829688588,0
2.67999267578125,-1.72832536697388,2.22234725952148,2.19944763183594,-1.72775723139253,2.2224107117184,2.19880681618649,2108.411,2111.045,2115.284,2115.295,0.752035081386566,44.9952087402344,359.696258544922,-1.08995568752289,-0.468810856342316,0.665980160236359,-1.09109983431736,-0.469469776906228,0.666535862507326,0
2.69999694824219,-1.75007379055023,2.21299266815186,2.21273493766785,-1.74955768413056,2.21303058593937,2.21212437257479,2110.502,2111.189,2109.917,2111.142,0.836068212985992,44.9951629638672,359.662963867188,-1.08742022514343,-0.467734098434448,0.664366245269775,-1.08843358680109,-0.468322565086308,0.664907093505606,0
2.71998596191406,-1.77176570892334,2.20366191864014,2.22598791122437,-1.77128546553625,2.20368172860443,2.22539753518019,2109.04,2109.222,2107.518,2110.16,0.919843912124634,44.9951210021973,359.630126953125,-1.08460438251495,-0.466536074876785,0.662652969360352,-1.08549275912543,-0.467057209094684,0.663110587769255,0
2.739990234375,-1.79339599609375,2.1943576335907,2.23920369148254,-1.79296822271738,2.1943522439355,2.23864319318939,2104.989,2106.177,2107.919,2109.63,1.00295221805573,44.9952049255371,359.597106933594,-1.0815110206604,-0.465216755867004,0.660788178443909,-1.08227399942825,-0.465672266718727,0.661144297698006,0
2.75999450683594,-1.81495881080627,2.18508195877075,2.25237727165222,-1.81458384274179,2.18505164650952,2.2518478381572,2107.589,2106.033,2102.222,2105.734,1.08735013008118,44.9951438903809,359.564270019531,-1.07814335823059,-0.463779121637344,0.658673882484436,-1.07878069424208,-0.464169195088763,0.659010292071722,0
2.77999877929688,-1.83644866943359,2.17583751678467,2.26550650596619,-1.83612684690458,2.17578229366013,2.2650081232283,2105.325,2103.964,2100.784,2104.835,1.16938841342926,44.9951438903809,359.531951904297,-1.07449662685394,-0.462218731641769,0.6564581990242,-1.07501419914593,-0.462548577472581,0.656709398992482,0
2.79998779296875,-1.85786032676697,2.16662645339966,2.27858781814575,-1.85757544288233,2.1665535620153,2.27811073581237,2102.639,2101.907,2100.095,2103.334,1.24942922592163,44.995174407959,359.499877929688,-1.07057952880859,-0.46054083108902,0.6540687084198,-1.07097916161324,-0.460812413548163,0.654244457529281,0
2.81999206542969,-1.8791880607605,2.15745162963867,2.29161858558655,-1.87895695992541,2.1573536925621,2.29117237092199,2096.713,2098.953,2102.503,2102.854,1.32835280895233,44.9953079223633,359.467407226563,-1.06639719009399,-0.458749413490295,0.651536345481873,-1.06667099276523,-0.458958728849171,0.651612664407684,0
2.83999633789063,-1.90042734146118,2.14831471443176,2.30459356307983,-1.90024960698239,2.14819206138118,2.30417971674389,2098.62,2099.071,2097.624,2098.822,1.4098242521286,44.995288848877,359.434997558594,-1.06195425987244,-0.456849306821823,0.648755073547363,-1.06209435025759,-0.456989527434725,0.648816864916866,0
2.8599853515625,-1.92157232761383,2.13921785354614,2.31751108169556,-1.92143189875059,2.13907791299805,2.31711964824194,2096.88,2097.218,2095.691,2097.962,1.49085772037506,44.9952735900879,359.403076171875,-1.05724155902863,-0.454833090305328,0.64588063955307,-1.05725481901126,-0.454907212340279,0.645860470797877,0
2.87998962402344,-1.94261741638184,2.13016414642334,2.33036828041077,-1.94253086194772,2.12999961857111,2.33000867561624,2093.011,2094.431,2096.083,2097.449,1.57137024402618,44.9953460693359,359.371032714844,-1.05226290225983,-0.452701210975647,0.642859041690826,-1.05214690704168,-0.452709420518306,0.642740127083052,0
2.89999389648438,-1.96355795860291,2.12115478515625,2.3431601524353,-1.96352501326936,2.1209664217661,2.34283367505136,2095.951,2094.315,2090.363,2093.672,1.65323555469513,44.9953002929688,359.339324951172,-1.0470222234726,-0.450456500053406,0.639597773551941,-1.04677621342161,-0.450398561093403,0.639459254158576,0
2.91999816894531,-1.98438811302185,2.11219310760498,2.35588502883911,-1.98440911693069,2.11198057539494,2.35559144808806,2093.963,2092.378,2088.867,2092.896,1.73264169692993,44.9953002929688,359.308197021484,-1.04151356220245,-0.44809353351593,0.636243045330048,-1.04114485287423,-0.447975543971863,0.636019143875825,0
2.93998718261719,-2.00510311126709,2.10328054428101,2.36853957176208,-2.00516218376194,2.10305111051103,2.36826917277004,2091.712,2090.402,2088.003,2091.538,1.8098076581955,44.9953536987305,359.277435302734,-1.03574645519257,-0.445617616176605,0.632723033428192,-1.03525963910674,-0.445443300901551,0.632423958622216,0
2.95999145507813,-2.0256974697113,2.09442043304443,2.38112092018127,-2.02581075424974,2.0941666074844,2.38088306226645,2086.061,2087.706,2090.347,2091.093,1.88534462451935,44.9955101013184,359.246398925781,-1.02972674369812,-0.443033158779144,0.629066288471222,-1.02911391720548,-0.442798968459032,0.628669633014836,0
2.97999572753906,-2.04616665840149,2.08561325073242,2.3936243057251,-2.04633384260397,2.08533609591429,2.39342029668558,2087.799,2087.755,2085.963,2087.329,1.96276760101318,44.9955024719238,359.215515136719,-1.02346122264862,-0.44034606218338,0.625174999237061,-1.02271452148052,-0.440045487257004,0.624760342027062,0
3,-2.06650543212891,2.07686233520508,2.4060480594635,-2.06672639957428,2.07656174835205,2.40587779151916,2085.879,2086.216,2084.456,2086.42,2.03938508033752,44.9954948425293,359.185180664063,-1.01694130897522,-0.437549769878387,0.621192872524261,-1.01606400046349,-0.437183953857422,0.620697642517089,0
3.01998901367188,-2.08670902252197,2.06816935539246,2.41838908195496,-2.0869680292999,2.06785234056679,2.41824308725414,2084.797,2084.439,2082.53,2085.106,2.11537837982178,44.9955291748047,359.155334472656,-1.01017284393311,-0.434645920991898,0.617055833339691,-1.00917036754089,-0.434217816196637,0.616486429737696,0
3.03999328613281,-2.10677194595337,2.05953645706177,2.43064475059509,-2.10708469520508,2.05919670122237,2.43053204454123,2080.86,2081.841,2083.331,2084.737,2.1903760433197,44.9956474304199,359.125366210938,-1.0031578540802,-0.431634694337845,0.612789392471313,-1.00202586176059,-0.431143734953757,0.612121962644322,0
3.05999755859375,-2.12668991088867,2.05096626281738,2.44281053543091,-2.12705600675913,2.05060360379452,2.44273220712343,2083.45,2081.951,2078.358,2080.988,2.26645970344543,44.9956207275391,359.095764160156,-0.995902478694916,-0.428520381450653,0.60829371213913,-0.994638524886308,-0.427965170275055,0.607609153824944,0
3.07998657226563,-2.14645791053772,2.04246044158936,2.45488500595093,-2.14686207530873,2.04208160581513,2.45483142533277,2081.838,2080.154,2076.769,2080.463,2.3403058052063,44.9956321716309,359.066772460938,-0.988399505615234,-0.425297260284424,0.603722155094147,-0.987017247723776,-0.424685947625853,0.602953434534038,0
3.09999084472656,-2.16607141494751,2.03402066230774,2.4668653011322,-2.16652837486666,2.03361974652815,2.46684526084616,2077.432,2077.662,2078.116,2080.132,2.41192126274109,44.9957618713379,359.037811279297,-0.980658352375031,-0.421970278024673,0.599016427993774,-0.979153483542501,-0.421302389586788,0.598149583707317,0
3.1199951171875,-2.18552494049072,2.02565002441406,2.47874712944031,-2.18603502400946,2.02522658035469,2.47876156841225,2078.82,2077.676,2074.458,2076.64,2.48383831977844,44.9957504272461,359.00927734375,-0.972688138484955,-0.418546348810196,0.59409099817276,-0.971056158224178,-0.417818336715394,0.593203054026623,0
3.13999938964844,-2.20481491088867,2.01734972000122,2.49052882194519,-2.20537738341953,2.01690410346351,2.49057751394429,2076.778,2076.015,2073.449,2076.086,2.5538375377655,44.995777130127,358.981414794922,-0.964483559131622,-0.415021240711212,0.589088976383209,-0.962728579444533,-0.414235212212131,0.588115866099442,0
3.15998840332031,-2.22393608093262,2.00912141799927,2.5022075176239,-2.22453632143911,2.00866054767245,2.50228141021112,2074.778,2074.382,2072.762,2074.921,2.62237548828125,44.9958457946777,358.954010009766,-0.956054031848907,-0.411399453878403,0.583939850330353,-0.954180774018563,-0.410557330335374,0.582894145150591,0
3.17999267578125,-2.24288415908813,2.00096774101257,2.51378083229065,-2.24353658854737,2.00048526354177,2.51388837689424,2070.647,2072.226,2074.042,2074.491,2.69003081321716,44.9959869384766,358.926574707031,-0.947403311729431,-0.407682865858078,0.578669428825378,-0.945403214201559,-0.406780591562751,0.577532070829503,0
3.19999694824219,-2.2616548538208,1.99289059638977,2.52524471282959,-2.2623590635174,1.99238647840124,2.5253867331345,2073.117,2072.262,2069.516,2071.187,2.75917911529541,44.995979309082,358.899597167969,-0.938537359237671,-0.403875440359116,0.573195576667786,-0.936405971974636,-0.402909329586355,0.572035795952272,0
3.21998596191406,-2.28024339675903,1.98489117622375,2.53659772872925,-2.280985241111,1.98437215453788,2.53676517437065,2072.229,2070.775,2067.568,2070.636,2.8267457485199,44.995979309082,358.873291015625,-0.929447948932648,-0.399970203638077,0.567649900913239,-0.927199897745278,-0.398948213033402,0.566411948863512,0
3.239990234375,-2.29864645004272,1.97697162628174,2.54783749580383,-2.2994392795179,1.97643189735754,2.54803845846384,2068.935,2068.684,2068.146,2070.29,2.89226365089417,44.9960899353027,358.84716796875,-0.920142889022827,-0.39597025513649,0.561984181404114,-0.917774783907129,-0.394892849856044,0.560654293895788,0
3.25999450683594,-2.31685924530029,1.96913397312164,2.5589599609375,-2.31770268688992,1.96857366338589,2.55919528903255,2070.708,2068.535,2064.49,2067.305,2.95743298530579,44.9960899353027,358.821655273438,-0.910631358623505,-0.391881555318832,0.556126534938812,-0.90814153446928,-0.390747931744771,0.554769492138098,0
3.27999877929688,-2.33487749099731,1.96138000488281,2.56996393203735,-2.33577134012187,1.96079922667992,2.57023314733618,2068.767,2067.065,2063.784,2066.841,3.01986694335938,44.9961433410645,358.796875,-0.900909721851349,-0.38770118355751,0.550198674201965,-0.898304216251578,-0.386515208538549,0.548760027947228,0
3.29998779296875,-2.35269737243652,1.95371103286743,2.58084678649902,-2.35362764460945,1.95311615770631,2.58114128510551,2066.784,2065.703,2063.468,2065.758,3.08011174201965,44.9962348937988,358.772644042969,-0.890989482402802,-0.383435189723969,0.544138729572296,-0.888274735793772,-0.382199803288803,0.542633174842512,0
3.31999206542969,-2.37031483650208,1.946129322052,2.5916063785553,-2.37129490830989,1.94551442770222,2.59193394080789,2062.583,2063.798,2065.14,2065.526,3.13889741897583,44.9963836669922,358.748474121094,-0.880875766277313,-0.379086881875992,0.537976801395416,-0.878042061913513,-0.37779696958594,0.536382194046788,0
3.33999633789063,-2.38772630691528,1.938636302948,2.60223889350891,-2.38875555478454,1.93800159931817,2.60260037727124,2064.563,2063.912,2061.475,2062.531,3.19880938529968,44.9963989257813,358.724853515625,-0.870576798915863,-0.374661505222321,0.531631708145142,-0.867618167158097,-0.373311858882592,0.530014399402376,0
3.3599853515625,-2.40492796897888,1.93123316764832,2.61274337768555,-2.40599272667425,1.93058492580486,2.6131302965979,2063.763,2062.689,2059.82,2062.098,3.25736474990845,44.9964179992676,358.702026367188,-0.860084652900696,-0.37015238404274,0.525227844715118,-0.857015715678588,-0.368749920209162,0.523537527241535,0
3.37998962402344,-2.42191576957703,1.92392194271088,2.62311792373657,-2.42302905329872,1.92325467039821,2.62353752268616,2061.145,2060.854,2060.115,2061.91,3.31418561935425,44.9965171813965,358.679504394531,-0.849406778812408,-0.365561932325363,0.518722414970398,-0.846223126656603,-0.364106170663035,0.516944503023036,0
3.39999389648438,-2.43868684768677,1.91670417785645,2.63335871696472,-2.43984769972619,1.91601807669906,2.63381177133889,2063.387,2060.853,2056.434,2059.14,3.37055230140686,44.9965171813965,358.65771484375,-0.838552296161652,-0.360895246267319,0.51204514503479,-0.835253140422974,-0.35938609205264,0.510243109616171,0
3.41999816894531,-2.45523738861084,1.90958094596863,2.64346504211426,-2.45644516534361,1.90887665092339,2.64395090408624,2061.898,2059.508,2055.691,2058.946,3.42386221885681,44.9965705871582,358.636749267578,-0.827517211437225,-0.356148719787598,0.505317687988281,-0.824110582941664,-0.354591760855451,0.503436295127018,0
3.43998718261719,-2.4715633392334,1.90255451202393,2.65343451499939,-2.47280564474684,1.90183719369507,2.65394526565342,2060.116,2058.395,2055.601,2058.006,3.47444224357605,44.9966583251953,358.616394042969,-0.816314578056335,-0.351329386234283,0.498474329710007,-0.812809078412023,-0.349729039183832,0.496532382366361,0
3.45999145507813,-2.48766231536865,1.89562582969666,2.66326546669006,-2.48895081463434,1.8948903781363,2.66380809799729,2056.47,2056.787,2057.167,2057.886,3.52303695678711,44.9968147277832,358.596313476563,-0.804950475692749,-0.346441358327866,0.491547852754593,-0.80133641229185,-0.344792671461508,0.489523909660973,0
3.47999572753906,-2.50353097915649,1.88879609107971,2.67295479774475,-2.50486489870395,1.88804299234919,2.67352976362102,2057.847,2056.96,2054.476,2055.329,3.5719358921051,44.9968414306641,358.576812744141,-0.793434619903564,-0.341490745544434,0.484466403722763,-0.789706299681989,-0.339788558913217,0.482419255351936,0
3.5,-2.5191662311554,1.88206648826599,2.68250155448914,-2.5205447997813,1.88129636896134,2.68310837050915,2056.986,2056.051,2053.319,2054.98,3.61935353279114,44.9968719482422,358.558166503906,-0.781761229038239,-0.336472570896149,0.477339059114456,-0.777924000354857,-0.334718964672089,0.475221632552147,0
3.51998901367188,-2.53456521034241,1.87543857097626,2.69190382957458,-2.53597583877076,1.87465682397749,2.69253495143119,2056.565,2055.105,2052.113,2054.17,3.66515636444092,44.9969215393066,358.540313720703,-0.769939064979553,-0.33138969540596,0.470114439725876,-0.766004036374581,-0.329590137176618,0.467939912563966,0
3.53999328613281,-2.54972457885742,1.8689136505127,2.70116019248962,-2.55117869390181,1.86811546013321,2.70182213839487,2054.281,2053.576,2052.636,2054.182,3.70900321006775,44.9970436096191,358.522857666016,-0.757972180843353,-0.326243430376053,0.462819874286652,-0.753933682518821,-0.324396601119134,0.46056632174764,0
3.55999755859375,-2.56464195251465,1.86249279975891,2.7102677822113,-2.56613872308604,1.86167857751006,2.71096098677687,2056.277,2053.744,2049.68,2051.801,3.75212430953979,44.9970664978027,358.506164550781,-0.74587070941925,-0.321039319038391,0.455384135246277,-0.741727567798258,-0.319144650954242,0.45310979673751,0
3.57998657226563,-2.57931423187256,1.85617756843567,2.71922612190247,-2.58084213759183,1.85535210901407,2.7199430732562,2055.254,2052.851,2049.002,2051.647,3.79234385490417,44.9971122741699,358.490356445313,-0.733631253242493,-0.315774470567703,0.447915971279144,-0.72940084364523,-0.31384080592,0.445579593307163,0
3.59999084472656,-2.59373998641968,1.84996819496155,2.72803378105164,-2.59530884290342,1.84912748987145,2.72878055778257,2052.604,2051.515,2050.055,2051.673,3.82981514930725,44.9972457885742,358.475067138672,-0.721265196800232,-0.310454577207565,0.440378695726395,-0.716940488958392,-0.308479463400265,0.437967757068975,0
3.6199951171875,-2.60791540145874,1.84386670589447,2.73668813705444,-2.60952509409627,1.84301063413925,2.73746504379605,2053.498,2051.652,2048.279,2049.664,3.86616206169128,44.9973030090332,358.460540771484,-0.708783805370331,-0.305086433887482,0.432718306779861,-0.704361775018033,-0.303067194200314,0.43028361700977,0
3.63999938964844,-2.62183880805969,1.83787322044373,2.74518871307373,-2.6234885835008,1.83700253474321,2.74599512157732,2052.531,2050.923,2047.797,2049.483,3.90021347999573,44.9973678588867,358.446960449219,-0.69618546962738,-0.299668282270432,0.425027310848236,-0.691670720740692,-0.297606588091786,0.422530849991739,0
3.65998840332031,-2.63550853729248,1.83198916912079,2.75353407859802,-2.63718676607487,1.8311085894645,2.7543631275559,2051.643,2050.264,2047.499,2048.916,3.93218231201172,44.997444152832,358.434234619141,-0.683480501174927,-0.294204443693161,0.417264431715012,-0.678883253871145,-0.292104498338286,0.414719186025619,0
3.67999267578125,-2.64892196655273,1.8262152671814,2.761723279953,-2.65063849381582,1.82532068681534,2.76258057812278,2049.535,2049.074,2048.318,2049.108,3.9623281955719,44.9975891113281,358.421997070313,-0.670674204826355,-0.288697093725204,0.409455209970474,-0.665986083416798,-0.286555206197011,0.406840505851433,0
3.69999694824219,-2.6620774269104,1.82055234909058,2.76975393295288,-2.66383127580226,1.81964420129024,2.77063984276899,2051.437,2049.385,2045.879,2047.162,3.99193572998047,44.9976196289063,358.410583496094,-0.657776296138763,-0.283151239156723,0.401536375284195,-0.65299527533123,-0.280965624398954,0.398904623909523,0
