t,x_s1,x_s2,x_s3,x_s_d1,x_s_d2,x_s_d3,propellers_rpms1,propellers_rpms2,propellers_rpms3,propellers_rpms4,rollRad,pitchRad,yawRad,v_s1,v_s2,v_s3,v_s_d1,v_s_d2,v_s_d3,insideCount
0,-0.0599999986588955,2.94000005722046,1.17999994754791,-0.0599999986588955,2.94000005722046,1.17999994754791,0,0,0,0,0,45.0048027038574,0,0,0,0,-1.06581410364015E-15,4.44089209850063E-16,-7.105427357601E-16,0
0.019989013671875,-0.0599999986588955,2.94000005722046,1.1790189743042,-0.0600018659130177,2.93999925379318,1.18000108822432,0,0,0,0,0.00112506025470793,44.8630180358887,0.909283995628357,-3.60929135467813E-08,2.95208444356376E-08,-0.0490499772131443,-0.000279680311988734,-0.000120338624884473,0.000170852338267345,5
0.03997802734375,-0.0599999986588955,2.94000005722046,1.17411398887634,-0.060014847005691,2.93999366839165,1.18000901817127,0,0,0,0,0.00304076820611954,44.7212371826172,1.81856417655945,-3.62307304158094E-08,2.93641413406931E-08,-0.245249927043915,-0.00110975851463131,-0.000477498085781228,0.000677934159146771,6
0.05999755859375,-0.0600350871682167,2.94003486633301,1.16684293746948,-0.0600498857373401,2.93997859220429,1.18003042278566,2306.997,2000.183,2127.761,3382.36,-0.00213774247094989,44.8046226501465,1.28310239315033,-0.00175439612939954,0.00174321862868965,-0.36355459690094,-0.00247936261166862,-0.00106680046642749,0.00151460392977639,6
0.079986572265625,-0.0601342283189297,2.9401330947876,1.15967166423798,-0.0601174907153006,2.93994950367094,1.18007172161174,2848.653,2760.186,2606.139,2298.914,359.914306640625,44.8777084350586,0.619986176490784,-0.00495699234306812,0.00491336826235056,-0.358564168214798,-0.00437104534358026,-0.00188073869847162,0.0026702033915743,6
0.100006103515625,-0.0602752901613712,2.94026303291321,1.1533819437027,-0.0602282404704493,2.93990185114529,1.18013937690895,2871.646,2897.348,2628.316,2213.642,359.724395751953,44.9188079833984,0.190318197011948,-0.0070530166849494,0.00649329973384738,-0.314487755298615,-0.00677739276378709,-0.00291612276782231,0.00414020348026766,5
0.1199951171875,-0.0604444742202759,2.94038772583008,1.14806056022644,-0.0603918861403606,2.93983143898525,1.18023934549506,2726.027,2926.685,2634.539,2219.204,359.427429199219,44.9351234436035,0.0504150390625,-0.00845928490161896,0.00623381789773703,-0.266071796417236,-0.00967801353495435,-0.00416417885169243,0.00591214744607921,5
0.139984130859375,-0.0606514178216457,2.94048070907593,1.14373052120209,-0.0606183773949454,2.93973398612584,1.18037770546816,2551.3,2769.792,2668.025,2379.674,359.090179443359,44.9478797912598,0.144176840782166,-0.0103471614420414,0.00464778393507004,-0.216502442955971,-0.0130632593357409,-0.00562075554695178,0.00798014128006072,5
0.160003662109375,-0.0609213672578335,2.94052791595459,1.14032304286957,-0.0609177895434042,2.93960515744296,1.18056061167741,2443.073,2553.507,2687.475,2529.363,358.804260253906,44.9653129577637,0.340532600879669,-0.013497550971806,0.00235494808293879,-0.170372515916824,-0.0169265510445065,-0.00728302204135792,0.0103401658994673,5
0.17999267578125,-0.0612810999155045,2.94052505493164,1.13772785663605,-0.0612985250199726,2.93944133760391,1.18079319703879,2417.988,2395.348,2654.06,2596.142,358.625885009766,44.9838790893555,0.518642365932465,-0.0179866887629032,-0.000147481914609671,-0.129757419228554,-0.0212433804254414,-0.00914043312572283,0.0129772496054864,5
0.199981689453125,-0.0617489702999592,2.94047331809998,1.13583755493164,-0.0617700327574899,2.93923846099686,1.18108123375791,2450.565,2337.737,2561.981,2580.421,358.551483154297,44.9966201782227,0.61784303188324,-0.0233934391289949,-0.00259272661060095,-0.0945170149207115,-0.0260066742439309,-0.011189945384795,0.0158870714694674,5
0.220001220703125,-0.062332771718502,2.94037485122681,1.13456833362579,-0.0623420644491781,2.93899233174064,1.18143067899198,2496.886,2359.885,2442.934,2516.239,358.526245117188,44.9992446899414,0.64105635881424,-0.0291900932788849,-0.00492305960506201,-0.0634636878967285,-0.03121219533433,-0.0134297356845702,0.0190670430730375,5
0.239990234375,-0.0630337744951248,2.94023013114929,1.13386452198029,-0.0630214373585105,2.93870001655724,1.18184569730089,2512.594,2408.577,2347.525,2446.138,358.477355957031,44.9926986694336,0.627666831016541,-0.0350502170622349,-0.00723017798736691,-0.0351934358477592,-0.0368316683029241,-0.015847637913056,0.0224998914194052,5
0.259979248046875,-0.0638529658317566,2.94003629684448,1.13368916511536,-0.0638172488896441,2.93835760108779,1.18233184614686,2474.853,2436.924,2312.208,2397.309,358.355834960938,44.9817543029785,0.619217753410339,-0.0409595556557178,-0.00969019904732704,-0.00876645371317863,-0.0428604193878216,-0.0184416410810803,0.0261827613803636,4
0.279998779296875,-0.0647956505417824,2.93978643417358,1.13401019573212,-0.0647390625194898,2.93796097043536,1.18289496770872,2398.176,2428.829,2331.747,2372.631,358.162750244141,44.9715194702148,0.638226568698883,-0.0471343100070953,-0.0124883484095335,0.0160497985780239,-0.0492963837173861,-0.0212108567320638,0.0301143915580518,4
0.29998779296875,-0.0658723413944244,2.93947172164917,1.13479280471802,-0.0657918945890516,2.93750796620855,1.18353812639089,2314.445,2391.686,2374.777,2363.558,357.940338134766,44.9649848937988,0.68500816822052,-0.0538346245884895,-0.0157373286783695,0.0391314588487148,-0.0561078595514081,-0.0241416444928383,0.0342754158540715,4
0.32000732421875,-0.0670963078737259,2.93908309936523,1.13599860668182,-0.0669865614821475,2.93699393441958,1.18426792975347,2254.12,2343.146,2405.042,2359.125,357.744476318359,44.9626884460449,0.745552003383636,-0.0611984506249428,-0.0194303784519434,0.0602876991033554,-0.0633036493784043,-0.0272377918282996,0.0386712115712976,4
0.339996337890625,-0.0684797689318657,2.93861413002014,1.13758552074432,-0.068326768706371,2.93641728069206,1.18508664143323,2240.331,2303.783,2391.711,2347.998,357.614990234375,44.9631996154785,0.803916394710541,-0.0691732317209244,-0.0234484542161226,0.0793474093079567,-0.0708499516420146,-0.0304847548730522,0.0432811298664125,4
0.3599853515625,-0.0700311958789825,2.93806171417236,1.13951480388641,-0.0698213312158394,2.93577421219747,1.18599964634808,2261.186,2278.92,2341.705,2331.151,357.552124023438,44.9647598266602,0.850549280643463,-0.0775714665651321,-0.0276179816573858,0.0964662432670593,-0.0787457139191101,-0.0338820807988248,0.0481045278305496,4
0.3800048828125,-0.0717549249529839,2.9374258518219,1.1417510509491,-0.0714797725314022,2.93506063123087,1.18701276226829,2296.661,2269.191,2274.151,2308.783,357.524719238281,44.9657859802246,0.88444972038269,-0.0861864387989044,-0.0317953079938889,0.11181453615427,-0.0869921272359981,-0.0374302820709642,0.0531421330430943,4
0.399993896484375,-0.0736529305577278,2.93670725822449,1.14426457881927,-0.0733036822025899,2.9342758538535,1.18812696022487,2318.012,2266.762,2220.04,2286.299,357.487426757813,44.965633392334,0.911094009876251,-0.0949001833796501,-0.0359263718128204,0.125676766037941,-0.0955525119207663,-0.0411135764513579,0.0583715384648505,4
0.41998291015625,-0.0757275000214577,2.93590593338013,1.14703094959259,-0.075301871434707,2.93341608884986,1.18934762284564,2304.218,2261.714,2204.154,2268.793,357.407012939453,44.9645843505859,0.936910271644592,-0.103728465735912,-0.0400611013174057,0.138318702578545,-0.104427768518458,-0.0449323514193797,0.0637932942247324,4
0.44000244140625,-0.0779831260442734,2.93501973152161,1.15002727508545,-0.077483988232608,2.93247718495301,1.19068064394622,2263.933,2253.006,2219.832,2254.467,357.282531738281,44.9632911682129,0.965835690498352,-0.112781181931496,-0.0443135872483253,0.149817034602165,-0.113620829717891,-0.048887868829098,0.0694091918565748,4
0.459991455078125,-0.0804267302155495,2.93404388427734,1.15323269367218,-0.0798493430620752,2.93145943885026,1.1921256023009,2215.817,2240.667,2248.372,2243.364,357.138671875,44.9624404907227,0.99886280298233,-0.122180327773094,-0.0487891957163811,0.160270556807518,-0.123092454730403,-0.0529632444654124,0.0751952597749251,4
0.47998046875,-0.0830664709210396,2.93297338485718,1.15662848949432,-0.082406855753501,2.93035901258777,1.1936879468949,2177.062,2225.039,2271.458,2235.849,357.009094238281,44.962574005127,1.03390181064606,-0.131987154483795,-0.0535268671810627,0.169789507985115,-0.132845337826091,-0.057159637597476,0.0811531438673414,4
0.5,-0.0859097987413406,2.93180370330811,1.16019594669342,-0.085166398670376,2.92917165836334,1.195373708601,2167.329,2212.699,2267.053,2227.51,356.921051025391,44.9636764526367,1.06783819198608,-0.142166450619698,-0.0584824457764626,0.178370580077171,-0.142884000065179,-0.0614789935111996,0.0872856059789651,5
0.519989013671875,-0.08896204829216,2.93053269386292,1.16391837596893,-0.0881248588203387,2.92789871561062,1.19718098574075,2184.175,2205.12,2236.085,2218.789,356.876922607422,44.9653472900391,1.09914410114288,-0.152612537145615,-0.0635543763637543,0.186122953891754,-0.153166947611899,-0.0659034585682559,0.0935672981730243,5
0.53997802734375,-0.0922263413667679,2.92915987968445,1.16778266429901,-0.0912913676125048,2.92653625533937,1.19911535654949,2206.898,2198.874,2199.675,2212.245,356.855621337891,44.9672584533691,1.12739431858063,-0.163214802742004,-0.0686419606208801,0.193215042352676,-0.16369851368286,-0.0704348972306956,0.100000867543927,5
0.55999755859375,-0.0957045033574104,2.92768597602844,1.17177605628967,-0.094676112580471,2.92507989413848,1.20118304443252,2224.161,2196.22,2169.678,2204.62,356.831176757813,44.9688835144043,1.15320527553558,-0.173908099532127,-0.0736958384513855,0.199667096138,-0.17448465888317,-0.0750758741803766,0.106589955332319,5
0.579986572265625,-0.0993985086679459,2.92611122131348,1.17588806152344,-0.0982734311149,2.92353206847056,1.20338059019015,2224.215,2194.738,2158.787,2197.613,356.78271484375,44.9700088500977,1.17844867706299,-0.184699818491936,-0.0787330865859985,0.205597430467606,-0.185481935470438,-0.0798076950675377,0.113308019990364,5
0.600006103515625,-0.103311613202095,2.92443490028381,1.18011105060577,-0.102098762959148,2.92188613504538,1.20571742572067,2201.282,2189.737,2174.14,2193.918,356.705474853516,44.9708976745605,1.2040559053421,-0.195655420422554,-0.0838186368346214,0.211148113012314,-0.196713446836865,-0.0846403006364086,0.120169175019836,5
0.6199951171875,-0.107448503375053,2.92265439033508,1.18443655967712,-0.106144683970236,2.92014528826426,1.208189015731,2176.254,2186.567,2193.861,2188.804,356.616302490234,44.9717025756836,1.23006844520569,-0.20684452354908,-0.0890220403671265,0.216274499893188,-0.208134604141382,-0.0895545055543457,0.127146181793521,5
0.639984130859375,-0.111814633011818,2.92076683044434,1.18885946273804,-0.110420882305709,2.91830535958365,1.21080127856538,2153.067,2180.638,2213.881,2187.053,356.534851074219,44.9728584289551,1.25585222244263,-0.218306481838226,-0.0943759083747864,0.221145451068878,-0.219752140575416,-0.0945532069255159,0.134243153512991,5
0.660003662109375,-0.116414994001389,2.9187695980072,1.19337391853333,-0.114938248900541,2.91636166293851,1.21356086732604,2149.382,2177.636,2214.782,2184.088,356.480163574219,44.9744262695313,1.28014004230499,-0.2300184071064,-0.0998600646853447,0.225720018148422,-0.231574097577923,-0.0996398647564507,0.141465002567821,5
0.67999267578125,-0.121253281831741,2.91666126251221,1.19797551631927,-0.119686638739014,2.91431856344567,1.2164615845812,2163.769,2177.452,2197.242,2181.19,356.454284667969,44.9762725830078,1.30289280414581,-0.241914287209511,-0.105413563549519,0.230081364512444,-0.243554411173546,-0.104794659005432,0.14878358919428,5
0.699981689453125,-0.126331806182861,2.91444182395935,1.20266270637512,-0.124676182095571,2.91217170233105,1.21950961875744,2179.45,2175.68,2178.953,2181.271,356.443115234375,44.9782905578613,1.32400381565094,-0.253926306962967,-0.110972225666046,0.234360441565514,-0.25570106256044,-0.110021023759057,0.156203788981777,5
0.720001220703125,-0.131652012467384,2.91211175918579,1.20743262767792,-0.129918284978346,2.90991617190799,1.22271193760712,2193.796,2176.682,2162.339,2179.72,356.431732177734,44.9801025390625,1.34340143203735,-0.266010165214539,-0.116501934826374,0.238499075174332,-0.268023157655716,-0.11532287703907,0.163731164592979,5
0.739990234375,-0.137215331196785,2.90967154502869,1.21228396892548,-0.135400001298574,2.90755754251682,1.22606063256665,2198.644,2178.9,2156.085,2178.061,356.406524658203,44.9814834594727,1.36223697662354,-0.278166264295578,-0.12200939655304,0.242566362023354,-0.280473432677602,-0.12067988256057,0.171336843321139,5
0.759979248046875,-0.143024012446404,2.90712094306946,1.21721756458282,-0.141131974150567,2.90509123473139,1.22956220533626,2185.748,2177.199,2169.787,2179.469,356.362579345703,44.9826507568359,1.3808434009552,-0.29043447971344,-0.127533629536629,0.246677622199059,-0.293060978423328,-0.126095951839638,0.179026378592425,5
0.779998779296875,-0.149081125855446,2.90445852279663,1.22223246097565,-0.147126184485884,2.90251209348295,1.2332239748923,2171.448,2177.196,2185.967,2179.018,356.311614990234,44.9836845397949,1.39868140220642,-0.302855521440506,-0.133119344711304,0.250746697187424,-0.305795832832518,-0.131575403921268,0.186805902427515,5
0.79998779296875,-0.155390098690987,2.90168285369873,1.22732901573181,-0.153366821193532,2.89982692185086,1.23703628247379,2163.786,2178.531,2195.865,2178.348,356.267028808594,44.9847259521484,1.41602671146393,-0.315448462963104,-0.138787403702736,0.254830628633499,-0.318629798715703,-0.137097500901303,0.194645971915464,5
0.82000732421875,-0.161954164505005,2.8987922668457,1.23250985145569,-0.159875221826383,2.89702653888221,1.24101216285881,2159.559,2176.732,2203.119,2180.883,356.236572265625,44.9860916137695,1.43234670162201,-0.328203529119492,-0.14452637732029,0.259043276309967,-0.331592781842754,-0.14267511039705,0.202564856024417,5
0.839996337890625,-0.168775662779808,2.89578628540039,1.23777508735657,-0.166633637018892,2.89411858163313,1.24514077323692,2171.597,2179.655,2193.105,2180.286,356.225280761719,44.9875564575195,1.44714248180389,-0.341075390577316,-0.150300398468971,0.263262033462524,-0.344636106234817,-0.148287288494656,0.210532819358465,5
0.8599853515625,-0.175856128334999,2.89266490936279,1.24312829971313,-0.173653699721778,2.89109804476993,1.2494292199962,2181.09,2179.466,2186.063,2183.234,356.223449707031,44.989143371582,1.46040177345276,-0.354023665189743,-0.156070470809937,0.267658352851868,-0.357770416714212,-0.153938615363784,0.218556364673454,5
0.8800048828125,-0.183196395635605,2.88942861557007,1.24857068061829,-0.180948461186242,2.88795931270381,1.25388547594233,2192.35,2182.258,2176.81,2183.794,356.223815917969,44.9905242919922,1.47182595729828,-0.36701363325119,-0.161813572049141,0.272117912769318,-0.371007022483504,-0.159633957038354,0.226642400584755,5
0.899993896484375,-0.190797179937363,2.88607811927795,1.25410449504852,-0.18849723509595,2.8847112861788,1.25849690412748,2199.448,2186.368,2171.695,2183.93,356.217376708984,44.9915237426758,1.48256087303162,-0.380038529634476,-0.167530313134193,0.276689976453781,-0.384296738353309,-0.165352150505452,0.234760880627692,5
0.91998291015625,-0.19865956902504,2.88261318206787,1.25973403453827,-0.196312316554895,2.88134867495511,1.2632710154388,2191.87,2185.794,2182.868,2187.374,356.198699951172,44.9923820495605,1.49287545681,-0.393120348453522,-0.173242330551147,0.281478732824326,-0.397650971463704,-0.171098103938772,0.242918773246135,5
0.94000244140625,-0.206785187125206,2.87903356552124,1.26546108722687,-0.204407453948074,2.87786556348678,1.26821620855017,2184.764,2187.412,2193.778,2188.241,356.176055908203,44.9930877685547,1.50215423107147,-0.406280040740967,-0.178977355360985,0.28635162115097,-0.411081631631503,-0.176876941799768,0.251123353961324,5
0.959991455078125,-0.215175747871399,2.87533855438232,1.2712881565094,-0.212759000778906,2.87427212620069,1.27331803818581,2182.596,2190.308,2199.52,2188.664,356.157379150391,44.9937286376953,1.51090347766876,-0.419527858495712,-0.184749156236649,0.29135262966156,-0.424539267042903,-0.182667386354485,0.259344413431889,5
0.97998046875,-0.223832935094833,2.87152743339539,1.27721977233887,-0.221379956358585,2.87056276985637,1.27858444542207,2178.46,2189.046,2208.028,2192.403,356.146179199219,44.9945983886719,1.51874160766602,-0.4328593313694,-0.190552160143852,0.296583086252213,-0.438035925118965,-0.188474621271639,0.267589311239359,5
1,-0.232757806777954,2.86760020256042,1.2832578420639,-0.230284798736574,2.86673126495361,1.28402427467346,2184.738,2191.085,2205.161,2193.373,356.14794921875,44.9955596923828,1.52472639083862,-0.44624450802803,-0.196365922689438,0.301903933286667,-0.451584000205995,-0.194303979492187,0.275865618896484,5
1.01998901367188,-0.241950795054436,2.86355686187744,1.28940498828888,-0.239446912293295,2.86278906344998,1.2896212668733,2197.416,2195.155,2194.881,2193.741,356.158752441406,44.9964141845703,1.52958273887634,-0.459649085998535,-0.202163904905319,0.30735832452774,-0.46513400752272,-0.200134169097193,0.284143106922576,5
1.03997802734375,-0.251411855220795,2.85939836502075,1.29566597938538,-0.248880035413094,2.85873025410248,1.2953838145862,2200.717,2194.813,2194.784,2197.482,356.168426513672,44.9972534179688,1.53344702720642,-0.473054558038712,-0.20792943239212,0.31304943561554,-0.478698517198992,-0.205970598662363,0.292429454213812,5
1.05999755859375,-0.261140882968903,2.85512518882751,1.30204248428345,-0.258599401509697,2.85454828239877,1.3013212236669,2204.325,2197.255,2193.857,2198.344,356.175506591797,44.9978790283203,1.53581666946411,-0.486451327800751,-0.213663414120674,0.318828076124191,-0.492290296490434,-0.211818761581115,0.30073246008742,5
1.07998657226563,-0.271137773990631,2.85073757171631,1.30853700637817,-0.268575430648764,2.85025587575821,1.30741542419509,2206.632,2201.029,2193.923,2198.465,356.177978515625,44.9981994628906,1.53768920898438,-0.499844402074814,-0.219377025961876,0.324728637933731,-0.50586005237609,-0.217657448443621,0.309022012206103,5
1.10000610351563,-0.281402796506882,2.84623575210571,1.31515407562256,-0.278838480013141,2.84583997233313,1.31368496090006,2197.952,2199.546,2206.29,2202.16,356.174865722656,44.9985580444336,1.53907644748688,-0.513251006603241,-0.225086152553558,0.330855816602707,-0.519441457145546,-0.223501147495394,0.317318680446121,5
1.1199951171875,-0.291936248540878,2.84161972999573,1.32189452648163,-0.289357002179081,2.84131414609862,1.32011056195293,2198.616,2202.844,2208.253,2201.594,356.175415039063,44.9988021850586,1.53959667682648,-0.526671469211578,-0.230800583958626,0.337019830942154,-0.532985466132485,-0.229328756186667,0.32559250418615,5
1.13998413085938,-0.302738338708878,2.83688926696777,1.32876253128052,-0.300146026259498,2.83667193044725,1.32670140840426,2193.576,2201.032,2216.786,2205.176,356.18017578125,44.9992370605469,1.53910827636719,-0.540106356143951,-0.236518442630768,0.343402355909348,-0.546505271550557,-0.235145950758426,0.333851542343647,5
1.16000366210938,-0.313808977603912,2.83204483985901,1.33575916290283,-0.311222084148811,2.83190621216671,1.33346759933036,2197.908,2202.893,2214.759,2205.429,356.195190429688,44.9996910095215,1.53674018383026,-0.553530991077423,-0.24222669005394,0.349830508232117,-0.560014026276883,-0.240958390526247,0.342103829805999,6
1.17999267578125,-0.325147330760956,2.82708668708801,1.34288609027863,-0.322550701230474,2.8270318247214,1.34038807472597,2208.301,2206.709,2205.565,2205.026,356.217620849609,45.0000190734863,1.53346920013428,-0.566917955875397,-0.247905701398849,0.356348901987076,-0.573463232144024,-0.246745208083563,0.350319739799517,6
1.19998168945313,-0.336752414703369,2.8220157623291,1.35014736652374,-0.334147705564643,2.8220419577392,1.34747250370603,2208.756,2205.28,2207.22,2208.439,356.238861083984,45.0004119873047,1.52945446968079,-0.58025336265564,-0.253542095422745,0.363066583871841,-0.586866312357874,-0.25251217906087,0.358507472351216,6
1.22000122070313,-0.348622888326645,2.81683301925659,1.35754358768463,-0.346030421585499,2.81692915700008,1.35473146949704,2211.466,2206.957,2205.888,2208.582,356.259399414063,45.0006332397461,1.52404141426086,-0.593526840209961,-0.259135872125626,0.369808554649353,-0.600236516861372,-0.258265004538453,0.366675121644476,6
1.239990234375,-0.360757648944855,2.81153917312622,1.3650758266449,-0.358161486344149,2.81170949873715,1.36214214765657,2214.685,2210.183,2203.487,2207.891,356.277496337891,45.0006217956543,1.51824378967285,-0.606738865375519,-0.264693230390549,0.376610100269318,-0.613526094901141,-0.263983138701136,0.374793517489195,6
1.25997924804688,-0.37315571308136,2.80613470077515,1.37274754047394,-0.370557537648727,2.80637582416637,1.36971470196197,2206.362,2207.577,2213.927,2211.198,356.290679931641,45.0006942749023,1.51200735569,-0.619901955127716,-0.270224392414093,0.38358536362648,-0.626748599474006,-0.269672413024826,0.382870939199643,6
1.27999877929688,-0.385815978050232,2.80061984062195,1.38055849075317,-0.383236695417198,2.80092033679326,1.37746020158837,2203.964,2208.378,2217.672,2210.934,356.307159423828,45.0007286071777,1.50433886051178,-0.633015275001526,-0.275737762451172,0.390546947717667,-0.639917282339435,-0.275338529371412,0.39091548206889,6
1.29998779296875,-0.398737370967865,2.79499530792236,1.38850915431976,-0.396158759015336,2.79536033382764,1.38535408859565,2207.911,2211.195,2214.161,2209.756,356.329711914063,45.0006866455078,1.49608671665192,-0.646069407463074,-0.281229645013809,0.39753532409668,-0.652985332144132,-0.280961346123326,0.398898549771684,6
1.32000732421875,-0.411918520927429,2.78926157951355,1.39660263061523,-0.409361504843077,2.78967956113998,1.39341943999703,2204.545,2208.347,2218.837,2212.837,356.355010986328,45.0008506774902,1.48712027072906,-0.659055590629578,-0.286689698696136,0.404675215482712,-0.6659860834168,-0.286555206197011,0.406840505851434,6
1.33999633789063,-0.425357520580292,2.78341937065125,1.40483736991882,-0.422802873722428,2.78389611561957,1.401630562497,2212.547,2211.493,2210.585,2210.774,356.386566162109,45.0008773803711,1.47712540626526,-0.671950578689575,-0.292106628417969,0.411738872528076,-0.678873453515705,-0.29210028151913,0.41471319914141,6
1.3599853515625,-0.439052492380142,2.77746987342834,1.41321623325348,-0.436500861174643,2.77800225429635,1.40999844927868,2209.568,2208.732,2214.283,2213.536,356.417297363281,45.0010108947754,1.46625113487244,-0.684749484062195,-0.297472923994064,0.418940633535385,-0.69166099897751,-0.297602405088682,0.422524911118315,6
1.3800048828125,-0.453001260757446,2.77141404151917,1.42173779010773,-0.450474904562636,2.77198961381608,1.41853497432376,2211.404,2209.773,2212.181,2212.509,356.450103759766,45.0010185241699,1.45377242565155,-0.697439610958099,-0.302787661552429,0.42607969045639,-0.704361775018035,-0.303067194200314,0.43028361700977,6
1.39999389648438,-0.46720153093338,2.7652530670166,1.43040180206299,-0.464680216184654,2.76587746507559,1.42721277752413,2215.802,2212.677,2206.764,2210.624,356.483245849609,45.0008163452148,1.44094264507294,-0.710014462471008,-0.308050900697708,0.433201640844345,-0.716930938559026,-0.308475354130225,0.437961922879032,6
1.41998291015625,-0.481651186943054,2.75898766517639,1.43921053409576,-0.479135601808478,2.75965771647838,1.43604334702988,2208.316,2209.203,2214.493,2213.336,356.512390136719,45.0007286071777,1.42782485485077,-0.722480416297913,-0.313265949487686,0.440437644720078,-0.729381927869995,-0.313832666990362,0.445568037955247,6
1.44000244140625,-0.496347844600677,2.75261878967285,1.44816207885742,-0.493861275572861,2.75332167044526,1.44503903134294,2206.685,2209.385,2215.642,2212.15,356.544281005859,45.0006065368652,1.41344976425171,-0.734834015369415,-0.31843826174736,0.447579622268677,-0.741727567798258,-0.319144650954242,0.453109796737511,6
1.45999145507813,-0.511289179325104,2.7461473941803,1.45725560188293,-0.508809800712713,2.74688973769103,1.45417085208374,2210.419,2211.601,2210.608,2210.052,356.580108642578,45.0003776550293,1.39879655838013,-0.747068226337433,-0.323565363883972,0.454674541950226,-0.753924423002454,-0.324392617007921,0.460560665253582,6
1.47998046875,-0.526472806930542,2.73957467079163,1.46649277210236,-0.524000783579472,2.74035348215039,1.46345078646643,2204.477,2207.59,2216.316,2212.631,356.616027832031,45.0003623962402,1.38369059562683,-0.75918048620224,-0.328641593456268,0.461858808994293,-0.76598572865452,-0.329582259876133,0.467928728663466,6
1.5,-0.541895925998688,2.73290133476257,1.4758712053299,-0.539455198877605,2.73370387899399,1.47289164761066,2205.877,2207.656,2213.76,2211.116,356.657135009766,45.0003242492676,1.36708068847656,-0.771156847476959,-0.333662480115891,0.468919456005096,-0.777924000354858,-0.334718964672088,0.475221632552146,6
1.51998901367188,-0.557555675506592,2.72612905502319,1.48538935184479,-0.555123050061237,2.72696244033876,1.48246289340675,2212.024,2210.039,2205.563,2208.549,356.701721191406,45.000114440918,1.3500988483429,-0.782983541488647,-0.338619947433472,0.475906044244766,-0.789697369743256,-0.339784716610053,0.482413800191712,6
1.53997802734375,-0.573448836803436,2.7192587852478,1.49504864215851,-0.571024729446907,2.7201203919406,1.49217698120264,2206.163,2205.914,2210.465,2210.966,356.743469238281,45.0000648498535,1.33271300792694,-0.794659376144409,-0.3435098528862,0.48296645283699,-0.801318788528229,-0.344785088448372,0.489513143578788,6
1.55999755859375,-0.589572370052338,2.71229219436646,1.50484609603882,-0.587181951496087,2.71316839067337,1.50204717602401,2205.776,2205.921,2209.177,2209.032,356.787109375,44.999927520752,1.31400072574615,-0.806177735328674,-0.348334938287735,0.489875376224518,-0.812800388649436,-0.349725300221754,0.496527073925997,6
1.57998657226563,-0.605922996997833,2.70523023605347,1.51477992534637,-0.603542258451077,2.7061290076447,1.51204143224525,2209.359,2207.944,2203.164,2206.284,356.832275390625,44.9996223449707,1.29514336585999,-0.817534029483795,-0.353095293045044,0.496692985296249,-0.82410201904291,-0.354588076049064,0.503431063574906,6
1.60000610351563,-0.622497618198395,2.69807434082031,1.52485120296478,-0.620152298932711,2.69898217125626,1.52218824678091,2201.04,2203.388,2210.244,2208.497,356.874664306641,44.9995155334473,1.27603960037231,-0.828732252120972,-0.357791036367416,0.50356262922287,-0.835253140422976,-0.35938609205264,0.510243109616171,5
1.6199951171875,-0.639292895793915,2.69082593917847,1.53505563735962,-0.636958033083316,2.69175113334911,1.53245460752521,2204.839,2205.4,2203.995,2204.743,356.921142578125,44.9992637634277,1.25636470317841,-0.839764356613159,-0.362423419952393,0.510222375392914,-0.846214826007804,-0.364102599125749,0.516939432286212,5
1.63998413085938,-0.656305611133575,2.68348622322083,1.54539430141449,-0.653981118189727,2.68442657539777,1.54285374457671,2197.118,2200.674,2210.26,2206.845,356.967224121094,44.9992179870605,1.2360622882843,-0.850632846355438,-0.366989761590958,0.516930878162384,-0.856999388527105,-0.368742895092007,0.523527553239473,5
1.66000366210938,-0.673532068729401,2.67605638504028,1.55586326122284,-0.671244443874359,2.67699864863716,1.55339964084857,2197.814,2200.527,2207.216,2204.341,357.019104003906,44.9991226196289,1.21419668197632,-0.861324548721313,-0.371487200260162,0.523449778556824,-0.867618167158098,-0.373311858882592,0.530014399402375,5
1.67999267578125,-0.690968573093414,2.66853833198547,1.56646013259888,-0.688691692550512,2.66949158495151,1.56405789280588,2204.09,2202.726,2197.719,2200.912,357.075134277344,44.9988555908203,1.19217526912689,-0.871824681758881,-0.375906765460968,0.529843747615814,-0.878034183119987,-0.377793579561193,0.536377381014768,5
1.69998168945313,-0.708611190319061,2.66093349456787,1.57718563079834,-0.706345246291743,2.66189575395985,1.57484217330813,2197.73,2197.935,2201.922,2203.057,357.128356933594,44.9987678527832,1.17000341415405,-0.882130920886993,-0.380242049694061,0.536275386810303,-0.88825927318574,-0.382193150160541,0.542623728976553,5
1.72000122070313,-0.726455926895142,2.65324354171753,1.58803570270538,-0.724228658537036,2.6542010212754,1.58576687078363,2197.364,2197.374,2199.624,2200.575,357.183410644531,44.9986228942871,1.14670777320862,-0.892237782478333,-0.384495347738266,0.542501211166382,-0.898304216251578,-0.386515208538549,0.548760027947228,5
1.739990234375,-0.744498670101166,2.6454701423645,1.59900736808777,-0.74228345468553,2.64643254688532,1.59679626401121,2200.989,2199.001,2192.672,2197.156,357.239471435547,44.9983062744141,1.12351322174072,-0.902141392230988,-0.388666272163391,0.548585534095764,-0.908134108040217,-0.390744736359816,0.554764955448471,5
1.75997924804688,-0.762735664844513,2.63761496543884,1.61010122299194,-0.760532711099173,2.63858040167573,1.60794444998027,2191.554,2193.688,2199.865,2199.278,357.291870117188,44.9982147216797,1.10019063949585,-0.911847591400146,-0.392755478620529,0.554690778255463,-0.917760245372929,-0.394886594330938,0.560645412532115,4
1.77999877929688,-0.781162679195404,2.62967967987061,1.62131261825562,-0.779000609654483,2.63063418086074,1.61922620102184,2189.744,2192.8,2198.917,2196.625,357.347900390625,44.9980926513672,1.0756151676178,-0.92135363817215,-0.396767526865005,0.560571610927582,-0.927192788821983,-0.398945154262308,0.566407606133204,4
1.79998779296875,-0.799775719642639,2.62166571617126,1.63263845443726,-0.797626646773287,2.62261991743975,1.63060455644414,2194.096,2194.397,2191.039,2192.906,357.407989501953,44.9978256225586,1.05100047588348,-0.93065083026886,-0.40069791674614,0.566293835639954,-0.936399026186941,-0.402906341007953,0.572031552878955,4
1.82000732421875,-0.81857043504715,2.61357498168945,1.64407908916473,-0.816463410111527,2.61451498441355,1.64211164122557,2186.429,2189.095,2196.081,2194.914,357.466735839844,44.9977836608887,1.02615642547607,-0.93973696231842,-0.404540151357651,0.572029113769531,-0.94540321420156,-0.406780591562751,0.577532070829503,3
1.83999633789063,-0.837542474269867,2.60540914535522,1.65562880039215,-0.835449117627072,2.60634596486888,1.6537097136807,2192.04,2190.913,2186.956,2190.14,357.529724121094,44.9975700378418,1.00087451934814,-0.948601961135864,-0.408292561769485,0.577482998371124,-0.954174163352093,-0.410554485950274,0.582890106797601,3
1.8599853515625,-0.856687426567078,2.59717011451721,1.66728782653809,-0.854607925216182,2.59810246519841,1.66541353026959,2183.838,2185.628,2192.393,2192.033,357.590484619141,44.9975547790527,0.975105464458466,-0.9572474360466,-0.411951273679733,0.582952618598938,-0.962722140342816,-0.41423244164655,0.588111932552683,0
1.8800048828125,-0.876000702381134,2.58885979652405,1.67905128002167,-0.873964974649439,2.58977366760063,1.67723844970756,2183.578,2185.078,2189.36,2188.842,357.655029296875,44.9974594116211,0.947967827320099,-0.965666711330414,-0.415518432855606,0.588174223899841,-0.971056158224177,-0.417818336715394,0.593203054026622,0
1.89999389648438,-0.895477831363678,2.58048009872437,1.6909157037735,-0.893456683142228,2.58138692997148,1.6891456302637,2188.529,2186.869,2180.409,2184.744,357.722076416016,44.9971618652344,0.920981228351593,-0.973850667476654,-0.418989688158035,0.593224048614502,-0.979147395688901,-0.421299770153459,0.598145864732551,0
1.91998291015625,-0.915113747119904,2.5720329284668,1.70288133621216,-0.91310780215452,2.5729316024492,1.70115019221864,2179.784,2181.365,2186.043,2186.812,357.785583496094,44.9971008300781,0.894010543823242,-0.981800854206085,-0.422361463308334,0.598281681537628,-0.98700543065471,-0.424680863071164,0.602946215670947,0
1.94000244140625,-0.934904038906097,2.56352019309998,1.71494293212891,-0.932943991899774,2.5643966441608,1.71326781099638,2178.577,2180.366,2183.935,2183.718,357.851837158203,44.9969940185547,0.866036653518677,-0.989515960216522,-0.425638139247894,0.603080034255981,-0.994638524886308,-0.427965170275055,0.607609153824943,0
1.95999145507813,-0.954843938350677,2.55494379997253,1.72709691524506,-0.952900013794853,2.55581012544606,1.7254586333645,2182.699,2181.668,2175.873,2179.712,357.920440673828,44.9967346191406,0.83834832906723,-0.996990203857422,-0.428816974163055,0.607697188854218,-1.00202031904361,-0.431141350077486,0.612118576685011,0
1.97998046875,-0.974928319454193,2.54630589485168,1.73934316635132,-0.973001172086935,2.54716115859433,1.73773811729275,2173.423,2175.87,2181.964,2181.837,357.986022949219,44.9967231750488,0.810578346252441,-1.00422537326813,-0.431894272565842,0.612312793731689,-1.0091596546337,-0.434213206731958,0.616479885389866,0
2,-0.995152771472931,2.53760838508606,1.75167632102966,-0.993273599084619,2.53843849960327,1.75012222660065,2172.51,2174.802,2179.488,2178.605,358.055389404297,44.9966621398926,0.781642317771912,-1.01121938228607,-0.434873700141907,0.61665678024292,-1.01606400046349,-0.437183953857422,0.620697642517089,0
2.01998901367188,-1.01551198959351,2.52885341644287,1.76409256458282,-1.01365055070775,2.52967086658596,1.76257018837116,2177.387,2176.196,2170.556,2174.388,358.127838134766,44.9964256286621,0.752890110015869,-1.01796329021454,-0.437750369310379,0.620810925960541,-1.02270954399163,-0.440043345582587,0.624757301356767,0
2.03997802734375,-1.03600108623505,2.52004313468933,1.77659177780151,-1.03415783849082,2.52084715356021,1.77509777046792,2168.69,2170.535,2175.802,2176.441,358.197265625,44.9964256286621,0.724025547504425,-1.02445650100708,-0.440518796443939,0.624960839748383,-1.02910434715509,-0.442794850733705,0.628663786820389,0
2.05999755859375,-1.05661499500275,2.51117944717407,1.78916847705841,-1.05482201812353,2.5119559343546,1.78772119534738,2168.002,2169.49,2172.966,2173.121,358.269836425781,44.9963722229004,0.694058775901794,-1.0306978225708,-0.443183243274689,0.628833532333374,-1.03525504859546,-0.445441325732794,0.632421154350513,0
2.07998657226563,-1.07734870910645,2.50226473808289,1.80181860923767,-1.07557499515204,2.50302650811029,1.80039886517028,2172.684,2170.919,2164.167,2168.753,358.344573974609,44.9961242675781,0.664413094520569,-1.03667974472046,-0.445739954710007,0.632509529590607,-1.04114045847258,-0.4479736531836,0.636016459404434,0
2.10000610351563,-1.09819674491882,2.49330115318298,1.81454229354858,-1.09647498538954,2.49403382618922,1.81316634306845,2163.219,2165.083,2170.041,2170.966,358.415557861328,44.9961242675781,0.634740591049194,-1.04240381717682,-0.448185294866562,0.636183500289917,-1.04677621342161,-0.450398561093403,0.639459254158576,0
2.1199951171875,-1.11915409564972,2.484290599823,1.82733273506165,-1.11745308225396,2.48500753716864,1.82598153508617,2167.685,2166.578,2161.852,2165.437,358.489562988281,44.9959526062012,0.604922354221344,-1.04787015914917,-0.450524687767029,0.639521181583405,-1.0521429102862,-0.45270770082608,0.642737685527497,0
2.13998413085938,-1.14021563529968,2.47523546218872,1.84018993377686,-1.13853583516761,2.47593621757383,1.83886065985125,2157.503,2160.871,2168.465,2167.475,358.561004638672,44.9960060119629,0.574714779853821,-1.05308067798615,-0.452755272388458,0.642862558364868,-1.05724722779031,-0.454903946049977,0.645855833439456,0
2.16000366210938,-1.16137635707855,2.46613788604736,1.85310816764832,-1.15975039167652,2.46680818657414,1.85182030137592,2156.938,2160.042,2165.412,2163.808,358.637268066406,44.9959754943848,0.543254852294922,-1.05803346633911,-0.454881131649017,0.645913302898407,-1.0620943502576,-0.456989527434725,0.648816864916866,0
2.17999267578125,-1.18263053894043,2.45700001716614,1.86608338356018,-1.18102676265167,2.45765355853653,1.86481770439342,2162.808,2161.609,2155.316,2159.239,358.717254638672,44.9957313537598,0.512142717838287,-1.06271648406982,-0.456894814968109,0.648763954639435,-1.06666760390386,-0.458957270716794,0.65161059420515,0
2.19998168945313,-1.20397317409515,2.44782423973083,1.87911558151245,-1.20239187218348,2.44846074877705,1.87786931641044,2154.56,2155.96,2159.672,2161.407,358.7939453125,44.9957618713379,0.481111854314804,-1.06712627410889,-0.458788335323334,0.651610732078552,-1.07097279461286,-0.460809674005774,0.654240568028104,0
2.22000122070313,-1.22539830207825,2.43861293792725,1.89219892024994,-1.22387315175433,2.43921795429519,1.89099189489151,2154.116,2154.74,2156.527,2158,358.872894287109,44.9957237243652,0.449210554361343,-1.07126533985138,-0.460566967725754,0.654165923595428,-1.07501419914593,-0.462548577472581,0.656709398992482,0
2.239990234375,-1.24690103530884,2.42936825752258,1.90532922744751,-1.24539969505118,2.42995568409656,1.90414212427648,2158.677,2155.957,2147.898,2153.518,358.952911376953,44.9955024719238,0.417835086584091,-1.07512831687927,-0.462228447198868,0.656513571739197,-1.07877792518082,-0.464168003639063,0.659008600495412,0
2.25997924804688,-1.26847541332245,2.42009282112122,1.91850638389587,-1.26699874763832,2.42066221517598,1.91733664845539,2148.194,2149.989,2154.513,2155.916,359.028167724609,44.9955596923828,0.38647273182869,-1.0787181854248,-0.463770687580109,0.658856868743896,-1.08226887897249,-0.465670063529659,0.661141169691481,0
2.27999877929688,-1.29011619091034,2.41078877449036,1.93172430992126,-1.28869796983554,2.41132564607061,1.93059236468599,2146.356,2148.773,2152.854,2152.347,359.106201171875,44.9955635070801,0.354103714227676,-1.08204162120819,-0.465203166007996,0.660896718502045,-1.08549040888332,-0.467056197851165,0.663109152043028,0
2.29998779296875,-1.31181788444519,2.40145826339722,1.94497883319855,-1.31042570636616,2.40197680804417,1.9438654998779,2150.743,2150.037,2144.439,2147.767,359.187103271484,44.995361328125,0.3221675157547,-1.08509171009064,-0.466522485017776,0.66272759437561,-1.08843144721369,-0.468321644481621,0.664905786465049,0
2.32000732421875,-1.33357524871826,2.39210391044617,1.95826983451843,-1.33224276726637,2.39258953623693,1.95719320193332,2141.375,2144.29,2149.794,2150.09,359.265258789063,44.995433807373,0.290205091238022,-1.08786582946777,-0.467722058296204,0.664553105831146,-1.09109983431736,-0.469469776906228,0.666535862507326,0
2.33999633789063,-1.35538268089294,2.38272762298584,1.97159028053284,-1.35407709248145,2.38319483607731,1.97053145048929,2146.979,2145.631,2140.649,2144.307,359.347076416016,44.995304107666,0.258237302303314,-1.09036636352539,-0.468806803226471,0.666024744510651,-1.09348640563071,-0.470496651869278,0.667993781680938,0
2.3599853515625,-1.37723445892334,2.37333250045776,1.98494029045105,-1.37595634130987,2.37378080654189,1.98389714217962,2137.469,2140.062,2146.18,2146.489,359.426116943359,44.995418548584,0.22590047121048,-1.09258925914764,-0.469769895076752,0.667499959468842,-1.09559452046326,-0.471403714787811,0.669281596135657,0
2.3800048828125,-1.39912509918213,2.36392021179199,1.99831366539001,-1.39790843013262,2.36433543599182,1.99730733068585,2137.438,2139.2,2142.641,2142.678,359.509033203125,44.995433807373,0.192446917295456,-1.09453737735748,-0.470617651939392,0.66867071390152,-1.09742594550583,-0.472191725819537,0.67040038511534,0
2.39999389648438,-1.42104923725128,2.35449314117432,2.01170635223389,-1.41986083522252,2.35488992936084,2.01071771239474,2143.102,2140.754,2132.934,2137.869,359.594207763672,44.9952049255371,0.159564018249512,-1.09620034694672,-0.471344232559204,0.669631659984589,-1.09897439291323,-0.472857979480329,0.671346307473475,0
2.41998291015625,-1.44300067424774,2.34505462646484,2.02511835098267,-1.4418413890156,2.34543231112926,2.02414528970716,2133.812,2135.119,2138.013,2140.341,359.674896240234,44.9952507019043,0.126854971051216,-1.09757602214813,-0.471943557262421,0.670594930648804,-1.10024227275454,-0.473403512755585,0.67212083548366,0
2.44000244140625,-1.46497416496277,2.33560609817505,2.0385434627533,-1.46387808506052,2.33595053645515,2.03760716344514,2132.849,2133.83,2135.543,2136.823,359.757446289063,44.9952735900879,0.0934178307652473,-1.09867405891418,-0.472425311803818,0.671252250671387,-1.10123038958312,-0.473828671822132,0.672724460634977,0
2.45999145507813,-1.48696410655975,2.32615041732788,2.05197739601135,-1.48589810917879,2.32647593524532,2.05105885256329,2137.037,2134.932,2127.555,2132.23,359.841186523438,44.9950790405273,0.0606643818318844,-1.09948933124542,-0.472787320613861,0.671696603298187,-1.10193535162022,-0.474131997292339,0.673155110942729,0
2.47998046875,-1.50896453857422,2.31668996810913,2.06542015075684,-1.50792940965705,2.3169964821328,2.06451743023379,2126.76,2129.136,2133.677,2134.842,359.920745849609,44.995189666748,0.0279480293393135,-1.10002195835114,-0.473025590181351,0.672140061855316,-1.10235860927677,-0.474314113237503,0.673413672440311,0
2.5,-1.53097021579742,2.30722689628601,2.07886552810669,-1.52999999932945,2.30750012397766,2.0780000090599,2125.589,2127.961,2131.52,2131.162,0.00336957909166813,44.9952354431152,-0.00563426874577999,-1.10028171539307,-0.473149865865707,0.672270119190216,-1.10250000050292,-0.474374949932098,0.673500046133994,0
2.51998901367188,-1.55297541618347,2.29776382446289,2.09230923652649,-1.5520369476803,2.29801824074336,2.09146203692764,2130.597,2129.129,2122.764,2126.549,0.0885927528142929,44.9950675964355,359.961395263672,-1.10025990009308,-0.473155319690704,0.672190368175507,-1.10235904000526,-0.474314298567936,0.67341393556562,0
2.53997802734375,-1.57497441768646,2.28830313682556,2.10575151443481,-1.57406826106879,2.28853878207593,2.1049206224848,2121.551,2123.591,2127.568,2129.088,0.170368388295174,44.9951667785645,359.928436279297,-1.09995198249817,-0.47303432226181,0.672109365463257,-1.10193621258339,-0.474132367740737,0.673155636891692,0
2.55999755859375,-1.59696173667908,2.27884721755981,2.11918592453003,-1.59612191359838,2.27904971150017,2.11839285467467,2121.271,2122.487,2124.56,2125.404,0.254792839288712,44.9952049255371,359.894683837891,-1.09936738014221,-0.472795516252518,0.671717405319214,-1.10123038958312,-0.473828671822132,0.672724460634977,0
2.57998657226563,-1.61893153190613,2.26939821243286,2.13260817527771,-1.61812503288753,2.26958238396605,2.1318342168965,2126.421,2123.609,2115.763,2120.835,0.340665638446808,44.9950332641602,359.861663818359,-1.09849810600281,-0.472434639930725,0.671117722988129,-1.1002439936861,-0.473404253224357,0.672121886773894,0
2.60000610351563,-1.6408783197403,2.25995945930481,2.14601850509644,-1.64013916343638,2.26011031859448,2.14528230572506,2116.778,2118.197,2121.147,2123.374,0.421848833560944,44.9951324462891,359.828735351563,-1.09734177589417,-0.471946179866791,0.670516610145569,-1.09897439291323,-0.472857979480329,0.671346307473476,0
2.6199951171875,-1.66279673576355,2.25053262710571,2.15940976142883,-1.66209156852628,2.2506648119635,2.15869268743396,2121.443,2119.248,2113.509,2117.604,0.504956185817719,44.995044708252,359.796051025391,-1.09591269493103,-0.471342325210571,0.669557571411133,-1.09742594550583,-0.472191725819537,0.67040038511534,0
2.63998413085938,-1.68468070030212,2.24112033843994,2.1727819442749,-1.6840102224118,2.24123382753286,2.17208245105877,2110.893,2114.014,2119.874,2120.035,0.584573447704315,44.9952049255371,359.763031005859,-1.09420454502106,-0.470616847276688,0.668607592582703,-1.09559752564474,-0.471405007833448,0.669283431954129,0
2.66000366210938,-1.70652532577515,2.23172473907471,2.18612885475159,-1.70592290617745,2.23180541187802,2.18546856763052,2110.391,2113.293,2117.177,2116.108,0.668145775794983,44.9952659606934,359.729095458984,-1.09222805500031,-0.469780504703522,0.667347192764282,-1.09348640563071,-0.470496651869278,0.667993781680938,0
2.67999267578125,-1.72832477092743,2.2223482131958,2.19944667816162,-1.72775723139253,2.2224107117184,2.19880681618649,2116.215,2114.614,2107.811,2111.477,0.754704058170319,44.9950637817383,359.695983886719,-1.08997118473053,-0.46882563829422,0.665886163711548,-1.09109983431736,-0.469469776906228,0.666535862507326,0
2.69998168945313,-1.75007331371307,2.21299338340759,2.21273517608643,-1.74954107593572,2.21303773198162,2.21211422688774,2108.103,2109.438,2111.593,2114.086,0.83756548166275,44.9951477050781,359.663055419922,-1.08742654323578,-0.467742264270782,0.664429783821106,-1.08843572622736,-0.468323485621663,0.66490840044773,0
2.72000122070313,-1.77176547050476,2.20366263389587,2.2259886264801,-1.77130202882336,2.20367460188472,2.22540765343382,2108.151,2108.255,2108.534,2110.563,0.921963810920715,44.9952011108398,359.629669189453,-1.08460795879364,-0.466540694236755,0.662668704986572,-1.08549040888332,-0.467056197851165,0.663109152043028,0
2.739990234375,-1.79339575767517,2.19435834884644,2.23920273780823,-1.79296822271738,2.1943522439355,2.23864319318939,2112.853,2109.143,2100.577,2106.182,1.00653004646301,44.995044708252,359.597137451172,-1.08150994777679,-0.465218037366867,0.660704970359802,-1.08227399942825,-0.465672266718727,0.661144297698006,0
2.75997924804688,-1.81495821475983,2.18508291244507,2.2523775100708,-1.81456738183361,2.18505872917844,2.25183778244526,2102.779,2103.878,2106.413,2108.927,1.08569705486298,44.995189666748,359.564727783203,-1.07813107967377,-0.463770568370819,0.658744394779205,-1.07878346314437,-0.464170386470068,0.659011983550929,0
2.77999877929688,-1.83644819259644,2.17583847045898,2.26550698280334,-1.83612684690458,2.17578229366013,2.2650081232283,2101.142,2102.846,2105.138,2105.313,1.16646456718445,44.9952735900879,359.531707763672,-1.07449042797089,-0.462213486433029,0.656475901603699,-1.07501419914593,-0.462548577472581,0.656709398992482,0
2.79998779296875,-1.85785961151123,2.16662812232971,2.27858710289001,-1.85757544288233,2.1665535620153,2.27811073581237,2105.209,2103.823,2097.879,2100.971,1.24899125099182,44.9951438903809,359.499450683594,-1.07058131694794,-0.460543811321259,0.654010355472565,-1.07097916161324,-0.460812413548163,0.654244457529281,0
2.82000732421875,-1.87918770313263,2.15745282173157,2.29161810874939,-1.87897323600723,2.1573466894188,2.29118231372639,2096.372,2098.826,2102.466,2103.652,1.32829487323761,44.9952735900879,359.46728515625,-1.06639754772186,-0.458753764629364,0.651548683643341,-1.06666760390385,-0.458957270716794,0.65161059420515,0
2.83999633789063,-1.90042662620544,2.14831566810608,2.3045928478241,-1.90024960698239,2.14819206138118,2.30417971674389,2101.723,2099.985,2094.698,2097.795,1.41028165817261,44.9951972961426,359.435577392578,-1.06195533275604,-0.456854462623596,0.648732125759125,-1.06209435025759,-0.456989527434725,0.648816864916866,0
2.8599853515625,-1.92157161235809,2.13921880722046,2.31751155853271,-1.92143189875059,2.13907791299805,2.31711964824194,2093.055,2095.259,2099.208,2100.348,1.48917853832245,44.9953498840332,359.403686523438,-1.05724096298218,-0.454834938049316,0.645937740802765,-1.05725481901126,-0.454907212340279,0.645860470797877,0
2.8800048828125,-1.94261693954468,2.1301646232605,2.33036851882935,-1.94254691640495,2.12999271078668,2.33001848303364,2093.306,2094.479,2096.191,2096.712,1.5707825422287,44.995418548584,359.371185302734,-1.05226957798004,-0.45270636677742,0.642847120761871,-1.0521429102862,-0.45270770082608,0.642737685527497,0
2.89999389648438,-1.96355760097504,2.12115550041199,2.34315991401672,-1.96352501326936,2.1209664217661,2.34283367505136,2098.893,2095.635,2087.644,2092.299,1.65365588665009,44.9952507019043,359.339630126953,-1.0470312833786,-0.450462937355042,0.639564752578735,-1.04677621342161,-0.450398561093403,0.639459254158576,0
2.91998291015625,-1.98438799381256,2.11219358444214,2.35588574409485,-1.98439323028747,2.1119874109737,2.35558174318562,2090.521,2090.908,2091.813,2095.027,1.73158252239227,44.9953651428223,359.308319091797,-1.04151999950409,-0.448097109794617,0.636294543743134,-1.0411492471255,-0.447977434695422,0.636021828255355,0
2.94000244140625,-2.00510334968567,2.10328102111816,2.36854028701782,-2.00517798053537,2.10304431360073,2.36827882277243,2089.725,2089.907,2090.03,2091.624,1.8100790977478,44.9954414367676,359.276702880859,-1.03575706481934,-0.445624023675919,0.632731437683105,-1.03525504859546,-0.445441325732794,0.632421154350513,0
2.95999145507813,-2.02569818496704,2.09442019462585,2.38111996650696,-2.02581075424974,2.0941666074844,2.38088306226645,2093.522,2090.707,2083.478,2087.56,1.88870680332184,44.9953193664551,359.24609375,-1.02973783016205,-0.443041831254959,0.628982722759247,-1.02911391720548,-0.442798968459032,0.628669633014836,0
2.97998046875,-2.04616737365723,2.08561325073242,2.39362478256226,-2.04631823718085,2.08534281049189,2.39341076357611,2084.297,2086.091,2088.614,2090.266,1.96292018890381,44.9954833984375,359.215667724609,-1.02345860004425,-0.440345466136932,0.625241458415985,-1.0227194988233,-0.440047628868552,0.624763382608097,0
3,-2.06650590896606,2.07686233520508,2.40604901313782,-2.06672639957428,2.07656174835205,2.40587779151916,2083.485,2085.145,2086.967,2086.939,2.03903579711914,44.9955825805664,359.184875488281,-1.01694023609161,-0.437549203634262,0.621213376522064,-1.01606400046349,-0.437183953857422,0.620697642517089,0
3.01998901367188,-2.08670949935913,2.06816935539246,2.41838908195496,-2.0869680292999,2.06785234056679,2.41824308725414,2088.185,2086.031,2079.666,2082.876,2.11668109893799,44.9954681396484,359.155029296875,-1.01017439365387,-0.434648096561432,0.617002964019775,-1.00917036754089,-0.434217816196637,0.616486429737696,0
3.03997802734375,-2.10677289962769,2.05953669548035,2.43064522743225,-2.10706940546153,2.05920327997188,2.43052270427549,2080.331,2081.613,2083.507,2085.575,2.19058203697205,44.99560546875,359.125396728516,-1.00315308570862,-0.431633442640305,0.612804353237152,-1.00203140433628,-0.431146119769234,0.612125348517319,0
3.05999755859375,-2.12669086456299,2.05096626281738,2.4428117275238,-2.12705600675913,2.05060360379452,2.44273220712343,2080.452,2080.705,2081.095,2082.316,2.26588129997253,44.9956970214844,359.095489501953,-0.995896637439728,-0.428518295288086,0.608325839042664,-0.994638524886308,-0.427965170275055,0.607609153824944,0
3.07998657226563,-2.14645862579346,2.04246020317078,2.45488500595093,-2.14686207530873,2.04208160581513,2.45483142533277,2085.139,2081.612,2073.995,2078.304,2.3414626121521,44.9955711364746,359.066558837891,-0.988397717475891,-0.425298690795898,0.603669941425323,-0.987017247723776,-0.424685947625853,0.602953434534038,0
3.10000610351563,-2.16607189178467,2.03402090072632,2.46686553955078,-2.16654331551667,2.03361331798384,2.46685438785611,2077,2077.442,2078.221,2080.933,2.41214418411255,44.995719909668,359.037963867188,-0.980650722980499,-0.421968370676041,0.599028170108795,-0.979147395688901,-0.421299770153459,0.598145864732551,0
3.1199951171875,-2.18552541732788,2.02565002441406,2.47874689102173,-2.18603502400946,2.02522658035469,2.47876156841225,2081.014,2078.166,2072.545,2075.902,2.48336219787598,44.9956970214844,359.009979248047,-0.972681522369385,-0.418544113636017,0.594073116779327,-0.971056158224178,-0.417818336715394,0.593203054026623,0
3.13998413085938,-2.20481491088867,2.01734972000122,2.49052977561951,-2.20536269329809,2.01691042421237,2.49056853997833,2072.256,2074.368,2077.531,2078.262,2.55085706710815,44.9958839416504,358.981994628906,-0.964476883411407,-0.415017277002335,0.589139103889465,-0.962735018414262,-0.414237982720922,0.588119799565572,0
3.16000366210938,-2.22393608093262,2.00912141799927,2.5022087097168,-2.22455088103183,2.00865428308644,2.50229030443911,2071.998,2073.803,2075.635,2075.057,2.6206750869751,44.9959907531738,358.953674316406,-0.956057727336884,-0.411401987075806,0.583945512771606,-0.954174163352092,-0.410554485950274,0.582890106797601,0
3.17999267578125,-2.24288439750671,2.00096750259399,2.51378059387207,-2.24353658854737,2.00048526354177,2.51388837689424,2076.963,2074.809,2068.449,2071.232,2.69209003448486,44.9958457946777,358.926452636719,-0.947414040565491,-0.407691955566406,0.578589200973511,-0.945403214201559,-0.406780591562751,0.577532070829503,0
3.19998168945313,-2.2616548538208,1.9928902387619,2.52524566650391,-2.26234477504321,1.99239262633251,2.52537800452858,2070.561,2070.955,2071.155,2073.807,2.75976276397705,44.9959564208984,358.899688720703,-0.938536643981934,-0.403877228498459,0.57325142621994,-0.936412917636688,-0.402912318110697,0.572040038948834,0
3.22000122070313,-2.28024387359619,1.98489081859589,2.53659892082214,-2.28099938900442,1.98436606709459,2.53677381709797,2071.094,2070.084,2068.767,2070.892,2.82769560813904,44.9960327148438,358.872924804688,-0.929448246955872,-0.399971276521683,0.567660391330719,-0.927192788821982,-0.398945154262308,0.566407606133204,0
3.239990234375,-2.29864692687988,1.97697138786316,2.54783725738525,-2.2994392795179,1.97643189735754,2.54803845846384,2074.925,2070.715,2062.988,2067.446,2.89460420608521,44.9959487915039,358.847290039063,-0.920144021511078,-0.395971536636353,0.561914622783661,-0.917774783907129,-0.394892849856044,0.560654293895788,0
3.25997924804688,-2.31685924530029,1.96913361549377,2.55896091461182,-2.31768882969315,1.96857962575054,2.55918682388728,2066.988,2067.009,2067.402,2069.981,2.95626330375671,44.9961242675781,358.821990966797,-0.910620868206024,-0.391874313354492,0.556184053421021,-0.908148960779607,-0.390751127078637,0.554774028755191,0
3.27999877929688,-2.33487701416016,1.96137976646423,2.56996512413025,-2.33577134012187,1.96079922667992,2.57023314733618,2065.877,2066.396,2066.724,2067.082,3.01810598373413,44.9962539672852,358.796661376953,-0.900905191898346,-0.387696921825409,0.550208270549774,-0.898304216251578,-0.386515208538549,0.548760027947228,0
3.29998779296875,-2.35269713401794,1.95371103286743,2.5808470249176,-2.35362764460945,1.95311615770631,2.58114128510551,2069.264,2067.087,2061.477,2063.819,3.08032035827637,44.9961814880371,358.772399902344,-0.890991628170013,-0.383436888456345,0.544089734554291,-0.888274735793772,-0.382199803288803,0.542633174842512,0
3.31997680664063,-2.3703145980835,1.946129322052,2.59160685539246,-2.37128151039117,1.94552019245235,2.59192575622841,2062.314,2063.637,2065.022,2066.309,3.13911294937134,44.996337890625,358.748474121094,-0.880873620510101,-0.37908723950386,0.537988901138306,-0.878049940595779,-0.377800359562814,0.53638700701084,0
3.33999633789063,-2.3877260684967,1.93863606452942,2.60223984718323,-2.38875555478454,1.93800159931817,2.60260037727124,2062.764,2063.079,2063,2063.496,3.19909715652466,44.9964256286621,358.724609375,-0.87057363986969,-0.374661147594452,0.531653344631195,-0.867618167158097,-0.373311858882592,0.530014399402376,0
3.3599853515625,-2.40492749214172,1.93123304843903,2.61274361610413,-2.40599272667425,1.93058492580486,2.6131302965979,2067.141,2063.772,2057.005,2060.333,3.25918292999268,44.9963340759277,358.701934814453,-0.860083878040314,-0.370153456926346,0.525183379650116,-0.857015715678588,-0.368749920209162,0.523537527241535,0
3.3800048828125,-2.42191553115845,1.92392182350159,2.62311816215515,-2.42304196557559,1.92324911460621,2.6235454105946,2061.139,2060.561,2059.867,2062.669,3.31481289863586,44.9964714050293,358.679718017578,-0.849398493766785,-0.36555752158165,0.518732905387878,-0.846214826007803,-0.364102599125748,0.516939432286212,0
3.39999389648438,-2.43868637084961,1.91670429706573,2.63335871696472,-2.43984769972619,1.91601807669906,2.63381177133889,2064.844,2061.17,2055.278,2058.537,3.36988162994385,44.9964714050293,358.658355712891,-0.838544607162476,-0.360889494419098,0.512029051780701,-0.835253140422974,-0.35938609205264,0.510243109616171,0
3.41998291015625,-2.45523643493652,1.90958142280579,2.64346575737,-2.45643259034873,1.90888206159239,2.64394322221809,2057.84,2058.242,2059.286,2060.751,3.42074394226074,44.9966697692871,358.637176513672,-0.827509343624115,-0.356141597032547,0.505357503890991,-0.824119146742881,-0.354595445619869,0.503441526619546,0
3.44000244140625,-2.47156286239624,1.9025547504425,2.65343523025513,-2.47281804716281,1.90183185728196,2.6539528420958,2057.454,2058.015,2058.283,2058.091,3.47224307060242,44.9967727661133,358.616088867188,-0.81631726026535,-0.351329505443573,0.498477011919022,-0.812800388649434,-0.349725300221754,0.496527073925997,0
3.45999145507813,-2.48766231536865,1.89562582969666,2.66326475143433,-2.48895081463434,1.8948903781363,2.66380809799729,2061.111,2058.814,2053.198,2055.232,3.52410387992859,44.996696472168,358.596130371094,-0.804961681365967,-0.346449255943298,0.491481691598892,-0.80133641229185,-0.344792671461508,0.489523909660973,0
3.47998046875,-2.50353097915649,1.88879585266113,2.67295503616333,-2.50485284867397,1.88804817714046,2.67352240244575,2055.932,2056.019,2055.544,2057.452,3.57248783111572,44.9968109130859,358.576812744141,-0.793436229228973,-0.34149357676506,0.484510898590088,-0.789715229532172,-0.33979240117828,0.482424710458066,0
3.5,-2.51916599273682,1.88206648826599,2.68250203132629,-2.5205447997813,1.88129636896134,2.68310837050915,2056.568,2055.554,2053.804,2055.128,3.62070298194885,44.996898651123,358.557830810547,-0.781763911247253,-0.336475163698196,0.477345794439316,-0.777924000354857,-0.334718964672089,0.475221632552147,0
3.51998901367188,-2.53456497192383,1.87543869018555,2.69190359115601,-2.53597583877076,1.87465682397749,2.69253495143119,2060.116,2056.049,2049.145,2052.605,3.66769886016846,44.9968452453613,358.540130615234,-0.769940733909607,-0.331391125917435,0.470075011253357,-0.766004036374581,-0.329590137176618,0.467939912563966,0
3.53997802734375,-2.54972410202026,1.86891388893127,2.70116019248962,-2.55116718971613,1.86812041006291,2.70181511066737,2054.35,2053.348,2052.344,2054.827,3.70987200737,44.9970207214355,358.52294921875,-0.757964313030243,-0.326238036155701,0.462829858064651,-0.753942941956194,-0.324400585196356,0.460571978193441,0
3.55999755859375,-2.56464147567749,1.86249327659607,2.71026825904846,-2.56613872308604,1.86167857751006,2.71096098677687,2053.899,2053.012,2051.832,2052.648,3.75116348266602,44.9971351623535,358.506072998047,-0.745860457420349,-0.321031481027603,0.455403029918671,-0.741727567798258,-0.319144650954242,0.45310979673751,0
3.57998657226563,-2.5793137550354,1.85617780685425,2.71922588348389,-2.58084213759183,1.85535210901407,2.7199430732562,2056.414,2053.61,2048.286,2050.34,3.79154229164124,44.9971160888672,358.490325927734,-0.733626484870911,-0.31577056646347,0.447883009910583,-0.72940084364523,-0.31384080592,0.445579593307163,0
3.60000610351563,-2.59373903274536,1.84996891021729,2.72803354263306,-2.59531978247425,1.84912278287974,2.72878724059568,2051.275,2051.426,2051.071,2052.235,3.82834792137146,44.9972610473633,358.475158691406,-0.721259534358978,-0.310451477766037,0.44038650393486,-0.716930938559024,-0.308475354130224,0.437961922879033,0
3.6199951171875,-2.607914686203,1.84386718273163,2.73668766021729,-2.60952509409627,1.84301063413925,2.73746504379605,2054.578,2052,2047.408,2049.122,3.86506152153015,44.9972763061523,358.460968017578,-0.708783209323883,-0.305087119340897,0.432704776525497,-0.704361775018033,-0.303067194200314,0.43028361700977,0
3.63998413085938,-2.62183856964111,1.83787369728088,2.74518895149231,-2.623478029369,1.83700707589127,2.7459886742229,2049.968,2050.007,2049.906,2050.923,3.89862513542175,44.9974365234375,358.447265625,-0.696185350418091,-0.299669116735458,0.425059944391251,-0.691680442442073,-0.297610771068296,0.422536788827407,0
3.66000366210938,-2.63550806045532,1.83198976516724,2.7535343170166,-2.63719712493647,1.83110413233575,2.75436945562281,2050.69,2049.872,2048.504,2049.043,3.93215990066528,44.9975280761719,358.433959960938,-0.683486700057983,-0.294209092855453,0.417268872261047,-0.678873453515702,-0.29210028151913,0.414713199141411,0
3.67999267578125,-2.64892172813416,1.82621538639069,2.76172232627869,-2.65063849381582,1.82532068681534,2.76258057812278,2054.258,2050.578,2044.297,2046.928,3.96473026275635,44.9974822998047,358.421905517578,-0.670683681964874,-0.28870415687561,0.409401774406433,-0.665986083416798,-0.286555206197011,0.406840505851433,0
3.69998168945313,-2.6620774269104,1.82055234909058,2.7697536945343,-2.66382131180924,1.81964848851807,2.77063375592113,2050.192,2048.7,2046.47,2048.777,3.99292135238647,44.9976005554199,358.410614013672,-0.657773911952972,-0.283150374889374,0.401570230722427,-0.653005218467595,-0.280969902652754,0.398910698016369,0
