t,x_s1,x_s2,x_s3,x_s_d1,x_s_d2,x_s_d3,propellers_rpms1,propellers_rpms2,propellers_rpms3,propellers_rpms4,rollRad,pitchRad,yawRad,v_s1,v_s2,v_s3,v_s_d1,v_s_d2,v_s_d3,insideCount
0,-0.0599999986588955,2.94000005722046,1.17999994754791,-0.0599999986588955,2.94000005722046,1.17999994754791,0,0,0,0,0,0,0,0,0,0,-1.06581410364015E-15,4.44089209850063E-16,4.44089209850063E-16,0
0.019989013671875,-0.0599999986588955,2.94000005722046,1.17811644077301,-0.0600018659130177,2.93999925379318,1.18000110346716,0,0,0,0,-0.01635288,0.0001297794,-0.01587137,-1.10653664009419E-09,-7.76775763711157E-08,-0.0941759571433067,-0.000279680311988734,-0.000120338624884473,0.000173135436141649,5
0.0399932861328125,-0.0599999986588955,2.94000005722046,1.17242503166199,-0.060014863945674,2.93999366110285,1.18000914986856,0,0,0,0,-0.03270202,0.0005238493,-0.03175127,-1.08383135799528E-09,-7.60859677484405E-08,-0.284568399190903,-0.00111059898697896,-0.000477859717552347,0.000687513678106196,5
0.05999755859375,-0.0599058866500854,2.93990302085876,1.16596508026123,-0.0600498857373401,2.93997859220429,1.18003083002592,1868.354,3252.841,3183.737,1722.314,-0.04942294,0.000329806,-0.01369557,0.00470561534166336,-0.00484914472326636,-0.32299879193306,-0.00247936261166862,-0.00106680046642749,0.00153484356504269,5
0.079986572265625,-0.0598203726112843,2.93960738182068,1.16000318527222,-0.0601174907153006,2.93994950367094,1.18007268072775,1925.478,2314.355,3252.169,2829.42,-0.07543564,-0.002136388,0.02094805,0.00427567213773727,-0.014778820797801,-0.298097044229507,-0.00437104534358026,-0.00188073869847162,0.00270588528944111,5
0.0999908447265625,-0.0599374547600746,2.93904495239258,1.15498673915863,-0.0602281370710988,2.93990189563514,1.18014117609281,979.8283,1498.76,3915.294,3896.684,-0.1031986,-0.008064052,0.06331035,-0.00585409160703421,-0.028117997571826,-0.250821143388748,-0.00677536694902951,-0.00291525111632684,0.0041942748969354,4
0.1199951171875,-0.0604638569056988,2.93818354606628,1.15081322193146,-0.0603918861403606,2.93983143898525,1.18024254456713,346.4391,980.4211,4172.694,4613.423,-0.1214343,-0.01542183,0.1040048,-0.0263201668858528,-0.0430697575211525,-0.208673357963562,-0.00967801353495435,-0.00416417885169243,0.00599115140585487,4
0.139999389648438,-0.061563640832901,2.93704128265381,1.14728271961212,-0.0606185767455666,2.93973390035084,1.18038287685052,352.9913,747.085,3975.225,4855.024,-0.1254029,-0.02116734,0.1351083,-0.0549892820417881,-0.0571149438619614,-0.176523879170418,-0.0130660253322238,-0.00562194567796536,0.00808849210174802,4
0.159988403320313,-0.063340924680233,2.93568086624146,1.14427471160889,-0.0609175312885481,2.93960526856281,1.18056794395381,820.9889,814.9572,3462.693,4692.408,-0.1184611,-0.02352477,0.1522709,-0.088864266872406,-0.0680159479379654,-0.150398120284081,-0.0169234294955564,-0.00728167892605071,0.0104764090324936,3
0.17999267578125,-0.0658470392227173,2.9341721534729,1.1418251991272,-0.0612985250199726,2.93944133760391,1.18080379722281,1348.431,1083.154,3007.24,4255.203,-0.1079795,-0.02278068,0.1557794,-0.125305712223053,-0.0754329711198807,-0.122474029660225,-0.0212433804254414,-0.00914043312572283,0.0131506644458931,3
0.199996948242188,-0.0690851435065269,2.93255376815796,1.14006125926971,-0.0617704296168641,2.93923829023936,1.18109592864822,1636.609,1381.373,2918.039,3666.351,-0.09982433,-0.02030128,0.1501567,-0.161905124783516,-0.0809169486165047,-0.0881956964731216,-0.0260104776919234,-0.0111915819022102,0.0161017247421801,3
0.219985961914063,-0.0730105042457581,2.93082594871521,1.13903522491455,-0.0623415882203848,2.93899253664859,1.18144950303185,1641.709,1580.855,3147.846,3113.043,-0.09583811,-0.01735475,0.142187,-0.196268036961555,-0.086386613547802,-0.0513021871447563,-0.031208065114187,-0.0134279585662277,0.0193192789519858,3
0.239990234375,-0.0775502920150757,2.92897343635559,1.13863289356232,-0.0630214373585105,2.93870001655724,1.18187036203406,1523.726,1623.949,3418.416,2777.482,-0.09475474,-0.01467828,0.1377322,-0.226989656686783,-0.0926257967948914,-0.0201156493276358,-0.0368316683029241,-0.015847637913056,0.022800557215184,3
0.259994506835938,-0.0826392024755478,2.92699217796326,1.13863515853882,-0.0638179029240226,2.93835731967507,1.18236341216003,1439.018,1500.979,3533.013,2744.219,-0.09438669,-0.01258876,0.1393006,-0.254445791244507,-0.0990586876869202,0.000114655122160912,-0.0428651747123285,-0.0184436871643672,0.0265355850983733,3
0.279998779296875,-0.0882450789213181,2.9249005317688,1.13885164260864,-0.0647390625194898,2.93796097043536,1.18293365383054,1400.898,1276.167,3476.259,2977.502,-0.09320957,-0.01110485,0.1456811,-0.280293971300125,-0.1045843064785,0.0108252549543977,-0.0492963837173861,-0.0212108567320638,0.030516809833474,3
0.29998779296875,-0.0943708568811417,2.92273235321045,1.13920652866364,-0.0657918945890516,2.93750796620855,1.18358540703494,1350.656,1061.58,3345.191,3324.748,-0.09053576,-0.009934656,0.1533076,-0.30628889799118,-0.108406603336334,0.0177424009889364,-0.0561078595514081,-0.0241416444928383,0.0347334378503248,3
0.319992065429688,-0.101036205887794,2.92052555084229,1.1397248506546,-0.0669855955880233,2.93699435001684,1.18432436481717,1280.252,940.726,3238.492,3590.62,-0.08597856,-0.008524246,0.1583609,-0.333267569541931,-0.110344052314758,0.0259164161980152,-0.0632980253096114,-0.0272353719486164,0.0391844929697465,3
0.339996337890625,-0.108251765370369,2.91831183433533,1.14046132564545,-0.068326768706371,2.93641728069206,1.18515461486636,1253.246,944.3047,3170.563,3649.969,-0.07944209,-0.006291984,0.1584789,-0.360777795314789,-0.110681414604187,0.0368208102881908,-0.0708499516420146,-0.0304847548730522,0.0438594951176439,4
0.360000610351563,-0.116003274917603,2.91611456871033,1.1414520740509,-0.0698225328270578,2.93577369517774,1.1860805641102,1320.382,1047.492,3119.948,3497.949,-0.07154582,-0.002961968,0.153473,-0.387575477361679,-0.109857872128487,0.0495396256446838,-0.0787518717320621,-0.0338847303337087,0.0487511600740379,4
0.379989624023438,-0.124251633882523,2.91394948959351,1.142706990242,-0.0714784451857985,2.93506120235061,1.1871056527423,1455.38,1181.622,3090.86,3231.333,-0.06361866,0.001259185,0.1450372,-0.412417948246002,-0.108255259692669,0.0627469271421432,-0.0869857157641562,-0.0374275233937465,0.0538483017622888,4
0.399993896484375,-0.132943481206894,2.91182613372803,1.14421689510345,-0.0733036822025899,2.9342758538535,1.18823556140379,1578.468,1273.166,3106.069,2982.012,-0.05701988,0.005824985,0.1357498,-0.434592604637146,-0.106165714561939,0.0754973515868187,-0.0955525119207663,-0.0411135764513579,0.0591515566763244,4
0.419998168945313,-0.142023846507072,2.90974998474121,1.14595723152161,-0.0753034649285836,2.93341540321397,1.18947352217404,1631.377,1288.741,3158.506,2844.919,-0.05243391,0.0101757,0.1278585,-0.454018235206604,-0.103803351521492,0.0870191007852554,-0.104434660908044,-0.0449353170220673,0.0646500300148815,4
0.439987182617188,-0.151446253061295,2.90772414207458,1.14789474010468,-0.0774822545706558,2.93247793089932,1.19082229675263,1608.078,1238.47,3218.486,2842.369,-0.04965251,0.01397722,0.1224589,-0.471119612455368,-0.101289764046669,0.0968772321939468,-0.113613709720558,-0.0488848052931553,0.0703322984885602,4
0.459991455078125,-0.161176964640617,2.9057514667511,1.14999628067017,-0.0798493430620752,2.93145943885026,1.19228763728888,1540.779,1157.843,3253.703,2938.474,-0.04788364,0.01718626,0.119341,-0.486536353826523,-0.0986374914646149,0.105078123509884,-0.123092454730403,-0.0529632444654124,0.0762000931848968,4
0.479995727539063,-0.171193763613701,2.9038360118866,1.15223824977875,-0.0824088828700873,2.93035814037613,1.19387211435783,1474.1,1086.2,3247.95,3067.428,-0.04628414,0.01998742,0.1173776,-0.500840306282043,-0.0957761779427528,0.112098880112171,-0.132852887402757,-0.0571628859694044,0.0822422659629699,5
0.5,-0.181481182575226,2.9019832611084,1.15461480617523,-0.085166398670376,2.92917165836334,1.1955791479969,1432.613,1046.64,3215.843,3169.053,-0.04433151,0.02264583,0.1152182,-0.514370262622833,-0.0926362872123718,0.118826702237129,-0.142884000065179,-0.0614789935111996,0.0884520025491718,5
0.519989013671875,-0.192024350166321,2.90019869804382,1.15713393688202,-0.0881248588203387,2.92789871561062,1.19741057576073,1423.589,1045.08,3177.622,3210.231,-0.04192508,0.02538011,0.1118816,-0.527158498764038,-0.0892243832349777,0.125954076647758,-0.153166947611899,-0.0659034585682559,0.0948176369253132,5
0.539993286132813,-0.202804639935493,2.89848589897156,1.15980958938599,-0.091293865515634,2.92653518056143,1.19937234186584,1444.247,1072.967,3150.194,3184.944,-0.03929601,0.02828802,0.1070518,-0.539014339447021,-0.0856381952762604,0.133782729506493,-0.163706645289342,-0.0704383960337938,0.101342211863077,5
0.55999755859375,-0.213797837495804,2.89684534072876,1.16265225410461,-0.094676112580471,2.92507989413848,1.20146611391775,1484.394,1113.933,3137.963,3114.47,-0.03688052,0.03132813,0.101061,-0.549661219120026,-0.0820319503545761,0.142135888338089,-0.17448465888317,-0.0750758741803766,0.108014315705644,5
0.579986572265625,-0.224976047873497,2.8952739238739,1.16566693782806,-0.0982734311149,2.92353206847056,1.2036930254546,1522.801,1149.12,3144.799,3033.962,-0.03512177,0.03434809,0.09465208,-0.558910489082336,-0.0785741657018661,0.1507358700037,-0.185481935470438,-0.0798076950675377,0.114822153786096,5
0.599990844726563,-0.236310690641403,2.8937656879425,1.16885077953339,-0.102095761416081,2.92188742652551,1.20605922999388,1539.335,1166.658,3164.436,2979.747,-0.03429033,0.03716051,0.08861968,-0.566732347011566,-0.0754156857728958,0.159192100167274,-0.19670480600515,-0.0846365827279185,0.121769645266545,5
0.6199951171875,-0.247775956988335,2.89231252670288,1.17219364643097,-0.106144683970236,2.92014528826426,1.20856570593183,1534.348,1167.246,3181.766,2964.863,-0.0344171,0.03963191,0.0834596,-0.573262870311737,-0.0726620256900787,0.167144700884819,-0.208134604141382,-0.0895545055543457,0.128845234789665,5
0.639999389648438,-0.259351134300232,2.89090490341187,1.17568600177765,-0.110424235525481,2.91830391678686,1.21121495220784,1508.089,1156.717,3194.232,2985.885,-0.03534175,0.04170116,0.07928898,-0.578759491443634,-0.0703758075833321,0.174616366624832,-0.219761081350814,-0.0945570538913933,0.136042578028218,5
0.659988403320313,-0.271020829677582,2.88953304290771,1.17931962013245,-0.114934715429503,2.91636318329238,1.21400715413238,1466.931,1144.443,3197.772,3030.972,-0.03678624,0.04338707,0.07589863,-0.583485543727875,-0.0685914382338524,0.181680485606194,-0.231565018351745,-0.0996359582190702,0.143349777331291,5
0.67999267578125,-0.28277376294136,2.88818669319153,1.18308937549591,-0.119686638739014,2.91431856344567,1.21694882102647,1427.406,1139.329,3192.056,3075.84,-0.03845072,0.0447754,0.07288586,-0.587646722793579,-0.0673229992389679,0.188487738370895,-0.243554411173546,-0.104794659005432,0.150771782621969,5
0.699996948242188,-0.294600665569305,2.88685512542725,1.18699169158936,-0.124680083855354,2.91217002351282,1.22004000142426,1404.536,1146.191,3176.578,3102.497,-0.04016313,0.04596786,0.06985895,-0.591344892978668,-0.0665735453367233,0.195116549730301,-0.255710395848158,-0.11002503961202,0.158296916205407,5
0.719985961914063,-0.306492835283279,2.88552808761597,1.19102764129639,-0.129914195341611,2.90991793156443,1.22328016576956,1396.016,1163.182,3162.463,3105.163,-0.04192455,0.04702451,0.06662301,-0.594609081745148,-0.0663569718599319,0.201796025037766,-0.2680137084949,-0.11531881132915,0.165913252821798,5
0.739990234375,-0.318441212177277,2.88419389724731,1.19519877433777,-0.135400001298574,2.90755754251682,1.2266761409821,1390.55,1184.845,3154.753,3094.945,-0.04383244,0.04795195,0.06322208,-0.597417771816254,-0.0667061507701874,0.208558097481728,-0.280473432677602,-0.12067988256057,0.173626415629864,5
0.759994506835938,-0.330436229705811,2.88284063339233,1.19950366020203,-0.14113644597991,2.90508931062815,1.2302272735046,1391.875,1207.471,3149.25,3075.58,-0.04599865,0.04873395,0.05981362,-0.599750757217407,-0.0676580145955086,0.215246289968491,-0.293070637251543,-0.126100107763583,0.181424685349205,5
0.779998779296875,-0.342468947172165,2.88145565986633,1.20394122600555,-0.147126184485884,2.90251209348295,1.23393520697061,1389.374,1226.814,3150.23,3057.548,-0.04853558,0.04932135,0.05664193,-0.601636528968811,-0.0692506805062294,0.221876055002213,-0.305795832832518,-0.131575403921268,0.189302187598958,5
0.79998779296875,-0.354531824588776,2.8800253868103,1.20850777626038,-0.153366821193532,2.89982692185086,1.2377984583754,1373.981,1240.768,3154.128,3054.401,-0.05148157,0.04966218,0.05392922,-0.603144109249115,-0.0715149790048599,0.228324830532074,-0.318629798715703,-0.137097500901303,0.197247023847227,5
0.819992065429688,-0.366619527339935,2.87853598594666,1.21319842338562,-0.159870162197751,2.89702871589906,1.2418243362541,1350.222,1250.58,3157.984,3063.018,-0.05475619,0.04973718,0.05176381,-0.604387164115906,-0.0744667276740074,0.234533190727234,-0.33158286215529,-0.142670842232658,0.205265587156312,4
0.839996337890625,-0.378729224205017,2.87697410583496,1.21800625324249,-0.166633637018892,2.89411858163313,1.24601124935738,1326.953,1259.451,3154.97,3078.552,-0.05824866,0.04956,0.05010383,-0.60548335313797,-0.078096441924572,0.240391939878464,-0.344636106234817,-0.148287288494656,0.213346167053785,4
0.860000610351563,-0.390860199928284,2.87532639503479,1.22292745113373,-0.173659158941841,2.89109569582005,1.2503603820997,1303.313,1269.372,3150.701,3095.168,-0.06186523,0.04915529,0.04885453,-0.606548845767975,-0.0823884755373001,0.2460628002882,-0.357780475378537,-0.153942943326036,0.221483157706883,4
0.879989624023438,-0.403013467788696,2.87357997894287,1.2279589176178,-0.18094280014554,2.88796174849148,1.25486930297274,1277.337,1281.099,3145.368,3113.65,-0.06552335,0.04855503,0.0479169,-0.607663154602051,-0.0873211175203323,0.251574218273163,-0.370996904517929,-0.159629603560431,0.229664756929996,4
0.899993896484375,-0.4151910841465,2.87172269821167,1.23309826850891,-0.18849723509595,2.8847112861788,1.25954585807468,1256.101,1294.86,3140.455,3125.512,-0.06913193,0.04780182,0.04719036,-0.608880519866943,-0.0928696468472481,0.256968408823013,-0.384296738353309,-0.165352150505452,0.237897987633041,4
0.919998168945313,-0.427395522594452,2.86974287033081,1.23834156990051,-0.196318384305134,2.8813460641717,1.26438752200817,1246.286,1310.723,3131.875,3128.646,-0.07266701,0.0469317,0.04661594,-0.610222220420837,-0.0989959985017776,0.262164354324341,-0.397661187980262,-0.171102499820431,0.246171218589148,4
0.939987182617188,-0.439629733562469,2.86762928962708,1.24368798732758,-0.204401181418416,2.87786826238106,1.26939115845832,1239.861,1326.911,3127.09,3125.979,-0.07617013,0.04595196,0.04622377,-0.611712574958801,-0.105673305690289,0.267319411039352,-0.411071375662203,-0.176872528942697,0.254472763580097,4
0.959991455078125,-0.451897203922272,2.86537170410156,1.24913668632507,-0.212759000778906,2.87427212620069,1.27456504678061,1225.288,1341.037,3127.068,3129.364,-0.0796722,0.04485223,0.04610326,-0.613372147083282,-0.112876936793327,0.272437185049057,-0.424539267042903,-0.182667386354485,0.262810029909387,3
0.979995727539063,-0.464201807975769,2.86296033859253,1.25468385219574,-0.22138664033507,2.87055989392801,1.27990596665734,1216.294,1353.196,3124.482,3132.07,-0.08314655,0.04364427,0.04627365,-0.615230679512024,-0.120568782091141,0.277361243963242,-0.438046240701377,-0.188479059778567,0.271171490030365,3
1,-0.476548552513123,2.86038589477539,1.26032829284668,-0.230284798736574,2.86673126495361,1.28541435058594,1207.471,1363.839,3124.177,3134.903,-0.08658683,0.04232933,0.04676463,-0.617339015007019,-0.128717452287674,0.282220661640167,-0.451584000205995,-0.194303979492187,0.279552008056641,3
1.01998901367188,-0.488943368196487,2.85764026641846,1.26606810092926,-0.239446912293295,2.86278906344998,1.29108613532954,1191.959,1372.561,3124.555,3145.986,-0.0899749,0.04090805,0.04759923,-0.619740128517151,-0.137283653020859,0.286990284919739,-0.46513400752272,-0.200134169097193,0.287940108062054,3
1.03999328613281,-0.501392960548401,2.8547158241272,1.27190172672272,-0.248887339851819,2.85872711120656,1.2969302096982,1176.547,1379.769,3125.553,3158.154,-0.09322875,0.03940312,0.04873292,-0.622481882572174,-0.146225452423096,0.29168227314949,-0.478708875293167,-0.205975055460915,0.29634359787259,3
1.05999755859375,-0.513904869556427,2.85160613059998,1.27782595157623,-0.258599401509697,2.85454828239877,1.30294243851408,1169.989,1387.341,3121.323,3167.141,-0.09629937,0.03784809,0.0500869,-0.625592410564423,-0.155482813715935,0.296211034059525,-0.492290296490434,-0.211818761581115,0.30475114456651,3
1.07998657226563,-0.526486873626709,2.84830594062805,1.28384125232697,-0.268575430648764,2.85025587575821,1.30911807577533,1165.547,1395.107,3119.348,3173.09,-0.09919156,0.03626157,0.05162102,-0.629102110862732,-0.165012151002884,0.30076476931572,-0.50586005237609,-0.217657448443621,0.313151469876847,3
1.09999084472656,-0.539147257804871,2.84481048583984,1.28994882106781,-0.278830554044452,2.84584338265603,1.31546648567654,1154.426,1401.792,3121.011,3183.722,-0.1019016,0.03465256,0.05333259,-0.633020102977753,-0.17477123439312,0.305379867553711,-0.519431110871131,-0.223496695782555,0.321552601564445,3
1.1199951171875,-0.551894128322601,2.84111642837524,1.29614722728729,-0.289357002179081,2.84131414609862,1.32198285851614,1153.391,1408.039,3119.224,3188.738,-0.1043901,0.03305383,0.05516172,-0.637343645095825,-0.184702947735786,0.309919834136963,-0.532985466132485,-0.229328756186667,0.329943393154705,3
1.13999938964844,-0.56473582983017,2.83722114562988,1.30243802070618,-0.300154365346813,2.83666834237095,1.3286669406667,1155.771,1413.928,3119.903,3189.666,-0.1066798,0.03147482,0.05710421,-0.6420818567276,-0.194766581058502,0.314537912607193,-0.546515580872639,-0.235150386571708,0.338319178707607,3
1.15998840332031,-0.577680349349976,2.83312273025513,1.30882251262665,-0.31121353909136,2.83190988886621,1.33551309603608,1153.053,1418.214,3122.512,3195.94,-0.1087992,0.02991355,0.05918975,-0.647229790687561,-0.204918712377548,0.319225579500198,-0.560003743914979,-0.240953966313175,0.346668994161124,3
1.17999267578125,-0.590736210346222,2.82882022857666,1.31530237197876,-0.322550701230474,2.8270318247214,1.34253133946411,1149.844,1420.453,3127.371,3202.759,-0.1107156,0.02838022,0.06140848,-0.65279233455658,-0.215119689702988,0.323991864919662,-0.573463232144024,-0.246745208083563,0.355001058539242,3
1.19999694824219,-0.603911459445953,2.82431387901306,1.32187676429749,-0.334156660511822,2.8220381046756,1.34971598112778,1154.452,1422.474,3127.255,3207.49,-0.1124174,0.02689515,0.06371848,-0.658762156963348,-0.225311875343323,0.328718692064285,-0.58687652428584,-0.252516572968185,0.36330452533874,3
1.21998596191406,-0.617214500904083,2.81960463523865,1.32854843139648,-0.34602126278068,2.81693309777792,1.35706073512159,1159.318,1423.893,3129.647,3211.194,-0.1139359,0.02546221,0.06610563,-0.665150821208954,-0.235460966825485,0.333583235740662,-0.600226348268632,-0.258260629277074,0.371568702324394,3
1.239990234375,-0.630653560161591,2.81469392776489,1.33532083034515,-0.358161486344149,2.81170949873715,1.36457611182642,1155.204,1423.658,3136.031,3221.554,-0.1152733,0.02407994,0.06857695,-0.671952843666077,-0.245535999536514,0.338619917631149,-0.613526094901141,-0.263983138701136,0.379801879044709,2
1.25999450683594,-0.644236505031586,2.80958414077759,1.34219408035278,-0.3705671011502,2.80637170925886,1.37225577835275,1160.317,1423.377,3137.69,3227.452,-0.1163897,0.02277644,0.07106151,-0.679148197174072,-0.255487233400345,0.343664586544037,-0.626758665639206,-0.269676744214496,0.387993470686331,2
1.27999877929688,-0.657971203327179,2.80427837371826,1.34917151927948,-0.383236695417198,2.80092033679326,1.3800988607405,1168.901,1423.25,3141.043,3229.021,-0.1173069,0.0215604,0.07353409,-0.686734318733215,-0.26528525352478,0.348871409893036,-0.639917282339435,-0.275338529371412,0.396139281255613,2
1.29998779296875,-0.671864926815033,2.79878044128418,1.35625636577606,-0.396158759015336,2.79536033382764,1.388098233671,1172.416,1422.216,3146.134,3235.007,-0.1180563,0.02042692,0.07600794,-0.694687843322754,-0.274899959564209,0.354239791631699,-0.652985332144132,-0.280961346123326,0.404229026602261,2
1.31999206542969,-0.685924708843231,2.79309439659119,1.36345183849335,-0.409351342777246,2.78968393359302,1.39626507146953,1175.292,1419.778,3153.389,3240.685,-0.118614,0.01938324,0.07846621,-0.70299106836319,-0.284306287765503,0.359771400690079,-0.665976209205206,-0.286550957599616,0.412270998344359,2
1.33999633789063,-0.700156986713409,2.78722524642944,1.37075853347778,-0.422802873722428,2.78389611561957,1.40459220990988,1186.726,1418.055,3154.989,3242.895,-0.1189842,0.01844534,0.08086752,-0.711610496044159,-0.2934610247612,0.365332126617432,-0.678873453515705,-0.29210028151913,0.420255006953505,2
1.36000061035156,-0.714567720890045,2.78117823600769,1.37818050384521,-0.436511415158101,2.77799771321212,1.41307845008695,1197.885,1415.963,3159.429,3243.658,-0.1192191,0.01760728,0.08321216,-0.720539569854736,-0.302348345518112,0.371097981929779,-0.691670720740693,-0.297606588091785,0.42817712498415,2
1.37998962402344,-0.729162812232971,2.77495908737183,1.38572180271149,-0.450464156928423,2.77199423822282,1.42171586190405,1201.727,1412.624,3166.707,3249.777,-0.1193453,0.01685825,0.08552039,-0.729752421379089,-0.310955077409744,0.377064794301987,-0.704352136620515,-0.303063047067127,0.436027525513373,2
1.39999389648438,-0.743947327136993,2.76857376098633,1.39338576793671,-0.464680216184654,2.76587746507559,1.43051627978847,1204.529,1408.033,3175.847,3255.583,-0.1193197,0.01620393,0.08777393,-0.739226341247559,-0.319269210100174,0.383199751377106,-0.716930938559026,-0.308475354130225,0.443814403124744,2
1.41999816894531,-0.758925676345825,2.76202869415283,1.40117251873016,-0.47914673136562,2.75965292774086,1.43947174182117,1217.379,1404.839,3177.651,3257.122,-0.119136,0.0156613,0.08992413,-0.748920977115631,-0.327254921197891,0.389336854219437,-0.729391385793766,-0.313836736470737,0.451528013536465,2
1.43998718261719,-0.77410227060318,2.75533056259155,1.40908575057983,-0.49384995777978,2.75332654017544,1.44857373938334,1230.538,1401.676,3181.672,3256.76,-0.1188532,0.01522246,0.09196909,-0.758828461170197,-0.334904611110687,0.395663619041443,-0.741718206886022,-0.319140623215221,0.459158903000492,2
1.45999145507813,-0.789480745792389,2.74848604202271,1.4171302318573,-0.508809800712713,2.74688973769103,1.45783459479497,1232.447,1396.798,3191.069,3263.301,-0.1184926,0.01486849,0.09394187,-0.76892352104187,-0.342221647500992,0.402226865291595,-0.753924423002454,-0.324392617007921,0.466715132239272,2
1.47999572753906,-0.805063903331757,2.74150228500366,1.42530655860901,-0.524012471663969,2.74034845309416,1.46724577231745,1241.788,1392.738,3194.906,3266.262,-0.1180276,0.0146164,0.09579459,-0.779160797595978,-0.349187612533569,0.408817112445831,-0.765994882555672,-0.329586198544069,0.474187321698441,2
1.5,-0.820854485034943,2.73438620567322,1.43361783027649,-0.539455198877605,2.73370387899399,1.4768055561018,1254.025,1389.018,3200.006,3264.918,-0.1174806,0.0144634,0.09751687,-0.789527297019958,-0.355802714824677,0.415562152862549,-0.777924000354858,-0.334718964672088,0.481572013878822,1
1.51998901367188,-0.83685427904129,2.72714495658875,1.44206690788269,-0.555123050061237,2.72696244033876,1.48650470234772,1260.377,1384.656,3206.682,3267.982,-0.1168835,0.014394,0.09913681,-0.79999041557312,-0.362068325281143,0.422451883554459,-0.789697369743256,-0.339784716610053,0.488860290373601,1
1.53999328613281,-0.853064775466919,2.71978521347046,1.45065629482269,-0.571036956668503,2.72011513090874,1.49635616862212,1264.61,1379.278,3215.126,3271.484,-0.1162108,0.01440562,0.1006522,-0.810524582862854,-0.367989361286163,0.429469466209412,-0.801327600455846,-0.344788879974649,0.496059957209413,1
1.55999755859375,-0.869486451148987,2.71231412887573,1.45938527584076,-0.587181951496087,2.71316839067337,1.50635068951315,1277.056,1375.641,3216.329,3271.777,-0.1154672,0.01450826,0.1020265,-0.821086823940277,-0.373549669981003,0.436452180147171,-0.812800388649436,-0.349725300221754,0.503162159625937,1
1.57998657226563,-0.886119902133942,2.70473885536194,1.46825695037842,-0.603542258451077,2.7061290076447,1.51647849886779,1288.662,1372.009,3220.361,3270.3,-0.1147055,0.01468946,0.1032649,-0.831671833992004,-0.378760367631912,0.443583339452744,-0.82410201904291,-0.354588076049064,0.510158407210813,0
1.59999084472656,-0.902965009212494,2.69706606864929,1.47727477550507,-0.620139554045575,2.69898765502515,1.52675301547962,1288.861,1366.701,3229.841,3275.353,-0.1139322,0.01492808,0.1044066,-0.84225469827652,-0.383642226457596,0.450889319181442,-0.835244706287931,-0.359382463079953,0.517056261415284,0
1.6199951171875,-0.920020818710327,2.68930220603943,1.48643743991852,-0.636958033083316,2.69175113334911,1.53716445517924,1297.168,1362.875,3232.335,3276.651,-0.1131151,0.01524035,0.1054084,-0.852787673473358,-0.388190358877182,0.458132147789001,-0.846214826007804,-0.364102599125749,0.523847288101157,0
1.63999938964844,-0.937286078929901,2.68145394325256,1.49574649333954,-0.653994195024907,2.68442094880091,1.54771065096602,1308.537,1359.576,3235.878,3273.413,-0.1122794,0.0156203,0.1062657,-0.863263726234436,-0.392416685819626,0.465451747179031,-0.857007552155828,-0.368746407673381,0.530528499715628,0
1.65998840332031,-0.954759120941162,2.67352724075317,1.5052033662796,-0.67123120513297,2.67700434489773,1.55838118133557,1312.843,1355.677,3241.237,3275.312,-0.1114602,0.01604813,0.1070156,-0.873655378818512,-0.396336257457733,0.472844004631042,-0.867610144209785,-0.373308406832068,0.537092009268528,0
1.67999267578125,-0.972438037395477,2.66552782058716,1.5148092508316,-0.688691692550512,2.66949158495151,1.56919005480539,1314.265,1350.838,3248.711,3277.763,-0.1106234,0.01651978,0.1076614,-0.8839430809021,-0.399967670440674,0.480292201042175,-0.878034183119987,-0.377793579561193,0.543544985919778,0
1.69999694824219,-0.990319788455963,2.65746164321899,1.52456152439117,-0.706358800111611,2.66188992212981,1.58012683598675,1323.974,1348.121,3248.203,3277.102,-0.109768,0.0170459,0.108169,-0.894086420536041,-0.40330559015274,0.487611144781113,-0.888267004546665,-0.382196476749158,0.549879589839776,0
1.71998596191406,-1.00840151309967,2.649334192276,1.53446125984192,-0.724214951560321,2.65420691900456,1.59118064433996,1333.415,1345.573,3250.357,3274.06,-0.1089403,0.01761343,0.1085452,-0.904088079929352,-0.406368583440781,0.494989037513733,-0.898296635743475,-0.386511946857687,0.556088409328192,0
1.739990234375,-1.02668011188507,2.64115047454834,1.54451048374176,-0.74228345468553,2.64643254688532,1.60236590849663,1330.913,1341.38,3258.203,3277.767,-0.1081462,0.01819985,0.1088367,-0.913930714130402,-0.409186184406281,0.502458691596985,-0.908134108040217,-0.390744736359816,0.562178273303667,0
1.75999450683594,-1.04515159130096,2.63291525840759,1.55470585823059,-0.760546715064628,2.63857437616062,1.61367173667103,1336.233,1338.886,3258.659,3278.131,-0.107351,0.01882117,0.1090052,-0.923572182655334,-0.41176164150238,0.509771525859833,-0.917767514700581,-0.394889722119545,0.568141810929231,0
1.77999877929688,-1.0638120174408,2.62463307380676,1.56504738330841,-0.779000609654483,2.63063418086074,1.62509557650306,1344.744,1336.959,3260.259,3273.692,-0.1065754,0.01947214,0.1090486,-0.933014929294586,-0.414112269878387,0.517074167728424,-0.927192788821983,-0.398945154262308,0.57397650459845,0
1.79998779296875,-1.08265674114227,2.61630797386169,1.57553470134735,-0.797626646773287,2.62261991743975,1.63662598076079,1345.755,1334.448,3263.818,3274.66,-0.10585,0.0201324,0.1090093,-0.942239999771118,-0.416258633136749,0.524363934993744,-0.936399026186941,-0.402906341007953,0.579675604081262,0
1.81999206542969,-1.10168159008026,2.60794353485107,1.58616709709167,-0.816448984455027,2.61452119137054,1.64827790441807,1343.829,1331.059,3269.388,3276.271,-0.1051341,0.0207986,0.1088933,-0.951236307621002,-0.418222874403,0.531619787216187,-0.945396434568188,-0.406777674475912,0.585245428475252,0
1.83999633789063,-1.12088096141815,2.59954357147217,1.59694015979767,-0.835449117627072,2.60634596486888,1.66003989195343,1350.577,1329.934,3266.512,3274.769,-0.1044225,0.02148323,0.1086672,-0.959971725940704,-0.420002162456512,0.538650810718536,-0.954174163352093,-0.410554485950274,0.590679260733698,0
1.8599853515625,-1.14025008678436,2.5911111831665,1.60785341262817,-0.854607925216182,2.59810246519841,1.67190010651166,1357.136,1329.008,3266.516,3270.675,-0.1037605,0.02217454,0.1083392,-0.96845930814743,-0.421615839004517,0.545660555362701,-0.962722140342816,-0.41423244164655,0.595970865687568,0
1.87998962402344,-1.15978384017944,2.58264923095703,1.61890709400177,-0.873950157556149,2.58978004298193,1.6838738697284,1350.993,1326.4,3272.524,3273.87,-0.1031512,0.02284988,0.1079613,-0.976691007614136,-0.423094630241394,0.552685737609863,-0.971049893464309,-0.417815641164241,0.601126141575667,0
1.89999389648438,-1.1794764995575,2.57416033744812,1.63009643554688,-0.893456683142228,2.58138692997148,1.69594933829086,1353.034,1325.516,3270.805,3273.725,-0.1025519,0.0235279,0.1074942,-0.984632968902588,-0.424442023038864,0.559465885162354,-0.979147395688901,-0.421299770153459,0.606138881190213,0
1.91999816894531,-1.1993225812912,2.56564688682556,1.64141964912415,-0.913122862707269,2.57292512231409,1.70812364027167,1358.787,1325.232,3270.296,3268.31,-0.1019804,0.02420562,0.1069352,-0.992297112941742,-0.425673335790634,0.566159188747406,-0.987011339258123,-0.424683405378145,0.611007036871143,0
1.93998718261719,-1.21931600570679,2.55711054801941,1.65287494659424,-0.932928814964021,2.56440317437226,1.72038446820694,1356.672,1324.364,3271.784,3268.764,-0.1014659,0.02486376,0.1063303,-0.999673008918762,-0.42680686712265,0.572765469551086,-0.994632798067981,-0.427962706185118,0.615725082934877,0
1.95999145507813,-1.23945116996765,2.54855346679688,1.66446030139923,-0.952900013794853,2.55581012544606,1.73274759164336,1351.617,1322.561,3275.461,3269.862,-0.1009631,0.02550095,0.1056862,-1.00675880908966,-0.427862256765366,0.579269111156464,-1.00202031904361,-0.431141350077486,0.620298310335216,0
1.97999572753906,-1.25972175598145,2.53997683525085,1.67616975307465,-0.973016570682103,2.54715453300902,1.74520069864106,1355.553,1322.95,3270.419,3267.996,-0.100464,0.02613232,0.104968,-1.01353001594543,-0.428832769393921,0.585471510887146,-1.00916501115878,-0.434215511495054,0.624721215103391,0
2,-1.28012180328369,2.53138208389282,1.68800163269043,-0.993273599084619,2.53843849960327,1.7577407641983,1359.688,1323.514,3268.618,3263.006,-0.1000102,0.02674785,0.1041837,-1.02000892162323,-0.42973381280899,0.591595411300659,-1.01606400046349,-0.437183953857422,0.628992018127441,0
2.01998901367188,-1.30064558982849,2.52277040481567,1.69995427131653,-1.01365055070775,2.52967086658596,1.77035506794184,1353.6,1323.173,3270.292,3264.872,-0.0996214,0.0273294,0.103379,-1.02618944644928,-0.430586993694305,0.597634613513947,-1.02270954399163,-0.440043345582587,0.633105926142498,0
2.03999328613281,-1.32128703594208,2.51414227485657,1.71202492713928,-1.03417354141348,2.52084039703127,1.78305977683431,1345.881,1321.978,3273.75,3266.24,-0.09922779,0.02788322,0.1025509,-1.03207004070282,-0.431410312652588,0.603534162044525,-1.02910913225408,-0.442796909628122,0.637067576131623,0
2.05999755859375,-1.34203970432281,2.50549840927124,1.72420656681061,-1.05482201812353,2.5119559343546,1.79584216754118,1349.83,1323.15,3267.566,3262.889,-0.09881073,0.02842868,0.1016596,-1.03762722015381,-0.432190328836441,0.609082758426666,-1.03525504859546,-0.445441325732794,0.640872191117535,0
2.07998657226563,-1.36289727687836,2.49683976173401,1.73649680614471,-1.07557499515204,2.50302650811029,1.80868924892322,1354.377,1324.55,3264.108,3256.771,-0.09842617,0.02895449,0.1007194,-1.04288458824158,-0.432934820652008,0.614514946937561,-1.04114045847258,-0.4479736531836,0.644515540192423,0
2.09999084472656,-1.38385426998138,2.48816657066345,1.748894572258,-1.09645901288412,2.49404069871208,1.82161745074311,1344.42,1324.122,3267.031,3259.812,-0.09808902,0.02943691,0.09979078,-1.04784560203552,-0.433665215969086,0.61988765001297,-1.04677201701582,-0.450396755497224,0.648001743199023,0
2.1199951171875,-1.40490400791168,2.47947907447815,1.76139354705811,-1.11745308225396,2.48500753716864,1.83461377976925,1342.24,1324.871,3263.039,3259.787,-0.09775133,0.02989762,0.09883054,-1.05249094963074,-0.43437871336937,0.624947667121887,-1.0521429102862,-0.45270770082608,0.651326581984514,0
2.13999938964844,-1.42604100704193,2.47077751159668,1.77399075031281,-1.138551967509,2.47592927627801,1.8476749948214,1344.238,1326.125,3260.67,3253.854,-0.09741524,0.03033937,0.0978315,-1.05684149265289,-0.435082793235779,0.629857838153839,-1.05725102347782,-0.454905579228273,0.654488747383304,0
2.15998840332031,-1.44725871086121,2.46206188201904,1.78668284416199,-1.15973418543027,2.46681515966915,1.86078779676364,1338.817,1326.857,3259.803,3253.967,-0.09710471,0.03074669,0.09683758,-1.06089317798615,-0.435784012079239,0.634604334831238,-1.06209075728,-0.456987981476842,0.657484773155346,0
2.17999267578125,-1.46855175495148,2.45333218574524,1.79946637153625,-1.18102676265167,2.45765355853653,1.8739689163698,1331.539,1326.613,3260.733,3254.378,-0.09677235,0.0311232,0.09585007,-1.06465220451355,-0.436489403247833,0.639177143573761,-1.06666760390386,-0.458957270716794,0.660318059240953,0
2.19999694824219,-1.48991394042969,2.44458866119385,1.81233429908752,-1.20240821395574,2.44845371736898,1.88720505326679,1333.637,1328.185,3253.397,3251.68,-0.09641229,0.03148546,0.09483238,-1.06810426712036,-0.437181621789932,0.643396973609924,-1.07097597819164,-0.460811043810786,0.662985148161421,0
2.21998596191406,-1.51133942604065,2.43583130836487,1.82528424263,-1.22385674836213,2.4392250122166,1.90048271779974,1335.469,1329.809,3249.69,3246.283,-0.09606767,0.03182564,0.09379309,-1.07127606868744,-0.437866181135178,0.647498726844788,-1.07501122224684,-0.462547296596067,0.665483156456917,0
2.239990234375,-1.53282284736633,2.4270601272583,1.83831453323364,-1.24539969505118,2.42995568409656,1.91381882803312,1323.641,1329.788,3251.99,3249.377,-0.09573957,0.03212588,0.09278502,-1.07417106628418,-0.438557982444763,0.651516675949097,-1.07877792518082,-0.464168003639063,0.667814925005999,0
2.25999450683594,-1.55435800552368,2.41827511787415,1.85141825675964,-1.26701526177039,2.4206551096063,1.92719989352455,1321.587,1330.83,3246.701,3248.375,-0.09537366,0.03241185,0.09175881,-1.07677114009857,-0.439244717359543,0.655184149742126,-1.08227143928024,-0.465671165158559,0.669977576652695,0
2.27999877929688,-1.5759402513504,2.40947651863098,1.86459195613861,-1.28869796983554,2.41132564607061,1.9406225227075,1324.365,1332.394,3242.897,3241.227,-0.09498324,0.03268527,0.09070859,-1.07909798622131,-0.439925581216812,0.658684492111206,-1.08549040888332,-0.467056197851165,0.67197027217779,0
2.29998779296875,-1.59756338596344,2.40066456794739,1.87783229351044,-1.31042570636616,2.40197680804417,1.95407302665558,1318.504,1333.289,3241.002,3241.247,-0.09460347,0.03292968,0.08968263,-1.08114969730377,-0.440601199865341,0.662020027637482,-1.08843144721369,-0.468321644481621,0.673790915005368,0
2.31999206542969,-1.61922180652618,2.39183902740479,1.89113593101501,-1.33222611841886,2.3925966997709,1.96756852021384,1310.232,1332.962,3241.412,3241.878,-0.09418589,0.03314994,0.08867964,-1.08293485641479,-0.441274672746658,0.665184199810028,-1.09109790637238,-0.469468947365361,0.675441580245663,0
2.33999633789063,-1.64091074466705,2.38300061225891,1.90449583530426,-1.35407709248145,2.38319483607731,1.98109531406483,1311.899,1334.197,3233.893,3238.769,-0.09371504,0.03336455,0.0876586,-1.08444094657898,-0.441924810409546,0.667993903160095,-1.09348640563071,-0.470496651869278,0.67692017506657,0
2.3599853515625,-1.66262459754944,2.37414956092834,1.9179093837738,-1.37595634130987,2.37378080654189,1.99463961134278,1313.77,1335.527,3229.637,3232.891,-0.09323354,0.03356715,0.08662656,-1.08569204807281,-0.442551285028458,0.67067563533783,-1.09559452046326,-0.471403714787811,0.678225198571351,0
2.37998962402344,-1.68435835838318,2.36528635025024,1.93137466907501,-1.39789168475144,2.36434264106153,2.00821863385843,1302.431,1335.331,3230.948,3235.512,-0.09274671,0.03374152,0.08563375,-1.08669126033783,-0.443162381649017,0.673265814781189,-1.09742465646102,-0.47219117117957,0.679358139935436,0
2.39999389648438,-1.70610666275024,2.35641145706177,1.94488489627838,-1.41986083522252,2.35488992936084,2.02181858453579,1300.892,1335.872,3225.078,3234.051,-0.09220343,0.03391281,0.08462901,-1.08742320537567,-0.443741530179977,0.675510466098785,-1.09897439291323,-0.472857979480329,0.680317500623536,0
2.41999816894531,-1.72786498069763,2.34752583503723,1.95843684673309,-1.44185817738692,2.34542508756209,2.03543598721428,1303.798,1336.873,3221.014,3226.624,-0.0916186,0.03408256,0.0836058,-1.08790826797485,-0.444285303354263,0.677599847316742,-1.10024313330221,-0.473403883025206,0.681102911362803,0
2.43998718261719,-1.74962782859802,2.33862972259521,1.97202742099762,-1.46386128162322,2.33595776650478,2.04905695688976,1298.031,1337.233,3218.774,3226.464,-0.09102738,0.0342357,0.08260991,-1.08814311027527,-0.44479101896286,0.679530262947083,-1.10122974390336,-0.473828394004169,0.681713670323692,0
2.45999145507813,-1.77139043807983,2.32972478866577,1.98565340042114,-1.48589810917879,2.32647593524532,2.06269880290633,1290.344,1336.324,3218.913,3226.456,-0.09038023,0.03437769,0.08163721,-1.08813536167145,-0.445258796215057,0.681297421455383,-1.10193535162022,-0.474131997292339,0.68215047511319,0
2.47999572753906,-1.79314804077148,2.32081127166748,1.99930763244629,-1.50794623031618,2.31698924467309,2.07634764018804,1292.647,1336.769,3210.994,3223.038,-0.08966384,0.03452706,0.0806456,-1.08787167072296,-0.445664405822754,0.682711124420166,-1.10235882472314,-0.474314205938057,0.682412625136718,0
2.5,-1.81489551067352,2.31189107894897,2.01298785209656,-1.52999999932945,2.30750012397766,2.08999997377396,1295.723,1337.353,3206.59,3216.077,-0.08892082,0.03467784,0.07964014,-1.08737432956696,-0.446006089448929,0.684013843536377,-1.10250000050292,-0.474374949932098,0.682500019669533,0
2.51998901367188,-1.83662831783295,2.30296564102173,2.02669167518616,-1.5520369476803,2.29801824074336,2.10364189456856,1288.089,1337.079,3205.083,3217.299,-0.08818099,0.03481556,0.07866382,-1.08664011955261,-0.446285605430603,0.685191333293915,-1.10235904000526,-0.474314298567936,0.682412758406603,0
2.53999328613281,-1.85834181308746,2.29403567314148,2.04041576385498,-1.57408507527774,2.28853154739156,2.11729073584934,1279.708,1335.604,3205.686,3217.51,-0.08737405,0.03495052,0.07770146,-1.0856739282608,-0.446504354476929,0.686208248138428,-1.10193578218388,-0.474132182551855,0.682150741652607,0
2.55999755859375,-1.88003087043762,2.28510284423828,2.05415320396423,-1.59612191359838,2.27904971150017,2.13093258853001,1283.375,1335.589,3197.951,3212.495,-0.08647817,0.03510364,0.07670803,-1.08446049690247,-0.446637511253357,0.686870872974396,-1.10123038958312,-0.473828671822132,0.681714070030222,0
2.57998657226563,-1.90169143676758,2.27616930007935,2.06790137290955,-1.61812503288753,2.26958238396605,2.14455356752391,1288.124,1335.828,3192.856,3204.516,-0.08554872,0.03526649,0.07569543,-1.08301663398743,-0.446679562330246,0.687410235404968,-1.1002439936861,-0.473404253224357,0.681103443981416,0
2.59999084472656,-1.9233181476593,2.26723670959473,2.08165884017944,-1.64012239440973,2.26011753383818,2.15817098218581,1278.461,1334.595,3193.158,3206.501,-0.08461129,0.03541915,0.07471956,-1.08134353160858,-0.4466353058815,0.687876105308533,-1.09897546783438,-0.47285844198887,0.680318166050934,0
2.6199951171875,-1.94490671157837,2.25830698013306,2.09541964530945,-1.66209156852628,2.2506648119635,2.17177094750084,1277.615,1333.516,3187.542,3204.679,-0.08361633,0.03558455,0.07372776,-1.07942974567413,-0.446491360664368,0.688035249710083,-1.09742594550583,-0.472191725819537,0.679358937915576,0
2.63999938964844,-1.9664523601532,2.24938201904297,2.10918092727661,-1.68402693989188,2.24122663446822,2.18534998730279,1280.683,1332.932,3183.92,3197.069,-0.08257397,0.03576443,0.0727109,-1.07729089260101,-0.446246147155762,0.688066363334656,-1.09559602313537,-0.471404361345641,0.67822612879697,0
2.65998840332031,-1.98795092105865,2.24046397209167,2.12293982505798,-1.70590622088595,2.23181259109281,2.19889430449282,1276.072,1331.925,3181.588,3196.005,-0.08151137,0.03594603,0.07170879,-1.07492053508759,-0.445896685123444,0.687949597835541,-1.09348812118877,-0.470497390025984,0.676921237078733,0
2.67999267578125,-2.00939750671387,2.23155522346497,2.13669323921204,-1.72775723139253,2.2224107117184,2.21242112090437,1270.271,1329.763,3181.025,3194.953,-0.08038485,0.03613465,0.0707143,-1.07232296466827,-0.445441722869873,0.687675714492798,-1.09109983431736,-0.469469776906228,0.675442773735451,0
2.69999694824219,-2.03078699111938,2.22265791893005,2.15043473243713,-1.74955768413056,2.21303058593937,2.22591663964878,1274.442,1328.704,3173.107,3190.154,-0.0791859,0.03634581,0.06968626,-1.06948602199554,-0.444860458374023,0.687078058719635,-1.08843358680109,-0.468322565086308,0.673792239511893,0
2.71998596191406,-2.05211544036865,2.21377491950989,2.16416263580322,-1.77128546553625,2.20368172860443,2.23936717137667,1278.664,1327.91,3168.578,3182.495,-0.07796457,0.03657205,0.06863274,-1.06642508506775,-0.444152534008026,0.686390519142151,-1.08549275912543,-0.467057209094684,0.671971727089609,0
2.739990234375,-2.07337808609009,2.2049081325531,2.17787551879883,-1.79296822271738,2.1943522439355,2.25278983096475,1268.805,1325.906,3169.121,3184.385,-0.07673739,0.03679583,0.06760435,-1.06313848495483,-0.443325221538544,0.685639202594757,-1.08227399942825,-0.465672266718727,0.669979161506271,0
2.75999450683594,-2.09457063674927,2.19606113433838,2.19156718254089,-1.81458384274179,2.18505164650952,2.26617092945464,1268.989,1323.966,3163.659,3181.433,-0.07544682,0.03704076,0.06654587,-1.05961453914642,-0.442367672920227,0.684584558010101,-1.07878069424208,-0.464169195088763,0.667816639186824,0
2.77999877929688,-2.11568784713745,2.1872353553772,2.20523500442505,-1.83612684690458,2.17578229366013,2.27950707526701,1273.677,1322.712,3159.393,3172.795,-0.07410885,0.03730733,0.06544998,-1.05586397647858,-0.441277623176575,0.683395743370056,-1.07501419914593,-0.462548577472581,0.665484999299265,0
2.79998779296875,-2.13672518730164,2.1784348487854,2.2188766002655,-1.85757544288233,2.1665535620153,2.29278477791556,1270.579,1321.11,3156.751,3170.513,-0.07276288,0.03758037,0.06435965,-1.05188095569611,-0.44005474448204,0.682078182697296,-1.07097916161324,-0.460812413548163,0.662987118851036,0
2.81999206542969,-2.15767860412598,2.16966080665588,2.23248887062073,-1.87895695992541,2.1573536925621,2.30602095550813,1264.907,1318.328,3155.918,3169.565,-0.07137272,0.03786241,0.06327242,-1.04766869544983,-0.438700944185257,0.680615425109863,-1.06667099276523,-0.458958728849171,0.660320157107579,0
2.83999633789063,-2.17854285240173,2.16091656684875,2.24606609344482,-1.90024960698239,2.14819206138118,2.31920211834584,1269.042,1316.381,3148.835,3164.116,-0.06992129,0.03816863,0.06214652,-1.04321837425232,-0.437202602624893,0.678857743740082,-1.06209435025759,-0.456989527434725,0.657486997379635,0
2.8599853515625,-2.19931364059448,2.15220546722412,2.25960612297058,-1.92143189875059,2.13907791299805,2.33231496600284,1273.074,1314.863,3144.425,3156.384,-0.06845336,0.03849106,0.06099167,-1.03854060173035,-0.435560524463654,0.677004456520081,-1.05725481901126,-0.454907212340279,0.654491096999312,0
2.87998962402344,-2.21998643875122,2.14352965354919,2.2731077671051,-1.94253086194772,2.12999961857111,2.34537622930486,1264.646,1312.402,3144.213,3157.273,-0.06698436,0.03881446,0.05985231,-1.03363358974457,-0.433782130479813,0.675077259540558,-1.05214690704168,-0.452709420518306,0.651329056166547,0
2.89999389648438,-2.24055624008179,2.13489270210266,2.28656506538391,-1.96352501326936,2.1209664217661,2.35837260906308,1265.582,1309.898,3138.536,3153.67,-0.06546582,0.03915873,0.05867706,-1.02848899364471,-0.431860834360123,0.672862231731415,-1.04677621342161,-0.450398561093403,0.648004340974112,0
2.91999816894531,-2.2610182762146,2.12629675865173,2.29997563362122,-1.98440911693069,2.11198057539494,2.37130086407726,1270.254,1308.128,3134.326,3144.778,-0.06391586,0.03952325,0.05746105,-1.02311563491821,-0.429797649383545,0.670527696609497,-1.04114485287423,-0.447975543971863,0.644518260536375,0
2.93998718261719,-2.28136873245239,2.11774492263794,2.31333708763123,-2.00516218376194,2.10305111051103,2.38414800105147,1267.008,1306.118,3131.544,3142.401,-0.0623707,0.03989332,0.05624597,-1.01750779151917,-0.427595049142838,0.668067812919617,-1.03525963910674,-0.445443300901551,0.640875032862689,0
2.95999145507813,-2.30160188674927,2.10923981666565,2.32664656639099,-2.02581075424974,2.0941666074844,2.39693044981124,1261.74,1303.021,3130.636,3140.673,-0.06079144,0.04027133,0.05502798,-1.01166951656342,-0.425258249044418,0.665470004081726,-1.02911391720548,-0.442798968459032,0.637070538244476,0
2.97999572753906,-2.32171368598938,2.10078406333923,2.33989810943604,-2.04633384260397,2.08533609591429,2.40963521915279,1266.11,1300.666,3123.372,3134.813,-0.05916265,0.04067158,0.05376802,-1.00559282302856,-0.422777146100998,0.662576079368591,-1.02271452148052,-0.440045487257004,0.633109007445237,0
3,-2.34169960021973,2.09238123893738,2.3530900478363,-2.06672639957428,2.07656174835205,2.42225918334961,1270.702,1298.846,3118.83,3126.234,-0.05752854,0.04108532,0.05247632,-0.999287009239197,-0.420154482126236,0.659593462944031,-1.01606400046349,-0.437183953857422,0.628992018127441,0
3.01998901367188,-2.36155462265015,2.08403301239014,2.36621999740601,-2.0869680292999,2.06785234056679,2.43478971639231,1265.298,1296.584,3116.293,3125.646,-0.05592212,0.04149843,0.05119194,-0.992748737335205,-0.417397052049637,0.656501889228821,-1.00917036754089,-0.434217816196637,0.624724530959079,0
3.03999328613281,-2.38127422332764,2.0757429599762,2.37928557395935,-2.10708469520508,2.05919670122237,2.4472428908773,1259.421,1293.35,3115.923,3123.626,-0.05428534,0.04191824,0.04989946,-0.985984563827515,-0.414513945579529,0.653283596038818,-1.00202586176059,-0.431143734953757,0.620301741541063,0
3.05999755859375,-2.40085387229919,2.06751298904419,2.39228081703186,-2.12705600675913,2.05060360379452,2.45960608409476,1263.454,1290.962,3108.641,3117.642,-0.05259583,0.0423587,0.04856161,-0.978985249996185,-0.411496102809906,0.649757504463196,-0.994638524886308,-0.427965170275055,0.615728628108227,0
3.07998657226563,-2.42028903961182,2.05934619903564,2.40520358085632,-2.14686207530873,2.04208160581513,2.47186698402085,1269.33,1289.19,3103.655,3107.784,-0.05089834,0.0428125,0.04718716,-0.971758186817169,-0.408345103263855,0.646133363246918,-0.987017247723776,-0.424685947625853,0.611010694492843,0
3.09999084472656,-2.43957471847534,2.05124473571777,2.41805243492126,-2.16652837486666,2.03361974652815,2.48404136028297,1261.755,1286.833,3102.388,3107.807,-0.04922853,0.04326056,0.04583086,-0.964301943778992,-0.405069321393967,0.642437875270844,-0.979153483542501,-0.421302389586788,0.606142649861596,0
3.1199951171875,-2.4587070941925,2.04321146011353,2.43082189559937,-2.18603502400946,2.02522658035469,2.49611690533293,1262.11,1283.923,3096.862,3104.082,-0.04753955,0.0437196,0.04444652,-0.95661586523056,-0.401669919490814,0.63847827911377,-0.971056158224178,-0.417818336715394,0.601130019760458,0
3.13999938964844,-2.47768115997314,2.03524827957153,2.44351005554199,-2.20537738341953,2.01690410346351,2.50809074721212,1265.605,1281.839,3092.919,3095.346,-0.04584046,0.04418855,0.04302946,-0.948708355426788,-0.398151636123657,0.634410858154297,-0.962728579444533,-0.414235212212131,0.595974851798267,0
3.15998840332031,-2.49649286270142,2.02735805511475,2.45611429214478,-2.22453632143911,2.00866054767245,2.51995104251302,1261.914,1279.741,3089.738,3092.811,-0.04416,0.04465554,0.04161667,-0.940576255321503,-0.394519180059433,0.630211293697357,-0.954180774018563,-0.410557330335374,0.590683353051152,0
3.17999267578125,-2.51513719558716,2.0195426940918,2.46863174438477,-2.24353658854737,2.00048526354177,2.53171311296128,1257.468,1276.785,3087.827,3090.186,-0.04246144,0.04512383,0.04020045,-0.932225823402405,-0.390778809785843,0.625867784023285,-0.945403214201559,-0.406780591562751,0.585249625391267,0
3.19999694824219,-2.53361034393311,2.01180362701416,2.48105669021606,-2.2623590635174,1.99238647840124,2.54336512160655,1261.536,1274.376,3080.6,3083.824,-0.04073305,0.04560409,0.03874812,-0.923654437065125,-0.386926084756851,0.621253252029419,-0.936405971974636,-0.402909329586355,0.579679903854719,0
3.21998596191406,-2.55190801620483,2.0041446685791,2.49338793754578,-2.280985241111,1.98437215453788,2.55489561282487,1265.279,1272.624,3076.071,3075.145,-0.03901637,0.04608781,0.03727334,-0.914868712425232,-0.382964938879013,0.616559624671936,-0.927199897745278,-0.398948213033402,0.573980905360615,0
3.239990234375,-2.57002520561218,1.99656653404236,2.50562357902527,-2.2994392795179,1.97643189735754,2.5663195416865,1256.952,1270.409,3074.35,3075.676,-0.03733379,0.04656102,0.03581956,-0.905869364738464,-0.37890413403511,0.61178070306778,-0.917774783907129,-0.394892849856044,0.568146310914365,0
3.25999450683594,-2.58795833587646,1.98907136917114,2.51775860786438,-2.31770268688992,1.96857366338589,2.57762546085652,1257.768,1267.64,3068.853,3070.915,-0.03563256,0.04704102,0.03433749,-0.896660208702087,-0.374746888875961,0.606751143932343,-0.90814153446928,-0.390747931744771,0.562182870617026,0
3.27999877929688,-2.60570359230042,1.98166155815125,2.5297908782959,-2.33577134012187,1.96079922667992,2.58881081793642,1261.081,1265.87,3064.636,3061.972,-0.03392814,0.0475248,0.03283,-0.88724684715271,-0.370496898889542,0.601616322994232,-0.898304216251578,-0.386515208538549,0.556093102023818,0
3.29998779296875,-2.62325620651245,1.97433829307556,2.54171776771545,-2.35362764460945,1.95311615770631,2.59986472102797,1257.418,1264.043,3060.835,3059.483,-0.03225248,0.04800139,0.03133322,-0.877627968788147,-0.366158604621887,0.596347153186798,-0.888274735793772,-0.382199803288803,0.549884375850026,0
3.31999206542969,-2.64061212539673,1.96710383892059,2.55353689193726,-2.37129490830989,1.94551442770222,2.61080159886703,1253.423,1261.423,3058.685,3056.154,-0.03057043,0.04847365,0.02983909,-0.867812514305115,-0.361739009618759,0.590952515602112,-0.878042061913513,-0.37779696958594,0.54354986326829,0
3.33999633789063,-2.6577684879303,1.95995903015137,2.56524300575256,-2.38875555478454,1.93800159931817,2.62161057080077,1256.118,1259.179,3051.751,3050.527,-0.02887346,0.04894981,0.02832253,-0.857800841331482,-0.357236355543137,0.585305392742157,-0.867618167158097,-0.373311858882592,0.53709697585572,0
3.3599853515625,-2.67472052574158,1.95290565490723,2.5768346786499,-2.40599272667425,1.93058492580486,2.63228120132087,1259.185,1257.557,3047.292,3042.098,-0.02719194,0.04942407,0.02679217,-0.847599387168884,-0.352654308080673,0.579582571983337,-0.857015715678588,-0.368749920209162,0.530533553325099,0
3.37998962402344,-2.6914644241333,1.94594585895538,2.58831024169922,-2.42302905329872,1.92325467039821,2.6428274990542,1251.391,1255.747,3045.258,3041.893,-0.0255477,0.04988361,0.02528948,-0.837210834026337,-0.348000407218933,0.573779940605164,-0.846223126656603,-0.364106170663035,0.523852426598178,0
3.39999389648438,-2.7079975605011,1.93908023834229,2.59966492652893,-2.43984769972619,1.91601807669906,2.65323904237604,1251.717,1253.181,3039.448,3037.706,-0.02389282,0.05034361,0.02376993,-0.826642036437988,-0.343278169631958,0.567732632160187,-0.835253140422974,-0.35938609205264,0.51706148254665,0
3.41999816894531,-2.72431564331055,1.9323103427887,2.61089682579041,-2.45644516534361,1.90887665092339,2.66351366424015,1254.933,1251.633,3035.25,3028.66,-0.02224059,0.05080298,0.02223302,-0.815899014472961,-0.338490873575211,0.561600506305695,-0.824110582941664,-0.354591760855451,0.510163708672097,0
3.43998718261719,-2.74041557312012,1.92563772201538,2.62200379371643,-2.47280564474684,1.90183719369507,2.67364158034846,1250.734,1250.18,3031.373,3026.471,-0.02062405,0.0512501,0.02071666,-0.80498206615448,-0.333642572164536,0.555348515510559,-0.812809078412023,-0.349729039183832,0.50316753900293,0
3.45999145507813,-2.75629329681396,1.9190628528595,2.63298320770264,-2.48895081463434,1.8948903781363,2.68363620960993,1246.661,1247.888,3028.809,3023.425,-0.01900805,0.05168901,0.01920987,-0.793901443481445,-0.328739762306213,0.548975884914398,-0.80133641229185,-0.344792671461508,0.496065412155666,0
3.47999572753906,-2.77194619178772,1.9125874042511,2.64383101463318,-2.50486489870395,1.88804299234919,2.69348778574196,1249.23,1245.895,3022.416,3017.347,-0.01738085,0.05212754,0.01768936,-0.782660782337189,-0.323782026767731,0.542385756969452,-0.789706299681989,-0.339788558913217,0.488865818431069,0
3.49998474121094,-2.78737163543701,1.90621161460876,2.65454530715942,-2.52053292953407,1.8813014763971,2.70318704319762,1251.533,1244.559,3017.751,3009.773,-0.01577497,0.05255962,0.01616723,-0.771264433860779,-0.318771421909332,0.535719752311707,-0.777933044257461,-0.334722856010721,0.481577612485354,0
3.51998901367188,-2.80256581306458,1.89993762969971,2.66512513160706,-2.53597583877076,1.87465682397749,2.71274693966292,1244.545,1243.085,3015.456,3009,-0.0142085,0.05297514,0.0146785,-0.759717524051666,-0.313714116811752,0.528989195823669,-0.766004036374581,-0.329590137176618,0.474192988348404,0
3.53999328613281,-2.8175265789032,1.89376521110535,2.67556595802307,-2.55117869390181,1.86811546013321,2.72215823120146,1244.197,1240.781,3009.883,3005.374,-0.0126399,0.05338651,0.01318545,-0.74802964925766,-0.308614373207092,0.522042095661163,-0.753933682518821,-0.324396601119134,0.466720864320997,0
3.55999755859375,-2.83225059509277,1.88769578933716,2.68586659431458,-2.56613872308604,1.86167857751006,2.73141920191151,1247.006,1239.435,3005.885,2996.701,-0.01107715,0.05379352,0.01168521,-0.736206352710724,-0.303474485874176,0.515027403831482,-0.741727567798258,-0.319144650954242,0.459164697851087,0
3.57998657226563,-2.84673547744751,1.88172960281372,2.69602465629578,-2.58084213759183,1.85535210901407,2.74052131591136,1242.835,1238.278,3001.842,2994.779,-0.009552759,0.05418647,0.0102133,-0.724249601364136,-0.298297494649887,0.507905423641205,-0.72940084364523,-0.31384080592,0.451533868397061,0
3.59999084472656,-2.86097860336304,1.87586808204651,2.70603847503662,-2.59530884290342,1.84912748987145,2.74947689564398,1239.4,1236.319,2999.218,2991.37,-0.008033159,0.05456923,0.00875806,-0.712170541286469,-0.293088853359222,0.50068610906601,-0.716940488958392,-0.308479463400265,0.4438203152769,0
3.6199951171875,-2.8749783039093,1.87011098861694,2.71590399742126,-2.60952509409627,1.84301063413925,2.75827743234631,1241.091,1234.547,2993.079,2986.275,-0.006510896,0.05494817,0.007301333,-0.699974596500397,-0.287848681211472,0.493276506662369,-0.704361775018033,-0.303067194200314,0.436033492140578,0
3.63999938964844,-2.88873147964478,1.86445951461792,2.72562026977539,-2.6234885835008,1.83700253474321,2.76692149746096,1243.19,1233.389,2988.901,2978.823,-0.005011004,0.05531879,0.00585116,-0.687665998935699,-0.282578498125076,0.485818207263947,-0.691670720740692,-0.297606588091786,0.428177124984152,0
3.65998840332031,-2.9022364616394,1.85891389846802,2.73518586158752,-2.63718676607487,1.8311085894645,2.77540132500924,1238.492,1232.224,2985.207,2977.546,-0.003557983,0.05567336,0.00443563,-0.675250172615051,-0.277282625436783,0.478277325630188,-0.678883253871145,-0.292104498338286,0.420261073840379,0
3.67999267578125,-2.91549158096313,1.8534744977951,2.74459886550903,-2.65063849381582,1.82532068681534,2.78372858527554,1234.435,1230.405,2982.845,2974.774,-0.002114017,0.05601743,0.003040396,-0.662739217281342,-0.271967083215714,0.470655828714371,-0.665986083416798,-0.286555206197011,0.41227711095171,0
3.69999694824219,-2.9284942150116,1.84814190864563,2.75385618209839,-2.66383127580226,1.81964420129024,2.79189554578451,1235.802,1228.76,2977.323,2969.682,-0.000664725,0.05635698,0.001646472,-0.650139451026917,-0.266632616519928,0.462866127490997,-0.65299527533123,-0.280965624398954,0.404235181908735,0
3.71998596191406,-2.94124317169189,1.84291636943817,2.7629566192627,-2.67675353880252,1.81408411252746,2.79989504215442,1238.312,1227.71,2972.942,2962.349,0.000765981,0.05668915,0.0002613617,-0.637453734874725,-0.261279195547104,0.455022305250168,-0.639927289491732,-0.275342835169479,0.396145476159594,0
3.739990234375,-2.95373702049255,1.83779811859131,2.77189922332764,-2.68942333385363,1.80863265367006,2.80773824883709,1233.149,1226.721,2970.003,2961.143,0.002153534,0.05700526,-0.001082841,-0.624687254428864,-0.255910009145737,0.447133958339691,-0.62676873176137,-0.26968107538565,0.387999702095468,0
3.75999450683594,-2.9659743309021,1.83278739452362,2.78068137168884,-2.70182915057228,1.80329477731443,2.81541804035694,1232.694,1224.807,2965.411,2957.676,0.003527527,0.05731328,-0.002413357,-0.611852288246155,-0.250529766082764,0.439106196165085,-0.613536214864365,-0.263987493038594,0.379808143784027,0
3.77999877929688,-2.97795295715332,1.82788467407227,2.789302110672,-2.7139695770734,1.79807109095524,2.82293354268985,1233.94,1223.676,2961.854,2951.184,0.004882961,0.0576131,-0.003730556,-0.598954081535339,-0.245140224695206,0.431039392948151,-0.60023651686137,-0.258265004538452,0.371574997167698,0
3.79998779296875,-2.98967337608337,1.82308995723724,2.7977602481842,-2.72583438304408,1.79296599641037,2.83027842278479,1230.756,1222.69,2958.176,2949.113,0.006200325,0.05789916,-0.005013134,-0.585998237133026,-0.239744007587433,0.422903716564178,-0.586886736182787,-0.252520966862155,0.36331084698941,0
3.81999206542969,-3.00113296508789,1.81840288639069,2.80605435371399,-2.73744054699573,1.78797218830065,2.83746319114912,1227.947,1221.184,2955.51,2946.199,0.007502316,0.05817473,-0.006269081,-0.572995066642761,-0.234344929456711,0.414711058139801,-0.573473482003301,-0.246749618311662,0.355007403690404,0
3.83999633789063,-3.01233220100403,1.81382405757904,2.81418228149414,-2.74877791451009,1.78309403578861,2.84448156171422,1229.354,1219.714,2950.611,2941.448,0.008796471,0.05844384,-0.007511712,-0.559952020645142,-0.228944227099419,0.406400561332703,-0.560014026276881,-0.240958390526246,0.346675359432959,0
3.8599853515625,-3.02326965332031,1.80935323238373,2.8221435546875,-2.75983729406747,1.77833549372837,2.85132784449154,1230.663,1218.762,2946.772,2935.76,0.01006084,0.05870339,-0.008733038,-0.546872556209564,-0.223542302846909,0.398065149784088,-0.546525890176286,-0.235154822377061,0.338325560657667,0
3.87998962402344,-3.03394484519958,1.80499029159546,2.82993769645691,-2.7706348636882,1.77368960116974,2.85801205444635,1226.226,1217.838,2944.087,2934.619,0.01128026,0.05894753,-0.009911221,-0.533763706684113,-0.21814252436161,0.389708280563354,-0.532995796775444,-0.22933320117373,0.329949788314816,0
3.89999389648438,-3.04435729980469,1.80073547363281,2.83756279945374,-2.78116151864576,1.76916027562219,2.86452855531919,1225.902,1216.176,2940.119,2931.354,0.01248072,0.0591839,-0.01106916,-0.520637810230255,-0.212749391794205,0.381255656480789,-0.519441457145543,-0.223501147495394,0.321559006401168,0
3.91999816894531,-3.05450749397278,1.79658818244934,2.84501838684082,-2.79141684911929,1.7647476934202,2.87087709341145,1227.101,1215.196,2936.807,2925.705,0.01365644,0.05941138,-0.01220687,-0.50749945640564,-0.207364320755005,0.372785478830338,-0.505870408491346,-0.2176619043907,0.313157880805522,0
