t,x_s1,x_s2,x_s3,x_s_d1,x_s_d2,x_s_d3,propellers_rpms1,propellers_rpms2,propellers_rpms3,propellers_rpms4,rollRad,pitchRad,yawRad,v_s1,v_s2,v_s3,v_s_d1,v_s_d2,v_s_d3,insideCount
0,-0.0599999986588955,2.94000005722046,1.17999994754791,-0.0599999986588955,2.94000005722046,1.17999994754791,0,0,0,0,0,45.0048027038574,0,0,0,0,-1.06581410364015E-15,4.44089209850063E-16,-7.105427357601E-16,0
0.02001953125,-0.0599999986588955,2.94000005722046,1.17705690860748,-0.0600018744611685,2.93999925011514,1.18000109344625,0,0,0,0,0.937003672122955,44.8630027770996,-0.00115976633969694,3.71994488546079E-08,3.50004931704007E-08,-0.147149950265884,-0.000280531511337879,-0.000120704872184653,0.000171372322667033,5
0.040008544921875,-0.0599999986588955,2.94000005722046,1.17018985748291,-0.060014880898484,2.93999365380853,1.18000903887584,0,0,0,0,1.87400352954865,44.7211418151855,-0.00311126722954214,3.70364325874561E-08,3.5142885934647E-08,-0.343349903821945,-0.00111143977225461,-0.000478221483967637,0.000678961213193342,6
0.05999755859375,-0.0599062293767929,2.94009447097778,1.16346490383148,-0.0600498857373401,2.93997859220429,1.18003042278566,3197.055,2848.577,1517.557,2782.436,1.40377748012543,44.7413711547852,0.0287760011851788,0.00468848180025816,0.00471865246072412,-0.336246997117996,-0.00247936261166862,-0.00106680046642749,0.00151460392977639,6
0.08001708984375,-0.0597377717494965,2.94026732444763,1.15723729133606,-0.0601176241590912,2.9399494462538,1.18007180313047,2865.695,2651.763,2344.598,2562.151,0.340079486370087,44.8158378601074,0.0996070802211761,0.00842283293604851,0.00864462181925774,-0.311380505561829,-0.00437432711648753,-0.0018821507536715,0.0026722081754323,6
0.100006103515625,-0.0595562346279621,2.94046425819397,1.15151965618134,-0.0602282404704493,2.93990185114529,1.18013937690895,2240.613,2528.421,3137.222,2508.336,359.322052001953,44.919059753418,0.178504914045334,0.00907692406326532,0.00984971318393946,-0.285880416631699,-0.00677739276378709,-0.00291612276782231,0.00414020348026766,5
0.1199951171875,-0.059424240142107,2.94063234329224,1.14656901359558,-0.0603918861403606,2.93983143898525,1.18023934549506,2123.469,2454.617,3351.948,2464.742,358.750274658203,44.9998588562012,0.253258764743805,0.00659974943846464,0.00840045046061277,-0.247534602880478,-0.00967801353495435,-0.00416417885169243,0.00591214744607921,5
0.1400146484375,-0.0593827106058598,2.94074034690857,1.14257049560547,-0.0606187761383957,2.93973381455767,1.18037794905431,2312.11,2456.558,3069.346,2463.374,358.636383056641,45.032657623291,0.326257407665253,0.00207654712721705,0.00540162343531847,-0.199924275279045,-0.0130687916036232,-0.00562313592726786,0.00798352085618068,5
0.160003662109375,-0.059442937374115,2.94078588485718,1.13952445983887,-0.0609177895434042,2.93960515744296,1.18056061167741,2537.177,2487.052,2634.917,2491.605,358.757019042969,45.0249633789063,0.398278146982193,-0.00301136495545506,0.00228246464394033,-0.152299135923386,-0.0169265510445065,-0.00728302204135792,0.0103401658994673,5
0.17999267578125,-0.0595995113253593,2.94078207015991,1.13730907440186,-0.0612985250199726,2.93944133760391,1.18079319703879,2665.876,2505.781,2303.06,2513.553,358.864135742188,44.9985656738281,0.467363446950912,-0.00782861188054085,-0.000194068066775799,-0.110769867897034,-0.0212433804254414,-0.00914043312572283,0.0129772496054864,5
0.20001220703125,-0.0598469376564026,2.94074034690857,1.13576078414917,-0.0617708265342762,2.93923811945689,1.18108171866376,2653.398,2500.033,2183.604,2508.563,358.817047119141,44.974422454834,0.532779395580292,-0.012371295131743,-0.00208823569118977,-0.0774130672216415,-0.0260142813927851,-0.0111932185284278,0.0158917185579952,5
0.220001220703125,-0.0601887404918671,2.94066286087036,1.13474559783936,-0.0623420644491781,2.93899233174064,1.18143067899198,2541.169,2470.922,2244.888,2478.566,358.612457275391,44.9636497497559,0.594670712947845,-0.0170900784432888,-0.00387869682163,-0.050760991871357,-0.03121219533433,-0.0134297356845702,0.0190670430730375,5
0.239990234375,-0.0606378614902496,2.94054222106934,1.13419342041016,-0.0630214373585105,2.93870001655724,1.18184569730089,2411.124,2429.375,2374.619,2437.757,358.334533691406,44.9659233093262,0.652658641338348,-0.022456044331193,-0.00602870061993599,-0.0276098698377609,-0.0368316683029241,-0.015847637913056,0.0224998914194052,5
0.260009765625,-0.0612121038138866,2.9403669834137,1.13409042358398,-0.0638185570309634,2.93835703823113,1.18233264526998,2329.477,2391.932,2462.874,2398.51,358.076416015625,44.9739151000977,0.707664728164673,-0.0287121534347534,-0.00876603368669748,-0.00514833815395832,-0.0428699302682246,-0.0184457333472145,0.0261885714287875,4
0.279998779296875,-0.0619285330176353,2.94012594223022,1.13444101810455,-0.0647390625194898,2.93796097043536,1.18289496770872,2306.74,2365.541,2469.068,2370.289,357.887054443359,44.9802780151367,0.760700762271881,-0.0358214862644672,-0.0120546044781804,0.0175309609621763,-0.0492963837173861,-0.0212108567320638,0.0301143915580518,4
0.300018310546875,-0.0627999529242516,2.93981194496155,1.13523638248444,-0.0657936070281142,2.93750722939386,1.18353917249319,2316.615,2347.857,2416.36,2353.946,357.764862060547,44.9818077087402,0.811321794986725,-0.0435711517930031,-0.0157038029283285,0.0397687181830406,-0.0561185469977389,-0.0241462430024218,0.0342819446482607,4
0.32000732421875,-0.0638346970081329,2.93942141532898,1.13644969463348,-0.0669865614821475,2.93699393441958,1.18426792975347,2335.718,2336.91,2341.912,2341.22,357.67822265625,44.9788093566895,0.860283434391022,-0.0517371147871017,-0.0195224732160568,0.0606675520539284,-0.0633036493784043,-0.0272377918282996,0.0386712115712976,4
0.339996337890625,-0.0650382712483406,2.9389533996582,1.13803625106812,-0.068326768706371,2.93641728069206,1.18508664143323,2336.813,2324.289,2287.685,2330.514,357.593872070313,44.9741821289063,0.906656205654144,-0.060178741812706,-0.0234022997319698,0.0793250426650047,-0.0708499516420146,-0.0304847548730522,0.0432811298664125,4
0.360015869140625,-0.0664157718420029,2.93840646743774,1.1399507522583,-0.0698237345322385,2.93577317811757,1.18600111449656,2322,2310.478,2262.239,2315.855,357.494384765625,44.9703521728516,0.950702369213104,-0.0688749104738235,-0.0273419544100761,0.0957222729921341,-0.0787580297418618,-0.0338873799532906,0.048112051374484,4
0.3800048828125,-0.0679730847477913,2.93777871131897,1.14215457439423,-0.0714797725314022,2.93506063123087,1.18701276226829,2296.797,2295.029,2259.599,2298.989,357.379638671875,44.9685134887695,0.992972791194916,-0.0778658241033554,-0.0313909165561199,0.110191568732262,-0.0869921272359981,-0.0374302820709642,0.0531421330430943,4
0.399993896484375,-0.0697170421481133,2.93706679344177,1.14461743831635,-0.0733036822025899,2.9342758538535,1.18812696022487,2267.632,2277.261,2269.207,2283.511,357.261352539063,44.9687690734863,1.03247916698456,-0.087197870016098,-0.0355984047055244,0.123142205178738,-0.0955525119207663,-0.0411135764513579,0.0583715384648505,4
0.420013427734375,-0.0716549381613731,2.93626689910889,1.1473206281662,-0.0753050585276311,2.93341471753282,1.18934956979097,2248.766,2262.798,2271.446,2267.645,357.152038574219,44.9699401855469,1.06987321376801,-0.0968947559595108,-0.0399900376796722,0.135159149765968,-0.104441553474511,-0.0449382827008623,0.0638017152392751,4
0.44000244140625,-0.0737935975193977,2.93537592887878,1.15024900436401,-0.077483988232608,2.93247718495301,1.19068064394622,2239.316,2251.303,2261.999,2254.426,357.056854248047,44.9709739685059,1.10594272613525,-0.106933072209358,-0.0445502102375031,0.146419614553452,-0.113620829717891,-0.048887868829098,0.0694091918565748,4
0.459991455078125,-0.0761388689279556,2.93439102172852,1.15338456630707,-0.0798493430620752,2.93145943885026,1.1921256023009,2230.972,2239.753,2249.69,2245.554,356.975341796875,44.9717025756836,1.13955128192902,-0.117263473570347,-0.0492414832115173,0.156780987977982,-0.123092454730403,-0.0529632444654124,0.0751952597749251,4
0.480010986328125,-0.0786958262324333,2.93331027030945,1.15671181678772,-0.0824109101018722,2.93035726811493,1.19369042363305,2227.629,2231.732,2233.083,2236.046,356.903564453125,44.9719467163086,1.17134463787079,-0.12784805893898,-0.054036907851696,0.166361406445503,-0.132860437136906,-0.0571661344090936,0.0811623678006979,4
0.5,-0.0814688801765442,2.93213200569153,1.16021406650543,-0.085166398670376,2.92917165836334,1.195373708601,2224.071,2225.006,2217.741,2227.56,356.835754394531,44.9719314575195,1.20206260681152,-0.138652831315994,-0.0589143261313438,0.175111964344978,-0.142884000065179,-0.0614789935111996,0.0872856059789651,5
0.52001953125,-0.084462009370327,2.93085479736328,1.16387236118317,-0.0881295333471192,2.92789670429234,1.19718384133622,2213.708,2216.045,2212.523,2221.656,356.769714355469,44.972339630127,1.23036205768585,-0.149656429886818,-0.0638628453016281,0.182913810014725,-0.153182839569029,-0.0659102964334391,0.0935770063216458,5
0.540008544921875,-0.0876793414354324,2.92947697639465,1.16767513751984,-0.0912963635428427,2.92653410573011,1.19911840848537,2208.516,2210.654,2205.969,2213.078,356.705413818359,44.9729118347168,1.25761640071869,-0.160866692662239,-0.0688923746347427,0.190139621496201,-0.163714777034477,-0.0704418948965508,0.100010802571645,5
0.55999755859375,-0.0911247059702873,2.92799711227417,1.17160844802856,-0.094676112580471,2.92507989413848,1.20118304443252,2197.992,2202.817,2206.396,2208.175,356.644622802734,44.9740180969238,1.28255295753479,-0.172268211841583,-0.073997475206852,0.196664661169052,-0.17448465888317,-0.0750758741803766,0.106589955332319,5
0.58001708984375,-0.0948019921779633,2.92641353607178,1.17566502094269,-0.0982790918331175,2.92352963282165,1.20338404823457,2193.603,2198.078,2202.965,2201.688,356.589477539063,44.9752044677734,1.30594348907471,-0.183864265680313,-0.0791829526424408,0.202825888991356,-0.185498893714783,-0.0798149917263209,0.113318379517207,5
0.600006103515625,-0.0987147688865662,2.924724817276,1.17983829975128,-0.102098762959148,2.92188613504538,1.20571742572067,2192.03,2194.858,2196.401,2196.379,356.539154052734,44.9762268066406,1.32869446277618,-0.195638447999954,-0.0844393596053123,0.208662554621696,-0.196713446836865,-0.0846403006364086,0.120169175019836,5
0.6199951171875,-0.102866098284721,2.92292976379395,1.18411862850189,-0.106144683970236,2.92014528826426,1.208189015731,2185.604,2189.249,2195.733,2194.474,356.493560791016,44.9774627685547,1.34920108318329,-0.207567036151886,-0.0897518172860146,0.214015319943428,-0.208134604141382,-0.0895545055543457,0.127146181793521,5
0.6400146484375,-0.107259079813957,2.92102742195129,1.18850207328796,-0.110427588881679,2.91830247393137,1.21080537550798,2184.684,2187.039,2191.507,2190.317,356.452819824219,44.9785842895508,1.36831426620483,-0.219649165868759,-0.0951214358210564,0.219173699617386,-0.21977002223474,-0.0945609009039674,0.134254077139634,5
0.660003662109375,-0.111896455287933,2.91901659965515,1.19298481941223,-0.114938248900541,2.91636166293851,1.21356086732604,2185.271,2185.987,2185.636,2187.02,356.414855957031,44.9795150756836,1.38699889183044,-0.231868922710419,-0.100539416074753,0.224138036370277,-0.231574097577923,-0.0996398647564507,0.141465002567821,5
0.67999267578125,-0.11678059399128,2.91689658164978,1.19755935668945,-0.119686638739014,2.91431856344567,1.2164615845812,2179.428,2181.878,2187.713,2186.943,356.379608154297,44.9807472229004,1.40350162982941,-0.244206994771957,-0.105995051562786,0.228726908564568,-0.243554411173546,-0.104794659005432,0.14878358919428,5
0.70001220703125,-0.121914014220238,2.91466665267944,1.20222473144531,-0.124683985757554,2.91216834463331,1.21951438589277,2179.328,2181.16,2186.196,2184.127,356.348052978516,44.9819412231445,1.41873896121979,-0.256671190261841,-0.111495845019817,0.233270898461342,-0.255719729227087,-0.11002905550423,0.156215192157144,5
0.720001220703125,-0.12729899585247,2.91232585906982,1.20698022842407,-0.129918284978346,2.90991617190799,1.22271193760712,2181.04,2181.554,2182.342,2182.074,356.318786621094,44.9829483032227,1.43376696109772,-0.269249320030212,-0.117035761475563,0.237772822380066,-0.268023157655716,-0.11532287703907,0.163731164592979,5
0.739990234375,-0.132937431335449,2.90987372398376,1.21182072162628,-0.135400001298574,2.90755754251682,1.22606063256665,2176.091,2178.488,2186.245,2183.452,356.292236328125,44.984245300293,1.44665539264679,-0.281922101974487,-0.122603937983513,0.242025703191757,-0.280473432677602,-0.12067988256057,0.171336843321139,5
0.760009765625,-0.138831406831741,2.90730953216553,1.21674811840057,-0.141140917956636,2.9050873864615,1.22956766896782,2177.553,2179.063,2185.439,2181.774,356.26953125,44.9854469299316,1.45839285850525,-0.294698745012283,-0.128208205103874,0.246369406580925,-0.293080296154222,-0.126104263719567,0.179038179492781,5
0.779998779296875,-0.14498271048069,2.90463280677795,1.22176373004913,-0.147126184485884,2.90251209348295,1.2332239748923,2180.807,2180.742,2181.813,2180.778,356.248870849609,44.9863739013672,1.47013247013092,-0.307565331459045,-0.133841320872307,0.250778913497925,-0.305795832832518,-0.131575403921268,0.186805902427515,5
0.800018310546875,-0.151392728090286,2.90184307098389,1.22686398029327,-0.153376545303595,2.89982273783796,1.23704222278088,2176.622,2178.452,2186.553,2183.38,356.230499267578,44.9875793457031,1.4797488451004,-0.320501178503036,-0.139491349458694,0.255010277032852,-0.318649478366155,-0.137105968505107,0.194657993906831,5
0.82000732421875,-0.158063188195229,2.89893960952759,1.23205375671387,-0.159875221826383,2.89702653888221,1.24101216285881,2181.686,2181.409,2183.338,2181.546,356.214263916016,44.9884872436523,1.48932635784149,-0.33352267742157,-0.145169749855995,0.259487688541412,-0.331592781842754,-0.14267511039705,0.202564856024417,5
0.839996337890625,-0.164995148777962,2.89592242240906,1.23733019828796,-0.166633637018892,2.89411858163313,1.24514077323692,2177.713,2179.733,2188.693,2184.454,356.200500488281,44.9896659851074,1.49686980247498,-0.346599251031876,-0.150860533118248,0.263823598623276,-0.344636106234817,-0.148287288494656,0.210532819358465,5
0.860015869140625,-0.172190025448799,2.89279103279114,1.24269783496857,-0.173664618315387,2.89109334680413,1.24943588999465,2180.834,2181.729,2188.432,2183.938,356.190216064453,44.9906730651855,1.50348043441772,-0.359743654727936,-0.156572878360748,0.268384397029877,-0.357790534090669,-0.153947271308859,0.218568654064807,5
0.8800048828125,-0.179648846387863,2.88954496383667,1.24816012382507,-0.180948461186242,2.88795931270381,1.25388547594233,2185.523,2184.675,2185.107,2184.01,356.181182861328,44.9913597106934,1.51039719581604,-0.37294128537178,-0.162298947572708,0.273113399744034,-0.371007022483504,-0.159633957038354,0.226642400584755,5
0.899993896484375,-0.187372267246246,2.88618445396423,1.2537145614624,-0.18849723509595,2.8847112861788,1.25849690412748,2181.534,2182.992,2191.286,2187.808,356.173736572266,44.9923820495605,1.51523470878601,-0.386170625686646,-0.168026596307755,0.277720153331757,-0.384296738353309,-0.165352150505452,0.234760880627692,5
0.920013427734375,-0.195361211895943,2.88270902633667,1.25936639308929,-0.196324452211266,2.88134345332121,1.26327842892191,2184.781,2185.365,2191.765,2187.542,356.169189453125,44.9932518005371,1.51915121078491,-0.3994480073452,-0.173767894506454,0.282589703798294,-0.397671404529394,-0.171106895716105,0.242931255487113,5
0.94000244140625,-0.203616410493851,2.87911868095398,1.26511967182159,-0.204407453948074,2.87786556348678,1.26821620855017,2189.669,2188.73,2188.916,2187.729,356.16552734375,44.9938163757324,1.52351582050323,-0.412760108709335,-0.179516479372978,0.287662833929062,-0.411081631631503,-0.176876941799768,0.251123353961324,5
0.959991455078125,-0.212138131260872,2.87541341781616,1.27097225189209,-0.212759000778906,2.87427212620069,1.27331803818581,2185.485,2187.015,2195.816,2191.927,356.163391113281,44.9947357177734,1.52575838565826,-0.426085233688354,-0.18526017665863,0.292630136013031,-0.424539267042903,-0.182667386354485,0.259344413431889,5
0.980010986328125,-0.220926940441132,2.87159323692322,1.27693009376526,-0.221393324468958,2.87055701793193,1.27859261179209,2189.041,2189.687,2196.353,2191.677,356.164245605469,44.9954872131348,1.52716171741486,-0.439440935850143,-0.19101171195507,0.29789263010025,-0.438056556301695,-0.188483498293199,0.267601914506946,5
1,-0.229983180761337,2.86765789985657,1.2829977273941,-0.230284798736574,2.86673126495361,1.28402427467346,2194.392,2193.251,2193.102,2191.989,356.165954589844,44.9959030151367,1.52912628650665,-0.452812999486923,-0.196763962507248,0.303379595279694,-0.451584000205995,-0.194303979492187,0.275865618896484,5
1.02001953125,-0.239306747913361,2.86360788345337,1.28917276859283,-0.239461107372567,2.86278295570393,1.28962993842572,2189.972,2191.482,2200.203,2196.389,356.169036865234,44.9966773986816,1.52897036075592,-0.466178059577942,-0.202503606677055,0.308750957250595,-0.465154707681581,-0.200143075797255,0.284155752326605,5
1.04000854492188,-0.248897969722748,2.85944294929504,1.29546320438385,-0.248894644448595,2.85872396824263,1.29539273901802,2197.056,2195.953,2196.76,2195,356.173522949219,44.9970550537109,1.52924835681915,-0.479561418294907,-0.208247095346451,0.314519912004471,-0.47871923339115,-0.205979512261105,0.292442109412331,5
1.05999755859375,-0.258756458759308,2.85516333580017,1.30186653137207,-0.258599401509697,2.85454828239877,1.3013212236669,2192.488,2194.369,2203.811,2199.193,356.179870605469,44.9977836608887,1.52744209766388,-0.492926120758057,-0.213975101709366,0.320165753364563,-0.492290296490434,-0.211818761581115,0.30073246008742,5
1.08001708984375,-0.268882274627686,2.85076928138733,1.30838906764984,-0.268590868588476,2.85024923324404,1.30742485499156,2196.565,2197.17,2203.534,2198.812,356.189422607422,44.9982986450195,1.52494812011719,-0.506291151046753,-0.219700485467911,0.326124668121338,-0.505880764601332,-0.21766636033551,0.309034664981295,5
1.10000610351563,-0.279275089502335,2.8462610244751,1.31503510475159,-0.278838480013141,2.84583997233313,1.31368496090006,2202.286,2200.796,2199.308,2199.022,356.199523925781,44.9984245300293,1.52323806285858,-0.519640266895294,-0.225414127111435,0.332299262285233,-0.519441457145546,-0.223501147495394,0.317318680446121,5
1.1199951171875,-0.289934098720551,2.84163904190063,1.32180142402649,-0.289357002179081,2.84131414609862,1.32011056195293,2197.156,2198.503,2206.559,2203.603,356.210601806641,44.9989471435547,1.51932275295258,-0.532949090003967,-0.231102228164673,0.338313966989517,-0.532985466132485,-0.229328756186667,0.32559250418615,5
1.1400146484375,-0.30085888504982,2.83690333366394,1.32869386672974,-0.300162704591434,2.83666475422696,1.32671159693698,2200.686,2201.13,2206.676,2202.879,356.224212646484,44.9993209838867,1.51467025279999,-0.546239793300629,-0.236780613660812,0.344623148441315,-0.54652589017629,-0.235154822377061,0.33386413794036,5
1.16000366210938,-0.312048822641373,2.83205437660217,1.33571660518646,-0.311222084148811,2.83190621216671,1.33346759933036,2205.972,2204.664,2202.703,2202.634,356.238189697266,44.9993629455566,1.51090824604034,-0.559497892856598,-0.242442041635513,0.351135730743408,-0.560014026276883,-0.240958390526247,0.342103829805999,6
1.17999267578125,-0.323502838611603,2.82709288597107,1.34286594390869,-0.322550701230474,2.8270318247214,1.34038807472597,2200.173,2201.919,2210.351,2207.094,356.253234863281,44.999828338623,1.50490713119507,-0.57269960641861,-0.248072817921638,0.357466727495193,-0.573463232144024,-0.246745208083563,0.350319739799517,6
1.20001220703125,-0.335220158100128,2.82201910018921,1.35014772415161,-0.334165615614823,2.82203425154496,1.3474834446762,2203.685,2204.333,2210.105,2206.068,356.271240234375,45.000129699707,1.49817609786987,-0.585867404937744,-0.253688961267471,0.364090204238892,-0.586886736182789,-0.252520966862155,0.358519948947149,6
1.22000122070313,-0.347199857234955,2.81683349609375,1.35756576061249,-0.346030421585499,2.81692915700008,1.35473146949704,2209.11,2207.751,2205.354,2205.535,356.289703369141,45.0000534057617,1.49241578578949,-0.598985314369202,-0.259281992912292,0.370903819799423,-0.600236516861372,-0.258265004538453,0.366675121644476,6
1.239990234375,-0.359440445899963,2.81153678894043,1.3651157617569,-0.358161486344149,2.81170949873715,1.36214214765657,2202.852,2204.623,2212.781,2209.914,356.309234619141,45.000415802002,1.48436772823334,-0.612028181552887,-0.264837116003036,0.377497941255569,-0.613526094901141,-0.263983138701136,0.374793517489195,6
1.260009765625,-0.371940821409225,2.80612945556641,1.37280309200287,-0.37057666480527,2.80636759428526,1.36972638644343,2206.23,2206.866,2212.096,2208.516,356.331665039063,45.0006103515625,1.47562551498413,-0.625019133090973,-0.270370751619339,0.384365022182465,-0.626768731761373,-0.26968107538565,0.382883237699838,6
1.27999877929688,-0.384699702262878,2.80061197280884,1.38063108921051,-0.383236695417198,2.80092033679326,1.37746020158837,2211.523,2210.072,2206.855,2207.66,356.354339599609,45.0004234313965,1.46793830394745,-0.637942135334015,-0.275874584913254,0.39139798283577,-0.639917282339435,-0.275338529371412,0.39091548206889,6
1.30001831054688,-0.397715121507645,2.79498529434204,1.38859450817108,-0.396178686849666,2.79535175943725,1.38536626219868,2204.575,2206.511,2214.38,2211.866,356.378021240234,45.0007095336914,1.45793318748474,-0.650772154331207,-0.281333714723587,0.398171424865723,-0.653005218467598,-0.280969902652754,0.398910698016369,6
1.32000732421875,-0.410985916852951,2.78924989700317,1.39670073986053,-0.409361504843077,2.78967956113998,1.39341943999703,2211.876,2210.635,2208.793,2208.68,356.40283203125,45.0005569458008,1.44879066944122,-0.663540601730347,-0.286768287420273,0.405313462018967,-0.6659860834168,-0.286555206197011,0.406840505851434,6
1.33999633789063,-0.42451000213623,2.78340673446655,1.40494430065155,-0.422802873722428,2.78389611561957,1.401630562497,2204.694,2207.198,2216.014,2212.469,356.429412841797,45.000862121582,1.43736910820007,-0.676205992698669,-0.292156189680099,0.412176430225372,-0.678873453515705,-0.29210028151913,0.41471319914141,6
1.36001586914063,-0.438285827636719,2.77745652198792,1.41333019733429,-0.4365219692899,2.77799317206405,1.41001134389691,2208.245,2209.122,2214.094,2210.488,356.459411621094,45.0009346008301,1.42537832260132,-0.688791394233704,-0.297512531280518,0.419292658567429,-0.691680442442074,-0.297610771068296,0.422536788827408,6
1.3800048828125,-0.452311396598816,2.771399974823,1.42186081409454,-0.450474904562636,2.77198961381608,1.41853497432376,2213.647,2211.971,2207.453,2209.203,356.489654541016,45.0005683898926,1.41459691524506,-0.701278507709503,-0.302826851606369,0.426532596349716,-0.704361775018035,-0.303067194200314,0.43028361700977,6
1.39999389648438,-0.466584265232086,2.7652382850647,1.43052959442139,-0.464680216184654,2.76587746507559,1.42721277752413,2205.792,2207.708,2214.674,2213.224,356.520568847656,45.0007286071777,1.40142703056335,-0.713642001152039,-0.308083653450012,0.433441191911697,-0.716930938559026,-0.308475354130225,0.437961922879032,6
1.42001342773438,-0.481102377176285,2.75897216796875,1.43934094905853,-0.479157861067077,2.75964813894125,1.43605694486361,2208.548,2209.272,2213.229,2210.805,356.554229736328,45.0007362365723,1.38761126995087,-0.725907564163208,-0.313301414251328,0.440567433834076,-0.729400843645231,-0.313840805920001,0.445579593307164,6
1.44000244140625,-0.4958635866642,2.75260281562805,1.4482969045639,-0.493861275572861,2.75332167044526,1.44503903134294,2213.334,2211.904,2206.957,2208.944,356.587829589844,45.000358581543,1.37508344650269,-0.73805969953537,-0.318471968173981,0.447796612977982,-0.741727567798258,-0.319144650954242,0.453109796737511,6
1.45999145507813,-0.510865032672882,2.74613118171692,1.45739030838013,-0.508809800712713,2.74688973769103,1.45417085208374,2204.762,2207.099,2214.545,2212.811,356.622375488281,45.0005264282227,1.36008274555206,-0.750074505805969,-0.323580682277679,0.454671114683151,-0.753924423002454,-0.324392617007921,0.460560665253582,6
1.48001098632813,-0.52610456943512,2.73955821990967,1.46662545204163,-0.524024159888143,2.74034342397783,1.46346506668862,2207.435,2208.505,2212.765,2209.937,356.660064697266,45.000545501709,1.3444801568985,-0.761976957321167,-0.328645527362823,0.461756378412247,-0.766004036374583,-0.329590137176618,0.467939912563966,6
1.5,-0.541579604148865,2.73288512229919,1.47600400447845,-0.539455198877605,2.73370387899399,1.47289164761066,2212.34,2210.926,2205.749,2207.825,356.697967529297,45.000114440918,1.33022749423981,-0.773750245571136,-0.333656877279282,0.468929678201675,-0.777924000354858,-0.334718964672088,0.475221632552146,6
1.51998901367188,-0.5572869181633,2.72611308097839,1.48551833629608,-0.555123050061237,2.72696244033876,1.48246289340675,2203.419,2205.806,2212.986,2211.594,356.736877441406,45.0002555847168,1.3134697675705,-0.785369873046875,-0.338599503040314,0.475714474916458,-0.789697369743256,-0.339784716610053,0.482413800191712,6
1.54000854492188,-0.573224186897278,2.71924328804016,1.49517214298248,-0.571049184024557,2.72010986981902,1.49219192012252,2206.028,2207.033,2210.734,2208.403,356.778839111328,45.0002136230469,1.29613780975342,-0.79686027765274,-0.34349113702774,0.482689797878265,-0.801336412291853,-0.344792671461508,0.489523909660973,6
1.55999755859375,-0.589388310909271,2.71227693557739,1.50496673583984,-0.587181951496087,2.71316839067337,1.50204717602401,2210.805,2209.246,2203.314,2206.023,356.82080078125,44.9997444152832,1.28020620346069,-0.808205008506775,-0.348322331905365,0.489729166030884,-0.812800388649436,-0.349725300221754,0.496527073925997,6
1.58001708984375,-0.605775892734528,2.70521545410156,1.51489365100861,-0.603567408310176,2.70611818636293,1.51205679590172,2201.29,2203.802,2210.649,2209.638,356.863616943359,44.9998626708984,1.26174938678741,-0.819380700588226,-0.35307839512825,0.496346533298492,-0.824119146742882,-0.35459544561987,0.503441526619546,6
1.60000610351563,-0.622384250164032,2.69805979728699,1.52495896816254,-0.620152298932711,2.69898217125626,1.52218824678091,2208.516,2207.215,2202.963,2204.481,356.907409667969,44.9995040893555,1.2444863319397,-0.83041900396347,-0.357780396938324,0.503268539905548,-0.835253140422976,-0.35938609205264,0.510243109616171,5
1.6199951171875,-0.639209806919098,2.69081163406372,1.53515410423279,-0.636958033083316,2.69175113334911,1.53245460752521,2198.798,2202.05,2210.037,2207.665,356.953002929688,44.9996948242188,1.22479641437531,-0.841280341148376,-0.362405925989151,0.509754419326782,-0.846214826007804,-0.364102599125749,0.516939432286212,5
1.6400146484375,-0.656249582767487,2.68347215652466,1.54548251628876,-0.654007271984653,2.68441532215046,1.54286972152191,2201.773,2202.974,2206.611,2204.112,357.002227783203,44.999626159668,1.20463395118713,-0.851987421512604,-0.366970598697662,0.51642119884491,-0.857015715678588,-0.368749920209162,0.523537527241534,5
1.66000366210938,-0.673500001430511,2.67604279518127,1.55594491958618,-0.671244443874359,2.67699864863716,1.55339964084857,2206.808,2205.003,2197.939,2201.381,357.051391601563,44.9990653991699,1.18604373931885,-0.862521767616272,-0.371463030576706,0.523119568824768,-0.867618167158098,-0.373311858882592,0.530014399402375,5
1.67999267578125,-0.690957248210907,2.6685254573822,1.5665317773819,-0.688691692550512,2.66949158495151,1.56405789280588,2196.611,2199.07,2204.992,2204.967,357.101135253906,44.9991416931152,1.16490304470062,-0.872861504554749,-0.375868499279022,0.529340207576752,-0.878034183119987,-0.377793579561193,0.536377381014768,5
1.70001220703125,-0.708617866039276,2.66092133522034,1.57724595069885,-0.706372354049449,2.66188409024902,1.5748587330143,2198.776,2199.726,2202.278,2201.067,357.153625488281,44.9990539550781,1.14319801330566,-0.883031010627747,-0.380205571651459,0.535708785057068,-0.888274735793774,-0.382199803288802,0.542633174842512,5
1.72000122070313,-0.726478159427643,2.65323209762573,1.58808791637421,-0.724228658537036,2.6542010212754,1.58576687078363,2203.207,2201.607,2194.256,2197.854,357.205688476563,44.9985427856445,1.12311720848083,-0.893015503883362,-0.384466022253036,0.542097091674805,-0.898304216251578,-0.386515208538549,0.548760027947228,5
1.739990234375,-0.744534075260162,2.64545941352844,1.59904789924622,-0.74228345468553,2.64643254688532,1.59679626401121,2192.374,2195.323,2201.834,2201.325,357.258605957031,44.9986877441406,1.10044038295746,-0.902795433998108,-0.388636410236359,0.547997295856476,-0.908134108040217,-0.390744736359816,0.554764955448471,5
1.760009765625,-0.762781918048859,2.63760471343994,1.61012887954712,-0.760560719141003,2.63856835059778,1.60796155965597,2194.565,2195.889,2198.933,2197.116,357.314697265625,44.9986419677734,1.07724988460541,-0.912393510341644,-0.392734318971634,0.554049015045166,-0.91777478390713,-0.394892849856044,0.560654293895788,4
1.77999877929688,-0.781217873096466,2.62966966629028,1.62133121490479,-0.779000609654483,2.63063418086074,1.61922620102184,2199.263,2197.672,2190.273,2193.753,357.370635986328,44.9981346130371,1.05575489997864,-0.921793878078461,-0.396750330924988,0.560116708278656,-0.927192788821983,-0.398945154262308,0.566407606133204,4
1.80001831054688,-0.799837350845337,2.6216561794281,1.63264465332031,-0.797655223615693,2.62260762162281,1.63062201359123,2188.253,2191.218,2197.521,2197.262,357.427490234375,44.9982719421387,1.03164875507355,-0.930977165699005,-0.400670439004898,0.565674543380737,-0.936412917636689,-0.402912318110697,0.572040038948834,4
1.82000732421875,-0.818636834621429,2.61356592178345,1.64407479763031,-0.816463410111527,2.61451498441355,1.64211164122557,2195.798,2194.284,2188.558,2190.989,357.485107421875,44.9978713989258,1.00897550582886,-0.939970791339874,-0.404514133930206,0.571509599685669,-0.94540321420156,-0.406780591562751,0.577532070829503,3
1.83999633789063,-0.837611615657806,2.60540080070496,1.65561127662659,-0.835449117627072,2.60634596486888,1.6537097136807,2184.675,2188.23,2195.523,2194.112,357.544403076172,44.9980773925781,0.983763873577118,-0.948741137981415,-0.408261090517044,0.576825380325317,-0.954174163352093,-0.410554485950274,0.582890106797601,3
1.86001586914063,-0.856757700443268,2.5971622467041,1.66725695133209,-0.854637305360818,2.59808982374295,1.66543147814148,2187.488,2188.768,2191.357,2189.647,357.607238769531,44.9980125427246,0.958188235759735,-0.957307040691376,-0.411925762891769,0.582286417484283,-0.962735018414262,-0.414237982720922,0.588119799565572,0
1.8800048828125,-0.87607079744339,2.5888524055481,1.67901158332825,-0.873964974649439,2.58977366760063,1.67723844970756,2192.45,2190.435,2181.741,2186.144,357.669616699219,44.9974327087402,0.934467136859894,-0.965651869773865,-0.415497303009033,0.587734401226044,-0.971056158224177,-0.417818336715394,0.593203054026622,0
1.89999389648438,-0.895545959472656,2.58047318458557,1.69086420536041,-0.893456683142228,2.58138692997148,1.6891456302637,2180.888,2183.649,2188.903,2189.762,357.732360839844,44.9975547790527,0.908106982707977,-0.973759770393372,-0.418963223695755,0.592632412910461,-0.979147395688901,-0.421299770153459,0.598145864732551,0
1.92001342773438,-0.915178954601288,2.57202649116516,1.70281720161438,-0.913137923350175,2.5729186421402,1.70116859278703,2182.897,2184,2185.67,2185.006,357.797760009766,44.9974899291992,0.881324648857117,-0.981650829315186,-0.422340661287308,0.597650408744812,-0.987017247723777,-0.424685947625853,0.602953434534038,0
1.94000244140625,-0.934965193271637,2.56351399421692,1.71487021446228,-0.932943991899774,2.5643966441608,1.71326781099638,2187.349,2185.48,2176.81,2181.208,357.862396240234,44.9969673156738,0.856384634971619,-0.989312052726746,-0.425621956586838,0.602653622627258,-0.994638524886308,-0.427965170275055,0.607609153824943,0
1.95999145507813,-0.954899728298187,2.55493807792664,1.72701227664948,-0.952900013794853,2.55581012544606,1.7254586333645,2175.275,2178.624,2184.49,2184.649,357.927734375,44.9971771240234,0.828845143318176,-0.996730029582977,-0.428795903921127,0.60710620880127,-1.00202031904361,-0.431141350077486,0.612118576685011,0
1.98001098632813,-0.974978268146515,2.54630041122437,1.73924601078033,-0.973031969359004,2.54714790738853,1.73775693086567,2177.487,2178.825,2181.031,2179.814,357.996124267578,44.9971694946289,0.800890862941742,-1.00392246246338,-0.431878179311752,0.611689567565918,-1.00917036754089,-0.434217816196637,0.616486429737696,0
2,-0.99519556760788,2.53760313987732,1.75157117843628,-0.993273599084619,2.53843849960327,1.75012222660065,2182.195,2180.315,2171.694,2175.906,358.064025878906,44.9966583251953,0.774838447570801,-1.01087510585785,-0.434859931468964,0.61625599861145,-1.01606400046349,-0.437183953857422,0.620697642517089,0
2.01998901367188,-1.01554703712463,2.52884864807129,1.7639764547348,-1.01365055070775,2.52967086658596,1.76257018837116,2170.197,2173.434,2178.919,2179.418,358.132568359375,44.9968490600586,0.746206939220428,-1.0175758600235,-0.437729924917221,0.620263040065765,-1.02270954399163,-0.440043345582587,0.624757301356767,0
2.04000854492188,-1.0360279083252,2.52003860473633,1.77646422386169,-1.03418924440916,2.52083364047092,1.77511695585335,2172.425,2173.546,2175.259,2174.556,358.203979492188,44.996826171875,0.717151701450348,-1.02404010295868,-0.440502852201462,0.624387681484222,-1.02911391720548,-0.442798968459032,0.628669633014835,0
2.05999755859375,-1.05663299560547,2.51117515563965,1.78903388977051,-1.05482201812353,2.5119559343546,1.78772119534738,2177.097,2175.04,2165.869,2170.483,358.274597167969,44.9963035583496,0.690058469772339,-1.03025484085083,-0.443170607089996,0.628485500812531,-1.03525504859546,-0.445441325732794,0.632421154350513,0
2.08001708984375,-1.07735729217529,2.50226068496704,1.80167412757874,-1.07560676837143,2.50301283698163,1.80041827493419,2164.737,2168.051,2173.305,2174.045,358.345703125,44.9965171813965,0.660382747650146,-1.03621065616608,-0.445723503828049,0.632012248039246,-1.0411492471255,-0.447977434695423,0.636021828255355,0
2.10000610351563,-1.09819579124451,2.49329710006714,1.81439006328583,-1.09647498538954,2.49403382618922,1.81316634306845,2172.614,2170.757,2163.809,2166.916,358.417114257813,44.9961395263672,0.632365167140961,-1.04192519187927,-0.448177397251129,0.635798335075378,-1.04677621342161,-0.450398561093403,0.639459254158576,0
2.1199951171875,-1.11914336681366,2.48428678512573,1.82717037200928,-1.11745308225396,2.48500753716864,1.82598153508617,2160.318,2164.354,2170.85,2170.077,358.490051269531,44.9964408874512,0.601884603500366,-1.04737854003906,-0.450517505407333,0.639016032218933,-1.0521429102862,-0.45270770082608,0.642737685527497,0
2.1400146484375,-1.1401948928833,2.47523164749146,1.84001755714417,-1.13856809990831,2.47592233495728,1.83888036987787,2163.241,2164.524,2166.249,2165.075,358.566345214844,44.9964218139648,0.571177840232849,-1.05258047580719,-0.452754348516464,0.642359912395477,-1.05725481901126,-0.454907212340279,0.645860470797878,0
2.16000366210938,-1.16134536266327,2.4661340713501,1.85293090343475,-1.15975039167652,2.46680818657414,1.85182030137592,2168.422,2165.955,2155.974,2161.052,358.641693115234,44.9958534240723,0.542579054832458,-1.05751776695251,-0.454878509044647,0.645665347576141,-1.0620943502576,-0.456989527434725,0.648816864916866,0
2.17999267578125,-1.18258893489838,2.45699644088745,1.8658983707428,-1.18102676265167,2.45765355853653,1.86481770439342,2155.822,2158.852,2163.168,2164.865,358.717071533203,44.9960441589355,0.511394083499908,-1.06218492984772,-0.456881523132324,0.648375451564789,-1.06666760390386,-0.458957270716794,0.65161059420515,0
2.20001220703125,-1.20392084121704,2.44782090187073,1.87892210483551,-1.20242455577657,2.44844668594002,1.87788928230744,2157.991,2158.962,2159.578,2159.594,358.794769287109,44.9960250854492,0.479943513870239,-1.06659269332886,-0.458776980638504,0.651189386844635,-1.07097916161324,-0.460812413548163,0.654244457529281,0
2.22000122070313,-1.22533547878265,2.43860983848572,1.89200139045715,-1.22387315175433,2.43921795429519,1.89099189489151,2162.495,2160.211,2150.399,2155.378,358.871185302734,44.995532989502,0.450566619634628,-1.07073140144348,-0.460558474063873,0.653962850570679,-1.07501419914593,-0.462548577472581,0.656709398992482,0
2.239990234375,-1.2468273639679,2.42936539649963,1.90512454509735,-1.24539969505118,2.42995568409656,1.90414212427648,2149.609,2153.129,2158.056,2159.054,358.947937011719,44.9958229064941,0.418644189834595,-1.07459890842438,-0.462219566106796,0.65615576505661,-1.07877792518082,-0.464168003639063,0.659008600495412,0
2.260009765625,-1.2683914899826,2.42008972167969,1.9182938337326,-1.26703177594152,2.42064800401982,1.91735682493042,2151.896,2153.192,2154.441,2153.729,359.027374267578,44.9958648681641,0.38649708032608,-1.07820224761963,-0.463771760463715,0.658462464809418,-1.08227399942825,-0.465672266718726,0.661144297698006,0
2.27999877929688,-1.29002213478088,2.41078591346741,1.93150854110718,-1.28869796983554,2.41132564607061,1.93059236468599,2156.746,2154.469,2144.856,2149.482,359.105834960938,44.9953880310059,0.35648900270462,-1.0815315246582,-0.465207695960999,0.66073477268219,-1.08549040888332,-0.467056197851165,0.663109152043028,0
2.30001831054688,-1.31171369552612,2.40145540237427,1.94475710391998,-1.31045892272318,2.4019625159737,1.94388579123207,2144.091,2147.367,2152.006,2153.364,359.184631347656,44.9956436157227,0.323908269405365,-1.08458614349365,-0.466521173715591,0.662425696849823,-1.08843572622736,-0.468323485621664,0.66490840044773,0
2.32000732421875,-1.33346128463745,2.39210104942322,1.9580442905426,-1.33224276726637,2.39258953623693,1.95719320193332,2152.246,2150.108,2142.383,2145.705,359.263305664063,44.9952964782715,0.293217450380325,-1.08737218379974,-0.467723220586777,0.664360642433167,-1.09109983431736,-0.469469776906228,0.666535862507326,0
2.33999633789063,-1.35525894165039,2.38272500038147,1.97135865688324,-1.35407709248145,2.38319483607731,1.97053145048929,2139.548,2143.582,2149.315,2149.238,359.343231201172,44.9956398010254,0.260102391242981,-1.08988332748413,-0.468804776668549,0.665716648101807,-1.09348640563071,-0.470496651869278,0.667993781680938,0
2.36001586914063,-1.37710130214691,2.37332963943481,1.9847024679184,-1.3759897762471,2.37376642042246,1.98391756706104,2142.624,2143.771,2144.654,2143.91,359.426086425781,44.995662689209,0.226931944489479,-1.09212005138397,-0.469772726297379,0.667188704013824,-1.09559752564474,-0.471405007833448,0.669283431954129,0
2.3800048828125,-1.39898276329041,2.36391735076904,1.99807465076447,-1.39790843013262,2.36433543599182,1.99730733068585,2147.876,2145.015,2134.433,2139.776,359.507568359375,44.9951171875,0.196004569530487,-1.09407329559326,-0.470619112253189,0.668611347675323,-1.09742594550583,-0.472191725819537,0.67040038511534,0
2.39999389648438,-1.42089772224426,2.35449051856995,2.01146340370178,-1.41986083522252,2.35488992936084,2.01071771239474,2134.945,2138.049,2141.562,2143.747,359.588775634766,44.9953536987305,0.162636995315552,-1.09574723243713,-0.471340090036392,0.669434607028961,-1.09897439291323,-0.472857979480329,0.671346307473475,0
2.42001342773438,-1.44284057617188,2.34505152702332,2.0248703956604,-1.44187496577138,2.34541786398928,2.02416580122331,2137.184,2138.033,2138.067,2138.364,359.671936035156,44.9953918457031,0.129129901528358,-1.09714317321777,-0.471944987773895,0.67035186290741,-1.1002439936861,-0.473404253224357,0.672121886773894,0
2.44000244140625,-1.46480560302734,2.33560299873352,2.03829479217529,-1.46387808506052,2.33595053645515,2.03760716344514,2141.824,2139.204,2128.957,2133.99,359.753448486328,44.9949264526367,0.0978525727987289,-1.09825503826141,-0.472428888082504,0.671223819255829,-1.10123038958312,-0.473828671822132,0.672724460634977,0
2.45999145507813,-1.48678755760193,2.32614731788635,2.05172514915466,-1.48589810917879,2.32647593524532,2.05105885256329,2128.761,2132.282,2136.423,2137.898,359.835052490234,44.995246887207,0.0641727820038795,-1.09909021854401,-0.472789585590363,0.671517074108124,-1.10193535162022,-0.474131997292339,0.673155110942729,0
2.48001098632813,-1.50878047943115,2.31668663024902,2.06516337394714,-1.5079630509786,2.31698200721197,2.06453798119217,2131.175,2132.205,2132.859,2132.563,359.9189453125,44.9953346252441,0.0303415115922689,-1.09964609146118,-0.473034232854843,0.671914458274841,-1.10235904000526,-0.474314298567936,0.673413935565619,0
2.5,-1.53077876567841,2.30722332000732,2.078608751297,-1.52999999932945,2.30750012397766,2.0780000090599,2136.134,2133.482,2123.425,2128.136,0.00141487398650497,44.9948768615723,-0.00120683165732771,-1.09991633892059,-0.473157286643982,0.672272086143494,-1.10250000050292,-0.474374949932098,0.673500046133994,0
2.51998901367188,-1.55277693271637,2.29776048660278,2.09204983711243,-1.5520369476803,2.29801824074336,2.09146203692764,2123.259,2126.714,2130.502,2132.121,0.0839530751109123,44.9951858520508,359.964935302734,-1.09991002082825,-0.473156780004501,0.672051727771759,-1.10235904000526,-0.474314298567936,0.67341393556562,0
2.54000854492188,-1.57476925849915,2.28829979896545,2.10548853874207,-1.57410188948011,2.28852431271001,2.10494116555652,2125.899,2126.571,2126.703,2126.894,0.168518140912056,44.9952507019043,359.930938720703,-1.09962201118469,-0.4730384349823,0.671931326389313,-1.10193535162022,-0.474131997292339,0.673155110942729,0
2.55999755859375,-1.5967503786087,2.27884387969971,2.11892366409302,-1.59612191359838,2.27904971150017,2.11839285467467,2130.686,2127.847,2117.501,2122.462,0.25133091211319,44.9947853088379,359.899230957031,-1.09904730319977,-0.472797840833664,0.671760261058807,-1.10123038958312,-0.473828671822132,0.672724460634977,0
2.58001708984375,-1.61871421337128,2.26939487457275,2.13234400749207,-1.6181586096433,2.26956793682606,2.13185472841265,2117.73,2121.132,2124.684,2126.497,0.334045916795731,44.9951095581055,359.865264892578,-1.09819805622101,-0.47243458032608,0.671015739440918,-1.10024227275454,-0.473403512755585,0.67212083548366,0
2.60000610351563,-1.64065551757813,2.2599561214447,2.14575409889221,-1.64013916343638,2.26011031859448,2.14528230572506,2126.071,2123.497,2115.53,2118.802,0.416150689125061,44.9948196411133,359.833251953125,-1.09706592559814,-0.471953213214874,0.670504331588745,-1.09897439291323,-0.472857979480329,0.671346307473476,0
2.6199951171875,-1.66256880760193,2.25052905082703,2.15914273262024,-1.66209156852628,2.2506648119635,2.15869268743396,2113.521,2117.387,2122.048,2122.548,0.499143123626709,44.9952011108398,359.799072265625,-1.09566223621368,-0.471352458000183,0.669436275959015,-1.09742594550583,-0.472191725819537,0.67040038511534,0
2.6400146484375,-1.68444836139679,2.2411162853241,2.17251205444336,-1.68404365734903,2.24121944141343,2.17210287594018,2116.634,2117.536,2117.671,2117.236,0.584520220756531,44.9952735900879,359.765014648438,-1.09397554397583,-0.470633745193481,0.668468534946442,-1.09559452046326,-0.471403714787811,0.669281596135657,0
2.66000366210938,-1.70628833770752,2.23172044754028,2.18586111068726,-1.70592290617745,2.23180541187802,2.18546856763052,2121.881,2118.614,2107.978,2113.136,0.668042480945587,44.9947662353516,359.733276367188,-1.09200155735016,-0.469791620969772,0.667448043823242,-1.09348640563071,-0.470496651869278,0.667993781680938,0
2.67999267578125,-1.72808349132538,2.22234392166138,2.19917821884155,-1.72775723139253,2.2224107117184,2.19880681618649,2109.267,2112.2,2114.61,2117.218,0.751003324985504,44.9950332641602,359.699432373047,-1.08975648880005,-0.468827545642853,0.665856301784515,-1.09109983431736,-0.469469776906228,0.666535862507326,0
2.70001220703125,-1.74982810020447,2.21298885345459,2.2124650478363,-1.74957429229274,2.21302343991116,2.21213451824191,2111.645,2112.068,2111.308,2112.017,0.835269272327423,44.9950981140137,359.665588378906,-1.08722972869873,-0.467745095491409,0.66434520483017,-1.08843144721369,-0.468321644481621,0.664905786465049,0
2.72000122070313,-1.7715163230896,2.20365834236145,2.22572064399719,-1.77130202882336,2.20367460188472,2.22540765343382,2116.164,2113.13,2102.85,2107.71,0.917396008968353,44.9946784973145,359.634033203125,-1.08441996574402,-0.466541737318039,0.662782788276672,-1.08549040888332,-0.467056197851165,0.663109152043028,0
2.739990234375,-1.79314351081848,2.19435381889343,2.23893427848816,-1.79296822271738,2.1943522439355,2.23864319318939,2103.557,2106.774,2109.778,2111.743,0.999217212200165,44.9950294494629,359.600402832031,-1.08134567737579,-0.465220510959625,0.660676598548889,-1.08227399942825,-0.465672266718727,0.661144297698006,0
2.760009765625,-1.81470322608948,2.18507814407349,2.25210738182068,-1.81460030360772,2.18504456385877,2.25185789384333,2105.931,2106.718,2106.61,2106.529,1.08273220062256,44.9951515197754,359.566833496094,-1.07799315452576,-0.463783204555511,0.658657908439636,-1.07877792518082,-0.464168003639063,0.659008600495412,0
2.77999877929688,-1.83619046211243,2.1758337020874,2.26523947715759,-1.83612684690458,2.17578229366013,2.2650081232283,2110.889,2107.771,2097.821,2102.295,1.16436064243317,44.994743347168,359.535583496094,-1.07436060905457,-0.462226510047913,0.656601190567017,-1.07501419914593,-0.462548577472581,0.656709398992482,0
2.80001831054688,-1.8575998544693,2.16662263870239,2.27831959724426,-1.85760812647542,2.16653949917827,2.27813070170937,2098.531,2101.64,2104.341,2106.39,1.2456841468811,44.9950790405273,359.502319335938,-1.07046842575073,-0.460553705692291,0.654004216194153,-1.07097279461286,-0.460809674005774,0.654240568028104,0
2.82000732421875,-1.87892580032349,2.15744733810425,2.29135203361511,-1.87897323600723,2.1573466894188,2.29118231372639,2106.701,2103.675,2095.785,2099.049,1.32596433162689,44.994815826416,359.471008300781,-1.06629776954651,-0.45876407623291,0.65161669254303,-1.06666760390385,-0.458957270716794,0.65161059420515,0
2.83999633789063,-1.90016329288483,2.14831018447876,2.30432605743408,-1.90024960698239,2.14819206138118,2.30417971674389,2094.675,2098.343,2101.838,2102.615,1.40674018859863,44.9952049255371,359.437896728516,-1.06187212467194,-0.456862390041351,0.648707330226898,-1.06209435025759,-0.456989527434725,0.648816864916866,0
2.86001586914063,-1.921306848526,2.13921332359314,2.31724381446838,-1.9214641634913,2.13906403038149,2.31713935826856,2097.872,2098.262,2097.74,2097.723,1.48925912380219,44.9952812194824,359.405029296875,-1.05717241764069,-0.4548459649086,0.645888924598694,-1.05724722779031,-0.454903946049977,0.645855833439456,0
2.8800048828125,-1.9423508644104,2.1301589012146,2.33010411262512,-1.94254691640495,2.12999271078668,2.33001848303364,2102.815,2099.246,2088.908,2093.8,1.56953966617584,44.9948272705078,359.374450683594,-1.05219852924347,-0.452711671590805,0.643014132976532,-1.0521429102862,-0.45270770082608,0.642737685527497,0
2.89999389648438,-1.96329021453857,2.12114977836609,2.34289622306824,-1.96352501326936,2.1209664217661,2.34283367505136,2090.825,2093.543,2095.101,2097.751,1.64898610115051,44.9951095581055,359.342102050781,-1.04697418212891,-0.450464814901352,0.639611124992371,-1.04677621342161,-0.450398561093403,0.639459254158576,0
2.92001342773438,-1.98411977291107,2.11218762397766,2.35562181472778,-1.98442500350686,2.11197373984504,2.35560115294953,2093.346,2093.316,2092.02,2092.91,1.72920525074005,44.9952011108398,359.309906005859,-1.04148149490356,-0.448104977607727,0.636283338069916,-1.04114045847258,-0.4479736531836,0.636016459404434,0
2.94000244140625,-2.00483441352844,2.10327506065369,2.36827993392944,-2.00517798053537,2.10304431360073,2.36827882277243,2097.546,2094.254,2084.413,2088.895,1.80698680877686,44.9948310852051,359.279998779297,-1.03572261333466,-0.445631414651871,0.632901191711426,-1.03525504859546,-0.445441325732794,0.632421154350513,0
2.95999145507813,-2.02542877197266,2.09441375732422,2.38086032867432,-2.02581075424974,2.0941666074844,2.38088306226645,2085.695,2088.613,2090.807,2092.82,1.88421380519867,44.9951972961426,359.248291015625,-1.02972269058228,-0.443050444126129,0.629022061824799,-1.02911391720548,-0.442798968459032,0.628669633014836,0
2.98001098632813,-2.04589796066284,2.08560657501221,2.39336490631104,-2.04634944795115,2.08532938136936,2.39342982974865,2088.28,2088.616,2087.787,2087.875,1.9625529050827,44.9953193664551,359.216918945313,-1.02346122264862,-0.440360277891159,0.625226259231567,-1.02270954399162,-0.440043345582586,0.624757301356766,0
3,-2.06623649597168,2.07685565948486,2.40579271316528,-2.06672639957428,2.07656174835205,2.40587779151916,2092.821,2089.363,2079.952,2084.167,2.03866863250732,44.9949645996094,359.187744140625,-1.0169403553009,-0.43755903840065,0.621387004852295,-1.01606400046349,-0.437183953857422,0.620697642517089,0
3.01998901367188,-2.0864405632019,2.06816244125366,2.41813397407532,-2.0869680292999,2.06785234056679,2.41824308725414,2081.517,2084.097,2085.748,2087.98,2.11410760879517,44.9952812194824,359.156921386719,-1.01018619537354,-0.434653609991074,0.617063403129578,-1.00917036754089,-0.434217816196637,0.616486429737696,0
3.04000854492188,-2.10650396347046,2.05952978134155,2.43039011955261,-2.10709998486405,2.05919012250926,2.43054138475531,2083.901,2083.983,2082.907,2083.348,2.19035768508911,44.9953956604004,359.126373291016,-1.00317752361298,-0.43164137005806,0.612808227539063,-1.00202031904361,-0.431141350077486,0.612118576685011,0
3.05999755859375,-2.1264226436615,2.05095911026001,2.44256043434143,-2.12705600675913,2.05060360379452,2.44273220712343,2088.449,2084.857,2075.309,2079.541,2.26416277885437,44.995044708252,359.098083496094,-0.995916962623596,-0.428521484136581,0.608513712882996,-0.994638524886308,-0.427965170275055,0.607609153824944,0
3.08001708984375,-2.14619135856628,2.04245328903198,2.45463538169861,-2.14689219650438,2.04206864550612,2.45484982590117,2077.132,2079.755,2081.23,2083.369,2.33717584609985,44.9953804016113,359.068267822266,-0.988432765007019,-0.425301641225815,0.603743255138397,-0.987005430654711,-0.424680863071165,0.602946215670947,0
3.10000610351563,-2.16580510139465,2.03401374816895,2.46661853790283,-2.16654331551667,2.03361331798384,2.46685438785611,2084.756,2081.308,2073.884,2076.809,2.40862798690796,44.995174407959,359.040344238281,-0.980697691440582,-0.421976447105408,0.599157929420471,-0.979147395688901,-0.421299770153459,0.598145864732551,0
3.1199951171875,-2.18526029586792,2.02564263343811,2.47850108146667,-2.18603502400946,2.02522658035469,2.47876156841225,2074.009,2077.026,2079.151,2080.096,2.48003745079041,44.9955558776855,359.011138916016,-0.972745895385742,-0.418556213378906,0.594121813774109,-0.971056158224178,-0.417818336715394,0.593203054026623,0
3.1400146484375,-2.20455145835876,2.01734185218811,2.49028420448303,-2.20539207344272,2.01689778275692,2.49058648785022,2076.968,2076.821,2075.757,2075.903,2.55240511894226,44.9956474304199,358.982299804688,-0.964552879333496,-0.415034979581833,0.589162051677704,-0.962722140342815,-0.41423244164655,0.588111932552684,0
3.16000366210938,-2.22367382049561,2.00911355018616,2.50196719169617,-2.22455088103183,2.00865428308644,2.50229030443911,2081.481,2077.711,2068.244,2072.394,2.62224721908569,44.9952812194824,358.955718994141,-0.956122577190399,-0.411411792039871,0.584155440330505,-0.954174163352092,-0.410554485950274,0.582890106797601,0
3.17999267578125,-2.2426233291626,2.0009593963623,2.51354122161865,-2.24353658854737,2.00048526354177,2.51388837689424,2071.106,2073.015,2073.42,2076.096,2.69084358215332,44.9955596923828,358.927856445313,-0.947484493255615,-0.40769499540329,0.57870215177536,-0.945403214201559,-0.406780591562751,0.577532070829503,0
3.20001220703125,-2.2613959312439,1.99288189411163,2.52500748634338,-2.26237335188561,1.99238033051557,2.52539546167567,2073.38,2072.881,2070.968,2071.871,2.75945663452148,44.9956550598145,358.900390625,-0.938615918159485,-0.403881102800369,0.573307693004608,-0.93639902618694,-0.402906341007952,0.572031552878955,0
3.22000122070313,-2.27998638153076,1.98488259315491,2.53636479377747,-2.28099938900442,1.98436606709459,2.53677381709797,2077.163,2073.457,2064.653,2068.618,2.82533693313599,44.9953804016113,358.875,-0.929522693157196,-0.399970978498459,0.567869663238525,-0.927192788821982,-0.398945154262308,0.566407606133204,0
3.239990234375,-2.29839086532593,1.97696328163147,2.54760527610779,-2.2994392795179,1.97643189735754,2.54803845846384,2067.069,2069.163,2069.965,2071.952,2.89016842842102,44.9957122802734,358.848419189453,-0.920234024524689,-0.395974010229111,0.562019646167755,-0.917774783907129,-0.394892849856044,0.560654293895788,0
3.260009765625,-2.31660556793213,1.96912527084351,2.55873012542725,-2.31771654397337,1.96856770107001,2.5592037541086,2069.454,2069.047,2067.533,2067.9,2.95522332191467,44.995849609375,358.822357177734,-0.910726547241211,-0.391885638237,0.556238293647766,-0.908134108040216,-0.390744736359816,0.55476495544847,0
3.27999877929688,-2.33462572097778,1.96137118339539,2.56973838806152,-2.33577134012187,1.96079922667992,2.57023314733618,2073.18,2069.757,2061.372,2064.721,3.0177845954895,44.9955978393555,358.798400878906,-0.90100622177124,-0.387706488370895,0.550417125225067,-0.898304216251578,-0.386515208538549,0.548760027947228,0
3.30001831054688,-2.35244750976563,1.95370256900787,2.58062267303467,-2.35365475236716,1.95310449399547,2.58115784481168,2063.851,2065.528,2066.079,2068.167,3.07926845550537,44.9959030151367,358.773315429688,-0.891102194786072,-0.383445113897324,0.544209122657776,-0.88825927318574,-0.382193150160541,0.542623728976554,0
3.32000732421875,-2.37006711959839,1.94612050056458,2.59138560295105,-2.37130830610839,1.94550866300381,2.59194212531393,2070.475,2066.886,2059.942,2062.515,3.13880753517151,44.9957504272461,358.750122070313,-0.880986630916595,-0.37909471988678,0.538150370121002,-0.878034183119985,-0.377793579561194,0.536377381014769,0
3.33999633789063,-2.38748097419739,1.93862736225128,2.60201978683472,-2.38875555478454,1.93800159931817,2.60260037727124,2061.237,2063.411,2064.453,2065.523,3.19779109954834,44.99609375,358.726013183594,-0.870696663856506,-0.374667704105377,0.531714737415314,-0.867618167158097,-0.373311858882592,0.530014399402376,0
3.36001586914063,-2.40468525886536,1.93122410774231,2.61252689361572,-2.40601888046917,1.93057367255756,2.6131462735431,2064.085,2063.261,2061.555,2061.951,3.25693225860596,44.9961891174316,358.702484130859,-0.860207438468933,-0.370157271623611,0.525350272655487,-0.856999388527103,-0.368742895092007,0.523527553239473,0
3.3800048828125,-2.42167544364929,1.92391288280487,2.62290573120117,-2.42304196557559,1.92324911460621,2.6235454105946,2067.791,2064.03,2055.549,2059.058,3.31332325935364,44.9959144592285,358.681030273438,-0.849526226520538,-0.365564316511154,0.518942713737488,-0.846214826007803,-0.364102599125748,0.516939432286212,0
3.39999389648438,-2.4384491443634,1.91669487953186,2.63314914703369,-2.43984769972619,1.91601807669906,2.63381177133889,2059.213,2060.297,2059.823,2062.271,3.36811375617981,44.9961624145508,358.658752441406,-0.838682591915131,-0.360898107290268,0.512175440788269,-0.835253140422974,-0.35938609205264,0.510243109616171,0
3.42001342773438,-2.45500230789185,1.90957164764404,2.64325833320618,-2.45645774020782,1.90887124031063,2.64395858587455,2061.175,2060.151,2057.961,2058.879,3.42230772972107,44.9962730407715,358.637023925781,-0.827655136585236,-0.356154531240463,0.505457997322083,-0.824102019042908,-0.354588076049064,0.503431063574906,0
3.44000244140625,-2.47133159637451,1.90254497528076,2.65323257446289,-2.47281804716281,1.90183185728196,2.6539528420958,2064.452,2060.831,2052.889,2056.05,3.47363996505737,44.9960632324219,358.617340087891,-0.816451132297516,-0.351335644721985,0.498711317777634,-0.812800388649434,-0.349725300221754,0.496527073925997,0
3.45999145507813,-2.48743343353271,1.89561605453491,2.66306519508362,-2.48895081463434,1.8948903781363,2.66380809799729,2056.139,2057.298,2057.279,2059.162,3.5235538482666,44.9963722229004,358.596862792969,-0.80510014295578,-0.346451103687286,0.49163544178009,-0.80133641229185,-0.344792671461508,0.489523909660973,0
3.48001098632813,-2.50330519676208,1.8887859582901,2.67275762557983,-2.50487694859767,1.88803780761656,2.67353712471306,2058.371,2057.364,2055.313,2055.77,3.57298350334167,44.9965019226074,358.577056884766,-0.793580174446106,-0.341496080160141,0.484623610973358,-0.789697369743255,-0.339784716610052,0.482413800191712,0
3.5,-2.51894283294678,1.88205659389496,2.68230938911438,-2.5205447997813,1.88129636896134,2.68310837050915,2061.495,2057.958,2050.467,2053.304,3.61968493461609,44.9963111877441,358.559234619141,-0.781899571418762,-0.336472481489182,0.47758361697197,-0.777924000354857,-0.334718964672089,0.475221632552147,0
3.51998901367188,-2.53434491157532,1.87542867660522,2.6917142868042,-2.53597583877076,1.87465682397749,2.69253495143119,2054.017,2054.789,2054.288,2056.188,3.66483569145203,44.99658203125,358.540832519531,-0.770086467266083,-0.331389367580414,0.470242589712143,-0.766004036374581,-0.329590137176618,0.467939912563966,0
3.54000854492188,-2.54950714111328,1.86890387535095,2.70097327232361,-2.55119019794619,1.86811051026429,2.70182916603607,2055.903,2054.716,2052.636,2053.281,3.70927548408508,44.9967155456543,358.523010253906,-0.758121192455292,-0.326242446899414,0.462953239679337,-0.753924423002452,-0.324392617007921,0.460560665253582,0
3.55999755859375,-2.56442737579346,1.86248338222504,2.71008634567261,-2.56613872308604,1.86167857751006,2.71096098677687,2059.169,2055.442,2047.963,2050.786,3.75083255767822,44.9965324401855,358.507171630859,-0.746011018753052,-0.321033656597137,0.455649346113205,-0.741727567798258,-0.319144650954242,0.45310979673751,0
3.58001708984375,-2.57910299301147,1.85616779327393,2.71904754638672,-2.58086439685043,1.85534253147694,2.71995667108993,2051.92,2052.459,2051.772,2053.684,3.79066038131714,44.9968070983887,358.490844726563,-0.733784914016724,-0.315772771835327,0.448059260845184,-0.729381927869994,-0.313832666990361,0.445568037955247,0
3.60000610351563,-2.59353160858154,1.84995889663696,2.72785925865173,-2.59531978247425,1.84912278287974,2.72878724059568,2056.995,2053.586,2047.596,2049.421,3.82818365097046,44.9967422485352,358.476287841797,-0.721419453620911,-0.310453623533249,0.440591216087341,-0.716930938559024,-0.308475354130224,0.437961922879033,0
3.6199951171875,-2.60771036148071,1.84385716915131,2.73651671409607,-2.60952509409627,1.84301063413925,2.73746504379605,2050.382,2051.061,2050.935,2052.019,3.8644917011261,44.9970436096191,358.461334228516,-0.708948910236359,-0.305088132619858,0.432867407798767,-0.704361775018033,-0.303067194200314,0.43028361700977,0
3.6400146484375,-2.62163734436035,1.83786368370056,2.74502086639404,-2.62349913748426,1.83699799365897,2.74600156884113,2052.718,2051.337,2048.939,2049.259,3.90001249313354,44.9971504211426,358.447235107422,-0.69635421037674,-0.299671143293381,0.425207585096359,-0.691660998977508,-0.297602405088683,0.422524911118315,0
3.66000366210938,-2.63531017303467,1.83197963237762,2.75337147712708,-2.63719712493647,1.83110413233575,2.75436945562281,2055.606,2051.866,2044.771,2047.453,3.93259191513062,44.9969673156738,358.435028076172,-0.683644652366638,-0.294204652309418,0.417529731988907,-0.678873453515702,-0.29210028151913,0.414713199141411,0
3.67999267578125,-2.64872741699219,1.82620584964752,2.76156377792358,-2.65063849381582,1.82532068681534,2.76258057812278,2049.492,2049.389,2048,2050.04,3.96310424804688,44.9971961975098,358.422546386719,-0.670846819877625,-0.288697689771652,0.40960967540741,-0.665986083416798,-0.286555206197011,0.406840505851433,0
3.70001220703125,-2.66188621520996,1.82054281234741,2.76959872245789,-2.66384123964357,1.81963991412768,2.77064592952416,2051.201,2049.451,2046.831,2047.717,3.99220728874207,44.9973220825195,358.410797119141,-0.657944798469543,-0.283147156238556,0.401743143796921,-0.65298533214413,-0.280961346123326,0.398898549771683,0
