t,x_s1,x_s2,x_s3,x_s_d1,x_s_d2,x_s_d3,propellers_rpms1,propellers_rpms2,propellers_rpms3,propellers_rpms4,rollRad,pitchRad,yawRad,v_s1,v_s2,v_s3,v_s_d1,v_s_d2,v_s_d3,insideCount
0,-0.0599999986588955,2.94000005722046,1.17999994754791,-0.0599999986588955,2.94000005722046,1.17999994754791,0,0,0,0,0,45.0048027038574,0,0,0,0,-1.06581410364015E-15,4.44089209850063E-16,-7.105427357601E-16,0
0.02001953125,-0.0599999986588955,2.94000005722046,1.1790189743042,-0.0600018744611685,2.93999925011514,1.18000109344625,0,0,0,0,0.00112506025470793,44.8630180358887,0.909283995628357,-3.60929135467813E-08,2.95208444356376E-08,-0.0490499772131443,-0.000280531511337879,-0.000120704872184653,0.000171372322667033,5
0.040008544921875,-0.0599999986588955,2.94000005722046,1.17411398887634,-0.060014880898484,2.93999365380853,1.18000903887584,0,0,0,0,0.00304076820611954,44.7212371826172,1.81856417655945,-3.62307304158094E-08,2.93641413406931E-08,-0.245249927043915,-0.00111143977225461,-0.000478221483967637,0.000678961213193342,6
0.05999755859375,-0.0600350871682167,2.94003486633301,1.16684293746948,-0.0600498857373401,2.93997859220429,1.18003042278566,2306.73,2000.029,2128.107,3382.462,-0.00213784934021533,44.804630279541,1.28305900096893,-0.001754448749125,0.00174327113199979,-0.363552272319794,-0.00247936261166862,-0.00106680046642749,0.00151460392977639,6
0.08001708984375,-0.0601342245936394,2.9401330947876,1.15967178344727,-0.0601176241590912,2.9399494462538,1.18007180313047,2848.217,2759.985,2606.639,2299.039,359.914581298828,44.8777198791504,0.619780540466309,-0.00495691411197186,0.00491336127743125,-0.358560711145401,-0.00437432711648753,-0.0018821507536715,0.0026722081754323,6
0.100006103515625,-0.0602752529084682,2.94026303291321,1.15338182449341,-0.0602282404704493,2.93990185114529,1.18013937690895,2872.662,2897.842,2627.271,2213.191,359.725341796875,44.918773651123,0.190057426691055,-0.00705138081684709,0.00649342220276594,-0.314497858285904,-0.00677739276378709,-0.00291612276782231,0.00414020348026766,5
0.1199951171875,-0.0604443326592445,2.94038772583008,1.14806056022644,-0.0603918861403606,2.93983143898525,1.18023934549506,2725.721,2926.521,2634.744,2219.519,359.428161621094,44.9350967407227,0.0501747280359268,-0.0084540406242013,0.00623597018420696,-0.266063898801804,-0.00967801353495435,-0.00416417885169243,0.00591214744607921,5
0.1400146484375,-0.060651108622551,2.94048070907593,1.14373052120209,-0.0606187761383957,2.93973381455767,1.18037794905431,2551.687,2769.946,2667.626,2379.493,359.090911865234,44.9478530883789,0.143964201211929,-0.0103388940915465,0.00465159583836794,-0.216504901647568,-0.0130687916036232,-0.00562313592726786,0.00798352085618068,5
0.160003662109375,-0.0609208382666111,2.94052791595459,1.14032292366028,-0.0609177895434042,2.93960515744296,1.18056061167741,2443.822,2553.843,2686.699,2529.105,358.804656982422,44.9652709960938,0.34052363038063,-0.0134864039719105,0.00236027268692851,-0.170377567410469,-0.0169265510445065,-0.00728302204135792,0.0103401658994673,5
0.17999267578125,-0.061280332505703,2.94052505493164,1.13772809505463,-0.0612985250199726,2.93944133760391,1.18079319703879,2416.791,2394.824,2655.253,2596.697,358.625274658203,44.9838752746582,0.518742382526398,-0.0179747696965933,-0.000141291180625558,-0.129742503166199,-0.0212433804254414,-0.00914043312572283,0.0129772496054864,5
0.20001220703125,-0.0617479979991913,2.94047331809998,1.13583779335022,-0.0617708265342762,2.93923811945689,1.18108171866376,2450.288,2337.74,2562.332,2580.271,358.550903320313,44.9966087341309,0.61789345741272,-0.0233832448720932,-0.00258789607323706,-0.0945177525281906,-0.0260142813927851,-0.0111932185284278,0.0158917185579952,5
0.220001220703125,-0.0623316280543804,2.94037485122681,1.13456833362579,-0.0623420644491781,2.93899233174064,1.18143067899198,2497.555,2360.291,2442.25,2515.899,358.525970458984,44.9992218017578,0.641204655170441,-0.0291815139353275,-0.00491975201293826,-0.0634705051779747,-0.03121219533433,-0.0134297356845702,0.0190670430730375,5
0.240020751953125,-0.0630324929952621,2.94023036956787,1.13386476039886,-0.0630225615075555,2.93869953286731,1.181846384026,2511.469,2407.975,2348.687,2446.737,358.476776123047,44.9927177429199,0.627829015254974,-0.0350433960556984,-0.00722752325236797,-0.0351774655282497,-0.0368405636651345,-0.0158514653389075,0.0225053254573701,5
0.260009765625,-0.063851572573185,2.94003653526306,1.13368928432465,-0.0638185570309634,2.93835703823113,1.18233264526998,2476.161,2437.452,2310.899,2396.759,358.355987548828,44.9817428588867,0.61937415599823,-0.04095409065485,-0.00968841928988695,-0.00877618975937366,-0.0428699302682246,-0.0184457333472145,0.0261885714287875,4
0.279998779296875,-0.064794160425663,2.93978691101074,1.1340104341507,-0.0647390625194898,2.93796097043536,1.18289496770872,2398.095,2428.702,2331.812,2372.878,358.162475585938,44.9715118408203,0.638495445251465,-0.0471293702721596,-0.0124859539791942,0.0160579103976488,-0.0492963837173861,-0.0212108567320638,0.0301143915580518,4
0.300018310546875,-0.0658707842230797,2.93947219848633,1.13479340076447,-0.0657936070281142,2.93750722939386,1.18353917249319,2313.302,2391.075,2375.998,2364.051,357.939697265625,44.9650230407715,0.685124158859253,-0.0538313761353493,-0.0157350674271584,0.0391475930809975,-0.0561185469977389,-0.0241462430024218,0.0342819446482607,4
0.32000732421875,-0.0670947059988976,2.93908357620239,1.1359988451004,-0.0669865614821475,2.93699393441958,1.18426792975347,2255.511,2343.955,2403.642,2358.306,357.744506835938,44.9626541137695,0.745608031749725,-0.0611962080001831,-0.0194290317595005,0.0602726079523563,-0.0633036493784043,-0.0272377918282996,0.0386712115712976,4
0.339996337890625,-0.0684781521558762,2.9386146068573,1.13758623600006,-0.068326768706371,2.93641728069206,1.18508664143323,2238.901,2303.135,2393.144,2348.716,357.614471435547,44.963207244873,0.803946793079376,-0.0691723600029945,-0.0234475396573544,0.0793672576546669,-0.0708499516420146,-0.0304847548730522,0.0432811298664125,4
0.360015869140625,-0.0700295716524124,2.93806219100952,1.13951551914215,-0.0698237345322385,2.93577317811757,1.18600111449656,2261.572,2279.167,2341.32,2330.799,357.552307128906,44.9647407531738,0.850429773330688,-0.0775711461901665,-0.027617871761322,0.0964630171656609,-0.0787580297418618,-0.0338873799532906,0.048112051374484,4
0.3800048828125,-0.0717532709240913,2.93742632865906,1.14175164699554,-0.0714797725314022,2.93506063123087,1.18701276226829,2298.334,2269.977,2272.34,2308.219,357.525268554688,44.9657363891602,0.884527444839478,-0.0861850455403328,-0.031794860959053,0.111804038286209,-0.0869921272359981,-0.0374302820709642,0.0531421330430943,4
0.399993896484375,-0.0736512541770935,2.93670773506165,1.14426577091217,-0.0733036822025899,2.9342758538535,1.18812696022487,2316.326,2265.771,2221.793,2287.269,357.48681640625,44.9656372070313,0.911285996437073,-0.0948991179466248,-0.0359249860048294,0.125703558325768,-0.0955525119207663,-0.0411135764513579,0.0583715384648505,4
0.420013427734375,-0.0757258161902428,2.93590664863586,1.14703214168549,-0.0753050585276311,2.93341471753282,1.18934956979097,2304.324,2261.819,2204.109,2268.481,357.40673828125,44.9645919799805,0.936929047107697,-0.103728264570236,-0.0400601997971535,0.138316929340363,-0.104441553474511,-0.0449382827008623,0.0638017152392751,4
0.44000244140625,-0.0779814422130585,2.93502044677734,1.15002822875977,-0.077483988232608,2.93247718495301,1.19068064394622,2265.48,2253.818,2218.162,2253.858,357.282562255859,44.9632568359375,0.965988755226135,-0.11278123408556,-0.0443131141364574,0.149805009365082,-0.113620829717891,-0.048887868829098,0.0694091918565748,4
0.46002197265625,-0.0804250910878181,2.93404459953308,1.15323424339294,-0.0798530997696509,2.93145782244394,1.19212789721494,2213.646,2239.562,2250.666,2244.392,357.137542724609,44.9624671936035,0.999051868915558,-0.122182510793209,-0.0487890616059303,0.160298049449921,-0.123107133063502,-0.0529695601420796,0.0752042265395641,4
0.480010986328125,-0.0830648988485336,2.93297410011292,1.15662968158722,-0.0824109101018722,2.93035726811493,1.19369042363305,2178.857,2226.04,2269.599,2234.853,357.008819580078,44.9625473022461,1.03408670425415,-0.131990477442741,-0.0535279847681522,0.16977122426033,-0.132860437136906,-0.0571661344090936,0.0811623678006979,4
0.5,-0.0859083533287048,2.93180441856384,1.1601973772049,-0.085166398670376,2.92917165836334,1.195373708601,2166.752,2212.381,2267.651,2227.978,356.919982910156,44.9636573791504,1.06824314594269,-0.142172545194626,-0.0584846213459969,0.17838454246521,-0.142884000065179,-0.0614789935111996,0.0872856059789651,5
0.52001953125,-0.0889608040452003,2.93053317070007,1.16392028331757,-0.0881295333471192,2.92789670429234,1.19718384133622,2182.015,2204.033,2238.475,2219.556,356.875579833984,44.9654006958008,1.09930181503296,-0.152622878551483,-0.063558503985405,0.186147555708885,-0.153182839569029,-0.0659102964334391,0.0935770063216458,5
0.540008544921875,-0.0922253280878067,2.92916011810303,1.16778409481049,-0.0912963635428427,2.92653410573011,1.19911840848537,2209.309,2200.252,2197.133,2210.957,356.856048583984,44.9672241210938,1.1273980140686,-0.163226291537285,-0.0686478018760681,0.193190008401871,-0.163714777034477,-0.0704418948965508,0.100010802571645,5
0.55999755859375,-0.0957037359476089,2.92768597602844,1.17177772521973,-0.094676112580471,2.92507989413848,1.20118304443252,2224.159,2196.063,2169.615,2205.051,356.831146240234,44.968864440918,1.15345573425293,-0.173920571804047,-0.0737017020583153,0.199680805206299,-0.17448465888317,-0.0750758741803766,0.106589955332319,5
0.58001708984375,-0.0993980094790459,2.92611122131348,1.17589020729065,-0.0982790918331175,2.92352963282165,1.20338404823457,2222.267,2193.609,2160.939,2198.444,356.7822265625,44.9700546264648,1.1785204410553,-0.18471372127533,-0.0787387862801552,0.205625176429749,-0.185498893714783,-0.0798149917263209,0.113318379517207,5
0.600006103515625,-0.103311374783516,2.92443466186523,1.18011271953583,-0.102098762959148,2.92188613504538,1.20571742572067,2204.048,2191.208,2171.155,2192.617,356.706329345703,44.9708518981934,1.20403075218201,-0.19566798210144,-0.083824135363102,0.211124569177628,-0.196713446836865,-0.0846403006364086,0.120169175019836,5
0.6199951171875,-0.107448525726795,2.9226541519165,1.18443882465363,-0.106144683970236,2.92014528826426,1.208189015731,2173.816,2185.265,2196.467,2190.024,356.615936279297,44.9717102050781,1.23004400730133,-0.206858098506927,-0.0890269726514816,0.216307982802391,-0.208134604141382,-0.0895545055543457,0.127146181793521,5
0.6400146484375,-0.111814901232719,2.92076659202576,1.18886160850525,-0.110427588881679,2.91830247393137,1.21080537550798,2153.699,2181.056,2213.197,2186.49,356.535522460938,44.9728469848633,1.25551974773407,-0.218318611383438,-0.0943807810544968,0.221139878034592,-0.21977002223474,-0.0945609009039674,0.134254077139634,5
0.660003662109375,-0.116415433585644,2.91876935958862,1.19337558746338,-0.114938248900541,2.91636166293851,1.21356086732604,2152.066,2179.042,2211.764,2183.138,356.481292724609,44.9743461608887,1.28008508682251,-0.230027243494987,-0.0998636856675148,0.225701197981834,-0.231574097577923,-0.0996398647564507,0.141465002567821,5
0.67999267578125,-0.121253907680511,2.91666102409363,1.19797801971436,-0.119686638739014,2.91431856344567,1.2164615845812,2160.768,2175.724,2200.486,2182.739,356.453338623047,44.9762840270996,1.30304455757141,-0.241923823952675,-0.105416223406792,0.230123087763786,-0.243554411173546,-0.104794659005432,0.14878358919428,5
0.70001220703125,-0.126332625746727,2.91444158554077,1.20266509056091,-0.124683985757554,2.91216834463331,1.21951438589277,2179.512,2175.897,2178.952,2180.753,356.442840576172,44.9782905578613,1.32385182380676,-0.253935813903809,-0.110975511372089,0.234355881810188,-0.255719729227087,-0.11002905550423,0.156215192157144,5
0.720001220703125,-0.131652995944023,2.91211152076721,1.20743465423584,-0.129918284978346,2.90991617190799,1.22271193760712,2196.279,2178.089,2159.571,2178.728,356.43212890625,44.9800300598145,1.34346628189087,-0.266018956899643,-0.116505786776543,0.238478064537048,-0.268023157655716,-0.11532287703907,0.163731164592979,5
0.740020751953125,-0.137216553092003,2.90967130661011,1.21228682994843,-0.135408560960145,2.90755385953358,1.22606586153034,2195.352,2177.02,2159.716,2179.672,356.4052734375,44.981517791748,1.362419962883,-0.278178036212921,-0.122013911604881,0.242608278989792,-0.280492548100696,-0.120688107393104,0.171348520634816,5
0.760009765625,-0.143025457859039,2.9071204662323,1.21721982955933,-0.141140917956636,2.9050873864615,1.22956766896782,2188.672,2178.834,2166.609,2177.99,356.362701416016,44.982608795166,1.38098382949829,-0.290445595979691,-0.127538919448853,0.246649831533432,-0.293080296154222,-0.126104263719567,0.179038179492781,5
0.779998779296875,-0.149082839488983,2.90445804595947,1.22223520278931,-0.147126184485884,2.90251209348295,1.2332239748923,2170.625,2176.677,2186.89,2179.692,356.310455322266,44.9836692810059,1.39918339252472,-0.302869558334351,-0.133125260472298,0.250766158103943,-0.305795832832518,-0.131575403921268,0.186805902427515,5
0.800018310546875,-0.155392184853554,2.90168213844299,1.22733247280121,-0.153376545303595,2.89982273783796,1.23704222278088,2160.529,2176.804,2199.571,2179.488,356.265350341797,44.984806060791,1.41617810726166,-0.3154676258564,-0.138795390725136,0.254866302013397,-0.318649478366155,-0.137105968505107,0.194657993906831,5
0.82000732421875,-0.161956652998924,2.89879131317139,1.23251259326935,-0.159875221826383,2.89702653888221,1.24101216285881,2163.1,2178.853,2199.232,2179.041,356.237426757813,44.9860610961914,1.432208776474,-0.328222662210464,-0.144536152482033,0.259006828069687,-0.331592781842754,-0.14267511039705,0.202564856024417,5
0.839996337890625,-0.168778568506241,2.8957850933075,1.23777866363525,-0.166633637018892,2.89411858163313,1.24514077323692,2168.763,2177.965,2196.216,2181.828,356.225402832031,44.9876098632813,1.44695019721985,-0.341096967458725,-0.150310590863228,0.263302028179169,-0.344636106234817,-0.148287288494656,0.210532819358465,5
0.860015869140625,-0.175859391689301,2.89266347885132,1.24313163757324,-0.173664618315387,2.89109334680413,1.24943588999465,2182.545,2180.204,2184.421,2182.428,356.225463867188,44.989143371582,1.45978593826294,-0.354041129350662,-0.156079351902008,0.267647385597229,-0.357790534090669,-0.153947271308859,0.218568654064807,5
0.8800048828125,-0.183199867606163,2.88942718505859,1.24857354164124,-0.180948461186242,2.88795931270381,1.25388547594233,2196.386,2184.219,2172.189,2182.589,356.226348876953,44.9904365539551,1.47161936759949,-0.36702361702919,-0.161818623542786,0.272092491388321,-0.371007022483504,-0.159633957038354,0.226642400584755,5
0.899993896484375,-0.190800815820694,2.8860764503479,1.25410842895508,-0.18849723509595,2.8847112861788,1.25849690412748,2195.698,2184.043,2175.84,2185.936,356.216613769531,44.9915466308594,1.48273074626923,-0.38004669547081,-0.167531862854958,0.276742935180664,-0.384296738353309,-0.165352150505452,0.234760880627692,5
0.920013427734375,-0.198663353919983,2.88261151313782,1.25973784923553,-0.196324452211266,2.88134345332121,1.26327842892191,2191.624,2186.065,2183.173,2186.726,356.198120117188,44.9923820495605,1.49271512031555,-0.393126964569092,-0.173243686556816,0.281472325325012,-0.397671404529394,-0.171106895716105,0.242931255487113,5
0.94000244140625,-0.206789076328278,2.87903189659119,1.26546430587769,-0.204407453948074,2.87786556348678,1.26821620855017,2187.42,2189.145,2190.736,2187.053,356.175933837891,44.9930038452148,1.50229203701019,-0.406286358833313,-0.178979963064194,0.286325365304947,-0.411081631631503,-0.176876941799768,0.251123353961324,5
0.96002197265625,-0.215179860591888,2.87533688545227,1.27129232883453,-0.21277195700315,2.87426655149935,1.27332595294102,2178.002,2187.804,2204.68,2190.677,356.155181884766,44.9937705993652,1.51120376586914,-0.419539868831635,-0.184753954410553,0.291403561830521,-0.424559845004915,-0.182676240476657,0.259356984187769,5
0.980010986328125,-0.223837286233902,2.87152576446533,1.27722322940826,-0.221393324468958,2.87055701793193,1.27859261179209,2182.055,2191.127,2204.067,2190.569,356.146179199219,44.994556427002,1.51893424987793,-0.432871848344803,-0.190559163689613,0.296546816825867,-0.438056556301695,-0.188483498293199,0.267601914506946,5
1,-0.232762515544891,2.86759829521179,1.28326177597046,-0.230284798736574,2.86673126495361,1.28402427467346,2183.986,2190.388,2206.067,2194.234,356.146881103516,44.9955520629883,1.52532362937927,-0.446261346340179,-0.196374148130417,0.301926851272583,-0.451584000205995,-0.194303979492187,0.275865618896484,5
1.02001953125,-0.241955950856209,2.86355471611023,1.28940975666046,-0.239461107372567,2.86278295570393,1.28962993842572,2193.692,2193.072,2199.2,2195.052,356.157287597656,44.9964981079102,1.52972340583801,-0.459671318531036,-0.202173888683319,0.307398587465286,-0.465154707681581,-0.200143075797255,0.284155752326605,5
1.04000854492188,-0.251417428255081,2.85939598083496,1.29566979408264,-0.248894644448595,2.85872396824263,1.29539273901802,2205.413,2197.524,2189.525,2195.263,356.170135498047,44.9972038269043,1.53320360183716,-0.473075181245804,-0.207940220832825,0.313004165887833,-0.47871923339115,-0.205979512261105,0.292442109412331,5
1.05999755859375,-0.26114684343338,2.85512256622314,1.30204677581787,-0.258599401509697,2.85454828239877,1.3013212236669,2204.347,2196.947,2193.78,2199.07,356.175964355469,44.9978370666504,1.53602874279022,-0.486471474170685,-0.213672429323196,0.318849235773087,-0.492290296490434,-0.211818761581115,0.30073246008742,5
1.08001708984375,-0.271144181489944,2.85073494911194,1.30854225158691,-0.268590868588476,2.85024923324404,1.30742485499156,2202.948,2198.969,2198.099,2199.856,356.177185058594,44.9982604980469,1.53762471675873,-0.499865502119064,-0.219384983181953,0.324773490428925,-0.505880764601332,-0.21766636033551,0.309034664981295,5
1.10000610351563,-0.281409531831741,2.84623312950134,1.31515848636627,-0.278838480013141,2.84583997233313,1.31368496090006,2202.466,2202.263,2201.172,2199.959,356.176239013672,44.998477935791,1.53881144523621,-0.513268232345581,-0.225093811750412,0.330813884735107,-0.519441457145546,-0.223501147495394,0.317318680446121,5
1.1199951171875,-0.291943311691284,2.84161686897278,1.32190001010895,-0.289357002179081,2.84131414609862,1.32011056195293,2194.275,2200.43,2213.09,2203.64,356.174743652344,44.9988288879395,1.53940045833588,-0.52669084072113,-0.230808094143867,0.337073802947998,-0.532985466132485,-0.229328756186667,0.32559250418615,5
1.1400146484375,-0.302745759487152,2.83688640594482,1.32876777648926,-0.300162704591434,2.83666475422696,1.32671159693698,2194.589,2201.862,2215.605,2204.161,356.181549072266,44.9992294311523,1.53839313983917,-0.540122389793396,-0.236526131629944,0.343388795852661,-0.54652589017629,-0.235154822377061,0.33386413794036,5
1.16000366210938,-0.313816577196121,2.83204174041748,1.33576369285583,-0.311222084148811,2.83190621216671,1.33346759933036,2202.563,2205.276,2209.401,2203.955,356.197570800781,44.9995727539063,1.53649592399597,-0.553540647029877,-0.242232248187065,0.349798649549484,-0.560014026276883,-0.240958390526247,0.342103829805999,6
1.17999267578125,-0.325155138969421,2.82708358764648,1.34289193153381,-0.322550701230474,2.8270318247214,1.34038807472597,2203.545,2203.766,2210.913,2207.458,356.216613769531,45.0000495910645,1.53365767002106,-0.566927254199982,-0.247908547520638,0.356412142515182,-0.573463232144024,-0.246745208083563,0.350319739799517,6
1.20001220703125,-0.336760312318802,2.82201266288757,1.35015308856964,-0.334165615614823,2.82203425154496,1.3474834446762,2208.996,2205.639,2206.989,2207.673,356.238922119141,45.0004119873047,1.52915751934052,-0.580260992050171,-0.253544986248016,0.363057941198349,-0.586886736182789,-0.252520966862155,0.358519948947149,6
1.22000122070313,-0.34863093495369,2.81682991981506,1.35754859447479,-0.346030421585499,2.81692915700008,1.35473146949704,2215.469,2209.247,2201.327,2207.037,356.260345458984,45.0005340576172,1.52407729625702,-0.593531787395477,-0.259138584136963,0.369772881269455,-0.600236516861372,-0.258265004538453,0.366675121644476,6
1.24002075195313,-0.360765904188156,2.81153607368469,1.36508202552795,-0.358180209983518,2.8117014424782,1.36215358563568,2209.317,2207.094,2209.539,2210.389,356.275512695313,45.0006790161133,1.51850843429565,-0.60674786567688,-0.26469612121582,0.376671820878983,-0.613546334788502,-0.263991847359231,0.374805881720547,6
1.260009765625,-0.373164087533951,2.80613160133362,1.37275278568268,-0.37057666480527,2.80636759428526,1.36972638644343,2210.776,2210.202,2209.008,2208.924,356.290802001953,45.0006332397461,1.51216959953308,-0.619909584522247,-0.270228683948517,0.383539080619812,-0.626768731761373,-0.26968107538565,0.382883237699838,6
1.27999877929688,-0.385824650526047,2.80061674118042,1.38056421279907,-0.383236695417198,2.80092033679326,1.37746020158837,2202.608,2207.49,2219.242,2211.993,356.305328369141,45.0007171630859,1.50505721569061,-0.633027672767639,-0.275743305683136,0.390573769807816,-0.639917282339435,-0.275338529371412,0.39091548206889,6
1.30001831054688,-0.398746430873871,2.79499197006226,1.38851594924927,-0.396178686849666,2.79535175943725,1.38536626219868,2202.835,2208.541,2219.996,2211.429,356.3271484375,45.0008087158203,1.49626231193542,-0.646089732646942,-0.281238615512848,0.397584617137909,-0.653005218467598,-0.280969902652754,0.398910698016369,6
1.32000732421875,-0.411927938461304,2.78925800323486,1.39660823345184,-0.409361504843077,2.78967956113998,1.39341943999703,2210.028,2211.64,2212.723,2210.077,356.356536865234,45.0007972717285,1.48681724071503,-0.659075975418091,-0.286701738834381,0.404616892337799,-0.6659860834168,-0.286555206197011,0.406840505851434,6
1.33999633789063,-0.425367385149002,2.78341555595398,1.40484416484833,-0.422802873722428,2.78389611561957,1.401630562497,2208.448,2208.941,2215.142,2213.057,356.387115478516,45.0009460449219,1.47675740718842,-0.671973526477814,-0.292118608951569,0.411794602870941,-0.678873453515705,-0.29210028151913,0.41471319914141,6
1.36001586914063,-0.439062684774399,2.7774658203125,1.41322255134583,-0.4365219692899,2.77799317206405,1.41001134389691,2211.898,2209.89,2211.624,2212.323,356.420654296875,45.0010147094727,1.46525800228119,-0.684765338897705,-0.297482460737228,0.418920516967773,-0.691680442442074,-0.297610771068296,0.422536788827408,6
1.3800048828125,-0.45301154255867,2.77140998840332,1.42174327373505,-0.450474904562636,2.77198961381608,1.41853497432376,2217.438,2212.672,2205.264,2210.746,356.454071044922,45.0008773803711,1.4534056186676,-0.697443187236786,-0.302790731191635,0.426039010286331,-0.704361775018035,-0.303067194200314,0.43028361700977,6
1.39999389648438,-0.467211812734604,2.76524901390076,1.43040883541107,-0.464680216184654,2.76587746507559,1.42721277752413,2210.189,2209.261,2212.967,2213.559,356.482116699219,45.0008354187012,1.44116830825806,-0.710014164447784,-0.308047860860825,0.433275610208511,-0.716930938559026,-0.308475354130225,0.437961922879032,6
1.42001342773438,-0.481661409139633,2.75898385047913,1.43921732902527,-0.479157861067077,2.75964813894125,1.43605694486361,2207.82,2209.551,2215.064,2212.445,356.511383056641,45.0007171630859,1.42757546901703,-0.722478270530701,-0.31326299905777,0.440425902605057,-0.729400843645231,-0.313840805920001,0.445579593307164,6
1.44000244140625,-0.496358036994934,2.75261521339417,1.4481680393219,-0.493861275572861,2.75332167044526,1.44503903134294,2210.376,2211.847,2211.439,2210.421,356.543853759766,45.00048828125,1.41361856460571,-0.734831929206848,-0.31843775510788,0.447537690401077,-0.741727567798258,-0.319144650954242,0.453109796737511,6
1.46002197265625,-0.51129949092865,2.74614381790161,1.4572628736496,-0.50883280894277,2.74687983789241,1.45418490745244,2203.73,2208.028,2218.078,2212.956,356.576782226563,45.0004539489746,1.39917600154877,-0.747074365615845,-0.323568403720856,0.454744160175323,-0.753942941956197,-0.324400585196357,0.460571978193441,6
1.48001098632813,-0.526483237743378,2.73957085609436,1.46649885177612,-0.524024159888143,2.74034342397783,1.46346506668862,2209.603,2210.552,2210.734,2209.947,356.616027832031,45.0003089904785,1.38392066955566,-0.75918847322464,-0.328648895025253,0.461801767349243,-0.766004036374583,-0.329590137176618,0.467939912563966,6
1.5,-0.541906654834747,2.73289752006531,1.47587776184082,-0.539455198877605,2.73370387899399,1.47289164761066,2204.878,2206.713,2214.952,2212.32,356.65576171875,45.0003280639648,1.36790037155151,-0.771170437335968,-0.333671271800995,0.46894770860672,-0.777924000354858,-0.334718964672088,0.475221632552146,6
1.52001953125,-0.557566821575165,2.72612500190735,1.48539698123932,-0.555147149984933,2.72695207081487,1.48247761567406,2206.992,2207.119,2211.325,2210.496,356.699951171875,45.0002822875977,1.35026907920837,-0.783004224300385,-0.338630765676498,0.475961416959763,-0.789715229532175,-0.33979240117828,0.482424710458066,6
1.54000854492188,-0.573460400104523,2.71925449371338,1.49505496025085,-0.571049184024557,2.72010986981902,1.49219192012252,2212.86,2209.631,2203.113,2207.791,356.746032714844,45.0000267028809,1.33236289024353,-0.794677913188934,-0.343521744012833,0.482898056507111,-0.801336412291853,-0.344792671461508,0.489523909660973,6
1.55999755859375,-0.589584171772003,2.71228766441345,1.50485301017761,-0.587181951496087,2.71316839067337,1.50204717602401,2205.793,2205.504,2209.055,2210.063,356.787841796875,44.9999046325684,1.31426453590393,-0.806194305419922,-0.348343551158905,0.489901632070541,-0.812800388649436,-0.349725300221754,0.496527073925997,6
1.58001708984375,-0.605935275554657,2.70522570610046,1.51478803157806,-0.603567408310176,2.70611818636293,1.51205679590172,2204.204,2205.218,2208.881,2208.207,356.8310546875,44.9997291564941,1.29501485824585,-0.817551374435425,-0.35310223698616,0.496751546859741,-0.824119146742882,-0.35459544561987,0.503441526619546,6
1.60000610351563,-0.622510254383087,2.69806981086731,1.52485799789429,-0.620152298932711,2.69898217125626,1.52218824678091,2207.074,2206.989,2203.57,2205.407,356.876373291016,44.9994239807129,1.27569198608398,-0.828745603561401,-0.357798427343369,0.503500163555145,-0.835253140422976,-0.35938609205264,0.510243109616171,5
1.6199951171875,-0.639305770397186,2.69082117080688,1.5350638628006,-0.636958033083316,2.69175113334911,1.53245460752521,2198.811,2202.216,2210.51,2207.635,356.920104980469,44.9993171691895,1.2560818195343,-0.839779913425446,-0.362430542707443,0.510294914245605,-0.846214826007804,-0.364102599125749,0.516939432286212,5
1.6400146484375,-0.656318724155426,2.68348121643066,1.54540205001831,-0.654007271984653,2.68441532215046,1.54286972152191,2198.529,2201.772,2208.7,2205.414,356.969024658203,44.9992065429688,1.23510682582855,-0.850645184516907,-0.366998076438904,0.516908228397369,-0.857015715678588,-0.368749920209162,0.523537527241534,5
1.66000366210938,-0.673545300960541,2.67605137825012,1.55587005615234,-0.671244443874359,2.67699864863716,1.55339964084857,2204.125,2203.642,2200.143,2202.265,357.022399902344,44.9989585876465,1.21392929553986,-0.861328661441803,-0.371492922306061,0.52340167760849,-0.867618167158098,-0.373311858882592,0.530014399402375,5
1.67999267578125,-0.690981805324554,2.66853332519531,1.56646859645844,-0.688691692550512,2.66949158495151,1.56405789280588,2197.867,2198.874,2204.465,2204.368,357.074005126953,44.9989128112793,1.19243156909943,-0.871826827526093,-0.375907897949219,0.529929935932159,-0.878034183119987,-0.377793579561193,0.536377381014768,5
1.70001220703125,-0.708624422550201,2.66092848777771,1.57719373703003,-0.706372354049449,2.66188409024902,1.5748587330143,2198.164,2198.417,2201.588,2201.927,357.128540039063,44.9987945556641,1.16963362693787,-0.882131278514862,-0.380243122577667,0.53625875711441,-0.888274735793774,-0.382199803288802,0.542633174842512,5
1.72000122070313,-0.726469099521637,2.65323853492737,1.58804273605347,-0.724228658537036,2.6542010212754,1.58576687078363,2202.603,2200.25,2193.846,2198.489,357.184600830078,44.9985008239746,1.14681422710419,-0.892235040664673,-0.384496033191681,0.542450070381165,-0.898304216251578,-0.386515208538549,0.548760027947228,5
1.74002075195313,-0.744511961936951,2.64546513557434,1.59901607036591,-0.742311168965756,2.64642062220478,1.59681319423253,2193.824,2195.149,2200.41,2200.575,357.236785888672,44.9984016418457,1.12384724617004,-0.902142465114594,-0.388666480779648,0.548667013645172,-0.908148960779607,-0.390751127078638,0.554774028755192,5
1.760009765625,-0.762748897075653,2.63760995864868,1.6101086139679,-0.760560719141003,2.63856835059778,1.60796155965597,2197.225,2196.926,2193.85,2196.151,357.291870117188,44.9981346130371,1.10046029090881,-0.911849141120911,-0.392758578062057,0.554624438285828,-0.91777478390713,-0.394892849856044,0.560654293895788,4
1.77999877929688,-0.781176090240479,2.62967443466187,1.6213207244873,-0.779000609654483,2.63063418086074,1.61922620102184,2187.89,2191.699,2200.912,2198.092,357.345458984375,44.9980773925781,1.07656574249268,-0.921360611915588,-0.396771997213364,0.560605585575104,-0.927192788821983,-0.398945154262308,0.566407606133204,4
1.80001831054688,-0.799789488315582,2.62166023254395,1.63264787197113,-0.797655223615693,2.62260762162281,1.63062201359123,2187.554,2191.198,2198.288,2195.107,357.40478515625,44.9979782104492,1.05121922492981,-0.930667638778687,-0.400706768035889,0.56635594367981,-0.936412917636689,-0.402912318110697,0.572040038948834,4
1.82000732421875,-0.818584501743317,2.61356925964355,1.64408683776855,-0.816463410111527,2.61451498441355,1.64211164122557,2193.586,2193.074,2188.474,2191.236,357.468841552734,44.9977035522461,1.02586376667023,-0.939755976200104,-0.404553711414337,0.571948826313019,-0.94540321420156,-0.406780591562751,0.577532070829503,3
1.83999633789063,-0.837557017803192,2.60540318489075,1.65563797950745,-0.835449117627072,2.60634596486888,1.6537097136807,2186.9,2187.86,2192.303,2193.253,357.530639648438,44.9976539611816,1.00042307376862,-0.948621690273285,-0.408304452896118,0.577555894851685,-0.954174163352093,-0.410554485950274,0.582890106797601,3
1.86001586914063,-0.856702208518982,2.59716391563416,1.66729640960693,-0.854637305360818,2.59808982374295,1.66543147814148,2186.931,2187.007,2189.072,2190.386,357.594818115234,44.9975547790527,0.973906338214874,-0.957259297370911,-0.411960184574127,0.582922339439392,-0.962735018414262,-0.414237982720922,0.588119799565572,0
1.8800048828125,-0.876015484333038,2.58885359764099,1.67905879020691,-0.873964974649439,2.58977366760063,1.67723844970756,2191.187,2188.501,2180.986,2186.501,357.659973144531,44.9972648620605,0.947613537311554,-0.96566367149353,-0.415519058704376,0.588117241859436,-0.971056158224177,-0.417818336715394,0.593203054026622,0
1.89999389648438,-0.895492255687714,2.58047389984131,1.69092512130737,-0.893456683142228,2.58138692997148,1.6891456302637,2181.354,2182.824,2187.903,2188.635,357.720611572266,44.9972038269043,0.921254754066467,-0.973840594291687,-0.418981552124023,0.593318581581116,-0.979147395688901,-0.421299770153459,0.598145864732551,0
1.92001342773438,-0.91512805223465,2.57202672958374,1.70289039611816,-0.913137923350175,2.5729186421402,1.70116859278703,2179.12,2181.801,2186.94,2185.547,357.784118652344,44.9971008300781,0.893734931945801,-0.981790602207184,-0.422354400157928,0.598261117935181,-0.987017247723777,-0.424685947625853,0.602953434534038,0
1.94000244140625,-0.934918165206909,2.56351399421692,1.71495079994202,-0.932943991899774,2.5643966441608,1.71326781099638,2182.982,2183.218,2179.181,2181.485,357.85107421875,44.9968376159668,0.866356611251831,-0.98950731754303,-0.425634831190109,0.603023290634155,-0.994638524886308,-0.427965170275055,0.607609153824943,0
1.96002197265625,-0.954858005046844,2.55493760108948,1.72710657119751,-0.952930593197372,2.55579696798345,1.72547731384432,2174.348,2177.574,2184.651,2183.539,357.916381835938,44.9968299865723,0.838832199573517,-0.996989607810974,-0.428817063570023,0.607786059379578,-1.00203140433628,-0.431146119769234,0.61212534851732,0
1.98001098632813,-0.974942624568939,2.54629969596863,1.73935127258301,-0.973031969359004,2.54714790738853,1.73775693086567,2179.876,2179.204,2175.404,2178.337,357.986206054688,44.9966430664063,0.810988306999207,-1.00423014163971,-0.431900709867477,0.612236142158508,-1.00917036754089,-0.434217816196637,0.616486429737696,0
2,-0.995167255401611,2.537602186203,1.75168514251709,-0.993273599084619,2.53843849960327,1.75012222660065,2171.389,2173.646,2180.635,2180.287,358.054046630859,44.9966697692871,0.78267514705658,-1.01122856140137,-0.434880495071411,0.616693198680878,-1.01606400046349,-0.437183953857422,0.620697642517089,0
2.02001953125,-1.01552677154541,2.52884697914124,1.76410269737244,-1.01368176147806,2.52965743746343,1.7625892545437,2171.431,2172.989,2177.033,2176.764,358.1259765625,44.9966087341309,0.753032803535461,-1.01797938346863,-0.437758266925812,0.620875835418701,-1.0227194988233,-0.440047628868552,0.624763382608097,0
2.04000854492188,-1.03601622581482,2.52003622055054,1.77660012245178,-1.03418924440916,2.52083364047092,1.77511695585335,2176.843,2174.724,2167.397,2172.338,358.200378417969,44.9963455200195,0.723675727844238,-1.02447247505188,-0.440528810024261,0.624869167804718,-1.02911391720548,-0.442798968459032,0.628669633014835,0
2.05999755859375,-1.05663049221039,2.51117277145386,1.78917741775513,-1.05482201812353,2.5119559343546,1.78772119534738,2167.829,2169.066,2172.839,2174.466,358.270599365234,44.9963035583496,0.694422423839569,-1.03070902824402,-0.443188041448593,0.62886381149292,-1.03525504859546,-0.445441325732794,0.632421154350513,0
2.08001708984375,-1.07736420631409,2.50225782394409,1.80182909965515,-1.07560676837143,2.50301283698163,1.80041827493419,2166.463,2167.801,2170.69,2171.289,358.343048095703,44.9962501525879,0.66422039270401,-1.03669118881226,-0.445742398500443,0.63258159160614,-1.0411492471255,-0.447977434695423,0.636021828255355,0
2.10000610351563,-1.09821248054504,2.49329400062561,1.81455099582672,-1.09647498538954,2.49403382618922,1.81316634306845,2170.362,2169.135,2162.75,2166.859,358.417358398438,44.9959983825684,0.634425461292267,-1.04241406917572,-0.448190003633499,0.636095941066742,-1.04677621342161,-0.450398561093403,0.639459254158576,0
2.1199951171875,-1.11917006969452,2.48428344726563,1.82734322547913,-1.11745308225396,2.48500753716864,1.82598153508617,2160.417,2163.155,2169.108,2169.167,358.488311767578,44.9960250854492,0.604610621929169,-1.0478800535202,-0.450527846813202,0.639609634876251,-1.0521429102862,-0.45270770082608,0.642737685527497,0
2.1400146484375,-1.14023184776306,2.47522830963135,1.84019982814789,-1.13856809990831,2.47592233495728,1.83888036987787,2159.296,2161.965,2166.733,2165.736,358.563079833984,44.9959983825684,0.573694229125977,-1.05308985710144,-0.452760994434357,0.642831802368164,-1.05725481901126,-0.454907212340279,0.645860470797878,0
2.16000366210938,-1.16139256954193,2.46613073348999,1.85311686992645,-1.15975039167652,2.46680818657414,1.85182030137592,2164.406,2163.303,2157.513,2161.282,358.641143798828,44.9957885742188,0.543074667453766,-1.05803430080414,-0.454883933067322,0.645851254463196,-1.0620943502576,-0.456989527434725,0.648816864916866,0
2.17999267578125,-1.18264675140381,2.45699286460876,1.86609411239624,-1.18102676265167,2.45765355853653,1.86481770439342,2155.611,2157.533,2162.521,2163.48,358.716156005859,44.9958229064941,0.512374401092529,-1.06271123886108,-0.456890195608139,0.648865163326263,-1.06666760390386,-0.458957270716794,0.65161059420515,0
2.20001220703125,-1.20398914813995,2.44781708717346,1.87912583351135,-1.20242455577657,2.44844668594002,1.87788928230744,2155.143,2156.486,2159.406,2159.919,358.794219970703,44.9958038330078,0.480655938386917,-1.06712162494659,-0.458784639835358,0.651583909988403,-1.07097916161324,-0.460812413548163,0.654244457529281,0
2.22000122070313,-1.22541439533234,2.43860578536987,1.89220786094666,-1.22387315175433,2.43921795429519,1.89099189489151,2160.068,2157.799,2150.353,2155.443,358.874176025391,44.9955749511719,0.449386596679688,-1.07125794887543,-0.460563361644745,0.654099643230438,-1.07501419914593,-0.462548577472581,0.656709398992482,0
2.24002075195313,-1.24691677093506,2.42936134338379,1.90534007549286,-1.24543261682529,2.42994151877688,1.90416223567455,2150.319,2151.939,2156.223,2157.764,358.949829101563,44.9956169128418,0.418127954006195,-1.07512140274048,-0.462222725152969,0.656610608100891,-1.07878346314438,-0.464170386470068,0.659011983550929,0
2.260009765625,-1.26849102973938,2.42008590698242,1.91851544380188,-1.26703177594152,2.42064800401982,1.91735682493042,2154.717,2153.333,2148.208,2152.023,359.028106689453,44.9954681396484,0.386837065219879,-1.07871615886688,-0.463770419359207,0.658770740032196,-1.08227399942825,-0.465672266718726,0.661144297698006,0
2.27999877929688,-1.29013192653656,2.41078186035156,1.9317342042923,-1.28869796983554,2.41132564607061,1.93059236468599,2144.136,2147.624,2154.947,2154.205,359.103485107422,44.9955520629883,0.355170279741287,-1.08204281330109,-0.465203076601028,0.660935461521149,-1.08549040888332,-0.467056197851165,0.663109152043028,0
2.30001831054688,-1.31183385848999,2.40145111083984,1.94499015808105,-1.31045892272318,2.4019625159737,1.94388579123207,2143.469,2146.753,2152.017,2150.418,359.183654785156,44.9955596923828,0.322311162948608,-1.08510255813599,-0.466526597738266,0.662797868251801,-1.08843572622736,-0.468323485621664,0.66490840044773,0
2.32000732421875,-1.33359158039093,2.39209651947021,1.95827913284302,-1.33224276726637,2.39258953623693,1.95719320193332,2149.471,2148.359,2141.883,2145.624,359.267578125,44.9953384399414,0.289936572313309,-1.08788299560547,-0.467733234167099,0.664451658725739,-1.09109983431736,-0.469469776906228,0.666535862507326,0
2.33999633789063,-1.3553991317749,2.38272047042847,1.97160124778748,-1.35407709248145,2.38319483607731,1.97053145048929,2141.225,2142.616,2146.003,2148.081,359.34814453125,44.9953765869141,0.257677882909775,-1.09037947654724,-0.468813955783844,0.666108369827271,-1.09348640563071,-0.470496651869278,0.667993781680938,0
2.36001586914063,-1.3772509098053,2.37332487106323,1.98495042324066,-1.3759897762471,2.37376642042246,1.98391756706104,2141.076,2141.418,2142.648,2144.496,359.430847167969,44.9953804016113,0.224615767598152,-1.09259700775146,-0.469775140285492,0.667458951473236,-1.09559752564474,-0.471405007833448,0.669283431954129,0
2.3800048828125,-1.39914155006409,2.36391258239746,1.99832236766815,-1.39790843013262,2.36433543599182,1.99730733068585,2145.696,2142.602,2134.093,2139.907,359.514221191406,44.995174407959,0.192200571298599,-1.09453022480011,-0.470614433288574,0.668599009513855,-1.09742594550583,-0.472191725819537,0.67040038511534,0
2.39999389648438,-1.42106521129608,2.35448598861694,2.01171708106995,-1.41986083522252,2.35488992936084,2.01071771239474,2135.125,2136.693,2140.582,2142.486,359.592498779297,44.9952659606934,0.159832566976547,-1.09618139266968,-0.471329599618912,0.669738173484802,-1.09897439291323,-0.472857979480329,0.671346307473475,0
2.42001342773438,-1.44301652908325,2.34504723548889,2.02512836456299,-1.44187496577138,2.34541786398928,2.02416580122331,2133.172,2135.467,2139.134,2138.845,359.673156738281,44.9952964782715,0.126545503735542,-1.09756088256836,-0.471932023763657,0.670565724372864,-1.1002439936861,-0.473404253224357,0.672121886773894,0
2.44000244140625,-1.46498966217041,2.33559894561768,2.03855204582214,-1.46387808506052,2.33595053645515,2.03760716344514,2137.448,2136.674,2130.991,2134.215,359.756469726563,44.9951171875,0.0937938839197159,-1.09866213798523,-0.472418695688248,0.671182096004486,-1.10123038958312,-0.473828671822132,0.672724460634977,0
2.46002197265625,-1.48697924613953,2.32614326477051,2.05198788642883,-1.48593173759011,2.32646146587939,2.051079395635,2128.057,2131.035,2136.198,2136.684,359.8369140625,44.9952163696289,0.061036191880703,-1.09948146343231,-0.472782522439957,0.671795666217804,-1.10193621258339,-0.474132367740737,0.673155636891692,0
2.48001098632813,-1.50897979736328,2.31668257713318,2.06542873382568,-1.5079630509786,2.31698200721197,2.06453798119217,2133.755,2132.354,2127.217,2130.74,359.920959472656,44.9951057434082,0.0284050088375807,-1.10002481937408,-0.473030030727386,0.672047078609467,-1.10235904000526,-0.474314298567936,0.673413935565619,0
2.5,-1.53098547458649,2.30721950531006,2.07887482643127,-1.52999999932945,2.30750012397766,2.0780000090599,2124.361,2126.885,2132.477,2133.117,0.00211114762350917,44.9952354431152,-0.00455252826213837,-1.10028529167175,-0.473152875900269,0.672308683395386,-1.10250000050292,-0.474374949932098,0.673500046133994,0
2.52001953125,-1.55299091339111,2.29775643348694,2.09231996536255,-1.55207058900185,2.29800376582252,2.09148258788601,2124.448,2126.072,2128.986,2129.217,0.0868472903966904,44.9952735900879,359.961486816406,-1.10026919841766,-0.473158806562424,0.672259330749512,-1.10235860927677,-0.474314113237503,0.673413672440311,0
2.54000854492188,-1.57499015331268,2.28829550743103,2.10576009750366,-1.57410188948011,2.28852431271001,2.10494116555652,2130.19,2127.443,2119.43,2124.522,0.173580661416054,44.9950675964355,359.928192138672,-1.09996604919434,-0.473041892051697,0.672004401683807,-1.10193535162022,-0.474131997292339,0.673155110942729,0
2.55999755859375,-1.5969774723053,2.27883958816528,2.11919498443604,-1.59612191359838,2.27904971150017,2.11839285467467,2121.005,2122.06,2124.314,2127.004,0.255579829216003,44.9951400756836,359.895080566406,-1.09937274456024,-0.472795724868774,0.671749591827393,-1.10123038958312,-0.473828671822132,0.672724460634977,0
2.58001708984375,-1.61894750595093,2.26939105987549,2.13261866569519,-1.6181586096433,2.26956793682606,2.13185472841265,2119.942,2120.826,2122.113,2123.468,0.339037269353867,44.9951782226563,359.861389160156,-1.09850239753723,-0.472431898117065,0.671188950538635,-1.10024227275454,-0.473403512755585,0.67212083548366,0
2.60000610351563,-1.64089453220367,2.25995206832886,2.14602708816528,-1.64013916343638,2.26011031859448,2.14528230572506,2124.114,2121.772,2114.374,2119.01,0.423450589179993,44.9950103759766,359.828460693359,-1.09735035896301,-0.471948474645615,0.670420229434967,-1.09897439291323,-0.472857979480329,0.671346307473476,0
2.6199951171875,-1.66281294822693,2.25052523612976,2.15942001342773,-1.66209156852628,2.2506648119635,2.15869268743396,2113.894,2116.267,2120.364,2121.632,0.503580212593079,44.9951438903809,359.795593261719,-1.0959153175354,-0.471340835094452,0.669649302959442,-1.09742594550583,-0.472191725819537,0.67040038511534,0
2.6400146484375,-1.68469703197479,2.24111294746399,2.17279148101807,-1.68404365734903,2.24121944141343,2.17210287594018,2112.802,2115.091,2118.305,2118.031,0.586558699607849,44.9952087402344,359.761962890625,-1.09421038627625,-0.470620363950729,0.668568551540375,-1.09559452046326,-0.471403714787811,0.669281596135657,0
2.66000366210938,-1.70654165744781,2.23171734809875,2.18613696098328,-1.70592290617745,2.23180541187802,2.18546856763052,2117.917,2116.211,2109.715,2113.445,0.671959936618805,44.9950408935547,359.729034423828,-1.09222686290741,-0.469781786203384,0.667279303073883,-1.09348640563071,-0.470496651869278,0.667993781680938,0
2.67999267578125,-1.72834074497223,2.22234106063843,2.19945693016052,-1.72775723139253,2.2224107117184,2.19880681618649,2109.029,2110.9,2114.313,2116.096,0.753754198551178,44.9951667785645,359.696166992188,-1.08995854854584,-0.468816965818405,0.665993213653564,-1.09109983431736,-0.469469776906228,0.666535862507326,0
2.70001220703125,-1.75008916854858,2.21298623085022,2.21274495124817,-1.74957429229274,2.21302343991116,2.21213451824191,2108.907,2109.866,2111.374,2112.414,0.837875187397003,44.9952239990234,359.662628173828,-1.08741843700409,-0.467736184597015,0.664397001266479,-1.08843144721369,-0.468321644481621,0.664905786465049,0
2.72000122070313,-1.7717809677124,2.2036554813385,2.22599697113037,-1.77130202882336,2.20367460188472,2.22540765343382,2113.936,2110.906,2102.993,2107.946,0.923081398010254,44.995059967041,359.629913330078,-1.08459866046906,-0.466535091400146,0.66259890794754,-1.08549040888332,-0.467056197851165,0.663109152043028,0
2.74002075195313,-1.79341101646423,2.19435119628906,2.23921298980713,-1.79300125102058,2.19433803277934,2.23866336966442,2104.556,2105.717,2108.102,2110.605,1.00347423553467,44.9951820373535,359.597351074219,-1.08149588108063,-0.465208023786545,0.660803735256195,-1.08226887897249,-0.465670063529659,0.661141169691481,0
2.760009765625,-1.81497359275818,2.18507599830627,2.25238609313965,-1.81460030360772,2.18504456385877,2.25185789384333,2109.014,2106.745,2101.022,2104.842,1.08542716503143,44.9951171875,359.565155029297,-1.07812821865082,-0.463768780231476,0.658652484416962,-1.07877792518082,-0.464168003639063,0.659008600495412,0
2.77999877929688,-1.83646333217621,2.17583179473877,2.26551651954651,-1.83612684690458,2.17578229366013,2.2650081232283,2098.872,2101.782,2106.972,2107.387,1.16386723518372,44.9952964782715,359.532653808594,-1.07448673248291,-0.462210297584534,0.656517386436462,-1.07501419914593,-0.462548577472581,0.656709398992482,0
2.80001831054688,-1.85787498950958,2.16662096977234,2.27859807014465,-1.85760812647542,2.16653949917827,2.27813070170937,2098.389,2101.111,2104.507,2103.545,1.24587273597717,44.995361328125,359.499450683594,-1.07058560848236,-0.460544288158417,0.654076755046844,-1.07097279461286,-0.460809674005774,0.654240568028104,0
2.82000732421875,-1.87920308113098,2.15744543075562,2.29162693023682,-1.87897323600723,2.1573466894188,2.29118231372639,2104.167,2102.345,2095.519,2099.053,1.33056974411011,44.995174407959,359.467071533203,-1.06641292572021,-0.458763390779495,0.651442468166351,-1.06666760390385,-0.458957270716794,0.65161059420515,0
2.83999633789063,-1.90044236183167,2.14830851554871,2.30460333824158,-1.90024960698239,2.14819206138118,2.30417971674389,2096.341,2097.528,2099.074,2101.659,1.41146516799927,44.9952659606934,359.435028076172,-1.0619603395462,-0.456857323646545,0.648815333843231,-1.06209435025759,-0.456989527434725,0.648816864916866,0
2.86001586914063,-1.92158722877502,2.13921165466309,2.31752133369446,-1.9214641634913,2.13906403038149,2.31713935826856,2096.522,2096.269,2096.155,2098.382,1.49356484413147,44.9953308105469,359.402587890625,-1.05724489688873,-0.454837590456009,0.645895838737488,-1.05724722779031,-0.454903946049977,0.645855833439456,0
2.8800048828125,-1.94263243675232,2.13015747070313,2.33037686347961,-1.94254691640495,2.12999271078668,2.33001848303364,2101.042,2097.177,2088.736,2094.037,1.57550311088562,44.995189666748,359.37109375,-1.05226123332977,-0.452701538801193,0.642776072025299,-1.0521429102862,-0.45270770082608,0.642737685527497,0
2.89999389648438,-1.96357274055481,2.12114858627319,2.34317016601563,-1.96352501326936,2.1209664217661,2.34283367505136,2091.378,2092.292,2094.227,2096.808,1.65202903747559,44.9953460693359,359.339782714844,-1.04700684547424,-0.450445085763931,0.63966566324234,-1.04677621342161,-0.450398561093403,0.639459254158576,0
2.92001342773438,-1.98440277576447,2.1121871471405,2.35589528083801,-1.98442500350686,2.11197373984504,2.35560115294953,2089.85,2091.226,2093.115,2093.448,1.72980880737305,44.9954566955566,359.307983398438,-1.04150366783142,-0.448084384202957,0.636260867118835,-1.04114045847258,-0.4479736531836,0.636016459404434,0
2.94000244140625,-2.00511765480042,2.10327482223511,2.36854863166809,-2.00517798053537,2.10304431360073,2.36827882277243,2093.911,2092.193,2086.229,2089.208,1.80902493000031,44.9953384399414,359.277038574219,-1.03574514389038,-0.445616692304611,0.632664024829865,-1.03525504859546,-0.445441325732794,0.632421154350513,0
2.96002197265625,-2.02571201324463,2.0944139957428,2.38113021850586,-2.02584216016808,2.09415309439512,2.38090224765189,2085.299,2087.688,2090.683,2091.813,1.88486266136169,44.9954719543457,359.246246337891,-1.02972424030304,-0.443034172058105,0.62907487154007,-1.02910434715508,-0.442794850733705,0.628663786820389,0
2.98001098632813,-2.04618096351624,2.08560729026794,2.39363312721252,-2.04634944795115,2.08532938136936,2.39342982974865,2090.625,2088.679,2083.315,2086.276,1.96306920051575,44.9954032897949,359.216033935547,-1.02346050739288,-0.440349161624908,0.625149250030518,-1.02270954399162,-0.440043345582586,0.624757301356766,0
3,-2.06651973724365,2.0768563747406,2.40605807304382,-2.06672639957428,2.07656174835205,2.40587779151916,2082.46,2084.257,2087.483,2088.886,2.03806400299072,44.9955787658691,359.185760498047,-1.01693832874298,-0.437549740076065,0.621249318122864,-1.01606400046349,-0.437183953857422,0.620697642517089,0
3.02001953125,-2.0867235660553,2.06816339492798,2.41839933395386,-2.08699882657197,2.06783908936099,2.41826190082706,2082.778,2083.584,2084.737,2085.368,2.11526894569397,44.9956588745117,359.154998779297,-1.01017594337463,-0.434648454189301,0.617064356803894,-1.0091596546337,-0.434213206731958,0.616479885389866,0
3.04000854492188,-2.10678672790527,2.05953049659729,2.43065333366394,-2.10709998486405,2.05919012250926,2.43054138475531,2087.965,2084.612,2076.955,2081.266,2.19333386421204,44.9955024719238,359.125244140625,-1.00316381454468,-0.431639730930328,0.612702667713165,-1.00202031904361,-0.431141350077486,0.612118576685011,0
3.05999755859375,-2.126704454422,2.05096006393433,2.44282031059265,-2.12705600675913,2.05060360379452,2.44273220712343,2080.178,2080.441,2080.746,2083.796,2.26655721664429,44.9956169128418,359.095825195313,-0.995895624160767,-0.428516387939453,0.608351767063141,-0.994638524886308,-0.427965170275055,0.607609153824944,0
3.08001708984375,-2.14647245407104,2.0424542427063,2.45489501953125,-2.14689219650438,2.04206864550612,2.45484982590117,2079.545,2079.475,2079.101,2080.694,2.34003186225891,44.9957046508789,359.066284179688,-0.988394498825073,-0.425293773412704,0.603730380535126,-0.987005430654711,-0.424680863071165,0.602946215670947,0
3.10000610351563,-2.16608548164368,2.03401517868042,2.46687364578247,-2.16654331551667,2.03361331798384,2.46685438785611,2083.192,2080.107,2073.086,2076.981,2.4133083820343,44.9956016540527,359.037811279297,-0.980656325817108,-0.421970129013062,0.598937392234802,-0.979147395688901,-0.421299770153459,0.598145864732551,0
3.1199951171875,-2.18553924560547,2.02564406394958,2.47875666618347,-2.18603502400946,2.02522658035469,2.47876156841225,2074.646,2075.936,2077.788,2079.596,2.48214221000671,44.995777130127,359.009582519531,-0.972676992416382,-0.418540358543396,0.594152927398682,-0.971056158224178,-0.417818336715394,0.593203054026623,0
3.1400146484375,-2.20482873916626,2.01734352111816,2.49053859710693,-2.20539207344272,2.01689778275692,2.49058648785022,2073.794,2075.171,2076.492,2076.445,2.55236077308655,44.9958877563477,358.981109619141,-0.964479327201843,-0.415019601583481,0.589100062847137,-0.962722140342815,-0.41423244164655,0.588111932552684,0
3.16000366210938,-2.22394990921021,2.00911545753479,2.50221633911133,-2.22455088103183,2.00865428308644,2.50229030443911,2078.233,2075.988,2069.834,2072.7,2.62376403808594,44.9957809448242,358.953704833984,-0.956055641174316,-0.411403298377991,0.583881974220276,-0.954174163352092,-0.410554485950274,0.582890106797601,0
3.17999267578125,-2.24289774894714,2.00096201896667,2.51378989219666,-2.24353658854737,2.00048526354177,2.51388837689424,2071.104,2072.02,2073.223,2075.32,2.69147706031799,44.9959259033203,358.926574707031,-0.947397768497467,-0.4076828956604,0.578679502010345,-0.945403214201559,-0.406780591562751,0.577532070829503,0
3.20001220703125,-2.26166796684265,1.99288463592529,2.52525424957275,-2.26237335188561,1.99238033051557,2.52539546167567,2071.425,2071.24,2070.968,2072.283,2.76012492179871,44.9960136413574,358.899322509766,-0.938527822494507,-0.403871953487396,0.573217630386353,-0.93639902618694,-0.402906341007952,0.572031552878955,0
3.22000122070313,-2.28025698661804,1.98488521575928,2.53660607337952,-2.28099938900442,1.98436606709459,2.53677381709797,2075.724,2072.047,2064.645,2068.649,2.82856917381287,44.995906829834,358.873168945313,-0.929439187049866,-0.399966597557068,0.567597031593323,-0.927192788821982,-0.398945154262308,0.566407606133204,0
3.24002075195313,-2.298659324646,1.97696614265442,2.54784607887268,-2.29946728755973,1.97641984627959,2.54805556813954,2068.124,2068.244,2068.639,2071.282,2.89214324951172,44.9960708618164,358.847381591797,-0.920126438140869,-0.395961195230484,0.561996221542358,-0.917760245372928,-0.394886594330938,0.560645412532115,0
3.260009765625,-2.31687188148499,1.96912860870361,2.55896806716919,-2.31771654397337,1.96856770107001,2.5592037541086,2072.003,2069.048,2063.514,2066.469,2.95594310760498,44.9960594177246,358.822326660156,-0.910617470741272,-0.391873121261597,0.556101977825165,-0.908134108040216,-0.390744736359816,0.55476495544847,0
3.27999877929688,-2.33488965034485,1.96137499809265,2.56997299194336,-2.33577134012187,1.96079922667992,2.57023314733618,2063.911,2065.636,2068.117,2068.887,3.01600956916809,44.9962501525879,358.797332763672,-0.90089750289917,-0.387693166732788,0.550240635871887,-0.898304216251578,-0.386515208538549,0.548760027947228,0
3.30001831054688,-2.35270953178406,1.95370626449585,2.58085584640503,-2.35365475236716,1.95310449399547,2.58115784481168,2063.952,2065.22,2066.322,2065.896,3.07792735099792,44.9963493347168,358.772247314453,-0.890989601612091,-0.38343608379364,0.544139683246613,-0.88825927318574,-0.382193150160541,0.542623728976554,0
3.32000732421875,-2.37032747268677,1.94612407684326,2.59161376953125,-2.37130830610839,1.94550866300381,2.59194212531393,2068.483,2066.113,2059.963,2062.525,3.1408863067627,44.9962310791016,358.748291015625,-0.880884289741516,-0.379095673561096,0.537898480892181,-0.878034183119985,-0.377793579561194,0.536377381014769,0
3.33999633789063,-2.38773894309998,1.93863081932068,2.60224723815918,-2.38875555478454,1.93800159931817,2.60260037727124,2062.73,2062.814,2062.414,2064.893,3.2001006603241,44.996337890625,358.724853515625,-0.870573461055756,-0.374663174152374,0.53167724609375,-0.867618167158097,-0.373311858882592,0.530014399402376,0
3.36001586914063,-2.40494060516357,1.93122756481171,2.61275196075439,-2.40601888046917,1.93057367255756,2.6131462735431,2063.338,2062.066,2060.327,2062.313,3.25917601585388,44.9964218139648,358.701629638672,-0.860080480575562,-0.370151996612549,0.525232255458832,-0.856999388527103,-0.368742895092007,0.523527553239473,0
3.3800048828125,-2.42192840576172,1.92391681671143,2.62312507629395,-2.42304196557559,1.92324911460621,2.6235454105946,2066.889,2062.65,2055.243,2059.259,3.31692409515381,44.9963531494141,358.679595947266,-0.849401652812958,-0.365559875965118,0.518652975559235,-0.846214826007803,-0.364102599125748,0.516939432286212,0
3.39999389648438,-2.43869924545288,1.91669893264771,2.63336706161499,-2.43984769972619,1.91601807669906,2.63381177133889,2060,2059.385,2059.051,2061.698,3.369553565979,44.9965362548828,358.657989501953,-0.83853417634964,-0.36088353395462,0.512095391750336,-0.835253140422974,-0.35938609205264,0.510243109616171,0
3.42001342773438,-2.45524930953979,1.90957617759705,2.64347338676453,-2.45645774020782,1.90887124031063,2.64395858587455,2058.847,2058.909,2058.774,2059.159,3.42176651954651,44.9966697692871,358.636474609375,-0.827504813671112,-0.356139838695526,0.505321621894836,-0.824102019042908,-0.354588076049064,0.503431063574906,0
3.44000244140625,-2.47157549858093,1.90254974365234,2.65344190597534,-2.47281804716281,1.90183185728196,2.6539528420958,2061.854,2059.606,2054.326,2056.274,3.47394347190857,44.9966201782227,358.616088867188,-0.81630951166153,-0.351327389478683,0.498425781726837,-0.812800388649434,-0.349725300221754,0.496527073925997,0
3.46002197265625,-2.48767423629761,1.89562094211578,2.66327285766602,-2.48897526921199,1.89487985601472,2.66382303691717,2055.889,2056.776,2057.352,2058.503,3.52281427383423,44.9967651367188,358.596160888672,-0.804942667484283,-0.346439927816391,0.49155205488205,-0.801318788528228,-0.344785088448372,0.489513143578788,0
3.48001098632813,-2.50354290008545,1.88879096508026,2.67296171188354,-2.50487694859767,1.88803780761656,2.67353712471306,2059.992,2057.49,2052.564,2054.582,3.57232594490051,44.9967498779297,358.5771484375,-0.793428599834442,-0.341490834951401,0.484444081783295,-0.789697369743255,-0.339784716610052,0.482413800191712,0
3.5,-2.51917791366577,1.88206160068512,2.68250918388367,-2.5205447997813,1.88129636896134,2.68310837050915,2054.538,2054.858,2055.324,2056.702,3.61857533454895,44.9969100952148,358.558502197266,-0.78175163269043,-0.336469382047653,0.477373868227005,-0.777924000354857,-0.334718964672089,0.475221632552147,0
3.52001953125,-2.5345766544342,1.87543368339539,2.69191145896912,-2.53599921507943,1.87464676580493,2.69254923165338,2055.322,2054.539,2053.473,2054.355,3.66517090797424,44.9970016479492,358.540069580078,-0.769934177398682,-0.331388473510742,0.470116138458252,-0.765985728654519,-0.329582259876133,0.467928728663466,0
3.54000854492188,-2.54973578453064,1.86890888214111,2.70116662979126,-2.55119019794619,1.86811051026429,2.70182916603607,2059.066,2055.295,2048.617,2051.714,3.71094679832458,44.9969291687012,358.522827148438,-0.757970929145813,-0.326244562864304,0.462754428386688,-0.753924423002452,-0.324392617007921,0.460560665253582,0
3.55999755859375,-2.56465291976929,1.86248826980591,2.71027493476868,-2.56613872308604,1.86167857751006,2.71096098677687,2054.047,2052.822,2051.139,2053.792,3.75213027000427,44.9970588684082,358.506225585938,-0.745858311653137,-0.321033179759979,0.455421179533005,-0.741727567798258,-0.319144650954242,0.45310979673751,0
3.58001708984375,-2.57932543754578,1.85617327690125,2.71923327445984,-2.58086439685043,1.85534253147694,2.71995667108993,2053.738,2052.37,2050.519,2051.854,3.79203391075134,44.9971771240234,358.490051269531,-0.73362123966217,-0.315769076347351,0.447918891906738,-0.729381927869994,-0.313832666990361,0.445568037955247,0
3.60000610351563,-2.59375095367432,1.84996390342712,2.72803974151611,-2.59531978247425,1.84912278287974,2.72878724059568,2056.205,2052.907,2047.141,2049.599,3.83051824569702,44.9971580505371,358.475036621094,-0.72125905752182,-0.310452282428741,0.440322995185852,-0.716930938559024,-0.308475354130224,0.437961922879033,0
3.6199951171875,-2.6079261302948,1.84386253356934,2.73669481277466,-2.60952509409627,1.84301063413925,2.73746504379605,2050.683,2050.778,2050.375,2051.509,3.86501979827881,44.9973258972168,358.460662841797,-0.708769977092743,-0.305079936981201,0.432752639055252,-0.704361775018033,-0.303067194200314,0.43028361700977,0
3.6400146484375,-2.62185001373291,1.83786916732788,2.74519538879395,-2.62349913748426,1.83699799365897,2.74600156884113,2050.857,2050.465,2049.465,2049.693,3.89938497543335,44.9974327087402,358.446716308594,-0.696176648139954,-0.299665093421936,0.425030082464218,-0.691660998977508,-0.297602405088683,0.422524911118315,0
3.66000366210938,-2.63551950454712,1.83198523521423,2.7535400390625,-2.63719712493647,1.83110413233575,2.75436945562281,2053.778,2051.052,2045.789,2047.657,3.93313670158386,44.9974098205566,358.433959960938,-0.683475732803345,-0.294204950332642,0.417227745056152,-0.678873453515702,-0.29210028151913,0.414713199141411,0
3.67999267578125,-2.64893245697021,1.82621121406555,2.76172924041748,-2.65063849381582,1.82532068681534,2.76258057812278,2049.939,2049.068,2047.703,2049.48,3.96337604522705,44.9975357055664,358.421905517578,-0.670664072036743,-0.288694977760315,0.409454703330994,-0.665986083416798,-0.286555206197011,0.406840505851433,0
3.70001220703125,-2.6620876789093,1.82054805755615,2.76976013183594,-2.66384123964357,1.81963991412768,2.77064592952416,2050.501,2048.918,2046.615,2047.757,3.9926323890686,44.997631072998,358.410369873047,-0.657762885093689,-0.283146679401398,0.40154430270195,-0.65298533214413,-0.280961346123326,0.398898549771683,0
