t,x_s1,x_s2,x_s3,x_s_d1,x_s_d2,x_s_d3,propellers_rpms1,propellers_rpms2,propellers_rpms3,propellers_rpms4,rollRad,pitchRad,yawRad,v_s1,v_s2,v_s3,v_s_d1,v_s_d2,v_s_d3,insideCount
0,-0.0599999986588955,2.94000005722046,1.17999994754791,-0.0599999986588955,2.94000005722046,1.17999994754791,0,0,0,0,0,0,0,0,0,0,-1.06581410364015E-15,4.44089209850063E-16,4.44089209850063E-16,0
0.0200042724609375,-0.0599999986588955,2.94000005722046,1.17615437507629,-0.0600018701838461,2.93999925195556,1.18000110611101,0,0,0,0,0,0,0,0,0,-0.192275941371918,-0.000280105751305916,-0.000120521679537258,0.00017339880334547,9
0.0399932861328125,-0.0599999986588955,2.94000005722046,1.16854023933411,-0.060014863945674,2.93999366110285,1.18000914986856,0,0,0,0,0,0,0,-2.58693946061287E-22,-3.88396258331244E-24,-0.380706369876862,-0.00111059898697896,-0.000477859717552347,0.000687513678106196,9
0.05999755859375,-0.0599999986588955,2.94000005722046,1.16209828853607,-0.0600498857373401,2.93997859220429,1.18003083002592,2729.158,2675.419,2549.058,2604.208,-0.001365136,2.001198E-06,-0.0005741775,-1.7994876699845E-09,-4.41060610256727E-09,-0.322100013494492,-0.00247936261166862,-0.00106680046642749,0.00153484356504269,9
0.0800018310546875,-0.0599972531199455,2.93999361991882,1.15672361850739,-0.0601175574246769,2.93994947496775,1.18007272202403,2722.475,2694.417,2468.437,2495.88,-0.005188903,8.089709E-06,-0.00144077,0.000137341252411716,-0.00032654611277394,-0.268735945224762,-0.00437268608126799,-0.00188144466206175,0.00270690098422899,9
0.100006103515625,-0.0599877759814262,2.93996286392212,1.15231907367706,-0.0602282404704493,2.93990185114529,1.18014124010193,2568.693,2685.833,2542.108,2420.32,-0.01059938,1.300776E-05,-0.001048753,0.000473833410069346,-0.0015415494563058,-0.220226958394051,-0.00677739276378709,-0.00291612276782231,0.00419552897277328,9
0.1199951171875,-0.0599736273288727,2.93988347053528,1.14879488945007,-0.0603918861403606,2.93983143898525,1.18024254456713,2452.667,2640.713,2580.76,2390.491,-0.01667299,5.592866E-06,0.001338244,0.000707475410308689,-0.00396862672641873,-0.176207721233368,-0.00967801353495435,-0.00416417885169243,0.00599115140585487,9
0.139999389648438,-0.0599658824503422,2.93972945213318,1.14606821537018,-0.0606185767455666,2.93973390035084,1.18038287685052,2359.553,2554.143,2601.308,2408.723,-0.02222355,-2.730159E-05,0.005766553,0.000387316627893597,-0.0077015059068799,-0.136334329843521,-0.0130660253322238,-0.00562194567796536,0.00808849210174802,9
0.160003662109375,-0.0599843114614487,2.93947815895081,1.14406263828278,-0.0609177895434042,2.93960515744296,1.18056810382587,2308.665,2451.653,2584.52,2448.9,-0.02629073,-8.544143E-05,0.01166411,-0.000921537692192942,-0.0125620337203145,-0.100280962884426,-0.0169265510445065,-0.00728302204135792,0.0104783414199936,9
0.17999267578125,-0.0600543618202209,2.93911480903625,1.14270782470703,-0.0612985250199726,2.93944133760391,1.18080379722281,2300.599,2355.761,2530.045,2487.68,-0.02839356,-0.0001502023,0.01807569,-0.00350248441100121,-0.0181702189147472,-0.0677383616566658,-0.0212433804254414,-0.00914043312572283,0.0131506644458931,8
0.199996948242188,-0.0602026544511318,2.93863344192505,1.14193964004517,-0.0617704296168641,2.93923829023936,1.18109592864822,2325.134,2286.58,2447.912,2504.549,-0.02864549,-0.0001981392,0.02398437,-0.00741462409496307,-0.0240628067404032,-0.0384117290377617,-0.0260104776919234,-0.0111915819022102,0.0161017247421801,8
0.220001220703125,-0.0604525431990623,2.93803691864014,1.14169931411743,-0.0623420644491781,2.93899233174064,1.18144979784016,2364.178,2255.32,2355.861,2488.142,-0.02767823,-0.0002141181,0.0286203,-0.012494433671236,-0.0298262946307659,-0.0120186097919941,-0.03121219533433,-0.0134297356845702,0.019321835755004,8
0.240005493164063,-0.0608209930360317,2.93733286857605,1.14193344116211,-0.0630219993990999,2.93869977472688,1.18187070996396,2394.783,2259.787,2277.401,2439.542,-0.02637275,-0.0002018676,0.03168852,-0.0184225030243397,-0.0352046154439449,0.0117081478238106,-0.0368361158647881,-0.0158495515746756,0.0228033104678445,8
0.259994506835938,-0.0613176561892033,2.93653011322021,1.14259386062622,-0.0638179029240226,2.93835731967507,1.18236341216003,2403.049,2288.101,2226.946,2369.632,-0.02558073,-0.000175236,0.03339779,-0.0248331930488348,-0.040142223238945,0.0330190435051918,-0.0428651747123285,-0.0184436871643672,0.0265355850983733,8
0.279998779296875,-0.0619461163878441,2.93563485145569,1.1436368227005,-0.0647390625194898,2.93796097043536,1.18293365383054,2382.234,2321.753,2212.028,2295.649,-0.02585503,-0.0001459412,0.03434709,-0.0314229279756546,-0.0447665341198444,0.0521451607346535,-0.0492963837173861,-0.0212108567320638,0.030516809833474,8
0.300003051757813,-0.0627066791057587,2.93464851379395,1.14502274990082,-0.0657927507678135,2.93750759781875,1.18358593705038,2338.521,2344.212,2225.902,2234.332,-0.02733682,-0.0001219728,0.03528203,-0.0380280911922455,-0.0493152737617493,0.0692991092801094,-0.0561132031658829,-0.0241439437008635,0.0347367458022363,8
0.319992065429688,-0.0635996386408806,2.9335675239563,1.14671623706818,-0.0669855955880233,2.93699435001684,1.18432436481717,2280.727,2343.31,2259.201,2197.97,-0.02972461,-0.000108657,0.03687016,-0.0446478426456451,-0.0540456436574459,0.0846731513738632,-0.0632980253096114,-0.0272353719486164,0.0391844929697465,8
0.339996337890625,-0.0646280497312546,2.93238472938538,1.1486850976944,-0.068326768706371,2.93641728069206,1.18515461486636,2225.112,2316.842,2293.383,2190.615,-0.03242612,-0.000108657,0.03948443,-0.0514204204082489,-0.0591422580182552,0.0984418094158173,-0.0708499516420146,-0.0304847548730522,0.0438594951176439,8
0.360000610351563,-0.065799169242382,2.93109154701233,1.15090048313141,-0.0698225328270578,2.93577369517774,1.1860805641102,2186.59,2272.105,2311.181,2206.998,-0.03480432,-0.0001203749,0.04309962,-0.0585561394691467,-0.0646609365940094,0.11076745390892,-0.0787518717320621,-0.0338847303337087,0.0487511600740379,8
0.3800048828125,-0.0671242326498032,2.92968106269836,1.15333652496338,-0.0714797725314022,2.93506063123087,1.18710647443246,2168.965,2220.585,2308.274,2235.698,-0.03634416,-0.0001384844,0.04737008,-0.0662531033158302,-0.0705249235033989,0.121801875531673,-0.0869921272359981,-0.0374302820709642,0.0538522707687797,8
0.399993896484375,-0.0686168819665909,2.92814993858337,1.15597033500671,-0.0733036822025899,2.9342758538535,1.18823556140379,2174.25,2176.436,2281.5,2263.293,-0.03683045,-0.0001533981,0.05174788,-0.0746325328946114,-0.0765550807118416,0.131689682602882,-0.0955525119207663,-0.0411135764513579,0.0591515566763244,8
0.419998168945313,-0.0702909007668495,2.92649936676025,1.15878164768219,-0.0753034649285836,2.93341540321397,1.18947352217404,2194.332,2149.558,2239.803,2278.592,-0.03636973,-0.0001565939,0.05568447,-0.083700954914093,-0.0825345665216446,0.140568301081657,-0.104434660908044,-0.0449353170220673,0.0646500300148815,8
0.44000244140625,-0.0721579790115356,2.92473387718201,1.16175305843353,-0.077483988232608,2.93247718495301,1.19082336997196,2221.278,2145.625,2191.492,2275.227,-0.03536838,-0.0001464739,0.0587798,-0.0933539494872093,-0.0882751941680908,0.148570656776428,-0.113620829717891,-0.048887868829098,0.0703367061060819,8
0.459991455078125,-0.0742261707782745,2.92286038398743,1.16486942768097,-0.0798493430620752,2.93145943885026,1.19228763728888,2240.299,2160.505,2154.645,2253.618,-0.03432762,-0.0001272991,0.06093182,-0.103409685194492,-0.0936764478683472,0.15581987798214,-0.123092454730403,-0.0529632444654124,0.0762000931848968,8
0.479995727539063,-0.0764995962381363,2.92088556289673,1.16811800003052,-0.0824088828700873,2.93035814037613,1.19387211435783,2245.958,2185.894,2135.65,2220.736,-0.03369751,-0.0001081243,0.06231794,-0.113671310245991,-0.098741427063942,0.162426620721817,-0.132852887402757,-0.0571628859694044,0.0822422659629699,8
0.5,-0.0789792612195015,2.91881418228149,1.17148780822754,-0.085166398670376,2.92917165836334,1.1955791479969,2238.516,2212.25,2134.224,2185.95,-0.03377527,-9.409996E-05,0.06329235,-0.123983167111874,-0.103563524782658,0.168490707874298,-0.142884000065179,-0.0614789935111996,0.0884520025491718,8
0.520004272460938,-0.0816645622253418,2.91664838790894,1.17496979236603,-0.088127196023106,2.92789770997757,1.19741202260058,2216.754,2228.535,2153.185,2158.395,-0.03457902,-8.741603E-05,0.06430124,-0.134264931082726,-0.108293429017067,0.174097165465355,-0.153174893518032,-0.065906877469682,0.0948225558197254,9
0.539993286132813,-0.0845551192760468,2.91438674926758,1.17855620384216,-0.091293865515634,2.92653518056143,1.19937234186584,2190.464,2230.291,2179.956,2145.08,-0.03590101,-8.772588E-05,0.0657041,-0.144527807831764,-0.113081075251102,0.17931841313839,-0.163706645289342,-0.0704383960337938,0.101342211863077,9
0.55999755859375,-0.087652213871479,2.91202616691589,1.18224048614502,-0.094676112580471,2.92507989413848,1.20146611391775,2166.042,2216.814,2206.764,2147.814,-0.03737587,-9.295213E-05,0.067686,-0.154854878783226,-0.118031181395054,0.184215486049652,-0.17448465888317,-0.0750758741803766,0.108014315705644,9
0.580001831054688,-0.0909595042467117,2.90956282615662,1.18601739406586,-0.0982762614093182,2.92353085067394,1.20369477754168,2153.531,2194.94,2219.953,2163.269,-0.03866111,-9.998294E-05,0.07018562,-0.165364518761635,-0.123172499239445,0.18884539604187,-0.185490414529404,-0.0798113433697334,0.11482740272751,9
0.600006103515625,-0.0944827049970627,2.90699362754822,1.18988263607025,-0.102098762959148,2.92188613504538,1.20606108809202,2150.813,2170.468,2222.662,2184.342,-0.03948136,-0.0001049285,0.07299143,-0.176160052418709,-0.128464683890343,0.193259954452515,-0.196713446836865,-0.0846403006364086,0.121774994352997,9
0.6199951171875,-0.098228707909584,2.9043173789978,1.1938328742981,-0.106144683970236,2.92014528826426,1.20856570593183,2160.153,2152.191,2210.644,2203.982,-0.03974715,-0.0001043959,0.07579055,-0.18730029463768,-0.133812800049782,0.197509303689003,-0.208134604141382,-0.0895545055543457,0.128845234789665,9
0.639999389648438,-0.10220430791378,2.90153527259827,1.1978657245636,-0.110424235525481,2.91830391678686,1.21121495220784,2175.506,2144.173,2191.496,2216.279,-0.03953569,-9.740852E-05,0.07829373,-0.19877989590168,-0.139106005430222,0.201640859246254,-0.219761081350814,-0.0945570538913933,0.136042578028218,9
0.660003662109375,-0.106415018439293,2.89865016937256,1.20197975635529,-0.114938248900541,2.91636166293851,1.21400934151928,2194.84,2150.125,2166.679,2218.008,-0.03910958,-8.540379E-05,0.08029003,-0.210535749793053,-0.144251346588135,0.205703169107437,-0.231574097577923,-0.0996398647564507,0.143355397804799,9
0.67999267578125,-0.110864289104939,2.89566588401794,1.206174492836,-0.119686638739014,2.91431856344567,1.21694882102647,2206.989,2165.004,2152.176,2209.121,-0.0387426,-7.248847E-05,0.08176412,-0.222463577985764,-0.149210348725319,0.209739342331886,-0.243554411173546,-0.104794659005432,0.150771782621969,9
0.699996948242188,-0.115553446114063,2.89258599281311,1.21045017242432,-0.124680083855354,2.91217002351282,1.22004000142426,2211.207,2183.885,2148.531,2194.505,-0.03865791,-6.332579E-05,0.08285123,-0.234457731246948,-0.153999745845795,0.213784694671631,-0.255710395848158,-0.11002503961202,0.158296916205407,9
0.720001220703125,-0.12048228085041,2.88941240310669,1.21480762958527,-0.129918284978346,2.90991617190799,1.22328269744952,2210.2,2202.438,2151.853,2179.684,-0.03901371,-5.937951E-05,0.08375002,-0.246441751718521,-0.158680960536003,0.217870518565178,-0.268023157655716,-0.11532287703907,0.16591910230247,9
0.740005493164063,-0.125649869441986,2.88614559173584,1.21924805641174,-0.13540428105644,2.90755570105657,1.22667879035609,2200.213,2213.229,2169.151,2168.646,-0.0397791,-6.055582E-05,0.08471975,-0.258380144834518,-0.163345605134964,0.222018897533417,-0.280482990349159,-0.120683994959631,0.173632332283853,9
0.759994506835938,-0.131055667996407,2.88278412818909,1.22377300262451,-0.14113644597991,2.90508931062815,1.2302272735046,2189.163,2215.39,2188.79,2165.885,-0.04081401,-6.578031E-05,0.08594854,-0.27029025554657,-0.168077304959297,0.226245120167732,-0.293070637251543,-0.126100107763583,0.181424685349205,9
0.779998779296875,-0.136700198054314,2.87932562828064,1.22838413715363,-0.147126184485884,2.90251209348295,1.23393520697061,2179.247,2208.387,2208.285,2172.052,-0.04188779,-7.260509E-05,0.08752239,-0.28222644329071,-0.172929748892784,0.230557799339294,-0.305795832832518,-0.131575403921268,0.189302187598958,9
0.800003051757813,-0.142585396766663,2.87576746940613,1.23308348655701,-0.153371683173492,2.89982482987671,1.2378014681726,2178.195,2198.622,2215.702,2185.022,-0.04283162,-7.769501E-05,0.08936603,-0.294259876012802,-0.177909314632416,0.234967261552811,-0.318639638509124,-0.13710173468952,0.197253115148089,9
0.819992065429688,-0.148714289069176,2.87210774421692,1.23787307739258,-0.159870162197751,2.89702871589906,1.2418243362541,2180.522,2187.622,2219.886,2199.716,-0.04349634,-7.951515E-05,0.09135387,-0.306445002555847,-0.18298801779747,0.23948161303997,-0.33158286215529,-0.142670842232658,0.205265587156312,9
0.839996337890625,-0.155090481042862,2.8683454990387,1.24275517463684,-0.166633637018892,2.89411858163313,1.24601124935738,2188.331,2180.334,2216.485,2213.246,-0.04382977,-7.746567E-05,0.09331696,-0.318809658288956,-0.188108161091805,0.244107708334923,-0.344636106234817,-0.148287288494656,0.213346167053785,9
0.860000610351563,-0.161717444658279,2.8644814491272,1.24773228168488,-0.173659158941841,2.89109569582005,1.2503603820997,2202.546,2181.589,2202.918,2222.5,-0.04394056,-7.105563E-05,0.09506617,-0.33134725689888,-0.193202823400497,0.248857438564301,-0.357780475378537,-0.153942943326036,0.221483157706883,9
0.8800048828125,-0.168597683310509,2.86051678657532,1.25280714035034,-0.180948461186242,2.88795931270381,1.25487280742661,2213.115,2188.26,2195.126,2224.522,-0.04395281,-6.338905E-05,0.0965291,-0.344012707471848,-0.198227867484093,0.253740578889847,-0.371007022483504,-0.159633957038354,0.229671020432672,9
0.899993896484375,-0.175732627511024,2.85645341873169,1.2579824924469,-0.18849723509595,2.8847112861788,1.25954585807468,2221.632,2200.287,2189.482,2221.312,-0.04402632,-5.64817E-05,0.09771118,-0.356746882200241,-0.203165277838707,0.258765369653702,-0.384296738353309,-0.165352150505452,0.237897987633041,9
0.919998168945313,-0.183122456073761,2.85229277610779,1.2632611989975,-0.196318384305134,2.8813460641717,1.26438752200817,2224.351,2212.409,2192.261,2215.443,-0.04425694,-5.3181E-05,0.09870772,-0.369492292404175,-0.208029478788376,0.263934940099716,-0.397661187980262,-0.171102499820431,0.246171218589148,9
0.94000244140625,-0.190766707062721,2.84803557395935,1.26864624023438,-0.204407453948074,2.87786556348678,1.26939504145298,2226.43,2224.914,2194.997,2210.079,-0.04473897,-5.31276E-05,0.09961617,-0.382212072610855,-0.212854400277138,0.269253075122833,-0.411081631631503,-0.176876941799768,0.254479112513653,9
0.959991455078125,-0.198664471507072,2.84368181228638,1.27414059638977,-0.212759000778906,2.87427212620069,1.27456504678061,2222.006,2231.425,2208.717,2206.295,-0.0454282,-5.648431E-05,0.1005868,-0.394889444112778,-0.217692136764526,0.274717569351196,-0.424539267042903,-0.182667386354485,0.262810029909387,9
0.979995727539063,-0.206815227866173,2.83923006057739,1.27974700927734,-0.22138664033507,2.87055989392801,1.27990596665734,2216.819,2232.178,2223.928,2207.48,-0.04621277,-6.198235E-05,0.1017253,-0.407538264989853,-0.222584769129753,0.280320554971695,-0.438046240701377,-0.188479059778567,0.271171490030365,9
1,-0.215219110250473,2.8346791267395,1.28546810150146,-0.230284798736574,2.86673126495361,1.28541435058594,2216.993,2230.871,2230.644,2213.982,-0.04701385,-6.706809E-05,0.1030249,-0.420194119215012,-0.227550849318504,0.286057412624359,-0.451584000205995,-0.194303979492187,0.279552008056641,9
1.02000427246094,-0.223876908421516,2.83002734184265,1.2913064956665,-0.239454009753966,2.86278600961093,1.2910905289958,2216.528,2225.709,2239.91,2222.406,-0.04770627,-7.056231E-05,0.1044656,-0.432890236377716,-0.232592642307281,0.291920900344849,-0.465144357597929,-0.200138622445408,0.287946515251652,9
1.03999328613281,-0.232790023088455,2.82527351379395,1.29726457595825,-0.248887339851819,2.85872711120656,1.2969302096982,2220.625,2221.72,2242.017,2232.195,-0.04822559,-7.165685E-05,0.1059641,-0.445655226707458,-0.237686425447464,0.29790461063385,-0.478708875293167,-0.205975055460915,0.29634359787259,9
1.05999755859375,-0.241960018873215,2.82041764259338,1.30334460735321,-0.258599401509697,2.85454828239877,1.30294243851408,2226.024,2218.889,2242.349,2241.087,-0.04853664,-7.034974E-05,0.1074321,-0.458499848842621,-0.242795959115028,0.304001152515411,-0.492290296490434,-0.211818761581115,0.30475114456651,9
1.08000183105469,-0.251388341188431,2.81545996665955,1.30954885482788,-0.268583149539609,2.85025255453512,1.30912285413647,2236.759,2222.566,2232.946,2247.838,-0.04873212,-6.619806E-05,0.1087465,-0.471416890621185,-0.247878283262253,0.310209572315216,-0.50587040849135,-0.217661904390701,0.313157880805523,10
1.10000610351563,-0.26107582449913,2.81040167808533,1.31587934494019,-0.278838480013141,2.84583997233313,1.31547139222872,2242.982,2228.07,2231.272,2249.346,-0.04887593,-6.202727E-05,0.1098869,-0.48437374830246,-0.252910375595093,0.316527247428894,-0.519441457145546,-0.223501147495394,0.321559006401169,10
1.1199951171875,-0.271022498607635,2.80524396896362,1.32233834266663,-0.289357002179081,2.84131414609862,1.32198285851614,2248.427,2236.475,2229.709,2248.392,-0.04905756,-5.90475E-05,0.1108654,-0.497333914041519,-0.257882684469223,0.322950780391693,-0.532985466132485,-0.229328756186667,0.329943393154705,10
1.13999938964844,-0.281227767467499,2.79998779296875,1.32892775535583,-0.300154365346813,2.83666834237095,1.3286669406667,2249.831,2243.594,2234.389,2246.156,-0.04930896,-5.841533E-05,0.1117489,-0.510263741016388,-0.262803882360458,0.329472631216049,-0.546515580872639,-0.235150386571708,0.338319178707607,10
1.16000366210938,-0.291690647602081,2.79463410377502,1.33564949035645,-0.311222084148811,2.83190621216671,1.33551838583369,2253.155,2252.099,2234.577,2244.972,-0.04969938,-5.962308E-05,0.1125715,-0.523144364356995,-0.26768946647644,0.336088925600052,-0.560014026276883,-0.240958390526247,0.34667535943296,10
1.17999267578125,-0.302409917116165,2.78918266296387,1.3425053358078,-0.322550701230474,2.8270318247214,1.34253133946411,2250.986,2255.795,2244.87,2243.713,-0.05018834,-6.273977E-05,0.1134254,-0.535963952541351,-0.272568672895432,0.3427914083004,-0.573463232144024,-0.246745208083563,0.355001058539242,10
1.19999694824219,-0.313384503126144,2.78363347053528,1.34949672222137,-0.334156660511822,2.8220381046756,1.34971598112778,2248.436,2255.968,2255.764,2245.371,-0.05069434,-6.716223E-05,0.1143742,-0.548729479312897,-0.277461647987366,0.349567502737045,-0.58687652428584,-0.252516572968185,0.36330452533874,10
1.22000122070313,-0.324613749980927,2.7779860496521,1.35662496089935,-0.346030421585499,2.81692915700008,1.35706640485806,2251.19,2256.551,2257.016,2250.818,-0.0511998,-7.059456E-05,0.1153838,-0.561461567878723,-0.282371580600739,0.356409877538681,-0.600236516861372,-0.258265004538453,0.371574997167698,10
1.24000549316406,-0.336097210645676,2.77224016189575,1.36389112472534,-0.358170848086624,2.8117054706409,1.36458190719098,2251.394,2254.046,2264.04,2255.851,-0.05162698,-7.282331E-05,0.1164508,-0.574173212051392,-0.28729784488678,0.363309144973755,-0.613536214864368,-0.263987493038594,0.379808143784027,10
1.25999450683594,-0.34783473610878,2.76639580726624,1.37129628658295,-0.3705671011502,2.80637170925886,1.37225577835275,2254.652,2252.797,2265.487,2261.862,-0.05194655,-7.348245E-05,0.1175274,-0.586876392364502,-0.292223632335663,0.370256662368774,-0.626758665639206,-0.269676744214496,0.387993470686331,10
1.27999877929688,-0.35982620716095,2.76045322418213,1.37884116172791,-0.383236695417198,2.80092033679326,1.3800988607405,2257.647,2251.352,2267.538,2267.293,-0.05212605,-7.260533E-05,0.1185725,-0.599572479724884,-0.297126173973083,0.377241998910904,-0.639917282339435,-0.275338529371412,0.396139281255613,10
1.30000305175781,-0.372071236371994,2.75441360473633,1.38652634620667,-0.396168722856641,2.79535604666509,1.38810440176341,2265.637,2255.38,2259.61,2272.056,-0.05224856,-7.031092E-05,0.1194977,-0.612255036830902,-0.301977038383484,0.384262353181839,-0.652995275331231,-0.280965624398954,0.404235181908735,10
1.31999206542969,-0.384569227695465,2.74827837944031,1.39435255527496,-0.409351342777246,2.78968393359302,1.39626507146953,2268.806,2258.969,2260.695,2272.724,-0.05234123,-6.801403E-05,0.1203075,-0.62489902973175,-0.306765198707581,0.391312539577484,-0.665976209205206,-0.286550957599616,0.412270998344359,10
1.33999633789063,-0.397318840026855,2.74204874038696,1.40232026576996,-0.422802873722428,2.78389611561957,1.40459220990988,2270.57,2262.93,2263.377,2272.345,-0.0524222,-6.702691E-05,0.1210298,-0.637480199337006,-0.311485260725021,0.398383915424347,-0.678873453515705,-0.29210028151913,0.420255006953505,11
1.36000061035156,-0.410318464040756,2.73572611808777,1.41042971611023,-0.436511415158101,2.77799771321212,1.41307845008695,2275.388,2270.002,2259.058,2272.594,-0.05257772,-6.693467E-05,0.1216518,-0.649981319904327,-0.316136091947556,0.405473470687866,-0.691670720740693,-0.297606588091785,0.42817712498415,11
1.3800048828125,-0.423566102981567,2.72931146621704,1.41868114471436,-0.450474904562636,2.77198961381608,1.4217225152016,2274.449,2273.493,2265.79,2270.776,-0.0527945,-6.820732E-05,0.1222423,-0.662382423877716,-0.320734292268753,0.412574350833893,-0.704361775018035,-0.303067194200314,0.436033492140578,11
1.39999389648438,-0.437059670686722,2.72280550003052,1.42707467079163,-0.464680216184654,2.76587746507559,1.43051627978847,2274.1,2276.153,2270.755,2270.621,-0.05305976,-7.082733E-05,0.1228443,-0.674678146839142,-0.325293362140656,0.419678449630737,-0.716930938559026,-0.308475354130225,0.443814403124744,11
1.41999816894531,-0.450797110795975,2.71620893478394,1.43561017513275,-0.47914673136562,2.75965292774086,1.43947174182117,2272.111,2275.051,2278.914,2272.196,-0.05330317,-7.40016E-05,0.1234975,-0.686871886253357,-0.329823523759842,0.426773846149445,-0.729391385793766,-0.313836736470737,0.451528013536465,11
1.44000244140625,-0.464776605367661,2.70952248573303,1.44428730010986,-0.493861275572861,2.75332167044526,1.4485807456364,2275.593,2276.336,2276.355,2276.451,-0.05354179,-7.586785E-05,0.1241539,-0.69897598028183,-0.334320813417435,0.433855414390564,-0.741727567798258,-0.319144650954242,0.459164697851088,11
1.45999145507813,-0.478996455669403,2.70274686813354,1.4531055688858,-0.508809800712713,2.74688973769103,1.45783459479497,2275.469,2274.672,2281.686,2279.037,-0.05372288,-7.702999E-05,0.1248203,-0.710992097854614,-0.338784426450729,0.440915673971176,-0.753924423002454,-0.324392617007921,0.466715132239272,11
1.47999572753906,-0.493454933166504,2.69588279724121,1.46206450462341,-0.524012471663969,2.74034845309416,1.46724577231745,2276.084,2272.766,2285.359,2282.304,-0.05380278,-7.727771E-05,0.1254858,-0.722922801971436,-0.343202501535416,0.447944283485413,-0.765994882555672,-0.329586198544069,0.474187321698441,11
1.5,-0.508150339126587,2.6889317035675,1.47116327285767,-0.539455198877605,2.73370387899399,1.4768055561018,2282.024,2275.314,2278.049,2286.595,-0.05384326,-7.615401E-05,0.1260705,-0.734769463539124,-0.347554594278336,0.45493882894516,-0.777924000354858,-0.334718964672088,0.481572013878822,11
1.52000427246094,-0.52308064699173,2.6818950176239,1.48040115833282,-0.555135099954955,2.72695725560613,1.48651216180595,2283.339,2276.316,2280.157,2287.289,-0.05384166,-7.463421E-05,0.1265807,-0.746515929698944,-0.351833611726761,0.461894541978836,-0.789706299681991,-0.339788558913217,0.48886581843107,11
1.53999328613281,-0.538243532180786,2.67477440834045,1.48977732658386,-0.571036956668503,2.72011513090874,1.49635616862212,2285.611,2279.228,2279.444,2287.59,-0.05382888,-7.37796E-05,0.1270142,-0.758147776126862,-0.356031864881516,0.468806594610214,-0.801327600455846,-0.344788879974649,0.496059957209413,11
1.55999755859375,-0.55363655090332,2.66757154464722,1.49929070472717,-0.587181951496087,2.71316839067337,1.50635068951315,2285.418,2280.329,2283.032,2287.361,-0.05379106,-7.400213E-05,0.1273983,-0.769649982452393,-0.360148102045059,0.475666433572769,-0.812800388649436,-0.349725300221754,0.503162159625937,11
1.58000183105469,-0.569256842136383,2.66028785705566,1.50894010066986,-0.60355483331529,2.70612359703193,1.51648628330776,2289.435,2285.093,2277.393,2288.308,-0.05380118,-7.408867E-05,0.1277015,-0.781014263629913,-0.364178568124771,0.482472538948059,-0.824110582941666,-0.354591760855452,0.510163708672098,11
1.60000610351563,-0.585101366043091,2.65292525291443,1.51872444152832,-0.620152298932711,2.69898217125626,1.52676090517188,2288.033,2286.389,2282.847,2286.704,-0.05383793,-7.52078E-05,0.1279756,-0.79222559928894,-0.368134737014771,0.489219695329666,-0.835253140422976,-0.35938609205264,0.51706148254665,11
1.6199951171875,-0.601167023181915,2.64548468589783,1.52864241600037,-0.636958033083316,2.69175113334911,1.53716445517924,2287.742,2287.63,2285.421,2286.586,-0.05389279,-7.672781E-05,0.1282429,-0.803279995918274,-0.37202325463295,0.49590191245079,-0.846214826007804,-0.364102599125749,0.523847288101157,11
1.63999938964844,-0.617450535297394,2.63796782493591,1.53869259357452,-0.653994195024907,2.68442094880091,1.54771065096602,2285.711,2285.806,2291.463,2287.326,-0.05390824,-7.878908E-05,0.1285329,-0.814177751541138,-0.375848710536957,0.502509474754333,-0.857007552155828,-0.368746407673381,0.530528499715628,11
1.66000366210938,-0.633949100971222,2.63037586212158,1.54887342453003,-0.671244443874359,2.67699864863716,1.55838937674714,2289.255,2287.408,2286.004,2290.414,-0.05392528,-7.95689E-05,0.1287896,-0.824926316738129,-0.379603952169418,0.509040236473083,-0.867618167158098,-0.373311858882592,0.53709697585572,11
1.67999267578125,-0.650659501552582,2.62270998954773,1.55918323993683,-0.688691692550512,2.66949158495151,1.56919005480539,2288.325,2286.007,2290.28,2290.917,-0.05390504,-7.993558E-05,0.1290308,-0.83552086353302,-0.38329029083252,0.515489101409912,-0.878034183119987,-0.377793579561193,0.543544985919778,11
1.69999694824219,-0.667578637599945,2.61497187614441,1.56962013244629,-0.706358800111611,2.66188992212981,1.58012683598675,2287.633,2284.207,2293.623,2292.039,-0.05381024,-8.023384E-05,0.1292628,-0.845959901809692,-0.386900782585144,0.521847665309906,-0.888267004546665,-0.382196476749158,0.549879589839776,11
1.72000122070313,-0.684703528881073,2.60716342926025,1.58018243312836,-0.724228658537036,2.6542010212754,1.5911891296115,2292.21,2286.615,2285.705,2294.802,-0.0537069,-7.922496E-05,0.1294169,-0.856244146823883,-0.390421181917191,0.528115570545197,-0.898304216251578,-0.386515208538549,0.556093102023817,11
1.74000549316406,-0.702030777931213,2.59928631782532,1.5908682346344,-0.742297311768984,2.64642658456943,1.60237448669139,2291.731,2286.615,2288.434,2294.055,-0.0535812,-7.847037E-05,0.1295144,-0.866359412670135,-0.393851071596146,0.534289419651031,-0.908141534469281,-0.390747931744771,0.562182870617028,12
1.75999450683594,-0.719556629657745,2.59134268760681,1.60167551040649,-0.760546715064628,2.63857437616062,1.61367173667103,2292.43,2288.075,2287.934,2293.582,-0.05345017,-7.828351E-05,0.1295592,-0.876296281814575,-0.397187411785126,0.54036557674408,-0.917767514700581,-0.394889722119545,0.568141810929231,12
1.77999877929688,-0.737277567386627,2.58333396911621,1.61260223388672,-0.779000609654483,2.63063418086074,1.62509557650306,2290.915,2287.258,2291.504,2293.051,-0.05328453,-7.902103E-05,0.1295769,-0.886045932769775,-0.400430411100388,0.546336650848389,-0.927192788821983,-0.398945154262308,0.57397650459845,12
1.80000305175781,-0.755189716815948,2.57526254653931,1.62364625930786,-0.797640935141499,2.62261376955408,1.63663482594136,2294.266,2290.462,2284.578,2293.997,-0.05315297,-7.910859E-05,0.1295243,-0.895605981349945,-0.403574734926224,0.552202761173248,-0.936405971974637,-0.402909329586356,0.579679903854719,12
1.81999206542969,-0.773289024829865,2.56713008880615,1.63480544090271,-0.816448984455027,2.61452119137054,1.64827790441807,2292.299,2290.152,2288.848,2292.265,-0.05302833,-7.979449E-05,0.1294424,-0.904964625835419,-0.406628966331482,0.557960450649261,-0.945396434568188,-0.406777674475912,0.585245428475252,12
1.83999633789063,-0.791571319103241,2.5589382648468,1.64607751369476,-0.835449117627072,2.60634596486888,1.66003989195343,2289.969,2288.624,2293.283,2291.485,-0.05287067,-8.108715E-05,0.1293631,-0.914118349552155,-0.409595996141434,0.563601911067963,-0.954174163352093,-0.410554485950274,0.590679260733698,12
1.86000061035156,-0.810032784938812,2.55068874359131,1.65746009349823,-0.854622615239374,2.59809614449182,1.6719092003358,2292.918,2290.508,2286.5,2293.114,-0.05273325,-8.140014E-05,0.129236,-0.923071384429932,-0.412470459938049,0.569127142429352,-0.962728579444532,-0.414235212212131,0.595974851798267,12
1.8800048828125,-0.828669130802155,2.54238367080688,1.66895079612732,-0.873964974649439,2.58977366760063,1.68388304221498,2290.806,2288.974,2290.631,2292.012,-0.05258092,-8.201828E-05,0.1290919,-0.93181699514389,-0.415258139371872,0.574532687664032,-0.971056158224177,-0.417818336715394,0.601130019760457,12
1.89999389648438,-0.847476243972778,2.534024477005,1.68054711818695,-0.893456683142228,2.58138692997148,1.69594933829086,2290.505,2288.401,2290.543,2292.066,-0.05240835,-8.236773E-05,0.1289287,-0.940354764461517,-0.41795739531517,0.579815149307251,-0.979147395688901,-0.421299770153459,0.606138881190213,12
1.91999816894531,-0.866449892520905,2.5256130695343,1.69224643707275,-0.913122862707269,2.57292512231409,1.70812364027167,2288.479,2285.609,2293.853,2292.216,-0.05217133,-8.289596E-05,0.1287595,-0.948683619499207,-0.420565187931061,0.584967195987701,-0.987011339258123,-0.424683405378145,0.611007036871143,12
1.94000244140625,-0.885585963726044,2.51715159416199,1.70404624938965,-0.932943991899774,2.5643966441608,1.72039386345315,2292.122,2287.378,2285.237,2293.961,-0.0519359,-8.238599E-05,0.1285189,-0.956806123256683,-0.4230697453022,0.589990079402924,-0.994638524886308,-0.427965170275055,0.615728628108227,12
1.95999145507813,-0.904880225658417,2.50864219665527,1.71594393253326,-0.952900013794853,2.55581012544606,1.73274759164336,2290.465,2286.348,2287.79,2292.349,-0.0516829,-8.193774E-05,0.1282326,-0.964710652828217,-0.425473272800446,0.59488171339035,-1.00202031904361,-0.431141350077486,0.620298310335216,12
1.97999572753906,-0.924328029155731,2.50008678436279,1.72793662548065,-0.973016570682103,2.54715453300902,1.74520069864106,2288.433,2284.757,2290.385,2291.18,-0.0513841,-8.231158E-05,0.127923,-0.972390830516815,-0.427773624658585,0.599635899066925,-1.00916501115878,-0.434215511495054,0.624721215103391,12
2,-0.943924963474274,2.49148726463318,1.74002170562744,-0.993273599084619,2.53843849960327,1.7577407641983,2291.553,2287.199,2281.926,2291.788,-0.05111352,-8.213163E-05,0.1275381,-0.979845821857452,-0.429963380098343,0.604254305362701,-1.01606400046349,-0.437183953857422,0.628992018127441,12
2.02000427246094,-0.963666260242462,2.48284649848938,1.75219643115997,-1.01366615605493,2.52966415204104,1.77036472839513,2288.993,2286.348,2285.31,2289.245,-0.0508472,-8.264014E-05,0.1271183,-0.987063646316528,-0.432050257921219,0.608734846115112,-1.02271452148052,-0.440045487257004,0.633109007445237,12
2.03999328613281,-0.983547031879425,2.47416567802429,1.7644579410553,-1.03417354141348,2.52084039703127,1.78305977683431,2287.88,2286.164,2285.103,2287.907,-0.05058621,-8.331676E-05,0.1266747,-0.994041085243225,-0.434036999940872,0.613074958324432,-1.02910913225408,-0.442796909628122,0.637067576131623,12
2.05999755859375,-1.00356245040894,2.46544718742371,1.77680325508118,-1.05482201812353,2.5119559343546,1.79584216754118,2284.676,2283.33,2288.954,2286.82,-0.05028368,-8.467367E-05,0.1262357,-1.00077664852142,-0.435926407575607,0.617268085479736,-1.03525504859546,-0.445441325732794,0.640872191117535,12
2.08000183105469,-1.02370798587799,2.45669293403625,1.78922951221466,-1.07559088172821,2.50301967256038,1.80869908347065,2287.281,2284.451,2280.826,2287.873,-0.04999712,-8.493727E-05,0.1257441,-1.00727605819702,-0.437711656093597,0.621315836906433,-1.04114485287423,-0.447975543971863,0.644518260536375,12
2.09999084472656,-1.04397857189178,2.44790506362915,1.8017338514328,-1.09645901288412,2.49404069871208,1.82161745074311,2284.535,2282.314,2283.972,2286,-0.04969405,-8.516492E-05,0.1252302,-1.01353240013123,-0.439397871494293,0.625216126441956,-1.04677201701582,-0.450396755497224,0.648001743199023,12
2.1199951171875,-1.06436955928802,2.43908548355103,1.81431305408478,-1.11745308225396,2.48500753716864,1.83461377976925,2281.811,2279.439,2286.536,2285.002,-0.04933559,-8.585599E-05,0.1247123,-1.01954460144043,-0.440983295440674,0.628963053226471,-1.0521429102862,-0.45270770082608,0.651326581984514,12
2.13999938964844,-1.08487582206726,2.43023633956909,1.82696425914764,-1.138551967509,2.47592927627801,1.8476749948214,2284.685,2280.599,2277.537,2285.872,-0.04898725,-8.546312E-05,0.1241284,-1.02531671524048,-0.442458242177963,0.632558763027191,-1.05725102347782,-0.454905579228273,0.654488747383304,12
2.16000366210938,-1.10549259185791,2.42135977745056,1.83968424797058,-1.15975039167652,2.46680818657414,1.86079782920208,2282.073,2278.855,2279.86,2283.552,-0.04862559,-8.535672E-05,0.1235081,-1.03083908557892,-0.443826973438263,0.636002004146576,-1.0620943502576,-0.456989527434725,0.657486997379635,12
2.17999267578125,-1.12621474266052,2.41245794296265,1.85247004032135,-1.18102676265167,2.45765355853653,1.8739689163698,2280.967,2278.236,2278.566,2281.972,-0.04825648,-8.562885E-05,0.1228555,-1.03610849380493,-0.445088595151901,0.639291107654572,-1.06666760390386,-0.458957270716794,0.660318059240953,12
2.19999694824219,-1.14703726768494,2.40353298187256,1.86531841754913,-1.20240821395574,2.44845371736898,1.88720505326679,2277.78,2275.231,2281.107,2280.615,-0.04784049,-8.623506E-05,0.1221923,-1.04112231731415,-0.446243464946747,0.642420589923859,-1.07097597819164,-0.460811043810786,0.662985148161421,12
2.22000122070313,-1.16795480251312,2.39458727836609,1.8782262802124,-1.22387315175433,2.43921795429519,1.90049287228091,2280.299,2276.495,2272.113,2280.764,-0.04744634,-8.631129E-05,0.1214631,-1.04588341712952,-0.447283864021301,0.645393013954163,-1.07501419914593,-0.462548577472581,0.665484999299265,12
2.24000549316406,-1.18896245956421,2.38562297821045,1.89119040966034,-1.24541615591711,2.42994860144581,1.91382901809327,2277.157,2274.64,2274.569,2278,-0.0470474,-8.65262E-05,0.1207025,-1.05038261413574,-0.448216617107391,0.648207366466522,-1.07878069424208,-0.464169195088763,0.667816639186824,12
2.25999450683594,-1.21005487442017,2.37664222717285,1.90420758724213,-1.26701526177039,2.4206551096063,1.92719989352455,2275.522,2273.667,2273.528,2276.114,-0.04664686,-8.712849E-05,0.1199184,-1.05461812019348,-0.449042677879333,0.650861978530884,-1.08227143928024,-0.465671165158559,0.669977576652695,12
2.27999877929688,-1.23122668266296,2.36764693260193,1.91727459430695,-1.28869796983554,2.41132564607061,1.9406225227075,2271.892,2270.16,2276.144,2274.707,-0.04619785,-8.804128E-05,0.1191331,-1.05858933925629,-0.449763417243958,0.653351664543152,-1.08549040888332,-0.467056197851165,0.67197027217779,12
2.30000305175781,-1.25247275829315,2.35863924026489,1.93038821220398,-1.31044231452835,2.40196966201596,1.95408330789913,2274.189,2270.872,2267.096,2274.779,-0.04576696,-8.816166E-05,0.1182893,-1.06230139732361,-0.450371116399765,0.655679166316986,-1.08843358680109,-0.468322565086307,0.673792239511894,12
2.31999206542969,-1.27378761768341,2.34962201118469,1.94354510307312,-1.33222611841886,2.3925966997709,1.96756852021384,2270.809,2268.475,2269.355,2272.105,-0.0453238,-8.836638E-05,0.1174187,-1.06574690341949,-0.450871556997299,0.65784364938736,-1.09109790637238,-0.469468947365361,0.675441580245663,11
2.33999633789063,-1.29516625404358,2.3405966758728,1.95674192905426,-1.35407709248145,2.38319483607731,1.98109531406483,2267.363,2265.274,2271.203,2270.332,-0.04483272,-8.8993E-05,0.116542,-1.06892490386963,-0.451264232397079,0.659840166568756,-1.09348640563071,-0.470496651869278,0.67692017506657,11
2.36000061035156,-1.31660294532776,2.33156585693359,1.96997535228729,-1.37597305876702,2.37377361348711,1.99464996024512,2269.558,2265.94,2262.002,2270.07,-0.04436027,-8.898041E-05,0.1156033,-1.07183969020844,-0.451541364192963,0.661671817302704,-1.09559602313537,-0.471404361345641,0.678226128796969,11
2.3800048828125,-1.3380925655365,2.32253170013428,1.9832421541214,-1.39790843013262,2.36433543599182,2.00822900004707,2266.074,2263.639,2263.895,2267.148,-0.04388091,-8.911579E-05,0.1146346,-1.07448327541351,-0.451709121465683,0.663338005542755,-1.09742594550583,-0.472191725819537,0.679358937915576,11
2.39999389648438,-1.35962975025177,2.31349611282349,1.99653887748718,-1.41986083522252,2.35488992936084,2.02181858453579,2264.174,2262.289,2262.312,2264.96,-0.04339674,-8.954737E-05,0.1136419,-1.07685458660126,-0.451768100261688,0.664837956428528,-1.09897439291323,-0.472857979480329,0.680317500623536,11
2.41999816894531,-1.38120877742767,2.30446195602417,2.00986218452454,-1.44185817738692,2.34542508756209,2.03543598721428,2260.198,2258.542,2264.406,2263.205,-0.04286464,-9.020879E-05,0.1126471,-1.07895338535309,-0.451719433069229,0.666167020797729,-1.10024313330221,-0.473403883025206,0.681102911362803,11
2.44000244140625,-1.40282464027405,2.2954306602478,2.02320885658264,-1.46387808506052,2.33595053645515,2.04906735901791,2262.343,2258.842,2254.906,2262.86,-0.04235172,-9.019821E-05,0.1115915,-1.08078503608704,-0.451555401086807,0.667328357696533,-1.10123038958312,-0.473828671822132,0.681714070030222,11
2.45999145507813,-1.42447137832642,2.28640508651733,2.03657531738281,-1.48589810917879,2.32647593524532,2.06269880290633,2258.518,2256.315,2256.83,2259.69,-0.04182921,-9.026194E-05,0.1105091,-1.08234202861786,-0.451282173395157,0.66832172870636,-1.10193535162022,-0.474131997292339,0.68215047511319,10
2.47999572753906,-1.44614386558533,2.27738738059998,2.04995822906494,-1.50794623031618,2.31698924467309,2.07634764018804,2254.688,2252.979,2258.228,2257.514,-0.04126302,-9.07776E-05,0.1094218,-1.0836238861084,-0.450899809598923,0.669142961502075,-1.10235882472314,-0.474314205938057,0.682412625136718,10
2.5,-1.46783661842346,2.26837944984436,2.06335401535034,-1.52999999932945,2.30750012397766,2.08999997377396,2256.574,2253.171,2248.916,2256.795,-0.04071867,-9.086389E-05,0.1082746,-1.08463537693024,-0.450401693582535,0.669795334339142,-1.10250000050292,-0.474374949932098,0.682500019669533,10
2.52000427246094,-1.48954403400421,2.25938367843628,2.07675957679749,-1.55205376834272,2.29801100328223,2.10365230735988,2252.568,2250.615,2250.652,2253.487,-0.04016899,-9.114826E-05,0.1071021,-1.08536946773529,-0.449794709682465,0.670279026031494,-1.10235882472314,-0.474314205938057,0.682412625136718,10
2.53999328613281,-1.51126050949097,2.25040197372437,2.09017133712769,-1.57408507527774,2.28853154739156,2.11729073584934,2250.322,2248.892,2248.751,2251.043,-0.03961665,-9.139859E-05,0.1059099,-1.08582651615143,-0.449079990386963,0.670593500137329,-1.10193578218388,-0.474132182551855,0.682150741652607,9
2.55999755859375,-1.5329806804657,2.24143648147583,2.10358595848083,-1.59612191359838,2.27904971150017,2.13093258853001,2245.988,2244.842,2250.437,2249.104,-0.03901637,-9.206308E-05,0.1047189,-1.08600759506226,-0.448258906602859,0.670734643936157,-1.10123038958312,-0.473828671822132,0.681714070030222,9
2.58000183105469,-1.55469918251038,2.2324903011322,2.11700010299683,-1.61814182127198,2.26957516039323,2.14456396033363,2247.796,2244.604,2241.07,2248.268,-0.03843367,-9.20505E-05,0.1034728,-1.08591902256012,-0.447324067354202,0.67070609331131,-1.10024313330221,-0.473403883025206,0.681102911362804,9
2.59999084472656,-1.57641017436981,2.22356462478638,2.13041019439697,-1.64012239440973,2.26011753383818,2.15817098218581,2243.822,2241.635,2242.227,2245.257,-0.03783926,-9.198074E-05,0.1021991,-1.08555471897125,-0.446281254291534,0.670508086681366,-1.09897546783438,-0.47285844198887,0.680318166050934,8
2.6199951171875,-1.59810841083527,2.21466207504272,2.14381289482117,-1.66209156852628,2.2506648119635,2.17177094750084,2239.669,2238.26,2243.284,2242.617,-0.0372017,-9.238243E-05,0.1009217,-1.08491432666779,-0.445130288600922,0.670137047767639,-1.09742594550583,-0.472191725819537,0.679358937915576,6
2.63999938964844,-1.61978840827942,2.20578479766846,2.1572048664093,-1.68402693989188,2.24122663446822,2.18534998730279,2241.394,2238.021,2233.836,2241.487,-0.03658704,-9.226536E-05,0.09958586,-1.08400321006775,-0.443864703178406,0.669596791267395,-1.09559602313537,-0.471404361345641,0.67822612879697,5
2.66000366210938,-1.64144456386566,2.19693493843079,2.17058253288269,-1.70592290617745,2.23180541187802,2.19890463348308,2237.115,2235.294,2235.075,2238.008,-0.03596812,-9.245712E-05,0.0982249,-1.08281493186951,-0.442491471767426,0.668887674808502,-1.09348640563071,-0.470496651869278,0.67692017506657,0
2.67999267578125,-1.66307151317596,2.18811464309692,2.1839427947998,-1.72775723139253,2.2224107117184,2.21242112090437,2234.593,2233.387,2232.916,2235.203,-0.03534867,-9.29463E-05,0.09684545,-1.08134996891022,-0.441012144088745,0.66800981760025,-1.09109983431736,-0.469469776906228,0.675442773735451,0
2.69999694824219,-1.68466365337372,2.17932605743408,2.19728207588196,-1.74955768413056,2.21303058593937,2.22591663964878,2229.976,2229.216,2234.158,2233.069,-0.03468501,-9.354988E-05,0.09546786,-1.07961010932922,-0.43942865729332,0.666959881782532,-1.08843358680109,-0.468322565086308,0.673792239511893,0
2.72000122070313,-1.70621585845947,2.17057132720947,2.21059679985046,-1.77130202882336,2.20367460188472,2.23937742484041,2231.536,2228.612,2224.91,2231.712,-0.03404106,-9.348059E-05,0.09403873,-1.07760190963745,-0.437734365463257,0.665741682052612,-1.08549040888332,-0.467056197851165,0.671970272177789,0
2.74000549316406,-1.72772228717804,2.16185259819031,2.22388386726379,-1.79298473688851,2.19434513834902,2.25280005402337,2227.16,2225.531,2225.872,2228.428,-0.03338858,-9.355669E-05,0.0925875,-1.07532048225403,-0.435935616493225,0.664355874061584,-1.08227143928024,-0.465671165158559,0.669977576652695,0
2.75999450683594,-1.74917769432068,2.1531720161438,2.23713994026184,-1.81458384274179,2.18505164650952,2.26617092945464,2224.69,2223.422,2223.339,2225.634,-0.03273131,-9.369851E-05,0.0911174,-1.07276690006256,-0.434032827615738,0.662802875041962,-1.07878069424208,-0.464169195088763,0.667816639186824,0
2.77999877929688,-1.77057659626007,2.14453125,2.25036144256592,-1.83612684690458,2.17578229366013,2.27950707526701,2220.126,2219.217,2224.099,2223.473,-0.03202877,-9.403253E-05,0.08964591,-1.06994307041168,-0.432027220726013,0.661079823970795,-1.07501419914593,-0.462548577472581,0.665484999299265,0
2.80000305175781,-1.79191339015961,2.13593316078186,2.2635452747345,-1.85759178470316,2.16654653058634,2.29279489428112,2221.64,2218.554,2214.872,2221.727,-0.03134647,-9.406159E-05,0.08812174,-1.06685471534729,-0.429912000894547,0.659190833568573,-1.07097597819164,-0.460811043810786,0.662985148161422,0
2.81999206542969,-1.81318330764771,2.12737941741943,2.27668809890747,-1.87895695992541,2.1573536925621,2.30602095550813,2217.3,2215.595,2215.326,2218.334,-0.03065938,-9.402999E-05,0.08657265,-1.06349682807922,-0.427693575620651,0.657136797904968,-1.06667099276523,-0.458958728849171,0.660320157107579,0
2.83999633789063,-1.83438086509705,2.11887168884277,2.28978633880615,-1.90024960698239,2.14819206138118,2.31920211834584,2212.668,2211.979,2215.924,2215.503,-0.02993606,-9.431189E-05,0.08502226,-1.05987000465393,-0.425373286008835,0.654915332794189,-1.06209435025759,-0.456989527434725,0.657486997379635,0
2.86000061035156,-1.85550045967102,2.11041259765625,2.30283689498901,-1.9214480311499,2.13907097167731,2.33232495272651,2213.935,2211.252,2206.993,2213.469,-0.02923831,-9.446414E-05,0.08342338,-1.0559800863266,-0.422946035861969,0.652530610561371,-1.05725102347782,-0.454905579228273,0.654488747383304,0
2.8800048828125,-1.87653684616089,2.10200452804565,2.31583666801453,-1.94254691640495,2.12999271078668,2.34538616777867,2209.298,2208.253,2207.59,2209.985,-0.02854003,-9.46268E-05,0.08180621,-1.05182301998138,-0.420419305562973,0.649983644485474,-1.0521429102862,-0.45270770082608,0.651326581984514,0
2.89999389648438,-1.89748501777649,2.09364867210388,2.328782081604,-1.96352501326936,2.1209664217661,2.35837260906308,2206.443,2205.885,2205.171,2207.011,-0.02784228,-9.481639E-05,0.08017633,-1.04740107059479,-0.417795300483704,0.647275149822235,-1.04677621342161,-0.450398561093403,0.648004340974112,0
2.91999816894531,-1.9183394908905,2.08534717559814,2.34167003631592,-1.98440911693069,2.11198057539494,2.37130086407726,2201.509,2201.632,2205.876,2204.666,-0.02710459,-9.525551E-05,0.07855359,-1.04271733760834,-0.415076345205307,0.644403100013733,-1.04114485287423,-0.447975543971863,0.644518260536375,0
2.94000244140625,-1.93909502029419,2.07710194587708,2.35449743270874,-2.00517798053537,2.10304431360073,2.38415778000673,2202.788,2200.368,2197.018,2202.752,-0.02638553,-9.523515E-05,0.07688759,-1.03777933120728,-0.412256509065628,0.641371726989746,-1.03525504859546,-0.445441325732794,0.640872191117535,0
2.95999145507813,-1.95974659919739,2.06891489028931,2.36726117134094,-2.02581075424974,2.0941666074844,2.39693044981124,2198.231,2197.198,2197.245,2199.417,-0.02565956,-9.498699E-05,0.07520461,-1.03258395195007,-0.409341752529144,0.638182282447815,-1.02911391720548,-0.442798968459032,0.637070538244476,0
2.97999572753906,-1.98028922080994,2.06078815460205,2.37995791435242,-2.04633384260397,2.08533609591429,2.40963521915279,2193.658,2193.428,2197.23,2196.744,-0.0248963,-9.519629E-05,0.07352299,-1.02713346481323,-0.406332820653915,0.634832978248596,-1.02271452148052,-0.440045487257004,0.633109007445237,0
3,-2.00071787834167,2.05272388458252,2.39258456230164,-2.06672639957428,2.07656174835205,2.42225918334961,2194.889,2192.204,2188.479,2194.538,-0.02415487,-9.507466E-05,0.07179502,-1.0214341878891,-0.403224378824234,0.631328165531158,-1.01606400046349,-0.437183953857422,0.628992018127441,0
3.02000427246094,-2.02102756500244,2.04472351074219,2.40513801574707,-2.0869834279768,2.06784571494631,2.43479924890685,2190.262,2189.23,2188.573,2191.032,-0.02341291,-9.486019E-05,0.07004857,-1.0154824256897,-0.400023192167282,0.627669453620911,-1.00916501115878,-0.434215511495054,0.624721215103391,0
3.03999328613281,-2.04121327400208,2.03678894042969,2.41761517524719,-2.10708469520508,2.05919670122237,2.4472428908773,2187.342,2186.964,2185.981,2187.746,-0.02267362,-9.50815E-05,0.06829076,-1.00928032398224,-0.396731376647949,0.623858213424683,-1.00202586176059,-0.431143734953757,0.620301741541063,0
3.05999755859375,-2.06126999855042,2.02892184257507,2.43001294136047,-2.12705600675913,2.05060360379452,2.45960608409476,2182.466,2182.867,2186.112,2185.359,-0.0219013,-9.513983E-05,0.06653906,-1.00283110141754,-0.393351554870605,0.619893074035645,-0.994638524886308,-0.427965170275055,0.615728628108227,0
3.08000183105469,-2.0811927318573,2.02112436294556,2.44232845306396,-2.14687713595163,2.04207512564123,2.47187630727625,2183.463,2181.442,2177.836,2182.929,-0.02115136,-9.508963E-05,0.0647497,-0.996142029762268,-0.389879047870636,0.615778505802155,-0.987011339258122,-0.424683405378145,0.611007036871143,0
3.09999084472656,-2.10097694396973,2.01339817047119,2.45455884933472,-2.16652837486666,2.03361974652815,2.48404136028297,2178.805,2178.314,2177.764,2179.616,-0.02040035,-9.501485E-05,0.06294792,-0.989211142063141,-0.3863205909729,0.611516237258911,-0.979153483542501,-0.421302389586788,0.606142649861596,0
3.1199951171875,-2.12061786651611,2.00574445724487,2.4667010307312,-2.18603502400946,2.02522658035469,2.49611690533293,2174.105,2174.61,2177.56,2176.905,-0.01961738,-9.492073E-05,0.0611523,-0.982041358947754,-0.382677972316742,0.607105255126953,-0.971056158224178,-0.417818336715394,0.601130019760458,0
3.13999938964844,-2.14011096954346,1.99816536903381,2.47875213623047,-2.20537738341953,2.01690410346351,2.50809074721212,2175.009,2173.137,2169.527,2174.295,-0.01885838,-9.480632E-05,0.05932153,-0.97463983297348,-0.378946959972382,0.602550089359283,-0.962728579444533,-0.414235212212131,0.595974851798267,0
3.16000366210938,-2.15945100784302,1.99066281318665,2.49070906639099,-2.22455088103183,2.00865428308644,2.51996005559448,2170.304,2170.014,2169.379,2171.033,-0.01809831,-9.465958E-05,0.05748041,-0.967005014419556,-0.375134319067001,0.597852647304535,-0.954174163352092,-0.410554485950274,0.590679260733698,0
3.17999267578125,-2.17863392829895,1.98323786258698,2.50256943702698,-2.24353658854737,2.00048526354177,2.53171311296128,2167.481,2167.552,2166.557,2167.895,-0.01734197,-9.462659E-05,0.05563258,-0.959140419960022,-0.371241897344589,0.593014776706696,-0.945403214201559,-0.406780591562751,0.585249625391267,0
3.19999694824219,-2.19765472412109,1.97589266300201,2.5143301486969,-2.2623590635174,1.99238647840124,2.54336512160655,2162.631,2163.557,2166.404,2165.529,-0.01655368,-9.457307E-05,0.05379421,-0.951050043106079,-0.367272198200226,0.588035762310028,-0.936405971974636,-0.402909329586355,0.579679903854719,0
3.22000122070313,-2.21650958061218,1.96862828731537,2.52598857879639,-2.28099938900442,1.98436606709459,2.55490437104486,2163.627,2161.842,2158.469,2162.941,-0.01578775,-9.437047E-05,0.05192275,-0.942741334438324,-0.363220989704132,0.582920372486115,-0.927192788821982,-0.398945154262308,0.573976504598449,0
3.24000549316406,-2.23519372940063,1.9614462852478,2.53754210472107,-2.29945328359428,1.9764258717947,2.56632821087688,2158.932,2158.86,2158.213,2159.63,-0.01502129,-9.398332E-05,0.05004338,-0.934213042259216,-0.359094619750977,0.577670812606812,-0.91776751470058,-0.394889722119544,0.568141810929231,0
3.25999450683594,-2.25370311737061,1.95434832572937,2.548987865448,-2.31770268688992,1.96857366338589,2.57762546085652,2156.117,2156.417,2155.39,2156.476,-0.01425856,-9.401804E-05,0.0481598,-0.925468921661377,-0.354894936084747,0.572289109230042,-0.90814153446928,-0.390747931744771,0.562182870617026,0
3.27999877929688,-2.27203345298767,1.94733595848083,2.56032347679138,-2.33577134012187,1.96079922667992,2.58881081793642,2151.463,2152.514,2154.904,2154.202,-0.01346814,-9.395136E-05,0.04628546,-0.91651326417923,-0.350624412298203,0.566775262355804,-0.898304216251578,-0.386515208538549,0.556093102023818,0
3.30000305175781,-2.29018068313599,1.94041037559509,2.57154607772827,-2.35364119854729,1.95311032582551,2.59987311156116,2152.28,2150.753,2147.446,2151.417,-0.01270008,-9.371598E-05,0.04438202,-0.907353281974792,-0.346279263496399,0.561133861541748,-0.888267004546666,-0.382196476749158,0.549879589839776,0
3.31999206542969,-2.30814051628113,1.93357300758362,2.58265352249146,-2.37129490830989,1.94551442770222,2.61080159886703,2147.735,2147.912,2146.926,2148.162,-0.01193522,-9.360011E-05,0.04247295,-0.897988259792328,-0.34186589717865,0.555367529392242,-0.878042061913513,-0.37779696958594,0.54354986326829,0
3.33999633789063,-2.32590889930725,1.92682504653931,2.59364295005798,-2.38875555478454,1.93800159931817,2.62161057080077,2143.291,2144.602,2146.169,2145.449,-0.01114959,-9.346007E-05,0.04057454,-0.888422012329102,-0.337386608123779,0.549476385116577,-0.867618167158097,-0.373311858882592,0.53709697585572,0
3.36000061035156,-2.34348201751709,1.92016816139221,2.60451221466064,-2.406005803634,1.93057929915441,2.6322892965819,2143.866,2142.857,2139.197,2142.51,-0.01039165,-9.325075E-05,0.03865322,-0.878661811351776,-0.332839071750641,0.543465375900269,-0.857007552155826,-0.36874640767338,0.530528499715627,0
3.3800048828125,-2.3608558177948,1.9136039018631,2.61525893211365,-2.42304196557559,1.92324911460621,2.64283549236868,2139.285,2140.004,2138.698,2139.401,-0.009639578,-9.29454E-05,0.0367319,-0.868707954883575,-0.328230410814285,0.537336945533752,-0.846214826007803,-0.364102599125748,0.523847288101157,0
3.39999389648438,-2.37802743911743,1.90713238716125,2.6258807182312,-2.43984769972619,1.91601807669906,2.65323904237604,2136.413,2137.519,2136.088,2136.375,-0.008896023,-9.263197E-05,0.03481488,-0.858565330505371,-0.323563396930695,0.531093776226044,-0.835253140422974,-0.35938609205264,0.51706148254665,0
3.41999816894531,-2.39499187469482,1.9007556438446,2.63637542724609,-2.45644516534361,1.90887665092339,2.66351366424015,2131.7,2133.846,2135.685,2134.141,-0.008128501,-9.242637E-05,0.03291725,-0.848239481449127,-0.318841189146042,0.524736523628235,-0.824110582941664,-0.354591760855451,0.510163708672097,0
3.44000244140625,-2.41174697875977,1.89447450637817,2.64674091339111,-2.47281804716281,1.90183185728196,2.67364925803476,2132.505,2131.832,2128.758,2131.407,-0.00738388,-9.199545E-05,0.03100207,-0.837738931179047,-0.314060747623444,0.518270015716553,-0.812800388649434,-0.349725300221754,0.503162159625937,0
3.45999145507813,-2.42828798294067,1.88828992843628,2.65697479248047,-2.48895081463434,1.8948903781363,2.68363620960993,2128.032,2128.895,2128.189,2128.578,-0.006640326,-9.152018E-05,0.02908935,-0.827064692974091,-0.30922794342041,0.511697113513947,-0.80133641229185,-0.344792671461508,0.496065412155666,0
3.47999572753906,-2.44461250305176,1.88220310211182,2.66707515716553,-2.50486489870395,1.88804299234919,2.69348778574196,2124.091,2125.877,2126.942,2125.97,-0.005880259,-9.116005E-05,0.02719111,-0.816221654415131,-0.304344296455383,0.505018830299377,-0.789706299681989,-0.339788558913217,0.488865818431069,0
3.5,-2.46071672439575,1.8762149810791,2.67703986167908,-2.5205447997813,1.88129636896134,2.70319439144611,2124.479,2123.869,2120.733,2123.147,-0.005144694,-9.083863E-05,0.02527692,-0.805217027664185,-0.299408137798309,0.498240232467651,-0.777924000354857,-0.334718964672089,0.481572013878822,0
3.52000427246094,-2.47659778594971,1.87032651901245,2.68686723709106,-2.53598752699493,1.87465179486116,2.71275417523047,2120.332,2121.399,2119.837,2120.091,-0.004419249,-9.043905E-05,0.02336697,-0.794051945209503,-0.294425666332245,0.491364389657974,-0.765994882555673,-0.32958619854407,0.474187321698442,0
3.53999328613281,-2.49225234985352,1.86453855037689,2.69655513763428,-2.55117869390181,1.86811546013321,2.72215823120146,2117.53,2119.089,2117.412,2117.14,-0.003704457,-9.013293E-05,0.02146666,-0.782731354236603,-0.289399951696396,0.48439422249794,-0.753933682518821,-0.324396601119134,0.466720864320997,0
3.55999755859375,-2.50767779350281,1.85885190963745,2.70610165596008,-2.56613872308604,1.86167857751006,2.73141920191151,2113.371,2115.854,2116.521,2114.96,-0.002977947,-8.966572E-05,0.01958766,-0.771261155605316,-0.28433433175087,0.477331191301346,-0.741727567798258,-0.319144650954242,0.459164697851087,0
3.58000183105469,-2.52287077903748,1.85326731204987,2.71550536155701,-2.58085326729328,1.85534732021446,2.74052820572674,2113.619,2113.819,2110.824,2112.159,-0.002274872,-8.916193E-05,0.01770261,-0.759649574756622,-0.279227674007416,0.470180511474609,-0.729391385793765,-0.313836736470737,0.451528013536464,0
3.59999084472656,-2.53782844543457,1.84778547286987,2.72476434707642,-2.59530884290342,1.84912748987145,2.74947689564398,2109.632,2111.322,2109.885,2109.395,-0.001581385,-8.881182E-05,0.015829,-0.747899115085602,-0.274085760116577,0.462945312261581,-0.716940488958392,-0.308479463400265,0.4438203152769,0
3.6199951171875,-2.55254888534546,1.84240734577179,2.73387694358826,-2.60952509409627,1.84301063413925,2.75827743234631,2105.771,2108.44,2108.801,2107.08,-0.0008783105,-8.833716E-05,0.01397853,-0.736015677452087,-0.268911480903625,0.455627590417862,-0.704361775018033,-0.303067194200314,0.436033492140578,0
3.63999938964844,-2.56702899932861,1.83713316917419,2.74284148216248,-2.6234885835008,1.83700253474321,2.76692149746096,2105.94,2106.363,2103.453,2104.38,-0.0001997371,-8.776008E-05,0.0121254,-0.724007248878479,-0.263703942298889,0.44823232293129,-0.691670720740692,-0.297606588091786,0.428177124984152,0
3.66000366210938,-2.58126664161682,1.83196377754211,2.75165677070618,-2.63719712493647,1.83110413233575,2.77540773763803,2102.135,2104.066,2102.452,2101.646,0.0004671385,-8.730351E-05,0.01028666,-0.711876749992371,-0.258468806743622,0.440763026475906,-0.678873453515702,-0.29210028151913,0.420255006953505,0
3.67999267578125,-2.59525918960571,1.826899766922,2.76032114028931,-2.65063849381582,1.82532068681534,2.78372858527554,2099.611,2101.807,2100.136,2099.032,0.001122101,-8.680409E-05,0.008465283,-0.699630260467529,-0.253209173679352,0.433223307132721,-0.665986083416798,-0.286555206197011,0.41227711095171,0
3.69999694824219,-2.60900449752808,1.82194125652313,2.76883339881897,-2.66383127580226,1.81964420129024,2.79189554578451,2095.97,2098.917,2099.02,2097.039,0.001783475,-8.626114E-05,0.006669849,-0.687274277210236,-0.247928202152252,0.42561548948288,-0.65299527533123,-0.280965624398954,0.404235181908735,0
3.72000122070313,-2.62250113487244,1.81708872318268,2.77719235420227,-2.6767633032417,1.81407991116207,2.79990108680742,2096.093,2097.06,2094.103,2094.248,0.002418802,-8.559314E-05,0.004878707,-0.674816906452179,-0.242625415325165,0.417944818735123,-0.639917282339434,-0.275338529371411,0.396139281255611,0
3.739990234375,-2.63574647903442,1.81234264373779,2.78539657592773,-2.68942333385363,1.80863265367006,2.80773824883709,2092.414,2094.732,2093.188,2091.863,0.00304274,-8.49787E-05,0.003106735,-0.662261724472046,-0.23730643093586,0.410214841365814,-0.62676873176137,-0.26968107538565,0.387999702095468,0
3.75999450683594,-2.64873886108398,1.80770301818848,2.79344511032104,-2.70182915057228,1.80329477731443,2.81541804035694,2089.126,2092.269,2091.896,2089.697,0.003667776,-8.44043E-05,0.001362918,-0.649615228176117,-0.231974080204964,0.402428299188614,-0.613536214864365,-0.263987493038594,0.379808143784027,0
3.77999877929688,-2.66147661209106,1.80317044258118,2.80133700370789,-2.7139695770734,1.79807109095524,2.82293354268985,2089.114,2090.479,2087.41,2086.984,0.0042646,-8.382154E-05,-0.0003712446,-0.636885285377502,-0.226628646254539,0.39459040760994,-0.60023651686137,-0.258265004538452,0.371574997167698,0
3.80000305175781,-2.67395806312561,1.79874491691589,2.80907106399536,-2.72584333814708,1.79296214327972,2.83028396642013,2085.704,2088.358,2086.413,2084.664,0.004845229,-8.336631E-05,-0.002082592,-0.624076187610626,-0.221276074647903,0.386705070734024,-0.586876524285838,-0.252516572968186,0.363304525338741,0
3.81999206542969,-2.68618202209473,1.79442656040192,2.81664657592773,-2.73744054699573,1.78797218830065,2.83746319114912,2083.407,2086.456,2084.383,2082.205,0.005408107,-8.278335E-05,-0.003766242,-0.611194670200348,-0.215919852256775,0.378776431083679,-0.573473482003301,-0.246749618311662,0.355007403690404,0
3.83999633789063,-2.69814705848694,1.79021525382996,2.82406282424927,-2.74877791451009,1.78309403578861,2.84448156171422,2080.131,2083.913,2083.37,2080.473,0.005969922,-8.226549E-05,-0.005414739,-0.59824812412262,-0.210563719272614,0.370807558298111,-0.560014026276881,-0.240958390526246,0.346675359432959,0
3.86000061035156,-2.70985174179077,1.7861111164093,2.83131885528564,-2.75984563331209,1.77833190558438,2.85133300688122,2080.082,2082.136,2079.327,2077.994,0.006505151,-8.17471E-05,-0.007045659,-0.585245251655579,-0.205208018422127,0.362803637981415,-0.546515580872635,-0.235150386571708,0.338319178707605,0
3.8800048828125,-2.72129583358765,1.78211390972137,2.83841419219971,-2.77064299647982,1.77368610185671,2.85801708903178,2077.059,2080.173,2078.252,2075.889,0.007023602,-8.109288E-05,-0.008647284,-0.572191178798676,-0.199858009815216,0.354769021272659,-0.532985466132484,-0.229328756186666,0.329943393154704,0
