t,x_s1,x_s2,x_s3,x_s_d1,x_s_d2,x_s_d3,propellers_rpms1,propellers_rpms2,propellers_rpms3,propellers_rpms4,rollRad,pitchRad,yawRad,v_s1,v_s2,v_s3,v_s_d1,v_s_d2,v_s_d3,insideCount
0,-0.0599999986588955,2.94000005722046,1.17999994754791,-0.0599999986588955,2.94000005722046,1.17999994754791,0,0,0,0,0,45.0048027038574,0,0,0,0,-1.06581410364015E-15,4.44089209850063E-16,-7.105427357601E-16,0
0.0199999921023846,-0.0599999986588955,2.94000005722046,1.17999994754791,-0.0600018689851485,2.93999925247132,1.18000109010103,0,0,0,0,-4.71187853179345E-08,45.0048027038574,4.57171331902373E-08,-3.68531795724258E-15,-8.77082051431444E-09,8.78962147510265E-09,-0.000279986375734238,-0.000120470315563732,0.000171039307833442,5
0.0399999842047691,-0.0599999986588955,2.94000005722046,1.17607593536377,-0.0600148713857818,2.93999365790158,1.18000903306468,0,0,0,0,-9.42375706358689E-08,45.0048027038574,9.14342663804746E-08,-3.68531838075906E-15,-8.77082051431444E-09,-0.1961999386549,-0.00111096802362334,-0.000478018503710732,0.00067867302931599,5
0.059999980032444,-0.0599999986588955,2.94000005722046,1.16822791099548,-0.060049891741204,2.93997858962099,1.18003042645333,2483.083,2426.844,2293.842,2352.139,-1.41356366611944E-07,45.0048027038574,1.37151431545135E-07,-3.68531880427553E-15,-8.77082051431444E-09,-0.392399907112122,-0.00247956031385756,-0.00106688553215623,0.00151472470295854,5
0.0799999684095383,-0.0599999986588955,2.94000005722046,1.16085958480835,-0.0601175492801009,2.93994947847214,1.18007175738807,2752.317,2696.703,2565.271,2622.737,359.916717529297,45.0049209594727,0.0319096520543098,-4.57352067328998E-09,-2.06532604352105E-08,-0.368417710065842,-0.00437248577996248,-0.00188135847800576,0.00267108333168264,5
0.0999999642372131,-0.0600069686770439,2.93999695777893,1.1544691324234,-0.0602281988646503,2.9399018690471,1.18013935149261,2804.174,2721.6,2514.16,2602.958,359.751068115234,45.0049896240234,0.0954134687781334,-0.000348506087902933,-0.000155469824676402,-0.319525182247162,-0.00677657765502183,-0.00291577204929212,0.00413970554304249,5
0.119999960064888,-0.0600347816944122,2.93998456001282,1.14905917644501,-0.0603919330116387,2.93983141881785,1.18023937412799,2689.077,2657.792,2565.294,2603.739,359.457794189453,45.0048866271973,0.209595665335655,-0.00139064132235944,-0.000619977538008243,-0.270499885082245,-0.0096787755294144,-0.00416450671662093,0.00591261293660416,5
0.139999955892563,-0.060107558965683,2.93995237350464,1.14457094669342,-0.0606185841441557,2.93973389716743,1.18037783176802,2543.464,2578.869,2641.899,2612.373,359.110015869141,45.004337310791,0.346874803304672,-0.00363888661377132,-0.00161435711197555,-0.224410489201546,-0.0130661279819148,-0.00562198984525972,0.00798189369124403,5
0.159999936819077,-0.0602533295750618,2.93988800048828,1.14093995094299,-0.0609177264885074,2.93960518457372,1.18056057315816,2432.644,2512.065,2686.601,2609.186,358.805603027344,45.0036849975586,0.469852656126022,-0.00728844478726387,-0.00321653205901384,-0.181551456451416,-0.0169257889229127,-0.00728269412172734,0.0103397003312784,5
0.179999932646751,-0.0604960210621357,2.93978142738342,1.13810288906097,-0.0612986791863105,2.93944127127045,1.1807932912166,2396.697,2474.344,2659.312,2579.359,358.612945556641,45.003604888916,0.55134117603302,-0.0121345464140177,-0.00532572250813246,-0.141854628920555,-0.0212450294505367,-0.0091411426551529,0.0129782569691846,5
0.199999928474426,-0.0608501546084881,2.93962693214417,1.13599908351898,-0.0617705071352352,2.93923825688537,1.18108152354787,2429.502,2465.146,2565.013,2525.182,358.535858154297,45.0043144226074,0.587957859039307,-0.0177066847681999,-0.00772738736122847,-0.10519102960825,-0.026011220582377,-0.0111919015472184,0.0158898487566799,5
0.219999924302101,-0.0613208077847958,2.93942260742188,1.13457083702087,-0.0623420239858836,2.93899234915087,1.18143065427358,2488.845,2469.807,2445.443,2462.151,358.518463134766,45.0053291320801,0.598923206329346,-0.0235326886177063,-0.0102141499519348,-0.0714127123355865,-0.031211844417406,-0.0134295846948213,0.0190668287033645,5
0.239999920129776,-0.0619081892073154,2.93916893005371,1.13376343250275,-0.0630217941146897,2.93869986305502,1.18184591523767,2523.544,2468.834,2352.561,2409.163,358.48193359375,45.0059852600098,0.61316841840744,-0.0293691735714674,-0.0126892440021038,-0.0403683260083199,-0.0368344914346654,-0.0158488526277751,0.0225016160265319,5
0.25999990105629,-0.0626137927174568,2.93886494636536,1.13352525234222,-0.0638181341527546,2.93835722018381,1.18233238694028,2502.521,2448.77,2318.978,2378.273,358.370147705078,45.0059089660645,0.652920842170715,-0.0352800600230694,-0.0151978647336364,-0.0119111966341734,-0.0428668558492025,-0.0184444105105986,0.0261866933141822,4
0.279999911785126,-0.0634446442127228,2.9385073184967,1.1338073015213,-0.0647391183472776,2.93796094641423,1.18289500181304,2429.348,2408.878,2342.405,2369.053,358.177581787109,45.0051307678223,0.722808599472046,-0.0415426604449749,-0.0178767684847116,0.0141010619699955,-0.0492967588323918,-0.0212110181335712,0.0301146207099552,4
0.299999892711639,-0.0644137114286423,2.93809008598328,1.13456356525421,-0.0657925735053613,2.93750767408983,1.18353854113027,2336.692,2359.715,2390.448,2370.677,357.946746826172,45.0039901733398,0.809725940227509,-0.048453439027071,-0.0208610743284225,0.0378110483288765,-0.0561120968528548,-0.0241434676852743,0.0342780043554035,4
0.319999873638153,-0.0655367374420166,2.9376060962677,1.13575088977814,-0.066986089843436,2.93699413735254,1.18426764163675,2265.095,2316.365,2421.673,2368.791,357.739593505859,45.0030632019043,0.891962289810181,-0.056151457130909,-0.0242032036185265,0.0593648329377174,-0.0633009032247692,-0.0272366102351091,0.0386695339888948,4
0.339999884366989,-0.0668277442455292,2.93704915046692,1.1373291015625,-0.0683270199764796,2.93641717257755,1.18508679493022,2239.901,2289.918,2409.204,2353.646,357.601318359375,45.0028800964355,0.95178347826004,-0.0645504146814346,-0.0278475806117058,0.0789135918021202,-0.0708513218684839,-0.0304853444432222,0.0432819669163807,4
0.359999865293503,-0.0682957693934441,2.93641591072083,1.13926136493683,-0.0698224741524531,2.93577372042378,1.18600034455022,2259.066,2282.08,2353.823,2324.653,357.537567138672,45.0034713745117,0.984354078769684,-0.0734012946486473,-0.0316679514944553,0.0966132506728172,-0.0787515710530303,-0.0338846009599213,0.0481081058622627,4
0.379999876022339,-0.0699444636702538,2.93570518493652,1.1415137052536,-0.0714793369853421,2.93506081863418,1.1870124962,2297.396,2285.256,2280.488,2289.487,357.515563964844,45.0043487548828,0.998728513717651,-0.0824349224567413,-0.0355397053062916,0.112619429826736,-0.086990023450842,-0.0374293768709845,0.0531408478735714,4
0.399999856948853,-0.0717744156718254,2.93491721153259,1.14405524730682,-0.0733042517476919,2.93427560879415,1.18812730815108,2322.791,2287.765,2222.194,2258.74,357.486083984375,45.0048789978027,1.01131176948547,-0.091497614979744,-0.0394029542803764,0.1270791888237,-0.0955551120403749,-0.0411146952101866,0.0583731268373454,4
0.419999837875366,-0.073786586523056,2.93405151367188,1.14685773849487,-0.0753036392233569,2.93341532821979,1.18934870276014,2314.687,2280.361,2200.838,2240.11,357.412353515625,45.004711151123,1.03632378578186,-0.100608453154564,-0.0432839021086693,0.140126332640648,-0.104435414773886,-0.0449356413894786,0.0637979652028557,4
0.439999848604202,-0.075984925031662,2.93310618400574,1.14989542961121,-0.0774836936378566,2.9324773117089,1.19068046398288,2273.863,2260.982,2216.534,2234.552,357.288482666016,45.0039100646973,1.07855916023254,-0.109917141497135,-0.047266062349081,0.151882648468018,-0.11361961986258,-0.0488873482621572,0.0694084527748449,4
0.459999829530716,-0.0783768892288208,2.93207740783691,1.15314471721649,-0.0798503739108672,2.93145899530482,1.19212623203034,2219.737,2234.813,2249.743,2236.763,357.139404296875,45.0028457641602,1.13209998607635,-0.119598090648651,-0.0514343753457069,0.162463247776031,-0.123096482606157,-0.0529649775478235,0.0751977203413694,4
0.479999840259552,-0.0809717923402786,2.93096089363098,1.15658438205719,-0.0824094292610639,2.93035790527936,1.19368951901051,2177.449,2210.739,2274.261,2238.634,357.003509521484,45.0020561218262,1.18480086326599,-0.12974514067173,-0.0558243207633495,0.171981483697891,-0.132854922276536,-0.0571637615187439,0.0811589988585558,5
0.499999821186066,-0.0837782621383667,2.92975282669067,1.16019535064697,-0.0851663731207339,2.92917166935664,1.19537369299312,2163.567,2196.046,2272.081,2234.014,356.910247802734,45.0018882751465,1.22555780410767,-0.140323415398598,-0.0604046657681465,0.180551320314407,-0.142883909221989,-0.0614789544239126,0.0872855504842776,5
0.519999802112579,-0.0868021994829178,2.9284508228302,1.16396105289459,-0.0881265112831755,2.92789800460203,1.19718199520451,2177.774,2192.825,2242.497,2221.569,356.86474609375,45.0023231506348,1.2500661611557,-0.151196986436844,-0.0650988295674324,0.188286691904068,-0.153172565600841,-0.0659058758319492,0.0935707301148019,5
0.539999783039093,-0.0900463610887527,2.92705416679382,1.16786694526672,-0.0912949291136132,2.92653472292494,1.19911753221494,2204.999,2197.389,2200.458,2204.838,356.847717285156,45.002986907959,1.2622857093811,-0.162208154797554,-0.0698289349675179,0.195297360420227,-0.163710107617,-0.0704398857766591,0.100007950097373,5
0.559999823570251,-0.0935115367174149,2.92556309700012,1.17190062999725,-0.0946765077855201,2.92507972409279,1.20118328585711,2225.3,2202.842,2166.632,2189.725,356.828704833984,45.0033874511719,1.27133798599243,-0.173258885741234,-0.0745564177632332,0.201683193445206,-0.174485892312833,-0.0750764048907026,0.106590708815253,5
0.579999804496765,-0.0971985459327698,2.92397713661194,1.17605125904083,-0.0982758855033902,2.92353101241576,1.20338208953778,2225.3,2203.164,2155.41,2180.961,356.783874511719,45.0032424926758,1.28602349758148,-0.184350535273552,-0.0792961120605469,0.207531243562698,-0.185489288397106,-0.0798108588264658,0.113312511778526,5
0.599999785423279,-0.101109854876995,2.92229509353638,1.18030965328217,-0.102097520116728,2.92188666980575,1.20571666648763,2204.667,2196.312,2167.754,2179.712,356.708282470703,45.0026168823242,1.3102217912674,-0.195565447211266,-0.0841001570224762,0.212917134165764,-0.196709868977879,-0.0846387611836407,0.120166989361613,5
0.619999766349792,-0.105250000953674,2.92051458358765,1.18466782569885,-0.106145651628018,2.92014487190815,1.20818960685803,2174.951,2184.667,2191.936,2183.514,356.616424560547,45.001823425293,1.34152138233185,-0.207007139921188,-0.0890227854251862,0.217909008264542,-0.208137283778369,-0.0895556585272806,0.127147818741941,5
0.639999747276306,-0.109624728560448,2.9186327457428,1.18911921977997,-0.110424314118205,2.91830388297061,1.21080337500608,2151.73,2173.298,2211.513,2187.91,356.532073974609,45.0012168884277,1.37330460548401,-0.218736588954926,-0.0940878689289093,0.222571954131126,-0.219761290901539,-0.0945571440552161,0.134248743304431,5
0.659999787807465,-0.114239513874054,2.91664719581604,1.19365859031677,-0.114937351717038,2.91636204897151,1.21356031925064,2145.645,2166.851,2214.748,2189.094,356.473999023438,45.0011024475098,1.39881920814514,-0.230739310383797,-0.0992768108844757,0.226970419287682,-0.231571792295924,-0.0996388728580087,0.141463594307021,5
0.679999768733978,-0.119098260998726,2.91455626487732,1.19828200340271,-0.119688366274122,2.91431782013557,1.21646263990544,2157.079,2167.106,2200.501,2185.805,356.446350097656,45.0014038085938,1.41480731964111,-0.242937594652176,-0.104541271924973,0.231167793273926,-0.243558692403314,-0.104796501098997,0.148786204530738,5
0.699999749660492,-0.124202966690063,2.91235971450806,1.20298647880554,-0.124680800209538,2.91216971528562,1.2195124398912,2177.003,2172.395,2177.724,2179.569,356.437835693359,45.0018577575684,1.4227991104126,-0.255235552787781,-0.109830781817436,0.235223397612572,-0.25571210939136,-0.11002577690179,0.156210537318403,5
0.719999730587006,-0.129554331302643,2.91005730628967,1.20777022838593,-0.129917885593406,2.90991634375217,1.22271169362909,2193.137,2178.763,2159.202,2173.617,356.429626464844,45.002140045166,1.42773687839508,-0.267569035291672,-0.115119159221649,0.239189073443413,-0.268022234882335,-0.115322479995463,0.16373060088512,5
0.739999711513519,-0.135152965784073,2.90764904022217,1.21263241767883,-0.135402659412275,2.90755639880475,1.22606225636683,2196.789,2182.515,2154.369,2170.706,356.406494140625,45.0020484924316,1.43489563465118,-0.279932200908661,-0.120414286851883,0.243107244372368,-0.280479368878259,-0.120682436741875,0.171340469653488,5
0.759999752044678,-0.141000360250473,2.90513396263123,1.2175726890564,-0.141137983205286,2.90508864920302,1.22956587617402,2187.428,2181.917,2164.167,2171.964,356.364685058594,45.0016212463379,1.44711995124817,-0.292369693517685,-0.125748619437218,0.247011870145798,-0.29307395749094,-0.126101536369839,0.179034307302295,5
0.779999732971191,-0.147099196910858,2.90251088142395,1.22259128093719,-0.147126476115806,2.90251196800275,1.23322415304447,2171.832,2178.035,2181.715,2176.251,356.312652587891,45.0010681152344,1.46360445022583,-0.304942190647125,-0.131156697869301,0.250931441783905,-0.305796442389055,-0.131575666196417,0.186806274796091,5
0.799999713897705,-0.153452932834625,2.89977788925171,1.22768914699554,-0.153370619602546,2.89982528750158,1.23703860286258,2159.67,2173.618,2196.732,2181.253,356.264953613281,45.000659942627,1.48084151744843,-0.317687302827835,-0.136654019355774,0.25489205121994,-0.318637486048877,-0.137100808546009,0.194650667987342,5
0.819999694824219,-0.160064890980721,2.89693331718445,1.23286747932434,-0.159872691993147,2.89702762739878,1.24101061742316,2157.713,2171.606,2201.708,2184.608,356.233551025391,45.000560760498,1.49479806423187,-0.330597937107086,-0.142228737473488,0.258919417858124,-0.331587821991737,-0.142672976311719,0.202561826128828,5
0.839999675750732,-0.166937425732613,2.89397644996643,1.23812830448151,-0.16663478736965,2.89411808666934,1.24514147596825,2166.49,2173.353,2195.6,2185.325,356.221557617188,45.0007629394531,1.50318253040314,-0.343627095222473,-0.147849202156067,0.263038545846939,-0.344638292118709,-0.148288229019428,0.210534154680825,5
0.859999716281891,-0.174071714282036,2.8909068107605,1.24347376823425,-0.173658839061432,2.89109583345565,1.24943235953859,2180.753,2178.126,2183.593,2184.061,356.222351074219,45.0010681152344,1.50644552707672,-0.356714457273483,-0.15348182618618,0.267272084951401,-0.357779886002355,-0.15394268973393,0.218562149313816,5
0.879999697208405,-0.181468039751053,2.88772463798523,1.24890649318695,-0.180946537299623,2.88796014049848,1.25388430067001,2192.815,2183.819,2173.74,2182.43,356.224395751953,45.0012588500977,1.50718224048615,-0.36981663107872,-0.159108087420464,0.271638035774231,-0.371003583951354,-0.159632477534032,0.226640300039122,5
0.899999678134918,-0.189126551151276,2.88442993164063,1.25442945957184,-0.188499456976537,2.88471033016565,1.25849826143965,2197.216,2188.087,2171.972,2182.186,356.218048095703,45.0012092590332,1.5085277557373,-0.382924944162369,-0.164731428027153,0.276148498058319,-0.384300592040009,-0.165353808639179,0.234763234784762,5
0.919999659061432,-0.197047799825668,2.88102245330811,1.26004564762115,-0.196318976867224,2.88134580920878,1.26327508411967,2193.341,2189.744,2179.211,2184.103,356.200592041016,45.0009422302246,1.51240730285645,-0.39606237411499,-0.170371383428574,0.280810385942459,-0.397662185688703,-0.1711029291065,0.242925623841192,5
0.939999639987946,-0.205233037471771,2.87750148773193,1.26575815677643,-0.204406302339104,2.87786605899195,1.26821550505022,2185.232,2189.136,2191.358,2187.793,356.176910400391,45.0005912780762,1.51870214939117,-0.409263134002686,-0.176049575209618,0.28562730550766,-0.411079748697569,-0.1768761316259,0.251122203706367,5
0.959999680519104,-0.213684007525444,2.87386608123779,1.27157020568848,-0.212762492824401,2.87427062367106,1.27332017142191,2178.802,2187.834,2202.127,2191.967,356.155914306641,45.0003280639648,1.52556502819061,-0.42254900932312,-0.181775614619255,0.290601789951324,-0.424544813437776,-0.18266977281325,0.259347801637967,5
0.979999661445618,-0.222402304410934,2.87011528015137,1.27748489379883,-0.221388363573279,2.87055915246675,1.27858958125834,2178.384,2187.565,2206.708,2195.291,356.145202636719,45.0002708435059,1.53064918518066,-0.435914993286133,-0.187541410326958,0.295736402273178,-0.438048900190371,-0.188480204082383,0.267597237508009,5
0.999999642372131,-0.231388956308365,2.86624884605408,1.28350555896759,-0.230284637237593,2.86673133444211,1.28402417601625,2184.494,2189.308,2204.268,2197.034,356.14697265625,45.0003890991211,1.53242099285126,-0.449331283569336,-0.193325906991959,0.301033854484558,-0.451583757957464,-0.194303875259412,0.275865470910636,5
1.01999962329865,-0.240644112229347,2.86226677894592,1.28963541984558,-0.239451847229689,2.86278694008471,1.28962428154893,2194.069,2192.805,2197.823,2197.433,356.157409667969,45.0005798339844,1.53088808059692,-0.4627585709095,-0.199106305837631,0.306495994329453,-0.465141204058494,-0.200137265565489,0.284147503173981,5
