t,x_s1,x_s2,x_s3,x_s_d1,x_s_d2,x_s_d3,propellers_rpms1,propellers_rpms2,propellers_rpms3,propellers_rpms4,rollRad,pitchRad,yawRad,v_s1,v_s2,v_s3,v_s_d1,v_s_d2,v_s_d3,insideCount
0,-0.0599999986588955,2.94000005722046,1.17999994754791,-0.0599999986588955,2.94000005722046,1.17999994754791,0,0,0,0,0,45.0048027038574,0,0,0,0,-1.06581410364015E-15,4.44089209850063E-16,4.44089209850063E-16,0
0.019989013671875,-0.0599999986588955,2.94000005722046,1.17705690860748,-0.0600018659130177,2.93999925379318,1.18000110346716,0,0,0,0,0.937003672122955,44.8630027770996,-0.00115976633969694,3.71994488546079E-08,3.50004931704007E-08,-0.147149950265884,-0.000279680311988734,-0.000120338624884473,0.000173135436141649,5
0.0399932861328125,-0.0599999986588955,2.94000005722046,1.17018985748291,-0.060014863945674,2.93999366110285,1.18000914986856,0,0,0,0,1.87400352954865,44.7211418151855,-0.00311126722954214,3.70364325874561E-08,3.5142885934647E-08,-0.343349903821945,-0.00111059898697896,-0.000477859717552347,0.000687513678106196,6
0.05999755859375,-0.059906218200922,2.94009447097778,1.16346526145935,-0.0600498857373401,2.93997859220429,1.18003083002592,3197.644,2848.919,1517.13,2782.356,1.40351831912994,44.7413482666016,0.0289556141942739,0.00468893302604556,0.00471910694614053,-0.336227416992188,-0.00247936261166862,-0.00106680046642749,0.00153484356504269,6
0.0800018310546875,-0.0597377754747868,2.94026732444763,1.1572380065918,-0.0601175574246769,2.93994947496775,1.18007272202403,2865.682,2651.841,2344.822,2562.446,0.339377909898758,44.8158340454102,0.0998737812042236,0.00842207204550505,0.008644824847579,-0.311362445354462,-0.00437268608126799,-0.00188144466206175,0.00270690098422899,6
0.0999908447265625,-0.0595563054084778,2.94046425819397,1.15152072906494,-0.0602281370710988,2.93990189563514,1.18014117609281,2239.991,2528.281,3138.372,2508.787,359.321258544922,44.919132232666,0.178605988621712,0.00907352101057768,0.00984873250126839,-0.285864382982254,-0.00677536694902951,-0.00291525111632684,0.0041942748969354,5
0.1199951171875,-0.0594244375824928,2.94063210487366,1.14657115936279,-0.0603918861403606,2.93983143898525,1.18024254456713,2123.75,2454.886,3352.473,2464.793,358.749816894531,44.999942779541,0.253288894891739,0.00659333355724812,0.00839728768914938,-0.247478276491165,-0.00967801353495435,-0.00416417885169243,0.00599115140585487,5
0.139999389648438,-0.0593830794095993,2.94074010848999,1.1425746679306,-0.0606185767455666,2.93973390035084,1.18038287685052,2312.777,2457.027,3069.331,2463.492,358.636169433594,45.0327033996582,0.32636770606041,0.0020679016597569,0.00539667345583439,-0.199826955795288,-0.0130660253322238,-0.00562194567796536,0.00808849210174802,5
0.159988403320313,-0.0594435036182404,2.9407856464386,1.1395308971405,-0.0609175312885481,2.93960526856281,1.18056794395381,2537.053,2487.104,2635.635,2492.279,358.757110595703,45.025032043457,0.398201525211334,-0.00302117830142379,0.00227708765305579,-0.152188390493393,-0.0169234294955564,-0.00728167892605071,0.0104764090324936,5
0.17999267578125,-0.0596002824604511,2.94078159332275,1.13731873035431,-0.0612985250199726,2.93944133760391,1.18080379722281,2666.601,2506.275,2303.201,2513.769,358.864532470703,44.9986114501953,0.46722000837326,-0.00783897005021572,-0.000199947506189346,-0.110609546303749,-0.0212433804254414,-0.00914043312572283,0.0131506644458931,5
0.199996948242188,-0.0598479025065899,2.94073963165283,1.13577461242676,-0.0617704296168641,2.93923829023936,1.18109592864822,2654.29,2500.722,2183.465,2508.806,358.817413330078,44.9744338989258,0.532759428024292,-0.0123810283839703,-0.00209384132176638,-0.0772074460983276,-0.0260104776919234,-0.0111915819022102,0.0161017247421801,5
0.220001220703125,-0.0601898841559887,2.94066190719604,1.13476371765137,-0.0623420644491781,2.93899233174064,1.18144979784016,2540.891,2471.026,2246.02,2479.387,358.612823486328,44.9637107849121,0.594465911388397,-0.0170990452170372,-0.00388337043114007,-0.0505435913801193,-0.03121219533433,-0.0134297356845702,0.019321835755004,5
0.239990234375,-0.0606391876935959,2.94054126739502,1.13421738147736,-0.0630214373585105,2.93870001655724,1.18187036203406,2412.277,2430.186,2374.65,2437.872,358.334930419922,44.965950012207,0.652569234371185,-0.022465243935585,-0.00603369018062949,-0.0273184888064861,-0.0368316683029241,-0.015847637913056,0.022800557215184,5
0.259994506835938,-0.0612136051058769,2.9403657913208,1.13412082195282,-0.0638179029240226,2.93835731967507,1.18236341216003,2329.694,2392.296,2463.651,2399.269,358.076751708984,44.9739723205566,0.707520186901093,-0.0287209637463093,-0.00877056084573269,-0.00482540018856525,-0.0428651747123285,-0.0184436871643672,0.0265355850983733,4
0.279998779296875,-0.06193021312356,2.94012451171875,1.13447868824005,-0.0647390625194898,2.93796097043536,1.18293365383054,2306.683,2365.844,2470.42,2371.005,357.887664794922,44.9803848266602,0.760324656963348,-0.035830345004797,-0.0120592694729567,0.0178940892219543,-0.0492963837173861,-0.0212108567320638,0.030516809833474,4
0.300003051757813,-0.0628018230199814,2.93981027603149,1.13528323173523,-0.0657927507678135,2.93750759781875,1.18358593705038,2318.175,2348.928,2416.158,2354.064,357.765686035156,44.9818458557129,0.811125099658966,-0.0435806624591351,-0.0157093480229378,0.0402263961732388,-0.0561132031658829,-0.0241439437008635,0.0347367458022363,4
0.319992065429688,-0.0638367161154747,2.93941974639893,1.13650619983673,-0.0669855955880233,2.93699435001684,1.18432436481717,2335.522,2337.113,2343.228,2342.345,357.679260253906,44.9789047241211,0.859867990016937,-0.0517446994781494,-0.0195266902446747,0.0611467435956001,-0.0632980253096114,-0.0272353719486164,0.0391844929697465,4
0.339996337890625,-0.0650404319167137,2.93895173072815,1.13810396194458,-0.068326768706371,2.93641728069206,1.18515461486636,2337.954,2325.121,2288.042,2330.945,357.595184326172,44.9742469787598,0.906196534633636,-0.0601858235895634,-0.0234064012765884,0.0798900276422501,-0.0708499516420146,-0.0304847548730522,0.0438594951176439,4
0.360000610351563,-0.0664180368185043,2.93840479850769,1.14003121852875,-0.0698225328270578,2.93577369517774,1.1860805641102,2323.441,2311.554,2262.046,2316.329,357.495513916016,44.9703636169434,0.950456142425537,-0.0688804239034653,-0.0273451637476683,0.0963645577430725,-0.0787518717320621,-0.0338847303337087,0.0487511600740379,4
0.379989624023438,-0.0679754018783569,2.93777704238892,1.14224827289581,-0.0714784451857985,2.93506120235061,1.1871056527423,2296.334,2295.164,2261.439,2300.289,357.380706787109,44.9686126708984,0.992435991764069,-0.0778684467077255,-0.031392116099596,0.110851898789406,-0.0869857157641562,-0.0374275233937465,0.0538483017622888,4
0.399993896484375,-0.0697194188833237,2.93706512451172,1.14472627639771,-0.0733036822025899,2.9342758538535,1.18823556140379,2268.736,2278.228,2269.924,2283.895,357.262664794922,44.9688606262207,1.0319060087204,-0.0872008055448532,-0.0356002151966095,0.123901560902596,-0.0955525119207663,-0.0411135764513579,0.0591515566763244,4
0.419998168945313,-0.0716573596000671,2.93626523017883,1.14744651317596,-0.0753034649285836,2.93341540321397,1.18947352217404,2250.346,2263.999,2271.343,2268.147,357.153228759766,44.969970703125,1.06956434249878,-0.09689711779356,-0.0399918667972088,0.136010780930519,-0.104434660908044,-0.0449353170220673,0.0646500300148815,4
0.44000244140625,-0.0737960115075111,2.93537425994873,1.15039241313934,-0.077483988232608,2.93247718495301,1.19082336997196,2238.806,2251.417,2264.066,2255.893,357.05810546875,44.9710845947266,1.10531210899353,-0.106932692229748,-0.0445502772927284,0.14729380607605,-0.113620829717891,-0.048887868829098,0.0703367061060819,4
0.459991455078125,-0.0761413127183914,2.93438935279846,1.15354824066162,-0.0798493430620752,2.93145943885026,1.19228763728888,2233.067,2241.235,2249.5,2245.715,356.976623535156,44.971736907959,1.13917195796967,-0.117265030741692,-0.0492430552840233,0.157789036631584,-0.123092454730403,-0.0529632444654124,0.0762000931848968,4
0.479995727539063,-0.0786982700228691,2.93330860137939,1.15689659118652,-0.0824088828700873,2.93035814037613,1.19387211435783,2227.943,2232.321,2234.299,2237.289,356.904663085938,44.9720191955566,1.17093098163605,-0.127847760915756,-0.0540372282266617,0.167414709925652,-0.132852887402757,-0.0571628859694044,0.0822422659629699,4
0.5,-0.0814713090658188,2.93213033676147,1.16042113304138,-0.085166398670376,2.92917165836334,1.1955791479969,2223.984,2225.381,2219.844,2228.741,356.837249755859,44.9720611572266,1.2012677192688,-0.138651967048645,-0.0589144602417946,0.176227271556854,-0.142884000065179,-0.0614789935111996,0.0884520025491718,5
0.519989013671875,-0.0844644755125046,2.93085312843323,1.1641047000885,-0.0881248588203387,2.92789871561062,1.19741057576073,2216.225,2217.808,2211.943,2221.773,356.771392822266,44.972354888916,1.22989976406097,-0.149657905101776,-0.0638648718595505,0.184178918600082,-0.153166947611899,-0.0659034585682559,0.0948176369253132,5
0.539993286132813,-0.0876817256212234,2.9294753074646,1.16793274879456,-0.091293865515634,2.92653518056143,1.19937234186584,2207.153,2210.364,2209.047,2215.116,356.707672119141,44.9730758666992,1.25647723674774,-0.160862490534782,-0.0688912719488144,0.191400662064552,-0.163706645289342,-0.0704383960337938,0.101342211863077,5
0.55999755859375,-0.0911270454525948,2.92799544334412,1.17189514636993,-0.094676112580471,2.92507989413848,1.20146611391775,2201.421,2205.033,2205.09,2207.882,356.647277832031,44.9740142822266,1.28182637691498,-0.172266453504562,-0.0739984214305878,0.198120057582855,-0.17448465888317,-0.0750758741803766,0.108014315705644,5
0.580001831054688,-0.0948041975498199,2.92641186714172,1.1759819984436,-0.0982762614093182,2.92353085067394,1.20369477754168,2195.12,2199.29,2202.698,2202.872,356.591278076172,44.9751396179199,1.30563473701477,-0.183857530355453,-0.0791806727647781,0.204341858625412,-0.185490414529404,-0.0798113433697334,0.11482740272751,5
0.599990844726563,-0.0987167358398438,2.92472314834595,1.18018579483032,-0.102095761416081,2.92188742652551,1.20605922999388,2190.898,2194.731,2199.55,2198.286,356.540466308594,44.9763336181641,1.32792091369629,-0.195626929402351,-0.0844335928559303,0.210187718272209,-0.19670480600515,-0.0846365827279185,0.121769645266545,5
0.6199951171875,-0.102867916226387,2.92292809486389,1.18449950218201,-0.106144683970236,2.92014528826426,1.20856570593183,2186.988,2190.578,2196.936,2194.839,356.495208740234,44.9775581359863,1.34838593006134,-0.207558810710907,-0.0897483602166176,0.215683966875076,-0.208134604141382,-0.0895545055543457,0.128845234789665,5
0.639999389648438,-0.107260756194592,2.92102575302124,1.18891894817352,-0.110424235525481,2.91830391678686,1.21121495220784,2186.857,2188.692,2191.266,2190.897,356.454376220703,44.9785957336426,1.36792075634003,-0.219642609357834,-0.095119334757328,0.220971763134003,-0.219761081350814,-0.0945570538913933,0.136042578028218,5
0.659988403320313,-0.111897930502892,2.91901516914368,1.1934380531311,-0.114934715429503,2.91636318329238,1.21400715413238,2184.401,2185.95,2188.52,2189.027,356.416564941406,44.9796409606934,1.38614058494568,-0.231858819723129,-0.100535027682781,0.225956186652184,-0.231565018351745,-0.0996359582190702,0.143349777331291,5
0.67999267578125,-0.116781942546368,2.91689538955688,1.19805204868317,-0.119686638739014,2.91431856344567,1.21694882102647,2181.349,2183.336,2188.26,2187.439,356.381896972656,44.9808082580566,1.40259969234467,-0.244200140237808,-0.105992794036865,0.230700954794884,-0.243554411173546,-0.104794659005432,0.150771782621969,5
0.699996948242188,-0.121915221214294,2.91466546058655,1.20275950431824,-0.124680083855354,2.91217002351282,1.22004000142426,2181.855,2182.99,2185.433,2184.792,356.350067138672,44.9818916320801,1.4182962179184,-0.256664395332336,-0.111493617296219,0.235373497009277,-0.255710395848158,-0.11002503961202,0.158296916205407,5
0.720001220703125,-0.127299949526787,2.91232490539551,1.20755708217621,-0.129918284978346,2.90991617190799,1.22328269744952,2179.973,2181.5,2185.422,2184.2,356.320617675781,44.9830436706543,1.43283402919769,-0.269236832857132,-0.117029763758183,0.239881455898285,-0.268023157655716,-0.11532287703907,0.16591910230247,5
0.739990234375,-0.132938265800476,2.90987277030945,1.21244359016418,-0.135400001298574,2.90755754251682,1.2266761409821,2179.173,2180.638,2185.638,2183.507,356.2939453125,44.9842224121094,1.4461442232132,-0.281914860010147,-0.122601009905338,0.244327157735825,-0.280473432677602,-0.12067988256057,0.173626415629864,5
0.759994506835938,-0.13883201777935,2.90730881690979,1.21741783618927,-0.14113644597991,2.90508931062815,1.2302272735046,2177.639,2179.715,2187.298,2183.446,356.270782470703,44.985481262207,1.4578560590744,-0.294688671827316,-0.128203555941582,0.248712733387947,-0.293070637251543,-0.126100107763583,0.181424685349205,5
0.779998779296875,-0.144983127713203,2.90463209152222,1.22248184680939,-0.147126184485884,2.90251209348295,1.23393520697061,2180.405,2181.023,2184.906,2182.34,356.250640869141,44.986515045166,1.46902000904083,-0.307555764913559,-0.133837044239044,0.25319841504097,-0.305795832832518,-0.131575403921268,0.189302187598958,5
0.800003051757813,-0.151393085718155,2.90184235572815,1.22763466835022,-0.153371683173492,2.89982482987671,1.2378014681726,2180.187,2180.945,2185.378,2183.294,356.232604980469,44.987548828125,1.47918033599854,-0.320497870445251,-0.139491260051727,0.257638663053513,-0.318639638509124,-0.13710173468952,0.197253115148089,5
0.819992065429688,-0.158063337206841,2.89893913269043,1.2328770160675,-0.159870162197751,2.89702871589906,1.2418243362541,2180.727,2181.358,2186.238,2183.883,356.216613769531,44.9885711669922,1.4882630109787,-0.333512932062149,-0.145166024565697,0.262120097875595,-0.33158286215529,-0.142670842232658,0.205265587156312,5
0.839996337890625,-0.164995178580284,2.8959219455719,1.23820960521698,-0.166633637018892,2.89411858163313,1.24601124935738,2180.016,2181.413,2188.951,2184.977,356.203338623047,44.9896850585938,1.49581754207611,-0.346592158079147,-0.150858417153358,0.266626834869385,-0.344636106234817,-0.148287288494656,0.213346167053785,5
0.860000610351563,-0.172189891338348,2.89279055595398,1.24363601207733,-0.173659158941841,2.89109569582005,1.2503603820997,2183.637,2183.801,2187.438,2184.613,356.192443847656,44.9905700683594,1.50304043292999,-0.359735637903214,-0.156570091843605,0.27132186293602,-0.357780475378537,-0.153942943326036,0.221483157706883,5
0.879989624023438,-0.179648414254189,2.88954472541809,1.24915683269501,-0.18094280014554,2.88796174849148,1.25486930297274,2183.948,2184.358,2188.897,2186.461,356.183044433594,44.9914588928223,1.50936460494995,-0.372925966978073,-0.162291496992111,0.27604141831398,-0.370996904517929,-0.159629603560431,0.229664756929996,5
0.899993896484375,-0.187371596693993,2.88618421554565,1.25477337837219,-0.18849723509595,2.8847112861788,1.25954585807468,2183.535,2184.659,2192.207,2188.178,356.176025390625,44.9924278259277,1.5141795873642,-0.386160016059875,-0.168022140860558,0.280828565359116,-0.384296738353309,-0.165352150505452,0.237897987633041,5
0.919998168945313,-0.195360392332077,2.88270902633667,1.26049029827118,-0.196318384305134,2.8813460641717,1.26438752200817,2187.597,2187.491,2190.965,2188.117,356.171051025391,44.9931793212891,1.51874172687531,-0.399438887834549,-0.173764646053314,0.285846710205078,-0.397661187980262,-0.171102499820431,0.246171218589148,5
0.94000244140625,-0.203615307807922,2.87911891937256,1.26630854606628,-0.204407453948074,2.87786556348678,1.26939504145298,2188.069,2188.305,2192.798,2190.308,356.167327880859,44.9939346313477,1.52244830131531,-0.412744969129562,-0.179509490728378,0.290914684534073,-0.411081631631503,-0.176876941799768,0.254479112513653,5
0.959991455078125,-0.21213686466217,2.87541365623474,1.27223086357117,-0.212759000778906,2.87427212620069,1.27456504678061,2189.287,2189.622,2194.719,2191.738,356.165161132813,44.9946784973145,1.52525103092194,-0.426078349351883,-0.185257986187935,0.296114683151245,-0.424539267042903,-0.182667386354485,0.262810029909387,5
0.979995727539063,-0.220925465226173,2.8715934753418,1.27825903892517,-0.22138664033507,2.87055989392801,1.27990596665734,2189.027,2190.297,2198.34,2193.611,356.16552734375,44.9955024719238,1.52663338184357,-0.439430564641953,-0.191007360816002,0.301410585641861,-0.438046240701377,-0.188479059778567,0.271171490030365,5
1,-0.229981541633606,2.86765837669373,1.28439843654633,-0.230284798736574,2.86673126495361,1.28541435058594,2193.707,2193.424,2196.683,2193.725,356.167907714844,44.9960517883301,1.52790534496307,-0.452803015708923,-0.196759849786758,0.306971698999405,-0.451584000205995,-0.194303979492187,0.279552008056641,5
1.01998901367188,-0.239305034279823,2.86360836029053,1.29065012931824,-0.239446912293295,2.86278906344998,1.29108613532954,2194.308,2194.343,2198.361,2196.137,356.171325683594,44.9966049194336,1.52841114997864,-0.466176241636276,-0.2025046646595,0.31258562207222,-0.46513400752272,-0.200134169097193,0.287940108062054,5
1.03999328613281,-0.24889600276947,2.8594434261322,1.29701590538025,-0.248887339851819,2.85872711120656,1.2969302096982,2193.894,2194.818,2202.082,2198.209,356.176727294922,44.9972534179688,1.52746212482452,-0.479548007249832,-0.208241909742355,0.318287760019302,-0.478708875293167,-0.205975055460915,0.29634359787259,5
1.05999755859375,-0.258754402399063,2.85516381263733,1.30350089073181,-0.258599401509697,2.85454828239877,1.30294243851408,2198.389,2198.006,2200.576,2198.119,356.183776855469,44.9976615905762,1.52648079395294,-0.492921203374863,-0.213975340127945,0.324251383543015,-0.492290296490434,-0.211818761581115,0.30475114456651,5
1.08000183105469,-0.268879950046539,2.85076999664307,1.31010603904724,-0.268583149539609,2.85025255453512,1.30912285413647,2198.644,2198.77,2202.52,2200.443,356.191650390625,44.9980964660645,1.5247837305069,-0.50627726316452,-0.21969473361969,0.330258935689926,-0.50587040849135,-0.217661904390701,0.313157880805523,5
1.09999084472656,-0.279272317886353,2.84626197814941,1.31683397293091,-0.278830554044452,2.84584338265603,1.31546648567654,2199.724,2199.902,2204.378,2201.884,356.200744628906,44.9985198974609,1.52223920822144,-0.519617915153503,-0.225402325391769,0.336397171020508,-0.519431110871131,-0.223496695782555,0.321552601564445,5
1.1199951171875,-0.289930999279022,2.84163999557495,1.32368624210358,-0.289357002179081,2.84131414609862,1.32198285851614,2199.005,2200.316,2208.075,2203.636,356.212219238281,44.9990501403809,1.51827144622803,-0.532934546470642,-0.231095537543297,0.342613726854324,-0.532985466132485,-0.229328756186667,0.329943393154705,5
1.13999938964844,-0.300855606794357,2.83690452575684,1.33066809177399,-0.300154365346813,2.83666834237095,1.3286669406667,2203.771,2203.449,2205.754,2203.267,356.225616455078,44.9992942810059,1.514399766922,-0.546229600906372,-0.236777111887932,0.349091351032257,-0.546515580872639,-0.235150386571708,0.338319178707607,5
1.15998840332031,-0.312045216560364,2.83205580711365,1.33777976036072,-0.31121353909136,2.83190988886621,1.33551309603608,2203.911,2203.917,2207.073,2205.516,356.239807128906,44.9995307922363,1.50984525680542,-0.559482336044312,-0.242435306310654,0.355584800243378,-0.560003743914979,-0.240953966313175,0.346668994161124,6
1.17999267578125,-0.32349905371666,2.82709431648254,1.34502232074738,-0.322550701230474,2.8270318247214,1.34253133946411,2202.853,2203.884,2210.607,2207.272,356.255828857422,44.9999046325684,1.50383520126343,-0.572691142559052,-0.248070567846298,0.36212757229805,-0.573463232144024,-0.246745208083563,0.355001058539242,6
1.19999694824219,-0.335216253995895,2.82202053070068,1.35240042209625,-0.334156660511822,2.8220381046756,1.34971598112778,2207.255,2206.793,2208.24,2206.574,356.273376464844,45.0000152587891,1.49793565273285,-0.585859894752502,-0.25368720293045,0.368907898664474,-0.58687652428584,-0.252516572968185,0.36330452533874,6
1.22000122070313,-0.347195595502853,2.8168351650238,1.35991394519806,-0.346030421585499,2.81692915700008,1.35706640485806,2206.816,2206.979,2209.738,2208.504,356.291534423828,45.0001640319824,1.49138152599335,-0.598968923091888,-0.259274274110794,0.375676870346069,-0.600236516861372,-0.258265004538453,0.371574997167698,6
1.239990234375,-0.35943603515625,2.81153845787048,1.36756455898285,-0.358161486344149,2.81170949873715,1.36457611182642,2207.281,2207.558,2211.104,2209.379,356.310760498047,45.0003280639648,1.48404896259308,-0.612021148204803,-0.264834463596344,0.382529228925705,-0.613526094901141,-0.263983138701136,0.379801879044709,6
1.25999450683594,-0.371936202049255,2.80613112449646,1.37535262107849,-0.3705671011502,2.80637170925886,1.37225577835275,2205.71,2207.263,2214.493,2210.622,356.332366943359,45.0006332397461,1.47527313232422,-0.625007927417755,-0.270365357398987,0.389403730630875,-0.626758665639206,-0.269676744214496,0.387993470686331,6
1.27999877929688,-0.384694844484329,2.80061364173889,1.38328266143799,-0.383236695417198,2.80092033679326,1.3800988607405,2210.247,2209.957,2211.164,2209.469,356.355834960938,45.0006256103516,1.46672451496124,-0.637932360172272,-0.275869995355606,0.396501570940018,-0.639917282339435,-0.275338529371412,0.396139281255613,6
1.30000305175781,-0.397710293531418,2.79498696327209,1.39135360717773,-0.396168722856641,2.79535604666509,1.38810440176341,2209.591,2209.755,2211.884,2211.151,356.380035400391,45.0006294250488,1.45757877826691,-0.650772750377655,-0.281335681676865,0.403547942638397,-0.652995275331231,-0.280965624398954,0.404235181908735,6
1.31999206542969,-0.410980939865112,2.78925156593323,1.39956641197205,-0.409351342777246,2.78968393359302,1.39626507146953,2209.75,2209.942,2212.646,2211.704,356.405151367188,45.0006713867188,1.44767916202545,-0.663531899452209,-0.286764770746231,0.41063779592514,-0.665976209205206,-0.286550957599616,0.412270998344359,6
1.33999633789063,-0.424504965543747,2.78340840339661,1.40792059898376,-0.422802873722428,2.78389611561957,1.40459220990988,2207.633,2209.208,2215.749,2212.594,356.432464599609,45.0008583068848,1.43632364273071,-0.676201522350311,-0.292155057191849,0.417706608772278,-0.678873453515705,-0.29210028151913,0.420255006953505,6
1.36000061035156,-0.438280642032623,2.77745819091797,1.41641998291016,-0.436511415158101,2.77799771321212,1.41307845008695,2211.876,2211.572,2211.961,2210.94,356.461486816406,45.0007400512695,1.42525780200958,-0.688785552978516,-0.297510206699371,0.424967706203461,-0.691670720740693,-0.297606588091785,0.42817712498415,6
1.37998962402344,-0.452305912971497,2.77140188217163,1.42506265640259,-0.450464156928423,2.77199423822282,1.42171586190405,2210.654,2210.906,2212.461,2212.271,356.491088867188,45.0006713867188,1.41360557079315,-0.701262772083282,-0.302817761898041,0.43213626742363,-0.704352136620515,-0.303063047067127,0.436027525513373,6
1.39999389648438,-0.466578543186188,2.76524019241333,1.43384778499603,-0.464680216184654,2.76587746507559,1.43051627978847,2208.161,2209.569,2215.395,2213.129,356.522583007813,45.0007743835449,1.40042126178741,-0.713633000850677,-0.30807888507843,0.43925553560257,-0.716930938559026,-0.308475354130225,0.443814403124744,6
1.41999816894531,-0.481096565723419,2.75897431373596,1.44277858734131,-0.47914673136562,2.75965292774086,1.43947174182117,2212.026,2211.738,2211.489,2211.017,356.555572509766,45.0005950927734,1.3875629901886,-0.725900530815125,-0.313298225402832,0.446540415287018,-0.729391385793766,-0.313836736470737,0.451528013536465,6
1.44000244140625,-0.495857506990433,2.75260496139526,1.45185267925262,-0.493861275572861,2.75332167044526,1.4485807456364,2210.334,2210.693,2211.962,2212.093,356.589080810547,45.0004959106445,1.37410259246826,-0.738045334815979,-0.318463832139969,0.453705430030823,-0.741727567798258,-0.319144650954242,0.459164697851088,6
1.45999145507813,-0.510858833789825,2.74613332748413,1.4610698223114,-0.508809800712713,2.74688973769103,1.45783459479497,2209.645,2210.215,2212.366,2211.852,356.623565673828,45.0004386901855,1.35994064807892,-0.750070929527283,-0.323578834533691,0.460857272148132,-0.753924423002454,-0.324392617007921,0.466715132239272,6
1.47999572753906,-0.526098191738129,2.73956060409546,1.47042846679688,-0.524012471663969,2.74034845309416,1.46724577231745,2206.773,2208.711,2214.944,2212.14,356.660552978516,45.0005531311035,1.34430408477783,-0.761969447135925,-0.328640729188919,0.467932850122452,-0.765994882555672,-0.329586198544069,0.474187321698441,6
1.5,-0.541573047637939,2.73288750648499,1.47993159294128,-0.539455198877605,2.73370387899399,1.4768055561018,2210.804,2210.554,2210.051,2209.707,356.699340820313,45.0003204345703,1.32904922962189,-0.773743987083435,-0.33365261554718,0.475155800580978,-0.777924000354858,-0.334718964672088,0.481572013878822,6
1.51998901367188,-0.557280540466309,2.72611546516418,1.48957598209381,-0.555123050061237,2.72696244033876,1.48650470234772,2208.864,2209.249,2209.843,2210.464,356.738677978516,45.0001564025879,1.31327223777771,-0.785373091697693,-0.338601380586624,0.482218235731125,-0.789697369743256,-0.339784716610053,0.488860290373601,6
1.53999328613281,-0.573217630386353,2.71924567222595,1.49935936927795,-0.571036956668503,2.72011513090874,1.49635616862212,2205.599,2207.179,2212.276,2210.79,356.779846191406,45.000171661377,1.29594159126282,-0.796857118606567,-0.343488454818726,0.489170074462891,-0.801327600455846,-0.344788879974649,0.496059957209413,6
1.55999755859375,-0.589381635189056,2.71227931976318,1.50928425788879,-0.587181951496087,2.71316839067337,1.50635068951315,2209.176,2208.869,2207.476,2207.9,356.822418212891,44.9999084472656,1.27904152870178,-0.808200597763062,-0.34831839799881,0.496242195367813,-0.812800388649436,-0.349725300221754,0.503162159625937,6
1.58000183105469,-0.605769336223602,2.70521783828735,1.51934683322906,-0.60355483331529,2.70612359703193,1.51648628330776,2206.679,2207.177,2207.507,2208.45,356.865325927734,44.9997291564941,1.2615932226181,-0.819384217262268,-0.353079676628113,0.50313001871109,-0.824110582941666,-0.354591760855452,0.510163708672098,6
1.59999084472656,-0.622377574443817,2.69806241989136,1.52954590320587,-0.620139554045575,2.69898765502515,1.52675301547962,2205.382,2206.057,2207.419,2207.655,356.9091796875,44.9996109008789,1.24345874786377,-0.83041250705719,-0.357775539159775,0.509954392910004,-0.835244706287931,-0.359382463079953,0.517056261415284,5
1.6199951171875,-0.639203190803528,2.69081425666809,1.53987884521484,-0.636958033083316,2.69175113334911,1.53716445517924,2201.724,2203.932,2209.693,2207.419,356.955505371094,44.9996871948242,1.22382521629333,-0.84127801656723,-0.362403929233551,0.51664811372757,-0.846214826007804,-0.364102599125749,0.523847288101157,5
1.63999938964844,-0.656242787837982,2.68347501754761,1.55034792423248,-0.653994195024907,2.68442094880091,1.54771065096602,2205.521,2205.419,2204.042,2204.204,357.003692626953,44.9994125366211,1.2047290802002,-0.851983547210693,-0.366967737674713,0.523452043533325,-0.857007552155828,-0.368746407673381,0.530528499715628,5
1.65998840332031,-0.673493027687073,2.6760458946228,1.56094884872437,-0.67123120513297,2.67700434489773,1.55838118133557,2203.065,2203.468,2203.228,2204.621,357.052307128906,44.9991836547852,1.18513774871826,-0.862508952617645,-0.3714539706707,0.530044615268707,-0.867610144209785,-0.373308406832068,0.537092009268528,5
1.67999267578125,-0.690950095653534,2.66852855682373,1.57167828083038,-0.688691692550512,2.66949158495151,1.56919005480539,2199.06,2200.872,2205.384,2204.474,357.102752685547,44.9991912841797,1.16399681568146,-0.872854709625244,-0.375863969326019,0.536473631858826,-0.878034183119987,-0.377793579561193,0.543544985919778,5
1.69999694824219,-0.708610594272614,2.66092443466187,1.58253812789917,-0.706358800111611,2.66188992212981,1.58012683598675,2202.483,2202.171,2199.871,2200.951,357.154510498047,44.9988861083984,1.1433926820755,-0.883025348186493,-0.380202442407608,0.542990446090698,-0.888267004546665,-0.382196476749158,0.549879589839776,5
1.72000122070313,-0.726470649242401,2.65323519706726,1.59352362155914,-0.724228658537036,2.6542010212754,1.5911891296115,2199.389,2199.983,2199.513,2201.117,357.206451416016,44.9986801147461,1.12229907512665,-0.893002927303314,-0.384458005428314,0.549273371696472,-0.898304216251578,-0.386515208538549,0.556093102023817,5
1.739990234375,-0.744526505470276,2.64546251296997,1.60463273525238,-0.74228345468553,2.64643254688532,1.60236590849663,2197.631,2198.399,2199.048,2199.878,357.259216308594,44.9985580444336,1.10057032108307,-0.902792453765869,-0.388634353876114,0.555453181266785,-0.908134108040217,-0.390744736359816,0.562178273303667,5
1.75999450683594,-0.762774169445038,2.63760781288147,1.61586201190948,-0.760546715064628,2.63857437616062,1.61367173667103,2193.39,2195.781,2201.068,2199.298,357.314483642578,44.9986343383789,1.07733070850372,-0.912387251853943,-0.392729550600052,0.561461567878723,-0.917767514700581,-0.394889722119545,0.568141810929231,4
1.77999877929688,-0.781210005283356,2.62967300415039,1.62721312046051,-0.779000609654483,2.63063418086074,1.62509557650306,2197.124,2196.992,2194.767,2195.495,357.371459960938,44.9983444213867,1.05474758148193,-0.921789526939392,-0.396746397018433,0.567553520202637,-0.927192788821983,-0.398945154262308,0.57397650459845,4
1.79998779296875,-0.799829542636871,2.62165951728821,1.63868093490601,-0.797626646773287,2.62261991743975,1.63662598076079,2194.125,2194.576,2193.663,2195.661,357.428741455078,44.9981155395508,1.03169906139374,-0.930980980396271,-0.400672316551208,0.573390543460846,-0.936399026186941,-0.402906341007953,0.579675604081262,4
1.81999206542969,-0.81862884759903,2.61356925964355,1.65026152133942,-0.816448984455027,2.61452119137054,1.64827790441807,2189.659,2191.633,2195.565,2195.145,357.48779296875,44.9981346130371,1.00714027881622,-0.939962923526764,-0.4045090675354,0.579030454158783,-0.945396434568188,-0.406777674475912,0.585245428475252,3
1.83999633789063,-0.837603569030762,2.60540413856506,1.66195619106293,-0.835449117627072,2.60634596486888,1.66003989195343,2192.958,2192.604,2189.589,2191.185,357.547973632813,44.9978332519531,0.983202636241913,-0.948738753795624,-0.408260971307755,0.584731996059418,-0.954174163352093,-0.410554485950274,0.590679260733698,3
1.86000061035156,-0.856749475002289,2.59716582298279,1.67375946044922,-0.854622615239374,2.59809614449182,1.6719092003358,2189.49,2190.086,2188.901,2191.08,357.608215332031,44.9976425170898,0.958835542201996,-0.957293152809143,-0.41191753745079,0.590166389942169,-0.962728579444532,-0.414235212212131,0.595974851798267,0
1.87998962402344,-0.876062095165253,2.58885622024536,1.68566882610321,-0.873950157556149,2.58978004298193,1.6838738697284,2187.359,2188.182,2188.22,2189.533,357.669128417969,44.9975318908691,0.933887839317322,-0.965631008148193,-0.415482461452484,0.5954669713974,-0.971049893464309,-0.417815641164241,0.601126141575667,0
1.89999389648438,-0.895537078380585,2.58047723770142,1.69768023490906,-0.893456683142228,2.58138692997148,1.69594933829086,2182.704,2185.264,2190.077,2188.69,357.732482910156,44.9976387023926,0.907468676567078,-0.9737468957901,-0.418954461812973,0.600568413734436,-0.979147395688901,-0.421299770153459,0.606138881190213,0
1.91999816894531,-0.915169894695282,2.57203054428101,1.70979487895966,-0.913122862707269,2.57292512231409,1.70812364027167,2186.438,2186.214,2183.339,2184.521,357.797424316406,44.9973564147949,0.881788372993469,-0.981641948223114,-0.422335684299469,0.605734825134277,-0.987011339258123,-0.424683405378145,0.611007036871143,0
1.94000244140625,-0.934955894947052,2.56351828575134,1.7220071554184,-0.932943991899774,2.5643966441608,1.72039386345315,2183.079,2183.618,2182.013,2184.417,357.862487792969,44.9971542358398,0.855764031410217,-0.989300549030304,-0.425614655017853,0.610616981983185,-0.994638524886308,-0.427965170275055,0.615728628108227,0
1.95999145507813,-0.954890429973602,2.55494236946106,1.73431408405304,-0.952900013794853,2.55581012544606,1.73274759164336,2181.013,2181.591,2180.868,2182.837,357.927978515625,44.997013092041,0.829204797744751,-0.996727108955383,-0.428794294595718,0.615348100662231,-1.00202031904361,-0.431141350077486,0.620298310335216,0
1.97999572753906,-0.974968791007996,2.54630494117737,1.74671125411987,-0.973016570682103,2.54715453300902,1.74520069864106,2176.105,2178.548,2182.666,2181.936,357.995574951172,44.9971122741699,0.80119001865387,-1.00391709804535,-0.431873947381973,0.619858801364899,-1.00916501115878,-0.434215511495054,0.624721215103391,0
2,-0.995186150074005,2.5376079082489,1.7591997385025,-0.993273599084619,2.53843849960327,1.7577407641983,2179.733,2179.392,2175.931,2177.561,358.064483642578,44.9968338012695,0.773970365524292,-1.01087176799774,-0.434856206178665,0.624422907829285,-1.01606400046349,-0.437183953857422,0.628992018127441,0
2.01998901367188,-1.01553761959076,2.52885317802429,1.77177357673645,-1.01365055070775,2.52967086658596,1.77035506794184,2176.11,2176.651,2174.714,2177.379,358.133270263672,44.9966430664063,0.746436417102814,-1.01757800579071,-0.437730967998505,0.628690838813782,-1.02270954399163,-0.440043345582587,0.633105926142498,0
2.03999328613281,-1.03601837158203,2.52004313468933,1.78442811965942,-1.03417354141348,2.52084039703127,1.78305977683431,2171.047,2173.252,2176.59,2176.657,358.203704833984,44.9967193603516,0.717440545558929,-1.02403819561005,-0.440500348806381,0.632728576660156,-1.02910913225408,-0.442796909628122,0.637067576131623,0
2.05999755859375,-1.05662357807159,2.51117968559265,1.79716432094574,-1.05482201812353,2.5119559343546,1.79584216754118,2174.44,2173.96,2170.117,2172.178,358.275085449219,44.996452331543,0.689217209815979,-1.03025376796722,-0.443167924880981,0.636810004711151,-1.03525504859546,-0.445441325732794,0.640872191117535,0
2.08000183105469,-1.07734775543213,2.50226521492004,1.80997610092163,-1.07559088172821,2.50301967256038,1.80869908347065,2170.509,2171.153,2169.205,2171.891,358.346282958984,44.9963111877441,0.66067510843277,-1.03621387481689,-0.445724874734879,0.640589416027069,-1.04114485287423,-0.447975543971863,0.644518260536375,0
2.09999084472656,-1.09818637371063,2.49330163002014,1.82286036014557,-1.09645901288412,2.49404069871208,1.82161745074311,2168.261,2169.002,2168.128,2170.059,358.417907714844,44.9962348937988,0.631680727005005,-1.04192316532135,-0.448174566030502,0.64421284198761,-1.04677201701582,-0.450396755497224,0.648001743199023,0
2.1199951171875,-1.11913394927979,2.48429131507874,1.83581244945526,-1.11745308225396,2.48500753716864,1.83461377976925,2163.129,2165.789,2169.877,2169.111,358.49169921875,44.9963874816895,0.601261377334595,-1.04737770557404,-0.450516402721405,0.64760559797287,-1.0521429102862,-0.45270770082608,0.651326581984514,0
2.13999938964844,-1.14018535614014,2.47523617744446,1.84883344173431,-1.138551967509,2.47592927627801,1.8476749948214,2167.031,2166.591,2162.72,2164.467,358.566772460938,44.9961318969727,0.57175999879837,-1.05257666110992,-0.452751815319061,0.651048064231873,-1.05725102347782,-0.454905579228273,0.654488747383304,0
2.15998840332031,-1.16133570671082,2.46613883972168,1.86191701889038,-1.15973418543027,2.46681515966915,1.86078779676364,2163.3,2163.767,2161.252,2164.262,358.6416015625,44.9959602355957,0.542045056819916,-1.05751001834869,-0.454871594905853,0.654177784919739,-1.06209075728,-0.456987981476842,0.657484773155346,0
2.17999267578125,-1.18257927894592,2.45700120925903,1.87505829334259,-1.18102676265167,2.45765355853653,1.8739689163698,2158.122,2160.161,2162.963,2163.628,358.717803955078,44.9960517883301,0.510843753814697,-1.06218028068542,-0.456877917051315,0.657064139842987,-1.06666760390386,-0.458957270716794,0.660318059240953,0
2.19999694824219,-1.20391094684601,2.44782567024231,1.88825798034668,-1.20240821395574,2.44845371736898,1.88720505326679,2161.559,2160.953,2156.383,2158.778,358.794616699219,44.9957962036133,0.480580002069473,-1.06658720970154,-0.458774030208588,0.659982681274414,-1.07097597819164,-0.460811043810786,0.662985148161421,0
2.22000122070313,-1.22532546520233,2.4386146068573,1.9015097618103,-1.22387315175433,2.43921795429519,1.90049287228091,2157.443,2158.009,2155.462,2158.517,358.870941162109,44.9956703186035,0.450097143650055,-1.0707243680954,-0.460552901029587,0.662587761878967,-1.07501419914593,-0.462548577472581,0.665484999299265,0
2.239990234375,-1.24681746959686,2.42937016487122,1.91481029987335,-1.24539969505118,2.42995568409656,1.91381882803312,2154.994,2155.705,2154.493,2156.672,358.947509765625,44.9956359863281,0.419200390577316,-1.07459604740143,-0.462217777967453,0.665025889873505,-1.07877792518082,-0.464168003639063,0.667814925005999,0
2.25999450683594,-1.26838135719299,2.42009472846985,1.92815494537354,-1.26701526177039,2.4206551096063,1.92719989352455,2149.807,2152.508,2156.168,2155.628,359.026123046875,44.9958343505859,0.38696676492691,-1.07819998264313,-0.463768869638443,0.667230367660522,-1.08227143928024,-0.465671165158559,0.669977576652695,0
2.27999877929688,-1.29001200199127,2.41079068183899,1.94154453277588,-1.28869796983554,2.41132564607061,1.9406225227075,2153.781,2153.225,2148.955,2150.852,359.105773925781,44.9955940246582,0.355753809213638,-1.08153307437897,-0.46520659327507,0.669477045536041,-1.08549040888332,-0.467056197851165,0.67197027217779,0
2.29998779296875,-1.31170392036438,2.40146017074585,1.95497262477875,-1.31042570636616,2.40197680804417,1.95407302665558,2149.984,2150.297,2147.408,2150.729,359.184997558594,44.9954414367676,0.324355155229568,-1.08458971977234,-0.466523498296738,0.671404957771301,-1.08843144721369,-0.468321644481621,0.673790915005368,0
2.31999206542969,-1.33345127105713,2.3921058177948,1.96843421459198,-1.33222611841886,2.3925966997709,1.96756852021384,2144.708,2146.803,2149.093,2149.973,359.265411376953,44.9955749511719,0.291598379611969,-1.08737218379974,-0.467721998691559,0.673082530498505,-1.09109790637238,-0.469468947365361,0.675441580245663,0
2.33999633789063,-1.35524892807007,2.38272976875305,1.98193001747131,-1.35407709248145,2.38319483607731,1.98109531406483,2148.288,2147.44,2142.445,2145.1,359.346160888672,44.9953346252441,0.259845525026321,-1.08987867832184,-0.468804240226746,0.674788177013397,-1.09348640563071,-0.470496651869278,0.67692017506657,0
2.36000061035156,-1.37709105014801,2.3733344078064,1.99545347690582,-1.37597305876702,2.37377361348711,1.99464996024512,2144.025,2144.493,2141.569,2144.862,359.426239013672,44.995231628418,0.227932989597321,-1.09210669994354,-0.469765245914459,0.676172971725464,-1.09559602313537,-0.471404361345641,0.678226128796969,0
2.37998962402344,-1.39897227287292,2.3639223575592,2.0090012550354,-1.39789168475144,2.36434264106153,2.00821863385843,2141.588,2142.258,2140.586,2142.91,359.506286621094,44.9952201843262,0.195740789175034,-1.09405994415283,-0.470608055591583,0.677388370037079,-1.09742465646102,-0.47219117117957,0.679358139935436,0
2.39999389648438,-1.4208869934082,2.35449576377869,2.02256870269775,-1.41986083522252,2.35488992936084,2.02181858453579,2136.406,2139.005,2142.187,2141.975,359.588165283203,44.9954376220703,0.162277817726135,-1.09573769569397,-0.47133332490921,0.678368210792542,-1.09897439291323,-0.472857979480329,0.680317500623536,0
2.41999816894531,-1.44282972812653,2.34505701065063,2.03615641593933,-1.44185817738692,2.34542508756209,2.03543598721428,2140.391,2139.672,2135.083,2137.123,359.670867919922,44.9952201843262,0.12990714609623,-1.09713494777679,-0.471940845251083,0.679382920265198,-1.10024313330221,-0.473403883025206,0.681102911362803,0
2.44000244140625,-1.46479475498199,2.33560848236084,2.0497579574585,-1.46387808506052,2.33595053645515,2.04906735901791,2136.555,2136.814,2133.564,2136.984,359.752899169922,44.9951095581055,0.0974632278084755,-1.09825038909912,-0.472425103187561,0.680078625679016,-1.10123038958312,-0.473828671822132,0.681714070030222,0
2.45999145507813,-1.486776471138,2.32615280151367,2.06336975097656,-1.48589810917879,2.32647593524532,2.06269880290633,2134.265,2134.593,2132.276,2135.145,359.834625244141,44.9950675964355,0.0647834241390228,-1.0990868806839,-0.472788423299789,0.680594623088837,-1.10193535162022,-0.474131997292339,0.68215047511319,0
2.47999572753906,-1.50876927375793,2.31669211387634,2.07698702812195,-1.50794623031618,2.31698924467309,2.07634764018804,2129.053,2131.415,2133.849,2134.222,359.917785644531,44.9952659606934,0.0309039484709501,-1.09964489936829,-0.473032385110855,0.680867552757263,-1.10235882472314,-0.474314205938057,0.682412625136718,0
2.5,-1.53076779842377,2.30722904205322,2.09061026573181,-1.52999999932945,2.30750012397766,2.08999997377396,2132.884,2132.031,2127.049,2129.345,0.00136150722391903,44.995044708252,-0.00182864721864462,-1.09991919994354,-0.473156899213791,0.681167542934418,-1.10250000050292,-0.474374949932098,0.682500019669533,0
2.51998901367188,-1.55276584625244,2.29776573181152,2.1042332649231,-1.5520369476803,2.29801824074336,2.10364189456856,2128.919,2129.128,2125.773,2129.262,0.0841158926486969,44.9949493408203,359.965393066406,-1.09991145133972,-0.473158061504364,0.681150913238525,-1.10235904000526,-0.474314298567936,0.682412758406603,0
2.53999328613281,-1.5747584104538,2.28830528259277,2.11785101890564,-1.57408507527774,2.28853154739156,2.11729073584934,2123.727,2125.817,2127.424,2128.462,0.167771726846695,44.9951324462891,359.931457519531,-1.09962439537048,-0.473038405179977,0.680890262126923,-1.10193578218388,-0.474132182551855,0.682150741652607,0
2.55999755859375,-1.59673929214478,2.27884936332703,2.1314640045166,-1.59612191359838,2.27904971150017,2.13093258853001,2127.344,2126.154,2121.018,2123.784,0.251462668180466,44.9949340820313,359.898559570313,-1.09905290603638,-0.472798436880112,0.680650293827057,-1.10123038958312,-0.473828671822132,0.681714070030222,0
2.58000183105469,-1.61870336532593,2.26940059661865,2.14506602287292,-1.61814182127198,2.26957516039323,2.14456396033363,2123.205,2123.548,2120.067,2123.399,0.334191769361496,44.9948768615723,359.86572265625,-1.09820079803467,-0.472436189651489,0.680097162723541,-1.10024313330221,-0.473403883025206,0.681102911362804,0
2.59999084472656,-1.64064466953278,2.25996160507202,2.15865349769592,-1.64012239440973,2.26011753383818,2.15817098218581,2120.826,2121.252,2119.115,2121.652,0.416588008403778,44.9948883056641,359.832702636719,-1.09707057476044,-0.471953868865967,0.679372489452362,-1.09897546783438,-0.47285844198887,0.680318166050934,0
2.6199951171875,-1.66255807876587,2.25053453445435,2.17222189903259,-1.66209156852628,2.2506648119635,2.17177094750084,2115.841,2118.236,2120.551,2120.738,0.500426769256592,44.9951248168945,359.798614501953,-1.09566366672516,-0.471353143453598,0.678418338298798,-1.09742594550583,-0.472191725819537,0.679358937915576,0
2.63999938964844,-1.68443751335144,2.24112176895142,2.18577170372009,-1.68402693989188,2.24122663446822,2.18534998730279,2119.786,2118.749,2113.805,2116.009,0.584602177143097,44.994945526123,359.765686035156,-1.09397232532501,-0.470632344484329,0.677488386631012,-1.09559602313537,-0.471404361345641,0.67822612879697,0
2.65998840332031,-1.70627760887146,2.23172616958618,2.19929671287537,-1.70590622088595,2.23181259109281,2.19889430449282,2116.076,2116.109,2112.327,2115.864,0.667779147624969,44.9948501586914,359.732879638672,-1.09200191497803,-0.469789326190948,0.676250159740448,-1.09348812118877,-0.470497390025984,0.676921237078733,0
2.67999267578125,-1.72807264328003,2.22234964370728,2.21279215812683,-1.72775723139253,2.2224107117184,2.21242112090437,2111.051,2112.754,2113.825,2115.347,0.751519680023193,44.9950218200684,359.698944091797,-1.08975517749786,-0.468826323747635,0.674769401550293,-1.09109983431736,-0.469469776906228,0.675442773735451,0
2.69999694824219,-1.74981701374054,2.21299481391907,2.22625827789307,-1.74955768413056,2.21303058593937,2.22591663964878,2114.579,2113.307,2107.736,2110.493,0.834928512573242,44.9948348999023,359.666229248047,-1.0872255563736,-0.467743426561356,0.673301219940186,-1.08843358680109,-0.468322565086308,0.673792239511893,0
2.72000122070313,-1.77150547504425,2.20366406440735,2.23968887329102,-1.77130202882336,2.20367460188472,2.23937742484041,2110.516,2110.591,2106.89,2110.377,0.917114675045013,44.9947929382324,359.633605957031,-1.08442115783691,-0.466540634632111,0.671529352664948,-1.08549040888332,-0.467056197851165,0.671970272177789,0
2.739990234375,-1.79313218593597,2.19435977935791,2.25308060646057,-1.79296822271738,2.1943522439355,2.25278983096475,2108.202,2108.446,2106.05,2108.638,0.998725771903992,44.9948425292969,359.600891113281,-1.08134377002716,-0.465220004320145,0.669590294361115,-1.08227399942825,-0.465672266718727,0.669979161506271,0
2.75999450683594,-1.81469225883484,2.18508410453796,2.26642918586731,-1.81458384274179,2.18505164650952,2.26617092945464,2103.365,2105.621,2107.468,2107.763,1.08152210712433,44.9950904846191,359.567260742188,-1.077996134758,-0.463783711194992,0.667429804801941,-1.07878069424208,-0.464169195088763,0.667816639186824,0
2.77999877929688,-1.83617973327637,2.1758394241333,2.27973508834839,-1.83612684690458,2.17578229366013,2.27950707526701,2107.268,2106.047,2101.042,2103.195,1.16440558433533,44.994930267334,359.534851074219,-1.07436919212341,-0.462229549884796,0.665290534496307,-1.07501419914593,-0.462548577472581,0.665484999299265,0
2.79998779296875,-1.85758900642395,2.16662836074829,2.29299211502075,-1.85757544288233,2.1665535620153,2.29278477791556,2103.693,2103.555,2099.628,2103.108,1.24612283706665,44.9948577880859,359.502624511719,-1.07047188282013,-0.460556983947754,0.66285514831543,-1.07097916161324,-0.460812413548163,0.662987118851036,0
2.81999206542969,-1.87891495227814,2.15745306015015,2.30619597434998,-1.87895695992541,2.1573536925621,2.30602095550813,2098.946,2100.465,2100.983,2102.59,1.32814371585846,44.9950370788574,359.469512939453,-1.06630706787109,-0.458768099546432,0.66018807888031,-1.06667099276523,-0.458958728849171,0.660320157107579,0
2.83999633789063,-1.90015244483948,2.14831590652466,2.31934642791748,-1.90024960698239,2.14819206138118,2.31920211834584,2102.411,2100.851,2095.216,2098.026,1.40953361988068,44.9948654174805,359.437561035156,-1.0618668794632,-0.456862300634384,0.657528460025787,-1.06209435025759,-0.456989527434725,0.657486997379635,0
2.86000061035156,-1.92129588127136,2.13921880722046,2.33243799209595,-1.9214480311499,2.13907097167731,2.33232495272651,2098.437,2098.306,2094.505,2097.971,1.48950946331024,44.9948463439941,359.405792236328,-1.05716288089752,-0.454841405153275,0.654577016830444,-1.05725102347782,-0.454905579228273,0.654488747383304,0
2.87998962402344,-1.94233965873718,2.1301646232605,2.34546732902527,-1.94253086194772,2.12999961857111,2.34537622930486,2096.27,2096.419,2093.744,2096.193,1.56871068477631,44.9949073791504,359.374114990234,-1.05219626426697,-0.452707201242447,0.651466965675354,-1.05214690704168,-0.452709420518306,0.651329056166547,0
2.89999389648438,-1.96327900886536,2.12115550041199,2.3584303855896,-1.96352501326936,2.1209664217661,2.35837260906308,2091.758,2093.693,2095.011,2095.507,1.6487900018692,44.9951629638672,359.341644287109,-1.0469708442688,-0.450462162494659,0.648148655891418,-1.04677621342161,-0.450398561093403,0.648004340974112,0
2.91999816894531,-1.98410868644714,2.11219358444214,2.37132740020752,-1.98440911693069,2.11198057539494,2.37130086407726,2095.602,2094.074,2088.926,2091.138,1.72860550880432,44.9950180053711,359.310424804688,-1.04147684574127,-0.448103547096252,0.644847452640533,-1.04114485287423,-0.447975543971863,0.644518260536375,0
2.94000244140625,-2.00482296943665,2.10328102111816,2.38415265083313,-2.00517798053537,2.10304431360073,2.38415778000673,2092.108,2091.724,2087.695,2091.163,1.80702447891235,44.9949645996094,359.279449462891,-1.0357266664505,-0.445632666349411,0.641262888908386,-1.03525504859546,-0.445441325732794,0.640872191117535,0
2.95999145507813,-2.02541732788086,2.09441995620728,2.3969030380249,-2.02581075424974,2.0941666074844,2.39693044981124,2090.259,2089.926,2086.612,2089.523,1.88431668281555,44.9949836730957,359.248657226563,-1.02972114086151,-0.443051069974899,0.63751882314682,-1.02911391720548,-0.442798968459032,0.637070538244476,0
2.97999572753906,-2.04588675498962,2.08561277389526,2.40957427024841,-2.04633384260397,2.08533609591429,2.40963521915279,2085.628,2087.316,2088.043,2088.943,1.96204447746277,44.9952278137207,359.217163085938,-1.02346563339233,-0.440361976623535,0.633560001850128,-1.02271452148052,-0.440045487257004,0.633109007445237,0
3,-2.06622576713562,2.07686161994934,2.42216658592224,-2.06672639957428,2.07656174835205,2.42225918334961,2089.306,2087.642,2082.407,2084.677,2.03921270370483,44.9950981140137,359.186950683594,-1.01695001125336,-0.437562853097916,0.629617929458618,-1.01606400046349,-0.437183953857422,0.628992018127441,0
3.01998901367188,-2.08642959594727,2.06816840171814,2.43467473983765,-2.0869680292999,2.06785234056679,2.43478971639231,2085.914,2085.447,2081.333,2084.659,2.11483836174011,44.9950675964355,359.157043457031,-1.01018869876862,-0.434656322002411,0.625406563282013,-1.00917036754089,-0.434217816196637,0.624724530959079,0
3.03999328613281,-2.10649299621582,2.05953550338745,2.44709444046021,-2.10708469520508,2.05919670122237,2.4472428908773,2081.47,2082.745,2082.769,2084.236,2.19040846824646,44.9952735900879,359.126525878906,-1.00318467617035,-0.431644678115845,0.620985567569733,-1.00202586176059,-0.431143734953757,0.620301741541063,0
3.05999755859375,-2.12641167640686,2.05096483230591,2.4594259262085,-2.12705600675913,2.05060360379452,2.45960608409476,2084.916,2083.074,2077.561,2080.028,2.26503038406372,44.9951477050781,359.097259521484,-0.995928645133972,-0.428526133298874,0.616576611995697,-0.994638524886308,-0.427965170275055,0.615728628108227,0
3.08000183105469,-2.14618062973022,2.04245901107788,2.47166395187378,-2.14687713595163,2.04207512564123,2.47187630727625,2081.309,2080.848,2076.934,2080.124,2.33800578117371,44.9951553344727,359.068328857422,-0.988436639308929,-0.425304502248764,0.611904442310333,-0.987011339258122,-0.424683405378145,0.611007036871143,0
3.09999084472656,-2.16579484939575,2.03401923179626,2.48380589485168,-2.16652837486666,2.03361974652815,2.48404136028297,2079.583,2079.075,2076.144,2078.704,2.40981769561768,44.9952201843262,359.039581298828,-0.9807088971138,-0.421981036663055,0.607093334197998,-0.979153483542501,-0.421302389586788,0.606142649861596,0
3.1199951171875,-2.18524956703186,2.02564811706543,2.49584770202637,-2.18603502400946,2.02522658035469,2.49611690533293,2075.42,2076.973,2077.39,2077.976,2.48195290565491,44.9954795837402,359.010375976563,-0.972751080989838,-0.418559193611145,0.602091491222382,-0.971056158224178,-0.417818336715394,0.601130019760458,0
3.13999938964844,-2.20454096794128,2.01734733581543,2.50778985023499,-2.20537738341953,2.01690410346351,2.50809074721212,2079.135,2077.232,2072.004,2074.079,2.55331420898438,44.9953651428223,358.982513427734,-0.964552819728851,-0.415035635232925,0.59710818529129,-0.962728579444533,-0.414235212212131,0.595974851798267,0
3.15998840332031,-2.22366333007813,2.00911927223206,2.51962733268738,-2.22453632143911,2.00866054767245,2.51995104251302,2075.885,2075.146,2071.089,2074.306,2.62296915054321,44.9953384399414,358.955017089844,-0.956131041049957,-0.411414057016373,0.591871201992035,-0.954180774018563,-0.410557330335374,0.590683353051152,0
3.17999267578125,-2.2426130771637,2.00096535682678,2.53135633468628,-2.24353658854737,2.00048526354177,2.53171311296128,2072.118,2072.823,2072.18,2073.842,2.69217824935913,44.9955368041992,358.927093505859,-0.947488129138947,-0.407696545124054,0.586450219154358,-0.945403214201559,-0.406780591562751,0.585249625391267,0
3.19999694824219,-2.261385679245,1.99288773536682,2.54297685623169,-2.2623590635174,1.99238647840124,2.54336512160655,2075.101,2073.091,2067.676,2070.065,2.76009726524353,44.9954376220703,358.900451660156,-0.938615918159485,-0.403881758451462,0.581029891967773,-0.936405971974636,-0.402909329586355,0.579679903854719,0
3.22000122070313,-2.27997636795044,1.98488807678223,2.55448436737061,-2.28099938900442,1.98436606709459,2.55490437104486,2071.882,2071.132,2067.153,2070.153,2.82616996765137,44.9954681396484,358.874237060547,-0.929531514644623,-0.399974405765533,0.575376331806183,-0.927192788821982,-0.398945154262308,0.573976504598449,0
3.239990234375,-2.29838109016418,1.97696852684021,2.56587624549866,-2.2994392795179,1.97643189735754,2.5663195416865,2070.299,2069.691,2066.538,2068.774,2.89086079597473,44.9955596923828,358.848388671875,-0.920235633850098,-0.395975828170776,0.569596946239471,-0.917774783907129,-0.394892849856044,0.568146310914365,0
3.25999450683594,-2.31659555435181,1.96913075447083,2.57714915275574,-2.31770268688992,1.96857366338589,2.57762546085652,2066.653,2067.61,2067.625,2068.394,2.95550537109375,44.9958038330078,358.822235107422,-0.910734713077545,-0.391889423131943,0.563650488853455,-0.90814153446928,-0.390747931744771,0.562182870617026,0
3.27999877929688,-2.33461618423462,1.96137666702271,2.588303565979,-2.33577134012187,1.96079922667992,2.58881081793642,2070.039,2067.971,2062.873,2064.776,3.01908159255981,44.9957122802734,358.797424316406,-0.901019155979156,-0.387712240219116,0.5577192902565,-0.898304216251578,-0.386515208538549,0.556093102023818,0
3.29998779296875,-2.35243797302246,1.95370769500732,2.59933495521545,-2.35362764460945,1.95311615770631,2.59986472102797,2067.204,2066.125,2062.038,2065.064,3.08075356483459,44.9957160949707,358.773040771484,-0.891107022762299,-0.383448839187622,0.551564931869507,-0.888274735793772,-0.382199803288803,0.549884375850026,0
3.31999206542969,-2.37005805969238,1.94612574577332,2.61023998260498,-2.37129490830989,1.94551442770222,2.61080159886703,2063.779,2064.201,2063.109,2064.628,3.14166450500488,44.9958992004395,358.74853515625,-0.881001234054565,-0.379101574420929,0.54524564743042,-0.878042061913513,-0.37779696958594,0.54354986326829,0
3.33999633789063,-2.38747191429138,1.93863224983215,2.62101864814758,-2.38875555478454,1.93800159931817,2.62161057080077,2066.593,2064.318,2059.133,2061.383,3.20103979110718,44.9958381652832,358.725219726563,-0.870694220066071,-0.374668806791306,0.538931131362915,-0.867618167158097,-0.373311858882592,0.53709697585572,0
3.36000061035156,-2.40467596054077,1.93122899532318,2.63166689872742,-2.406005803634,1.93057929915441,2.6322892965819,2063.776,2062.773,2058.685,2061.398,3.25837564468384,44.9958648681641,358.702514648438,-0.860204041004181,-0.370156168937683,0.532412528991699,-0.857007552155826,-0.36874640767338,0.530528499715627,0
3.37998962402344,-2.42166662216187,1.92391777038574,2.64218258857727,-2.42302905329872,1.92325467039821,2.6428274990542,2062.397,2061.423,2058.216,2060.353,3.31408262252808,44.9959564208984,358.680267333984,-0.849531948566437,-0.365564972162247,0.525784492492676,-0.846223126656603,-0.364106170663035,0.523852426598178,0
3.39999389648438,-2.43844032287598,1.91669976711273,2.65256285667419,-2.43984769972619,1.91601807669906,2.65323904237604,2059.225,2059.684,2059.223,2060.05,3.36935210227966,44.9961891174316,358.657867431641,-0.838684976100922,-0.360898852348328,0.519013524055481,-0.835253140422974,-0.35938609205264,0.51706148254665,0
3.41999816894531,-2.45499348640442,1.9095766544342,2.66280794143677,-2.45644516534361,1.90887665092339,2.66351366424015,2062.272,2060.059,2055.153,2056.857,3.42327332496643,44.9961280822754,358.636840820313,-0.827654719352722,-0.356155395507813,0.512258589267731,-0.824110582941664,-0.354591760855451,0.510163708672097,0
3.43998718261719,-2.47132277488708,1.90254986286163,2.6729142665863,-2.47280564474684,1.90183719369507,2.67364158034846,2059.906,2058.579,2054.413,2057.106,3.47510600090027,44.9961471557617,358.616424560547,-0.816459655761719,-0.351339727640152,0.505315065383911,-0.812809078412023,-0.349729039183832,0.50316753900293,0
3.45999145507813,-2.48742485046387,1.89562082290649,2.68287897109985,-2.48895081463434,1.8948903781363,2.68363620960993,2056.887,2056.813,2055.458,2056.975,3.52585244178772,44.9963340759277,358.595947265625,-0.805103659629822,-0.346454113721848,0.498229593038559,-0.80133641229185,-0.344792671461508,0.496065412155666,0
3.47999572753906,-2.50329637527466,1.88879084587097,2.69270205497742,-2.50486489870395,1.88804299234919,2.69348778574196,2059.565,2057.104,2051.996,2054.007,3.57478809356689,44.9962844848633,358.576782226563,-0.793579936027527,-0.341497451066971,0.491156250238419,-0.789706299681989,-0.339788558913217,0.488865818431069,0
3.5,-2.51893472671509,1.88206112384796,2.70238018035889,-2.5205447997813,1.88129636896134,2.70319439144611,2057.12,2055.782,2051.697,2054.185,3.62147307395935,44.9963264465332,358.558288574219,-0.781907260417938,-0.336475729942322,0.483909249305725,-0.777924000354857,-0.334718964672089,0.481572013878822,0
3.51998901367188,-2.53433632850647,1.87543344497681,2.71191167831421,-2.53597583877076,1.87465682397749,2.71274693966292,2055.914,2054.677,2051.459,2053.367,3.66630506515503,44.9964408874512,358.540374755859,-0.770087540149689,-0.331390529870987,0.476572245359421,-0.766004036374581,-0.329590137176618,0.474192988348404,0
3.53999328613281,-2.54949903488159,1.86890864372253,2.72129416465759,-2.55117869390181,1.86811546013321,2.72215823120146,2053.397,2053.31,2052.298,2053.112,3.71028637886047,44.996654510498,358.522552490234,-0.758127927780151,-0.326245546340942,0.469123750925064,-0.753933682518821,-0.324396601119134,0.466720864320997,0
3.55999755859375,-2.56441974639893,1.86248767375946,2.7305281162262,-2.56613872308604,1.86167857751006,2.73141920191151,2056.023,2053.622,2048.965,2050.528,3.75262427330017,44.9966354370117,358.506011962891,-0.746022522449493,-0.32103905081749,0.461691826581955,-0.741727567798258,-0.319144650954242,0.459164697851087,0
3.58000183105469,-2.57909536361694,1.85617232322693,2.73961019515991,-2.58085326729328,1.85534732021446,2.74052820572674,2054.051,2052.529,2048.456,2050.748,3.79272389411926,44.9966659545898,358.490264892578,-0.733789205551147,-0.315776497125626,0.454107314348221,-0.729391385793765,-0.313836736470737,0.451528013536464,0
3.59999084472656,-2.59352374076843,1.84996330738068,2.74853920936584,-2.59530884290342,1.84912748987145,2.74947689564398,2053.331,2051.593,2047.937,2050.056,3.83067917823792,44.9967422485352,358.475158691406,-0.721430122852325,-0.31045925617218,0.4464470744133,-0.716940488958392,-0.308479463400265,0.4438203152769,0
3.6199951171875,-2.60770297050476,1.84386146068573,2.7573127746582,-2.60952509409627,1.84301063413925,2.75827743234631,2050.841,2050.43,2048.914,2049.941,3.86736154556274,44.9969444274902,358.460266113281,-0.708954155445099,-0.305091828107834,0.438678741455078,-0.704361775018033,-0.303067194200314,0.436033492140578,0
3.63999938964844,-2.62163019180298,1.83786797523499,2.76593136787415,-2.6234885835008,1.83700253474321,2.76692149746096,2053.195,2050.731,2046.144,2047.64,3.90215277671814,44.9969329833984,358.446685791016,-0.696356177330017,-0.299673050642014,0.430931568145752,-0.691670720740692,-0.297606588091786,0.428177124984152,0
3.65998840332031,-2.63530302047729,1.83198380470276,2.77439260482788,-2.63718676607487,1.8311085894645,2.77540132500924,2051.499,2049.785,2045.792,2047.902,3.93459153175354,44.9969940185547,358.433929443359,-0.683653652667999,-0.294208377599716,0.423057019710541,-0.678883253871145,-0.292104498338286,0.420261073840379,0
3.67999267578125,-2.64872002601624,1.82620990276337,2.7826943397522,-2.65063849381582,1.82532068681534,2.78372858527554,2049.42,2048.625,2046.676,2047.916,3.96543669700623,44.9971656799316,358.421478271484,-0.670851647853851,-0.288700610399246,0.415091842412949,-0.665986083416798,-0.286555206197011,0.41227711095171,0
3.69999694824219,-2.66187906265259,1.82054662704468,2.79083728790283,-2.66383127580226,1.81964420129024,2.79189554578451,2051.567,2048.894,2044.275,2045.907,3.99412560462952,44.9971656799316,358.410278320313,-0.657946944236755,-0.283149421215057,0.407148241996765,-0.65299527533123,-0.280965624398954,0.404235181908735,0
