t,x_s1,x_s2,x_s3,x_s_d1,x_s_d2,x_s_d3,propellers_rpms1,propellers_rpms2,propellers_rpms3,propellers_rpms4,rollRad,pitchRad,yawRad,v_s1,v_s2,v_s3,v_s_d1,v_s_d2,v_s_d3,insideCount
0,-0.0599999986588955,2.94000005722046,1.17999994754791,-0.0599999986588955,2.94000005722046,1.17999994754791,0,0,0,0,0,45.0048027038574,0,0,0,0,-1.06581410364015E-15,4.44089209850063E-16,-7.105427357601E-16,0
0.0200004577636719,-0.0599999986588955,2.94000005722046,1.1790189743042,-0.0600018691155303,2.93999925241522,1.18000109018068,0,0,0,0,0.00112508691381663,44.8630180358887,0.909284114837646,-3.60929135467813E-08,2.95208497647081E-08,-0.0490499772131443,-0.000279999361409376,-0.000120475902936966,0.000171047240579747,5
0.0400009155273438,-0.0599999986588955,2.94000005722046,1.17411398887634,-0.0600148724204753,2.93999365745638,1.18000903369676,0,0,0,0,0.00304071488790214,44.7212371826172,1.81856429576874,-3.62307304158094E-08,2.93641466697636E-08,-0.245249927043915,-0.00111101934050116,-0.00047804058392963,0.000678704377995865,6
0.05999755859375,-0.0600350871682167,2.94003486633301,1.16684293746948,-0.0600498857373401,2.93997859220429,1.18003042278566,2307.06,2000.226,2127.687,3382.348,-0.0021375825162977,44.8046226501465,1.28310787677765,-0.00175438949372619,0.00174321210943162,-0.363554894924164,-0.00247936261166862,-0.00106680046642749,0.00151460392977639,6
0.0799980163574219,-0.0601342283189297,2.9401330947876,1.15967178344727,-0.0601175407449857,2.93994948214456,1.1800717521741,2848.214,2759.965,2606.632,2299.082,359.914245605469,44.8777198791504,0.619943737983704,-0.00495704775676131,0.0049134474247694,-0.358559846878052,-0.00437227586895222,-0.00188126815916228,0.00267095510032206,6
0.0999984741210938,-0.0602752901613712,2.94026303291321,1.1533819437027,-0.0602281887669101,2.93990187339187,1.18013934532406,2872.029,2897.541,2627.943,2213.429,359.724700927734,44.9188041687012,0.190224647521973,-0.00705305300652981,0.0064930347725749,-0.314492136240005,-0.00677637982016689,-0.00291568692648091,0.00413958468881675,5
0.119998931884766,-0.0604444555938244,2.94038772583008,1.14806056022644,-0.0603919230601972,2.93983142309968,1.18023936804881,2725.793,2926.58,2634.734,2219.36,359.427734375,44.9351234436035,0.0502856820821762,-0.00845820922404528,0.00623416760936379,-0.266067951917648,-0.00967861374975049,-0.00416443710735115,0.005912514107932,5
0.139999389648438,-0.0606513507664204,2.94048070907593,1.1437304019928,-0.0606185767455666,2.93973390035084,1.18037782724834,2551.831,2770.003,2667.495,2379.448,359.090698242188,44.947868347168,0.144063457846642,-0.0103446878492832,0.00464876741170883,-0.216507166624069,-0.0130660253322238,-0.00562194567796536,0.00798183098414958,5
0.159999847412109,-0.0609212145209312,2.94052791595459,1.14032292366028,-0.0609177249752248,2.93960518522485,1.18056057223372,2443.385,2553.613,2687.129,2529.334,358.804504394531,44.9652938842773,0.340537250041962,-0.0134932184591889,0.00235702539794147,-0.17037296295166,-0.0169257706321904,-0.00728268625174051,0.0103396891577615,5
0.180000305175781,-0.0612808503210545,2.94052505493164,1.13772797584534,-0.0612986871007165,2.9394412678651,1.18079329605139,2417.331,2395.046,2654.724,2596.436,358.625610351563,44.9838829040527,0.518683910369873,-0.0179817676544189,-0.000144752906635404,-0.12974938750267,-0.0212451141043368,-0.00914117907931815,0.0129783086828701,5
0.200000762939453,-0.0617486350238323,2.94047331809998,1.13583755493164,-0.0617705288407759,2.93923824754608,1.18108153680744,2450.725,2337.892,2561.852,2580.206,358.551239013672,44.9966087341309,0.617884993553162,-0.0233892425894737,-0.00259062577970326,-0.09452074021101,-0.0260114285934326,-0.0111919910485645,0.0158899758273878,5
0.219997406005859,-0.0623323731124401,2.94037485122681,1.13456833362579,-0.0623419453860714,2.93899238297017,1.18143060625819,2496.964,2359.976,2442.849,2516.204,358.52587890625,44.9992332458496,0.641179442405701,-0.0291868411004543,-0.00492155645042658,-0.0634639859199524,-0.0312111627562649,-0.0134292913950757,0.0190664122872106,5
0.239997863769531,-0.0630333423614502,2.94023036956787,1.13386464118958,-0.0630217183703222,2.93869989564571,1.18184586896662,2511.706,2408.147,2348.46,2446.516,358.476837158203,44.9927215576172,0.627747654914856,-0.0350485444068909,-0.0072294669225812,-0.0351831167936325,-0.0368338920540454,-0.0158485947310391,0.0225012498742643,5
0.259998321533203,-0.0638525262475014,2.94003653526306,1.13368916511536,-0.063818066443955,2.93835724931701,1.18233234557803,2475.441,2437.183,2311.634,2397,358.35595703125,44.981761932373,0.619205892086029,-0.0409591719508171,-0.00969058647751808,-0.00877212360501289,-0.04286636357961,-0.0184441987007453,0.0261863925943699,4
0.279998779296875,-0.0647952035069466,2.93978667259216,1.13401007652283,-0.0647390625194898,2.93796097043536,1.18289496770872,2398.708,2429.046,2331.172,2372.522,358.162963867188,44.9715042114258,0.638278603553772,-0.0471337325870991,-0.0124885188415647,0.0160478819161654,-0.0492963837173861,-0.0212108567320638,0.0301143915580518,4
0.299999237060547,-0.0658718794584274,2.93947196006775,1.13479292392731,-0.065792536715479,2.93750768991949,1.18353851865591,2313.788,2391.295,2375.447,2363.948,357.940216064453,44.9650001525879,0.685048818588257,-0.0538339205086231,-0.0157369486987591,0.0391425639390945,-0.0561118672418845,-0.0241433688900884,0.0342778640896448,4
0.319999694824219,-0.0670958310365677,2.93908333778381,1.13599860668182,-0.0669860785243584,2.93699414222283,1.1842676347221,2254.721,2343.459,2404.449,2358.774,357.744567871094,44.9626884460449,0.745566368103027,-0.0611976496875286,-0.0194299686700106,0.0602819658815861,-0.0633008373176985,-0.0272365818771378,0.0386694937272938,4
0.340000152587891,-0.0684792846441269,2.93861436843872,1.1375857591629,-0.0683270389802989,2.93641716440073,1.18508680653936,2239.46,2303.395,2392.603,2348.375,357.614776611328,44.9632110595703,0.803875148296356,-0.0691728144884109,-0.0234481114894152,0.0793577581644058,-0.0708514254995047,-0.0304853890327553,0.0432820302229541,4
0.360000610351563,-0.0700307041406631,2.93806195259094,1.1395149230957,-0.0698225328270578,2.93577369517774,1.18600038039362,2261.887,2279.323,2340.978,2330.731,357.552368164063,44.9647483825684,0.850468099117279,-0.0775708183646202,-0.0276179797947407,0.0964584723114967,-0.0787518717320621,-0.0338847303337087,0.0481082895423912,4
0.379997253417969,-0.0717544108629227,2.93742609024048,1.14175117015839,-0.0714791088463715,2.935060916796,1.18701235683346,2297.152,2269.407,2273.594,2308.709,357.524810791016,44.9657707214355,0.884531676769257,-0.0861851871013641,-0.0317949838936329,0.111813798546791,-0.0869889214763108,-0.0374289027221294,0.0531401746945263,4
0.399997711181641,-0.0736524015665054,2.93670749664307,1.14426505565643,-0.0733040467096699,2.93427569701629,1.18812718289655,2316.719,2266.066,2221.413,2286.899,357.486907958984,44.965648651123,0.911173045635223,-0.0948996543884277,-0.0359259396791458,0.125693276524544,-0.0955541759940907,-0.0411142924556206,0.058372555021277,4
0.419998168945313,-0.0757269710302353,2.93590617179871,1.14703130722046,-0.0753034649285836,2.93341540321397,1.18934859628618,2304.897,2262.117,2203.473,2268.315,357.407043457031,44.9645919799805,0.936895966529846,-0.103728421032429,-0.0400612726807594,0.138309895992279,-0.104434660908044,-0.0449353170220673,0.0637975046779765,4
0.439998626708984,-0.0779826045036316,2.93501996994019,1.15002763271332,-0.0774835548069347,2.93247737144397,1.19068037917324,2264.438,2253.253,2219.267,2254.361,357.282531738281,44.9632873535156,0.96594512462616,-0.112781338393688,-0.044313833117485,0.149815037846565,-0.113619049702587,-0.0488871029382406,0.0694081044730023,4
0.459999084472656,-0.0804262310266495,2.93404412269592,1.15323340892792,-0.0798502821969742,2.93145903476675,1.19212617600376,2214.592,2239.999,2249.68,2243.943,357.138122558594,44.9624557495117,0.99895167350769,-0.122181579470634,-0.0487895160913467,0.160286217927933,-0.123096124252221,-0.0529648233581361,0.075197501428542,4
0.479999542236328,-0.0830660089850426,2.93297362327576,1.15662896633148,-0.0824093896672336,2.93035792231548,1.19368949482325,2177.874,2225.496,2270.628,2235.349,357.009155273438,44.962574005127,1.0339013338089,-0.131988808512688,-0.0535277388989925,0.169780120253563,-0.13285477482153,-0.0571636980729742,0.0811589087805935,4
0.5,-0.0859093740582466,2.93180394172668,1.16019630432129,-0.085166398670376,2.92917165836334,1.195373708601,2167.906,2212.972,2266.407,2227.406,356.921020507813,44.9636459350586,1.06798708438873,-0.142168268561363,-0.0584833286702633,0.178368881344795,-0.142884000065179,-0.0614789935111996,0.0872856059789651,5
0.520000457763672,-0.0889616906642914,2.93053293228149,1.16391909122467,-0.0881266117110474,2.92789796139072,1.19718205655433,2182.746,2204.353,2237.625,2219.447,356.876220703125,44.9653739929199,1.09927403926849,-0.152615875005722,-0.0635555684566498,0.186141148209572,-0.153172907027918,-0.0659060227384819,0.0935709386872751,5
0.540000915527344,-0.0922260731458664,2.92916011810303,1.16778314113617,-0.0912951145137283,2.92653464315245,1.19911764547298,2207.736,2199.388,2198.818,2211.692,356.855560302734,44.9672393798828,1.12741804122925,-0.163218796253204,-0.0686439201235771,0.193205237388611,-0.163710711144578,-0.0704401454577151,0.100008318782952,5
0.55999755859375,-0.0957043170928955,2.92768621444702,1.17177641391754,-0.094676112580471,2.92507989413848,1.20118304443252,2224.771,2196.524,2168.994,2204.512,356.830993652344,44.9688453674316,1.15338850021362,-0.173912808299065,-0.0736981630325317,0.199666246771812,-0.17448465888317,-0.0750758741803766,0.106589955332319,5
0.579998016357422,-0.0993984490633011,2.92611145973206,1.17588877677917,-0.0982755538235842,2.92353115512831,1.20338188691976,2222.389,2193.75,2160.789,2198.422,356.781890869141,44.9700317382813,1.17857134342194,-0.184706687927246,-0.0787360072135925,0.205620437860489,-0.185488294752812,-0.0798104312890852,0.113311904776732,5
0.599998474121094,-0.103311702609062,2.92443490028381,1.18011152744293,-0.102097262171133,2.92188678079254,1.2057165089127,2202.386,2190.401,2172.985,2193.227,356.705657958984,44.970874786377,1.20399689674377,-0.195662841200829,-0.0838225036859512,0.211136370897293,-0.196709126405959,-0.0846384416756885,0.120166535736014,5
0.619998931884766,-0.107448756694794,2.92265439033508,1.18443727493286,-0.106145477944935,2.92014494663912,1.20818950075775,2175.011,2185.947,2195.192,2189.352,356.616485595703,44.9717025756836,1.2298721075058,-0.20685288310051,-0.0890263095498085,0.216289460659027,-0.208136802817102,-0.0895554515830839,0.127147524930208,5
0.639999389648438,-0.111815005540848,2.92076683044434,1.1888599395752,-0.110424235525481,2.91830391678686,1.21080332699501,2154.761,2181.455,2212.003,2186.351,356.536193847656,44.972827911377,1.2555593252182,-0.21831226348877,-0.0943795070052147,0.22113211452961,-0.219761081350814,-0.0945570538913933,0.134248615293163,5
0.659999847412109,-0.116415411233902,2.9187695980072,1.19337427616119,-0.114937365519793,2.91636204303257,1.21356032768253,2150.548,2178.063,2213.438,2183.961,356.481079101563,44.9743766784668,1.28015005588531,-0.230020835995674,-0.0998614355921745,0.225718662142754,-0.231571827761751,-0.0996388881179631,0.141463615972542,5
0.680000305175781,-0.121253728866577,2.91666126251221,1.1979763507843,-0.119688496929273,2.91431776391831,1.21646271972064,2161.898,2176.374,2199.287,2182.077,356.453643798828,44.9762763977051,1.30300629138947,-0.24191603064537,-0.105413362383842,0.230106294155121,-0.243559016194652,-0.104796640417365,0.148786402329814,5
0.700000762939453,-0.12633228302002,2.91444182395935,1.20266330242157,-0.124681059317553,2.91216960379868,1.21951259817624,2180.138,2176.253,2178.236,2180.629,356.442687988281,44.9782600402832,1.32403981685638,-0.253927737474442,-0.110972300171852,0.234349727630615,-0.255712729184339,-0.110026043581393,0.156210915940263,5
0.719997406005859,-0.131652548909187,2.91211175918579,1.20743322372437,-0.129917262555645,2.90991661182791,1.22271131302505,2194.066,2176.975,2162.025,2179.604,356.430908203125,44.9800567626953,1.34365296363831,-0.266013324260712,-0.116503179073334,0.238498032093048,-0.26802079535749,-0.115321860608138,0.163729721501856,5
0.739997863769531,-0.1372160166502,2.90967154502869,1.21228504180908,-0.135402141159277,2.90755662179454,1.22606193977416,2196.006,2177.563,2159.038,2179.061,356.404998779297,44.9815101623535,1.3623960018158,-0.278173834085464,-0.122012943029404,0.242593869566917,-0.280478211503383,-0.120681938755799,0.171339762631236,5
0.759998321533203,-0.143024891614914,2.90712070465088,1.21721827983856,-0.141137563960274,2.90508882959244,1.22956562006379,2187.138,2178.052,2168.307,2178.592,356.362823486328,44.9826431274414,1.38072001934052,-0.290443539619446,-0.127539351582527,0.246661126613617,-0.293073051970232,-0.126101146749576,0.179033754133825,5
0.779998779296875,-0.149082183837891,2.90445828437805,1.22223317623138,-0.147126184485884,2.90251209348295,1.2332239748923,2172.812,2177.763,2184.435,2178.781,356.312377929688,44.9836502075195,1.39874041080475,-0.302864402532578,-0.133125066757202,0.250742375850677,-0.305795832832518,-0.131575403921268,0.186805902427515,5
0.799999237060547,-0.155391335487366,2.90168237686157,1.227330327034,-0.153370467664426,2.8998253528763,1.23703851004595,2162.235,2177.392,2197.598,2179.313,356.267028808594,44.9847526550293,1.41609215736389,-0.31545752286911,-0.138791963458061,0.254857808351517,-0.318637178554805,-0.1371006762399,0.194650480144012,5
0.819999694824219,-0.161955535411835,2.89879179000854,1.23251092433929,-0.159872691993147,2.89702762739878,1.24101061742316,2161.137,2177.595,2201.397,2180.07,356.237274169922,44.9860763549805,1.43228650093079,-0.328210145235062,-0.144529655575752,0.25902983546257,-0.331587821991737,-0.142672976311719,0.202561826128828,5
0.840000152587891,-0.168777197599411,2.89578580856323,1.23777663707733,-0.166634951706069,2.89411801595997,1.2451415763588,2169.676,2178.639,2195.212,2181.12,356.225219726563,44.9875793457031,1.44696283340454,-0.341082364320755,-0.150303095579147,0.263284504413605,-0.344638604388044,-0.148288363380199,0.210534345441289,5
0.860000610351563,-0.175857752561569,2.89266443252563,1.24312949180603,-0.173659158941841,2.89109569582005,1.24943255494854,2182.736,2180.512,2184.178,2182.314,356.224395751953,44.9891090393066,1.46006846427917,-0.354027718305588,-0.156072571873665,0.267640590667725,-0.357780475378537,-0.153942943326036,0.218562509354528,5
0.879997253417969,-0.183198064565659,2.88942813873291,1.24857175350189,-0.180945630646592,2.88796053060595,1.25388374680983,2193.383,2182.789,2175.574,2183.621,356.224243164063,44.9904556274414,1.47185683250427,-0.367015391588211,-0.161814600229263,0.272114932537079,-0.371001963495383,-0.159631780297098,0.226639310127856,5
0.899997711181641,-0.190798878669739,2.88607740402222,1.25410616397858,-0.188498701076517,2.88471065540831,1.25849779967213,2196.494,2184.748,2175.004,2185.147,356.216217041016,44.9915542602539,1.48265588283539,-0.380041539669037,-0.167531237006187,0.276722580194473,-0.384299280991351,-0.165353244531568,0.234762433885595,5
0.919998168945313,-0.198661342263222,2.88261246681213,1.25973534584045,-0.196318384305134,2.8813460641717,1.26327472213274,2193.156,2186.741,2181.458,2186.39,356.198760986328,44.992359161377,1.49277138710022,-0.393123060464859,-0.173244401812553,0.281459450721741,-0.397661187980262,-0.171102499820431,0.242925014356675,5
0.939998626708984,-0.206787019968033,2.8790328502655,1.26546227931976,-0.204405885800988,2.87786623821667,1.26821525059358,2185.77,2187.879,2192.625,2188.087,356.176177978516,44.9930458068848,1.50232040882111,-0.406283289194107,-0.178979933261871,0.286347687244415,-0.411079067636589,-0.176875838584386,0.251121787656841,5
0.959999084472656,-0.215177685022354,2.87533783912659,1.27128994464874,-0.212762239776093,2.87427073255068,1.27332001683864,2180.201,2188.847,2202.247,2189.769,356.156585693359,44.993766784668,1.51105999946594,-0.419533371925354,-0.184752002358437,0.291381537914276,-0.424544411524882,-0.18266959988136,0.259347556115652,5
0.979999542236328,-0.223834961652756,2.87152671813965,1.27722120285034,-0.221388311353785,2.87055917493534,1.27858954935826,2180.162,2190.014,2206.162,2191.479,356.146697998047,44.9945907592773,1.51866793632507,-0.432864129543304,-0.190555229783058,0.296564608812332,-0.438048819599778,-0.188480169406503,0.267597188276474,5
1,-0.232759922742844,2.86759924888611,1.28325915336609,-0.230284798736574,2.86673126495361,1.28402427467346,2185.976,2191.634,2203.756,2193.182,356.148254394531,44.9955101013184,1.52491676807404,-0.446248769760132,-0.196368366479874,0.301899701356888,-0.451584000205995,-0.194303979492187,0.275865618896484,5
1.02000045776367,-0.241953045129776,2.86355590820313,1.28940689563751,-0.239452235373992,2.86278677307706,1.28962451866023,2194.723,2193.668,2197.936,2194.865,356.157623291016,44.9964218139648,1.52978575229645,-0.459655404090881,-0.202166154980659,0.307388722896576,-0.465141770078335,-0.200137509108014,0.28414784894667,5
1.03999710083008,-0.251414269208908,2.85939717292786,1.29566752910614,-0.248889165986195,2.85872632547195,1.29538939231083,2202.211,2195.815,2193.116,2196.551,356.16845703125,44.9972229003906,1.5334312915802,-0.473061054944992,-0.207932651042938,0.313032358884811,-0.478711464817306,-0.205976169660809,0.292437363711796,5
1.05999755859375,-0.261143445968628,2.85512375831604,1.3020441532135,-0.258599401509697,2.85454828239877,1.3013212236669,2204.896,2197.601,2193.199,2198.272,356.175262451172,44.9978218078613,1.53604030609131,-0.486458897590637,-0.213667124509811,0.318828374147415,-0.492290296490434,-0.211818761581115,0.30073246008742,5
1.07999801635742,-0.271140515804291,2.85073614120483,1.30853939056396,-0.268581219802083,2.85025338484727,1.30741896069852,2203.965,2199.558,2196.956,2199.539,356.176910400391,44.9982261657715,1.53783512115479,-0.499855190515518,-0.219381719827652,0.324759542942047,-0.50586781946303,-0.217660790404144,0.309026756998312,5
1.09999847412109,-0.281405746936798,2.84623432159424,1.31515610218048,-0.278834517009062,2.84584167750307,1.31368253996271,2199.916,2200.694,2204.098,2201.131,356.175506591797,44.9985275268555,1.53896415233612,-0.513261556625366,-0.225091710686684,0.330837428569794,-0.519436284009554,-0.223498921639497,0.317315520258069,5
1.11999893188477,-0.291939407587051,2.84161829948425,1.32189702987671,-0.289359035362208,2.84131327127672,1.32011180399278,2196.573,2201.596,2210.546,2202.59,356.175903320313,44.9988288879395,1.53928327560425,-0.526683032512665,-0.230806112289429,0.337045639753342,-0.532988048794549,-0.229329867434001,0.325594081894103,5
1.13999938964844,-0.302741646766663,2.8368878364563,1.32876455783844,-0.300154365346813,2.83666834237095,1.32670650262257,2196.369,2202.496,2213.59,2203.975,356.182495117188,44.9991912841797,1.53858196735382,-0.540112495422363,-0.236522078514099,0.343377828598022,-0.546515580872639,-0.235150386571708,0.333857840147634,5
1.15999984741211,-0.313812255859375,2.83204340934753,1.33576107025146,-0.311219947869739,2.83190713134792,1.33346629431082,2199.728,2203.615,2212.621,2205.222,356.196624755859,44.9996185302734,1.53671252727509,-0.553531408309937,-0.242226451635361,0.34982618689537,-0.560011455688534,-0.240957284473894,0.34210225947369,6
1.18000030517578,-0.325150609016418,2.82708525657654,1.34288883209229,-0.322555076427271,2.82702994219644,1.34039074746542,2205.083,2204.884,2209.177,2206.42,356.216461181641,45.0000343322754,1.53364503383636,-0.566917419433594,-0.247903093695641,0.35638627409935,-0.573468357077025,-0.246747413199059,0.350322870541114,6
1.19999694824219,-0.336755692958832,2.82201457023621,1.35014975070953,-0.334156660511822,2.8220381046756,1.34747797414352,2209.784,2206.248,2206.065,2207.435,356.238098144531,45.000358581543,1.52949380874634,-0.580252528190613,-0.253540307283401,0.363047659397125,-0.58687652428584,-0.252516572968185,0.358513710658656,6
1.21999740600586,-0.348626255989075,2.8168318271637,1.35754597187042,-0.346028131869748,2.8169301422008,1.35473007074542,2211.453,2207.123,2205.883,2208.607,356.258117675781,45.0005836486816,1.52434241771698,-0.593529284000397,-0.259136378765106,0.369809359312057,-0.600233974716476,-0.258263910724523,0.366673568687828,6
1.23999786376953,-0.360761225223541,2.81153798103333,1.36507880687714,-0.358166167196084,2.81170748469733,1.36214500711597,2211.296,2208.451,2207.363,2209.065,356.275665283203,45.000659942627,1.51837027072906,-0.606747269630432,-0.264697074890137,0.376640975475311,-0.613531154887641,-0.263985315871967,0.374796608555988,6
1.2599983215332,-0.373159408569336,2.80613327026367,1.37274992465973,-0.370569492049568,2.80637068052165,1.3697220047189,2208.654,2208.919,2211.394,2209.961,356.291473388672,45.0006828308105,1.5117574930191,-0.61991161108017,-0.270231008529663,0.383558750152588,-0.626761182173783,-0.269677827009021,0.382878625774588,6
1.27999877929688,-0.385819911956787,2.80061841011047,1.38056063652039,-0.383236695417198,2.80092033679326,1.37746020158837,2206.136,2209.217,2215.228,2210.609,356.308502197266,45.0006866455078,1.50442326068878,-0.633023381233215,-0.27574348449707,0.390538394451141,-0.639917282339435,-0.275338529371412,0.39091548206889,6
1.29999923706055,-0.39874142408371,2.79499363899231,1.388512134552,-0.396166231882091,2.79535711846185,1.38535865365334,2205.338,2209.36,2217.094,2211.236,356.329528808594,45.0007438659668,1.49622344970703,-0.646077394485474,-0.281233131885529,0.397574156522751,-0.652992789539212,-0.280964554832093,0.398903105377968,6
1.31999969482422,-0.411922633647919,2.7892599105835,1.39660513401031,-0.409356423791328,2.7896817473746,1.39341633606181,2206.723,2209.638,2216.422,2211.64,356.355743408203,45.0008354187012,1.48704695701599,-0.659060418605804,-0.286691576242447,0.404652535915375,-0.665981146317813,-0.286553081901244,0.406837489854705,6
1.34000015258789,-0.425361752510071,2.78341770172119,1.40484046936035,-0.422805463423808,2.78389500134342,1.40163214450516,2209.49,2209.942,2213.968,2212.005,356.38623046875,45.0009231567383,1.47685945034027,-0.671956717967987,-0.292108207941055,0.411768913269043,-0.678875903610019,-0.292101335726266,0.414714695865794,6
1.36000061035156,-0.439056813716888,2.77746820449829,1.41321861743927,-0.436511415158101,2.77799771321212,1.41000489654248,2212.017,2210.334,2211.459,2212.147,356.418670654297,45.0009765625,1.46573328971863,-0.68475204706192,-0.297474443912506,0.418910413980484,-0.691670720740693,-0.297606588091785,0.422530849991739,6
1.37999725341797,-0.453005582094193,2.77141237258911,1.42174005508423,-0.450469530727146,2.77199192602736,1.41853169153152,2213.053,2210.562,2210.235,2212.255,356.450866699219,45.0009460449219,1.45379090309143,-0.697438716888428,-0.302787661552429,0.426072180271149,-0.704356955827446,-0.303065120637236,0.430280673041441,6
1.39999771118164,-0.467205882072449,2.76525139808655,1.43040502071381,-0.464682951063699,2.76587628833354,1.42721444821907,2211.633,2210.321,2211.445,2212.403,356.481842041016,45.000862121582,1.44106578826904,-0.710014879703522,-0.308050215244293,0.433246523141861,-0.716933326165324,-0.308476381450513,0.437963381430462,6
1.41999816894531,-0.481655478477478,2.75898599624634,1.43921315670013,-0.47914673136562,2.75965292774086,1.43605014590267,2210.337,2210.537,2212.276,2211.964,356.512725830078,45.0007171630859,1.42764258384705,-0.722480118274689,-0.313266545534134,0.440408289432526,-0.729391385793766,-0.313836736470737,0.445573815653291,6
1.43999862670898,-0.496352136135101,2.7526171207428,1.4481645822525,-0.4938584461112,2.75332288788357,1.44503730286896,2208.145,2210.092,2213.989,2211.872,356.544464111328,45.000560760498,1.41364920139313,-0.734833657741547,-0.318439036607742,0.447570085525513,-0.741725227577294,-0.31914364402254,0.453108367133042,6
1.45999908447266,-0.511293530464172,2.74614572525024,1.45725882053375,-0.508815552717244,2.74688726276417,1.45417436589355,2206.849,2209.539,2214.627,2211.638,356.578796386719,45.0004539489746,1.39899349212646,-0.747070729732513,-0.323566406965256,0.45471328496933,-0.753929052770513,-0.324394609067776,0.460563493506643,6
1.47999954223633,-0.526477158069611,2.73957276344299,1.46649539470673,-0.524015393706918,2.74034719582071,1.4634597115653,2206.755,2208.955,2213.834,2211.301,356.616516113281,45.0003547668457,1.38358461856842,-0.759182751178741,-0.328643769025803,0.461829543113708,-0.76599717101811,-0.329587183205524,0.467935718624829,6
1.5,-0.541900396347046,2.73289942741394,1.47587358951569,-0.539455198877605,2.73370387899399,1.47289164761066,2207.506,2208.43,2211.925,2210.82,356.657379150391,45.0002746582031,1.36737763881683,-0.771158814430237,-0.333664119243622,0.468910217285156,-0.777924000354858,-0.334718964672088,0.475221632552146,6
1.52000045776367,-0.557560086250305,2.72612690925598,1.48539257049561,-0.555132087468752,2.72695855179478,1.48246841421797,2208.292,2207.893,2209.739,2210.257,356.700164794922,45.0001792907715,1.35039138793945,-0.782988667488098,-0.338621497154236,0.475949108600616,-0.789704067205609,-0.339787598340998,0.482417891566952,6
1.53999710083008,-0.573453366756439,2.71925663948059,1.49505126476288,-0.571040013494911,2.72011381564173,1.49218631798906,2208.351,2207.359,2208.103,2209.54,356.743621826172,45.0000495910645,1.33270359039307,-0.794665038585663,-0.343512803316116,0.482937216758728,-0.801329803423436,-0.344789827850059,0.489519872406387,6
1.55999755859375,-0.58957713842392,2.71228981018066,1.50484871864319,-0.587181951496087,2.71316839067337,1.50204717602401,2206.708,2206.336,2208.116,2209.021,356.786926269531,44.9998970031738,1.31430768966675,-0.806184709072113,-0.348338276147842,0.489875137805939,-0.812800388649436,-0.349725300221754,0.496527073925997,6
1.57999801635742,-0.605928003787994,2.70522785186768,1.51478338241577,-0.603551689586986,2.70612494969039,1.51204719357901,2205.716,2205.982,2207.233,2207.776,356.830871582031,44.9996948242188,1.29529976844788,-0.817544519901276,-0.353099286556244,0.496733576059341,-0.824108441976122,-0.354590839657789,0.503434987244577,6
1.59999847412109,-0.622502863407135,2.69807195663452,1.52485406398773,-0.620145926473056,2.69898491314762,1.52218435394475,2203.699,2204.947,2207.357,2207.02,356.875518798828,44.9994926452637,1.27584838867188,-0.828742742538452,-0.357796370983124,0.503533601760864,-0.835248923368005,-0.359384277571697,0.510240533483095,5
1.61999893188477,-0.639298319816589,2.6908233165741,1.53505921363831,-0.636961261140657,2.69174974440622,1.53245657949507,2201.981,2203.798,2207.091,2206.13,356.921722412109,44.9993171691895,1.2558901309967,-0.839775681495667,-0.362428575754166,0.510255992412567,-0.846216901179681,-0.364103492014234,0.516940699976329,5
1.63999938964844,-0.656311094760895,2.68348336219788,1.54539704322815,-0.653994195024907,2.68442094880091,1.54286173301126,2200.83,2202.63,2206.123,2205.128,356.97021484375,44.9991607666016,1.23536336421967,-0.85063773393631,-0.36699303984642,0.516893744468689,-0.857007552155828,-0.368746407673381,0.523532540272869,5
1.65999984741211,-0.67353755235672,2.67605376243591,1.55586588382721,-0.671241134177535,2.67700007270724,1.55339761900642,2200.225,2201.448,2204.435,2204.072,357.021026611328,44.9990272521973,1.21421945095062,-0.861321747303009,-0.371485471725464,0.523442327976227,-0.867616161431205,-0.373310995874343,0.530013174135115,5
1.68000030517578,-0.690973937511444,2.6685357093811,1.56646382808685,-0.688698391434734,2.66948870260877,1.56406198504972,2199.857,2200.281,2202.341,2202.928,357.073669433594,44.9988975524902,1.19244408607483,-0.871820211410522,-0.375901490449905,0.529895663261414,-0.878038122530658,-0.377795274579551,0.536379787539275,5
1.69999694824219,-0.708616435527802,2.6609308719635,1.57718873023987,-0.706358800111611,2.66188992212981,1.57485045312518,2199.179,2199.162,2200.432,2201.638,357.12744140625,44.9987335205078,1.17009055614471,-0.882126748561859,-0.380238056182861,0.536247134208679,-0.888267004546665,-0.382196476749158,0.542628451944297,5
1.71999740600586,-0.726461172103882,2.65324091911316,1.58803868293762,-0.724225231782013,2.65420249571236,1.58576477743246,2197.308,2197.638,2199.659,2200.57,357.181732177734,44.9985847473145,1.14713597297668,-0.892237484455109,-0.384493947029114,0.542499959468842,-0.898302321135456,-0.386514393123025,0.548758870250362,5
1.73999786376953,-0.74450409412384,2.64546751976013,1.59901118278503,-0.742290383213093,2.64642956573347,1.59680049654058,2196.531,2196.837,2197.574,2198.8,357.237091064453,44.9983901977539,1.12368738651276,-0.902148485183716,-0.388668805360794,0.548627376556396,-0.908137821269591,-0.39074633405868,0.554767223802352,5
1.7599983215332,-0.762741267681122,2.63761234283447,1.61010420322418,-0.760550216073323,2.63857286977439,1.60795514349582,2194.555,2195.352,2196.695,2197.594,357.292877197266,44.9982070922852,1.09991526603699,-0.911857306957245,-0.392761915922165,0.554653882980347,-0.917769332013572,-0.394890504058555,0.560650963419089,4
1.77999877929688,-0.781168460845947,2.62967681884766,1.62131536006927,-0.779000609654483,2.63063418086074,1.61922620102184,2192.566,2193.776,2195.803,2196.259,357.349639892578,44.9980392456055,1.0757554769516,-0.921361327171326,-0.396772623062134,0.560560822486877,-0.927192788821983,-0.398945154262308,0.566407606133204,4
1.79999923706055,-0.799781620502472,2.62166285514832,1.63264214992523,-0.79763736303951,2.62261530652977,1.63061110284395,2190.744,2192.217,2194.681,2194.803,357.407806396484,44.9978904724121,1.05115616321564,-0.930657267570496,-0.400699496269226,0.566342651844025,-0.936404235539493,-0.402908582446823,0.572034735191139,4
1.81999969482422,-0.818576455116272,2.6135721206665,1.64408206939697,-0.816456197270346,2.61451808789761,1.64210723501345,2189.288,2190.616,2193.083,2193.35,357.467712402344,44.9977569580078,1.02607297897339,-0.939740717411041,-0.40454027056694,0.571998476982117,-0.945399824400851,-0.406779133026206,0.577530000053147,3
1.84000015258789,-0.837548494338989,2.60540628433228,1.65563249588013,-0.835452757515797,2.60634439872645,1.65371193723192,2188.107,2189.084,2191.108,2191.777,357.529266357422,44.9976234436035,1.00049471855164,-0.948606133460999,-0.408291786909103,0.577522039413452,-0.954175816030892,-0.41055519705179,0.58289111639329,3
1.8599967956543,-0.8566934466362,2.59716725349426,1.66729068756104,-0.854618942724365,2.59809772467243,1.66542026069341,2186.97,2187.588,2188.984,2190.141,357.592163085938,44.9974899291992,0.974464893341064,-0.957248270511627,-0.411951154470444,0.58291107416153,-0.962726969681477,-0.41423451957606,0.588114882720311,0
1.87999725341797,-0.876006782054901,2.5888569355011,1.67905414104462,-0.873957566090845,2.58977685529642,1.67723392393473,2184.944,2185.689,2187.723,2188.772,357.655944824219,44.9973640441895,0.947929203510284,-0.965663313865662,-0.415516436100006,0.588170111179352,-0.971053025860989,-0.417816988947023,0.593201140514831,0
1.89999771118164,-0.895483791828156,2.58047723770142,1.69091951847076,-0.893460418296025,2.58138532283915,1.68914791201086,2184.308,2184.599,2184.907,2186.638,357.720947265625,44.9972076416016,0.920989573001862,-0.973846912384033,-0.418986290693283,0.593271493911743,-0.979148917665041,-0.421300425017273,0.598146794484026,0
1.91999816894531,-0.915119588375092,2.57203006744385,1.70288443565369,-0.913122862707269,2.57292512231409,1.7011593924753,2182.387,2182.856,2183.385,2185.128,357.786224365234,44.9970664978027,0.893823087215424,-0.981796622276306,-0.422359377145767,0.598244369029999,-0.987011339258123,-0.424683405378145,0.60294982514457,0
1.93999862670898,-0.934909880161285,2.56351733207703,1.71494579315186,-0.932940197657643,2.56439827671719,1.71326549315307,2180.268,2181.079,2182.071,2183.465,357.851928710938,44.9969253540039,0.866397500038147,-0.989510715007782,-0.425635427236557,0.603070020675659,-0.99463709319481,-0.4279645542582,0.607608279226948,0
1.95999908447266,-0.954849600791931,2.55494093894958,1.72710072994232,-0.952907658613767,2.55580683609405,1.72546330346508,2178.008,2179.2,2180.881,2181.832,357.918426513672,44.9968070983887,0.838649570941925,-0.996987879276276,-0.428814142942429,0.607748448848724,-1.00202309041976,-0.431142542523221,0.612120269675456,0
1.97999954223633,-0.974934160709381,2.54630303382874,1.73934614658356,-0.973020420343666,2.54715287660719,1.73774987575242,2176.015,2177.416,2179.374,2180.06,357.986206054688,44.9967079162598,0.810534954071045,-1.00422549247742,-0.431894332170486,0.612273454666138,-1.00916635026771,-0.434216087676217,0.616483975648197,0
2,-0.995158493518829,2.53760552406311,1.75167906284332,-0.993273599084619,2.53843849960327,1.75012222660065,2174.355,2175.606,2177.46,2178.318,358.055450439453,44.9966087341309,0.782035052776337,-1.01121997833252,-0.434873908758163,0.616646528244019,-1.01606400046349,-0.437183953857422,0.620697642517089,0
2.01999664306641,-1.0155177116394,2.52885055541992,1.7640962600708,-1.01365835337184,2.52966750931758,1.76257495489689,2172.96,2173.885,2175.225,2176.466,358.126068115234,44.9965057373047,0.753167867660522,-1.01796686649323,-0.437750369310379,0.620862782001495,-1.02271203275434,-0.440044416427654,0.624758821703072,0
2.03999710083008,-1.03600704669952,2.5200400352478,1.77659487724304,-1.03417746715556,2.52083870789413,1.77510976131291,2170.872,2171.812,2173.661,2174.892,358.197662353516,44.9964256286621,0.723870575428009,-1.02446246147156,-0.440521359443665,0.624929130077362,-1.02911032850577,-0.442797424341804,0.628667440734183,0
2.05999755859375,-1.05662095546722,2.51117634773254,1.78917121887207,-1.05482201812353,2.5119559343546,1.78772119534738,2170.322,2170.573,2170.444,2172.536,358.2705078125,44.9963035583496,0.694265484809875,-1.03070282936096,-0.443185359239578,0.62881875038147,-1.03525504859546,-0.445441325732794,0.632421154350513,0
2.07999801635742,-1.07735478878021,2.50226163864136,1.80182254314423,-1.07558691007788,2.50302138145056,1.80040614381254,2168.493,2168.7,2168.5,2170.859,358.343414306641,44.9961891174316,0.664538323879242,-1.03668570518494,-0.445740759372711,0.632563650608063,-1.04114375428791,-0.447975071280863,0.63601847276659,0
2.09999847412109,-1.09820294380188,2.49329781532288,1.8145455121994,-1.09646699912883,2.4940372624541,1.8131614643864,2166.236,2166.692,2167.039,2169.134,358.416320800781,44.9960975646973,0.634625434875488,-1.04241037368774,-0.448187589645386,0.636147499084473,-1.04677411523768,-0.450397658303471,0.63945797241075,0
2.11999893188477,-1.11916053295135,2.48428726196289,1.82733678817749,-1.11745709586255,2.485005810225,1.82598398693703,2163.801,2164.794,2165.773,2167.236,358.489562988281,44.9960060119629,0.604480743408203,-1.0478767156601,-0.450526386499405,0.639564156532288,-1.0521439094894,-0.452708130755304,0.642738295925142,0
2.13999938964844,-1.14022219181061,2.47523212432861,1.84019315242767,-1.138551967509,2.47592927627801,1.83887051484687,2161.486,2162.826,2164.343,2165.429,358.563690185547,44.9959259033203,0.574064314365387,-1.05308389663696,-0.452757120132446,0.642818212509155,-1.05725102347782,-0.454905579228273,0.645858152165725,0
2.15999984741211,-1.16138279438019,2.46613454818726,1.85311126708984,-1.15974634010981,2.46680992985011,1.85181782633704,2159.572,2160.954,2162.485,2163.508,358.639068603516,44.9958686828613,0.543356657028198,-1.05802941322327,-0.45487841963768,0.645904123783112,-1.06209345202774,-0.456989140951513,0.648816316202266,0
2.18000030517578,-1.18263697624207,2.45699667930603,1.8660876750946,-1.18103490068612,2.45765005696766,1.86482267579167,2158.004,2159.101,2160.241,2161.587,358.715728759766,44.9958038330078,0.51237827539444,-1.0627099275589,-0.456888139247894,0.648823261260986,-1.06666929835407,-0.458957999791384,0.651611629318345,0
2.19999694824219,-1.20397925376892,2.44782090187073,1.87911915779114,-1.20240821395574,2.44845371736898,1.8778792993441,2156.597,2157.279,2157.812,2159.637,358.793365478516,44.9957389831543,0.481171250343323,-1.06712198257446,-0.458783984184265,0.651574194431305,-1.07097597819164,-0.460811043810786,0.654242512826705,0
2.21999740600586,-1.22540462017059,2.43860960006714,1.89220237731934,-1.22386905090202,2.43921971877738,1.89098938974483,2154.38,2155.106,2156.191,2157.981,358.871551513672,44.9956893920898,0.44966459274292,-1.07126331329346,-0.460564285516739,0.654163360595703,-1.07501345493598,-0.46254825725983,0.656708944366236,0
2.23999786376953,-1.24690723419189,2.42936491966248,1.90533363819122,-1.24540792547886,2.42995214277345,1.90414715211632,2153.67,2153.697,2153.031,2155.58,358.950531005859,44.9956130981445,0.417956292629242,-1.07513177394867,-0.462228417396545,0.656565189361572,-1.07877930973132,-0.464168599372462,0.659009446295705,0
2.2599983215332,-1.26848173141479,2.42008948326111,1.91850984096527,-1.26701939030951,2.42065333321126,1.9173492587411,2151.578,2151.758,2151.234,2153.802,359.029235839844,44.9955444335938,0.386203348636627,-1.07872593402863,-0.463775515556335,0.658810496330261,-1.08227207933222,-0.465671440555045,0.661143124741302,0
2.27999877929688,-1.29012250900269,2.41078543663025,1.93172752857208,-1.28869796983554,2.41132564607061,1.93059236468599,2149.238,2149.727,2149.743,2151.981,359.107757568359,44.9954872131348,0.354355245828629,-1.08204662799835,-0.465206325054169,0.660885155200958,-1.08549040888332,-0.467056197851165,0.663109152043028,0
2.29999923706055,-1.31182456016541,2.40145492553711,1.94498324394226,-1.31043816248474,2.40197144852433,1.94387310912637,2146.774,2147.742,2148.403,2150.077,359.186553955078,44.9954452514648,0.322357445955276,-1.0850944519043,-0.46652165055275,0.66278600692749,-1.08843305191934,-0.468322334941636,0.664906766754694,0
2.31999969482422,-1.33358180522919,2.39210057258606,1.95827353000641,-1.33223444283894,2.39259311800549,1.9571881166705,2144.455,2145.76,2146.905,2148.192,359.266021728516,44.9954109191895,0.290167242288589,-1.08786904811859,-0.467721611261368,0.6645148396492,-1.09109887036509,-0.469469362144493,0.666535273643923,0
2.34000015258789,-1.35538911819458,2.38272452354431,1.97159492969513,-1.35408126380187,2.38319304127467,1.97053399868384,2142.681,2143.894,2144.842,2146.209,359.346588134766,44.9953765869141,0.25778466463089,-1.09036862850189,-0.468804985284805,0.666068613529205,-1.09348683453544,-0.470496836415,0.667994043692144,0
2.3599967956543,-1.37724089622498,2.37332916259766,1.98494398593903,-1.37596887940059,2.37377541175173,1.98390480150359,2141.158,2142.011,2142.511,2144.275,359.428131103516,44.9953460693359,0.225239098072052,-1.09259045124054,-0.469769954681396,0.667450368404388,-1.09559564748259,-0.471404199712748,0.669282284614185,0
2.37999725341797,-1.39913165569305,2.36391687393188,1.9983172416687,-1.39790005743958,2.36433903852774,1.99730221593832,2139.017,2139.845,2140.8,2142.591,359.510223388672,44.9953384399414,0.192445784807205,-1.09453248977661,-0.47061476111412,0.668664693832397,-1.09742530100382,-0.472191448508328,0.67039999139912,0
2.39999771118164,-1.42105543613434,2.35449004173279,2.01171088218689,-1.41986502747765,2.35488812555058,2.01072027337798,2138.562,2138.489,2137.417,2140.099,359.593139648438,44.995288848877,0.159543603658676,-1.09619295597076,-0.471338629722595,0.669685900211334,-1.09897466165884,-0.47285809511406,0.671346471645978,0
2.41999816894531,-1.44300699234009,2.34505128860474,2.02512192726135,-1.44185817738692,2.34542508756209,2.02415554546122,2136.701,2136.559,2135.386,2138.348,359.675537109375,44.9952392578125,0.126701161265373,-1.09757041931152,-0.471940279006958,0.670549631118774,-1.10024313330221,-0.473403883025206,0.672121361178802,0
2.43999862670898,-1.46498036384583,2.33560276031494,2.0385468006134,-1.46387388420027,2.33595234396796,2.03760459720517,2134.425,2134.502,2133.855,2136.573,359.757354736328,44.9952125549316,0.0938521549105644,-1.09866666793823,-0.472420930862427,0.671240389347076,-1.10123022817855,-0.473828602374257,0.672724362035447,0
2.45999908447266,-1.48696994781494,2.32614707946777,2.05198192596436,-1.48590651627916,2.32647231790489,2.05106398832971,2131.897,2132.562,2132.625,2134.647,359.838928222656,44.9951972961426,0.0609414093196392,-1.09948348999023,-0.472782284021378,0.671753346920013,-1.10193556692257,-0.474132089930926,0.673155242467576,0
2.47999954223633,-1.5089704990387,2.31668663024902,2.06542372703552,-1.50795043548148,2.31698743530794,2.06453027458184,2129.534,2130.632,2131.215,2132.764,359.920806884766,44.995189666748,0.0279436949640512,-1.10002195835114,-0.473025232553482,0.672092735767365,-1.10235887855907,-0.474314229102152,0.673413836940663,0
2.5,-1.5309761762619,2.30722332000732,2.0788688659668,-1.52999999932945,2.30750012397766,2.0780000090599,2127.538,2128.709,2129.44,2130.897,0.0034482020419091,44.9951782226563,-0.00516759511083364,-1.10028147697449,-0.473149478435516,0.672258377075195,-1.10250000050292,-0.474374949932098,0.673500046133994,0
2.51999664306641,-1.55298137664795,2.29776048660278,2.09231376647949,-1.55204535801192,2.29801462201262,2.09146717466799,2125.967,2126.962,2127.248,2128.874,0.0869192704558372,44.9951667785645,359.961639404297,-1.10026061534882,-0.473153710365295,0.672246396541595,-1.10235893238473,-0.47431425226183,0.67341386982192,0
2.53999710083008,-1.57498049736023,2.28829956054688,2.1057550907135,-1.57408927882895,2.2885297387209,2.10493346190651,2124.015,2124.747,2125.41,2127.358,0.170954808592796,44.995174407959,359.928283691406,-1.09995758533478,-0.473036199808121,0.672072231769562,-1.10193567455836,-0.474132136243598,0.673155308220598,0
2.55999755859375,-1.59696793556213,2.27884387969971,2.11918902397156,-1.59612191359838,2.27904971150017,2.11839285467467,2123.712,2123.52,2122.031,2124.759,0.255606025457382,44.9951438903809,359.894927978516,-1.09937119483948,-0.4727962911129,0.671699106693268,-1.10123038958312,-0.473828671822132,0.672724460634977,0
2.57999801635742,-1.61893784999847,2.26939511299133,2.13261246681213,-1.6181376241771,2.2695769662859,2.13184190871882,2122.062,2121.518,2119.886,2123.209,0.339518576860428,44.9951248168945,359.861724853516,-1.09850025177002,-0.472432672977448,0.671175897121429,-1.10024334841354,-0.473403975581601,0.672121492586955,0
2.59999847412109,-1.64088475704193,2.2599561214447,2.14602184295654,-1.64013077892511,2.26011392621545,2.14527718375796,2119.868,2119.671,2118.413,2121.301,0.42247411608696,44.9951133728027,359.828582763672,-1.09734749794006,-0.471947103738785,0.670473456382751,-1.09897493039424,-0.472858210743393,0.671346635812239,0
2.61999893188477,-1.66280317306519,2.25052928924561,2.15941381454468,-1.66209575487342,2.25066301069528,2.1586952448081,2117.352,2117.714,2117.273,2119.563,0.504790127277374,44.9951210021973,359.795501708984,-1.09591591358185,-0.471341758966446,0.669601738452911,-1.09742562325992,-0.472191587166126,0.670400188260345,0
2.63999938964844,-1.68468713760376,2.24111700057983,2.17278504371643,-1.68402693989188,2.24122663446822,2.17209266350648,2114.927,2115.823,2116.072,2117.758,0.587072670459747,44.9951438903809,359.762390136719,-1.09420764446259,-0.470618426799774,0.668556451797485,-1.09559602313537,-0.471404361345641,0.669282514094601,0
2.65999984741211,-1.70653176307678,2.2317214012146,2.18613171577454,-1.70591873485703,2.23180720668066,2.18546601943597,2112.995,2114.079,2114.389,2115.843,0.669859409332275,44.9951477050781,359.729278564453,-1.09222316741943,-0.469777345657349,0.667336821556091,-1.09348683453544,-0.470496836414999,0.667994043692144,0
2.67999649047852,-1.72833096981049,2.22234511375427,2.19945073127747,-1.72776139360717,2.22240892083372,2.19880935881846,2111.437,2112.296,2112.33,2114.034,0.753261208534241,44.9951591491699,359.696166992188,-1.08996176719666,-0.468817591667175,0.665948510169983,-1.09109935234628,-0.469469569527535,0.666535568078712,0
2.69999694824219,-1.75007939338684,2.21299028396606,2.21273851394653,-1.74955768413056,2.21303058593937,2.21212437257479,2109.591,2110.298,2110.564,2112.442,0.83705860376358,44.995174407959,359.663024902344,-1.08742237091064,-0.46773773431778,0.664394974708557,-1.08843358680109,-0.468322565086308,0.664907093505606,0
2.71999740600586,-1.77177143096924,2.20365953445435,2.22599148750305,-1.77129788800495,2.2036763835632,2.22540512387247,2109.479,2109.054,2107.194,2110.026,0.921285808086395,44.9951553344727,359.629974365234,-1.08460474014282,-0.466537356376648,0.662651896476746,-1.08549099645889,-0.467056450668518,0.663109510983775,0
2.73999786376953,-1.79340171813965,2.19435524940491,2.23920655250549,-1.79297647980783,2.19434869114016,2.23864823731709,2107.964,2107.204,2105.117,2108.482,1.00450849533081,44.9951477050781,359.59716796875,-1.08150804042816,-0.465215116739273,0.660759329795837,-1.08227271937422,-0.465671715947234,0.661143515732969,0
2.7599983215332,-1.8149641752243,2.18507957458496,2.25238060951233,-1.81458795796224,2.18504987584512,2.25185035208115,2105.927,2105.326,2103.681,2106.807,1.08647847175598,44.9951705932617,359.564544677734,-1.07813584804535,-0.463773190975189,0.658697366714478,-1.07878000199166,-0.464168897232749,0.659009869186748,0
2.77999877929688,-1.83645415306091,2.17583560943604,2.26550984382629,-1.83612684690458,2.17578229366013,2.2650081232283,2103.541,2103.619,2102.635,2104.984,1.1674622297287,44.9951934814453,359.532043457031,-1.07449221611023,-0.462214410305023,0.656464278697968,-1.07501419914593,-0.462548577472581,0.656709398992482,0
2.79999923706055,-1.857865691185,2.16662454605103,2.27859115600586,-1.85758769925251,2.16654828844162,2.27811822303765,2101.179,2101.714,2101.561,2103.447,1.24804818630219,44.9952392578125,359.499633789063,-1.07058012485504,-0.46054083108902,0.654071092605591,-1.07097677406178,-0.460811386251471,0.65424299901135,0
2.81999969482422,-1.87919354438782,2.15744972229004,2.29162120819092,-1.87896509797278,2.15735019098767,2.29117734232814,2099.188,2100.198,2100.168,2101.5,1.32880365848541,44.9952621459961,359.467315673828,-1.06640136241913,-0.458753645420074,0.651503324508667,-1.06666929835407,-0.458957999791384,0.651611629318345,0
2.83999633789063,-1.9004328250885,2.14831233024597,2.30459666252136,-1.90024960698239,2.14819206138118,2.30417971674389,2097.866,2098.491,2098.101,2099.864,1.40999031066895,44.9952812194824,359.435119628906,-1.06195592880249,-0.456852197647095,0.648777961730957,-1.06209435025759,-0.456989527434725,0.648816864916866,0
2.8599967956543,-1.92157757282257,2.13921594619751,2.31751441955566,-1.9214439980555,2.13907270700516,2.31712703951851,2095.986,2096.656,2096.598,2098.358,1.49128270149231,44.9953117370605,359.403015136719,-1.05724346637726,-0.454835325479507,0.645892798900604,-1.05725197237562,-0.454905987512489,0.645858731832587,0
2.87999725341797,-1.94262313842773,2.13016176223755,2.33037090301514,-1.94253888918396,2.12999616467562,2.3300135793296,2096.2,2095.402,2093.206,2096.148,1.5728452205658,44.9953117370605,359.37109375,-1.05226480960846,-0.45270311832428,0.642828643321991,-1.05214490868305,-0.452708560680416,0.642738906316949,0
2.89999771118164,-1.9635636806488,2.12115263938904,2.34316325187683,-1.96352900640172,2.1209647036328,2.34283611439361,2094.721,2093.74,2091.359,2094.652,1.65309143066406,44.9953231811523,359.339477539063,-1.04701936244965,-0.450454145669937,0.639619410037994,-1.04677516433438,-0.450398109700476,0.639458613287558,0
2.91999816894531,-1.98439359664917,2.11219096183777,2.35588812828064,-1.98440911693069,2.11198057539494,2.35559144808806,2092.946,2092.046,2089.933,2093.061,1.73186016082764,44.9953498840332,359.308197021484,-1.0415118932724,-0.448091179132462,0.636249780654907,-1.04114485287423,-0.447975543971863,0.636019143875825,0
2.93999862670898,-2.00510883331299,2.10327839851379,2.36854243278503,-2.00517403134858,2.10304601282548,2.36827641027585,2090.774,2090.415,2088.945,2091.448,1.80930387973785,44.9953994750977,359.277130126953,-1.03574693202972,-0.445617228746414,0.632721245288849,-1.03525619623725,-0.445441819530995,0.632421855426973,0
2.95999908447266,-2.0257031917572,2.09441804885864,2.38112330436707,-2.02581860575671,2.0941632292003,2.38088785862954,2088.362,2088.768,2088.201,2089.929,1.88594603538513,44.9954452514648,359.246276855469,-1.02972853183746,-0.443035036325455,0.629038095474243,-1.02911152474823,-0.442797939051516,0.628668171500036,0
2.97999954223633,-2.04617238044739,2.08561134338379,2.39362716674805,-2.04633774394789,2.08533441727499,2.3934226799557,2086.693,2087.24,2086.778,2088.296,1.96251833438873,44.995491027832,359.215637207031,-1.02345955371857,-0.440346091985703,0.625197052955627,-1.022713277122,-0.440044951844293,0.624759581867857,0
3,-2.0665111541748,2.07686018943787,2.40605115890503,-2.06672639957428,2.07656174835205,2.40587779151916,2085.323,2085.761,2085.07,2086.699,2.03912878036499,44.9955253601074,359.185241699219,-1.01694095134735,-0.43755030632019,0.621202886104584,-1.01606400046349,-0.437183953857422,0.620697642517089,0
3.01999664306641,-2.08671450614929,2.06816720962524,2.41839218139648,-2.08697572864857,2.06784902775215,2.41824779066609,2084.355,2084.361,2083.02,2085.048,2.11562848091125,44.9955444335938,359.155120849609,-1.01017355918884,-0.434647113084793,0.617055356502533,-1.00916768936771,-0.434216663853534,0.616484793683489,0
3.03999710083008,-2.10677766799927,2.05953431129456,2.43064761161804,-2.10708851762775,2.05919505654068,2.43053437959959,2082.887,2082.614,2081.464,2083.817,2.19154000282288,44.9955902099609,359.125244140625,-1.00315821170807,-0.431636124849319,0.612766981124878,-1.00202447609459,-0.431143138740389,0.612121116162586,0
3.05999755859375,-2.12669563293457,2.05096411705017,2.44281387329102,-2.12705600675913,2.05060360379452,2.44273220712343,2082.741,2081.523,2078.824,2081.758,2.26682829856873,44.9955978393555,359.095733642578,-0.995898246765137,-0.428518712520599,0.608310341835022,-0.994638524886308,-0.427965170275055,0.607609153824944,0
3.07999801635742,-2.1464638710022,2.04245805740356,2.45488834381104,-2.14687337079936,2.04207674568107,2.45483832557174,2081.289,2079.936,2077.334,2080.54,2.3403947353363,44.9956436157227,359.066619873047,-0.988394856452942,-0.42529508471489,0.603725075721741,-0.987012816387451,-0.424684040945629,0.602950727499826,0
3.09999847412109,-2.16607666015625,2.03401899337769,2.46686816215515,-2.16653584520328,2.033616532251,2.46684982435823,2079.312,2078.473,2076.484,2079.088,2.41221976280212,44.9956970214844,359.037902832031,-0.980654299259186,-0.421968787908554,0.598990738391876,-0.979150439632689,-0.421301079877433,0.598147724230312,0
3.11999893188477,-2.18553018569946,2.02564811706543,2.47875046730042,-2.18603872829175,2.02522498650551,2.47876383130049,2077.428,2077.068,2075.59,2077.642,2.48280239105225,44.9957618713379,359.009521484375,-0.972681641578674,-0.418543040752411,0.594112753868103,-0.971054592046769,-0.41781766283301,0.593202097273285,0
3.13999938964844,-2.20481967926025,2.01734781265259,2.49053239822388,-2.20537738341953,2.01690410346351,2.49057751394429,2075.492,2075.718,2074.752,2076.238,2.55257725715637,44.9958190917969,358.981506347656,-0.964480817317963,-0.415020197629929,0.589094519615173,-0.962728579444533,-0.414235212212131,0.588115866099442,0
3.15999984741211,-2.22394108772278,2.00911951065063,2.50221109390259,-2.2245472411431,2.00865584922888,2.50228808088789,2074.159,2074.379,2073.385,2074.846,2.62202906608582,44.9958686828613,358.953826904297,-0.956054866313934,-0.411401331424713,0.583937466144562,-0.954175816030892,-0.41055519705179,0.582891116393291,0
3.17999649047852,-2.24288892745972,2.00096607208252,2.51378393173218,-2.2435401949712,2.00048371179835,2.51389058000227,2073.155,2073.075,2071.746,2073.464,2.69114184379578,44.9959182739258,358.926574707031,-0.947405517101288,-0.407686501741409,0.578643441200256,-0.9454015193052,-0.406779862296197,0.577531035443764,0
3.19999694824219,-2.26165962219238,1.99288856983185,2.52524828910828,-2.2623590635174,1.99238647840124,2.5253867331345,2072.114,2071.595,2070.177,2072.305,2.75963640213013,44.995964050293,358.899627685547,-0.938534557819366,-0.403875559568405,0.57321959733963,-0.936405971974636,-0.402909329586355,0.572035795952272,0
3.21999740600586,-2.28024888038635,1.98488903045654,2.53660130500793,-2.28099585204123,1.98436758895103,2.53677165642235,2072.133,2070.675,2067.759,2070.479,2.82727861404419,44.9959945678711,358.873168945313,-0.929445445537567,-0.399969667196274,0.567647039890289,-0.927194566064376,-0.398945918960059,0.566408691822848,0
3.23999786376953,-2.29865169525146,1.97696971893311,2.54784059524536,-2.29944628156995,1.97642888457015,2.54804273590817,2070.913,2069.333,2066.432,2069.408,2.89299869537354,44.9960403442383,358.847229003906,-0.920139908790588,-0.395969152450562,0.561960816383362,-0.917771149318993,-0.394891285994308,0.560652073582612,0
3.2599983215332,-2.31686401367188,1.9691321849823,2.55896353721619,-2.31770615117141,1.96857217280235,2.55919740530806,2069.467,2068.068,2065.476,2068.142,2.95674753189087,44.9960975646973,358.821807861328,-0.910624742507935,-0.391877740621567,0.556143343448639,-0.908139677873146,-0.390747132903322,0.554768357972493,0
3.27999877929688,-2.3348822593689,1.96137809753418,2.56996750831604,-2.33577134012187,1.96079922667992,2.57023314733618,2067.669,2066.87,2064.895,2066.915,3.01874303817749,44.9961776733398,358.796905517578,-0.900905847549438,-0.387698888778687,0.550200700759888,-0.898304216251578,-0.386515208538549,0.548760027947228,0
3.29999923706055,-2.35270166397095,1.95370960235596,2.58085036277771,-2.35363781007389,1.95311178379095,2.5811474950291,2065.915,2065.666,2064.302,2065.773,3.07951974868774,44.9962463378906,358.772430419922,-0.89098846912384,-0.38343557715416,0.544137120246887,-0.888268937369113,-0.38219730838866,0.542629632675369,0
3.31999969482422,-2.3703191280365,1.94612777233124,2.59160947799683,-2.37130160722417,1.94551154534655,2.59193803307009,2064.796,2064.581,2063.166,2064.525,3.13958787918091,44.9963150024414,358.748474121094,-0.880877017974854,-0.379089713096619,0.537950694561005,-0.878038122530657,-0.377795274579551,0.536379787539275,0
3.33999633789063,-2.38773059844971,1.93863439559937,2.6022424697876,-2.38875555478454,1.93800159931817,2.60260037727124,2063.901,2063.494,2061.835,2063.378,3.19893932342529,44.9963684082031,358.725006103516,-0.870574116706848,-0.374661713838577,0.531648457050323,-0.867618167158097,-0.373311858882592,0.530014399402376,0
3.3599967956543,-2.40493226051331,1.93123137950897,2.61274719238281,-2.40600253440574,1.930580705812,2.61313628798802,2062.875,2062.266,2060.673,2062.428,3.25738406181335,44.9964408874512,358.701995849609,-0.860082507133484,-0.370152115821838,0.525235593318939,-0.85700959304645,-0.368747285811601,0.523533787021104,0
3.37999725341797,-2.42192029953003,1.92392015457153,2.6231210231781,-2.42303550945299,1.9232518924954,2.62354146665005,2063.194,2061.49,2058.432,2060.877,3.31486082077026,44.9964637756348,358.679595947266,-0.849406540393829,-0.365562379360199,0.518695771694183,-0.846218976345105,-0.364104384899943,0.516941967662506,0
3.39999771118164,-2.43869161605835,1.91670203208923,2.63336229324341,-2.43985088596004,1.91601670575165,2.63381371775943,2062.403,2060.439,2057.154,2059.945,3.37024235725403,44.9965133666992,358.657836914063,-0.838548302650452,-0.360892862081528,0.512059926986694,-0.835251031898626,-0.359385184813519,0.51024182155155,0
3.41999816894531,-2.45524168014526,1.90957927703857,2.64346861839294,-2.45644516534361,1.90887665092339,2.64395090408624,2061.089,2059.376,2056.502,2058.977,3.42331528663635,44.9965782165527,358.636688232422,-0.827515125274658,-0.356147199869156,0.505317687988281,-0.824110582941664,-0.354591760855451,0.503436295127018,0
3.43999862670898,-2.47156763076782,1.90255260467529,2.65343809127808,-2.47281494657125,1.90183319137989,2.6539509479928,2059.765,2058.397,2055.952,2057.958,3.47437047958374,44.9966659545898,358.616180419922,-0.816313922405243,-0.351329386234283,0.498470336198807,-0.812802561098952,-0.34972623496609,0.496528401041508,0
3.45999908447266,-2.48766660690308,1.89562392234802,2.66326856613159,-2.48895692832918,1.89488774758421,2.66381183275806,2058.262,2057.526,2055.583,2056.965,3.52374768257141,44.9967422485352,358.596252441406,-0.804950714111328,-0.346442639827728,0.49152272939682,-0.801332006385299,-0.344790775723006,0.489521218161412,0
3.47999954223633,-2.50353527069092,1.88879418373108,2.67295813560486,-2.50486791119015,1.88804169616054,2.67353160390184,2057.166,2056.556,2054.88,2056.127,3.57194781303406,44.9968338012695,358.576934814453,-0.793430685997009,-0.341489404439926,0.484481245279312,-0.789704067205609,-0.339787598340998,0.482417891566951,0
3.49999618530273,-2.5191707611084,1.88206481933594,2.68250489234924,-2.52054183223243,1.88129764581471,2.68310655767985,2056.504,2055.767,2053.838,2055.127,3.61914134025574,44.9968910217285,358.558227539063,-0.781758368015289,-0.336471199989319,0.477341651916504,-0.777926261338517,-0.334719937510192,0.475223013751781,0
3.51999664306641,-2.53456950187683,1.87543678283691,2.69190716743469,-2.53598168290031,1.87465430941181,2.69253852151874,2055.735,2054.807,2052.908,2054.432,3.6651623249054,44.9969673156738,358.540069580078,-0.769936859607697,-0.331388682126999,0.470117419958115,-0.765999459475408,-0.329588167864767,0.467937116607681,0
3.53999710083008,-2.54972887039185,1.86891210079193,2.70116305351257,-2.55118156992615,1.86811422266028,2.70182389531326,2056.195,2054.384,2051.028,2053.04,3.70994019508362,44.996997833252,358.522674560547,-0.757971525192261,-0.326243817806244,0.462788939476013,-0.753931367647136,-0.324395605094516,0.460564907628649,0
3.55999755859375,-2.56464624404907,1.86249113082886,2.71027088165283,-2.56613872308604,1.86167857751006,2.71096098677687,2055.79,2053.463,2049.881,2052.496,3.75244665145874,44.9970550537109,358.506103515625,-0.745864808559418,-0.321036815643311,0.455394595861435,-0.741727567798258,-0.319144650954242,0.45310979673751,0
3.57999801635742,-2.57931852340698,1.85617578029633,2.71922922134399,-2.58085048488145,1.85534851740854,2.71994817248517,2054.837,2052.713,2049.413,2051.699,3.79235291481018,44.9971389770508,358.490264892578,-0.733625292778015,-0.315771698951721,0.44791454076767,-0.72939375026341,-0.313837753835969,0.445575260070899,0
3.59999847412109,-2.59374403953552,1.84996652603149,2.72803640365601,-2.59531431270705,1.84912513636775,2.72878389920025,2053.746,2051.947,2049.151,2051.012,3.82987356185913,44.9972305297852,358.475158691406,-0.721260190010071,-0.310452491044998,0.440358757972717,-0.716935713767317,-0.308477408768949,0.437964839979262,0
3.61999893188477,-2.60791921615601,1.84386539459229,2.73669099807739,-2.6095277810186,1.84300947803163,2.73746668519498,2052.438,2051.271,2049.121,2050.353,3.86537098884583,44.9973258972168,358.460754394531,-0.708776831626892,-0.305083036422729,0.432729572057724,-0.704359365424783,-0.303066157419654,0.430282145026854,0
3.63999938964844,-2.62184286117554,1.83787190914154,2.74519157409668,-2.6234885835008,1.83700253474321,2.74599512157732,2051.834,2050.69,2048.511,2049.617,3.89941096305847,44.9974212646484,358.447021484375,-0.69618147611618,-0.299666553735733,0.425028055906296,-0.691670720740692,-0.297606588091786,0.422530849991739,0
3.65999603271484,-2.63551235198975,1.8319878578186,2.75353670120239,-2.63719194552437,1.83110636089208,2.75436629160077,2051.219,2050.242,2047.915,2048.906,3.9319896697998,44.9974784851074,358.43408203125,-0.683478891849518,-0.294204622507095,0.417260199785233,-0.678878353700696,-0.292102389931838,0.414716192587956,0
3.67999649047852,-2.64892601966858,1.82621359825134,2.76172542572021,-2.65064103434641,1.825319593696,2.76258213009327,2050.851,2049.573,2047.159,2048.464,3.96311521530151,44.9975547790527,358.421875,-0.670673668384552,-0.288698643445969,0.409435510635376,-0.665983614869008,-0.28655414404986,0.40683899785411,0
3.69999694824219,-2.66208124160767,1.8205509185791,2.76975631713867,-2.66383127580226,1.81964420129024,2.77063984276899,2051.322,2049.257,2045.803,2047.563,3.99261617660522,44.9976081848145,358.410522460938,-0.657771944999695,-0.28315058350563,0.401540815830231,-0.65299527533123,-0.280965624398954,0.398904623909523,0
