t,x_s1,x_s2,x_s3,x_s_d1,x_s_d2,x_s_d3,propellers_rpms1,propellers_rpms2,propellers_rpms3,propellers_rpms4,rollRad,pitchRad,yawRad,v_s1,v_s2,v_s3,v_s_d1,v_s_d2,v_s_d3,insideCount
0,-0.0599999986588955,2.94000005722046,1.17999994754791,-0.0599999986588955,2.94000005722046,1.17999994754791,0,0,0,0,0,0,0,0,0,0,-1.06581410364015E-15,4.44089209850063E-16,4.44089209850063E-16,0
0.019989013671875,-0.0599999986588955,2.94000005722046,1.17811644077301,-0.0600018659130177,2.93999925379318,1.18000110346716,0,0,0,0,-0.01635288,0.0001297794,-0.01587137,-1.10653664009419E-09,-7.76775763711157E-08,-0.0941759571433067,-0.000279680311988734,-0.000120338624884473,0.000173135436141649,5
0.040008544921875,-0.0599999986588955,2.94000005722046,1.17242503166199,-0.060014880898484,2.93999365380853,1.18000916036316,0,0,0,0,-0.03270202,0.0005238493,-0.03175127,-1.08383135799528E-09,-7.60859677484405E-08,-0.284568399190903,-0.00111143977225461,-0.000478221483967637,0.00068803416424398,5
0.05999755859375,-0.0599058866500854,2.93990302085876,1.16596496105194,-0.0600498857373401,2.93997859220429,1.18003083002592,1868.637,3252.903,3183.539,1722.181,-0.04942454,0.000330191,-0.0136961,0.00470551569014788,-0.00484904320910573,-0.32300192117691,-0.00247936261166862,-0.00106680046642749,0.00153484356504269,5
0.079986572265625,-0.0598203726112843,2.93960738182068,1.16000318527222,-0.0601174907153006,2.93994950367094,1.18007268072775,1925.04,2314.229,3252.61,2829.559,-0.07543723,-0.00213692,0.0209493,0.00427562370896339,-0.0147794876247644,-0.298089414834976,-0.00437104534358026,-0.00188073869847162,0.00270588528944111,5
0.100006103515625,-0.0599374510347843,2.93904495239258,1.15498673915863,-0.0602282404704493,2.93990185114529,1.18014124010193,979.8604,1498.825,3915.135,3896.708,-0.1031991,-0.008064052,0.06331196,-0.0058539817109704,-0.0281186141073704,-0.25082266330719,-0.00677739276378709,-0.00291612276782231,0.00419552897277328,4
0.1199951171875,-0.0604638531804085,2.93818354606628,1.15081310272217,-0.0603918861403606,2.93983143898525,1.18024254456713,346.7827,980.5504,4172.278,4613.394,-0.1214359,-0.01542183,0.1040051,-0.0263201259076595,-0.0430696196854115,-0.208680123090744,-0.00967801353495435,-0.00416417885169243,0.00599115140585487,4
0.1400146484375,-0.061563678085804,2.93704128265381,1.14728283882141,-0.0606187761383957,2.93973381455767,1.18038300028418,352.6307,746.7843,3975.87,4855.073,-0.1254035,-0.0211684,0.1351094,-0.054991353303194,-0.0571161657571793,-0.17651554942131,-0.0130687916036232,-0.00562313592726786,0.00809020455552005,4
0.160003662109375,-0.0633409693837166,2.93568086624146,1.14427483081818,-0.0609177895434042,2.93960515744296,1.18056810382587,821.2325,815.2833,3462.14,4692.37,-0.1184633,-0.02352477,0.1522711,-0.0888645648956299,-0.0680166184902191,-0.150402218103409,-0.0169265510445065,-0.00728302204135792,0.0104783414199936,3
0.17999267578125,-0.0658471137285233,2.9341721534729,1.14182543754578,-0.0612985250199726,2.93944133760391,1.18080379722281,1348.464,1083.129,3007.334,4255.142,-0.1079832,-0.02278068,0.1557793,-0.12530729174614,-0.0754339993000031,-0.122471913695335,-0.0212433804254414,-0.00914043312572283,0.0131506644458931,3
0.20001220703125,-0.0690852776169777,2.93255376815796,1.14006173610687,-0.0617708265342762,2.93923811945689,1.181096174359,1636.144,1380.987,2918.821,3666.399,-0.09982433,-0.02030234,0.1501591,-0.161908209323883,-0.0809197127819061,-0.0881853997707367,-0.0260142813927851,-0.0111932185284278,0.0161040794142088,3
0.220001220703125,-0.0730106383562088,2.93082594871521,1.13903546333313,-0.0623420644491781,2.93899233174064,1.18144979784016,1642.161,1581.273,3146.898,3113.088,-0.09583811,-0.01735475,0.1421885,-0.196268007159233,-0.0863882526755333,-0.0513136610388756,-0.03121219533433,-0.0134297356845702,0.019321835755004,3
0.239990234375,-0.07755047082901,2.92897343635559,1.1386331319809,-0.0630214373585105,2.93870001655724,1.18187036203406,1523.928,1623.955,3418.377,2777.391,-0.09475847,-0.01467828,0.1377323,-0.226991713047028,-0.0926268845796585,-0.0201164092868567,-0.0368316683029241,-0.015847637913056,0.022800557215184,3
0.260009765625,-0.0826394855976105,2.92699217796326,1.13863575458527,-0.0638185570309634,2.93835703823113,1.18236381708338,1438.247,1500.505,3534.058,2744.41,-0.09438775,-0.01258983,0.1393034,-0.25445032119751,-0.0990616530179977,0.000129351392388344,-0.0428699302682246,-0.0184457333472145,0.0265385290140116,3
0.279998779296875,-0.0882453769445419,2.9249005317688,1.13885200023651,-0.0647390625194898,2.93796097043536,1.18293365383054,1401.394,1276.615,3475.28,2977.483,-0.09320904,-0.01110485,0.1456818,-0.280295073986053,-0.10458642989397,0.0108142988756299,-0.0492963837173861,-0.0212108567320638,0.030516809833474,3
0.29998779296875,-0.0943712294101715,2.92273235321045,1.13920700550079,-0.0657918945890516,2.93750796620855,1.18358540703494,1350.517,1061.34,3345.721,3324.642,-0.09053416,-0.009934656,0.1533082,-0.306292921304703,-0.108408875763416,0.0177490953356028,-0.0561078595514081,-0.0241416444928383,0.0347334378503248,3
0.32000732421875,-0.101036638021469,2.92052555084229,1.13972532749176,-0.0669865614821475,2.93699393441958,1.18432496275165,1280.105,940.6628,3238.462,3590.821,-0.08597376,-0.008524778,0.1583616,-0.333270162343979,-0.110345959663391,0.0259153246879578,-0.0633036493784043,-0.0272377918282996,0.0391879745362408,3
0.339996337890625,-0.108252197504044,2.91831183433533,1.14046144485474,-0.068326768706371,2.93641728069206,1.18515461486636,1254.112,944.9176,3169.351,3649.746,-0.07944369,-0.006290919,0.1584747,-0.36077818274498,-0.110681265592575,0.0368074849247932,-0.0708499516420146,-0.0304847548730522,0.0438594951176439,4
0.360015869140625,-0.116003811359406,2.91611456871033,1.14145267009735,-0.0698237345322385,2.93577317811757,1.18608130802295,1319.672,1046.985,3121.371,3497.81,-0.07154955,-0.002961968,0.1534709,-0.38758111000061,-0.109859138727188,0.0495621114969254,-0.0787580297418618,-0.0338873799532906,0.0487549721754506,4
0.3800048828125,-0.124252200126648,2.91394948959351,1.14270758628845,-0.0714797725314022,2.93506063123087,1.18710647443246,1455.366,1181.83,3090.366,3231.551,-0.06362291,0.001259031,0.1450364,-0.412419319152832,-0.108258001506329,0.062743254005909,-0.0869921272359981,-0.0374302820709642,0.0538522707687797,4
0.399993896484375,-0.132944092154503,2.91182613372803,1.14421761035919,-0.0733036822025899,2.9342758538535,1.18823556140379,1578.952,1273.352,3105.943,2981.513,-0.05702627,0.005825298,0.1357491,-0.434595048427582,-0.106169007718563,0.0754997879266739,-0.0955525119207663,-0.0411135764513579,0.0591515566763244,4
0.420013427734375,-0.142024546861649,2.90974998474121,1.14595830440521,-0.0753050585276311,2.93341471753282,1.18947450868777,1630.224,1288.074,3159.816,2845.394,-0.05243551,0.01017384,0.1278652,-0.454022943973541,-0.103808514773846,0.0870356783270836,-0.104441553474511,-0.0449382827008623,0.0646542968418633,4
0.44000244140625,-0.151446938514709,2.90772414207458,1.14789533615112,-0.077483988232608,2.93247718495301,1.19082336997196,1608.969,1238.871,3216.919,2842.574,-0.04965091,0.01397728,0.122463,-0.471120089292526,-0.101294033229351,0.0968512296676636,-0.113620829717891,-0.048887868829098,0.0703367061060819,4
0.459991455078125,-0.161177739500999,2.9057514667511,1.14999687671661,-0.0798493430620752,2.93145943885026,1.19228763728888,1541.652,1158.059,3253.406,2937.842,-0.04788843,0.01718682,0.1193406,-0.486540228128433,-0.0986396670341492,0.105075791478157,-0.123092454730403,-0.0529632444654124,0.0762000931848968,4
0.480010986328125,-0.171194717288017,2.90383577346802,1.15223944187164,-0.0824109101018722,2.93035726811493,1.19387336931088,1472.077,1085.484,3249.809,3068.297,-0.04628787,0.0199846,0.1173838,-0.500848233699799,-0.0957800447940826,0.112128145992756,-0.132860437136906,-0.0571661344090936,0.082246939608052,5
0.5,-0.181482166051865,2.90198302268982,1.15461564064026,-0.085166398670376,2.92917165836334,1.1955791479969,1433.302,1047.075,3214.483,3169.152,-0.04432938,0.02264559,0.1152192,-0.514373779296875,-0.0926408395171165,0.118807710707188,-0.142884000065179,-0.0614789935111996,0.0884520025491718,5
0.519989013671875,-0.192025482654572,2.90019845962524,1.15713500976563,-0.0881248588203387,2.92789871561062,1.19741057576073,1424.001,1045.07,3178.184,3209.349,-0.04191815,0.02538118,0.1118797,-0.527165412902832,-0.0892279371619225,0.125966131687164,-0.153166947611899,-0.0659034585682559,0.0948176369253132,5
0.540008544921875,-0.202805832028389,2.89848566055298,1.1598105430603,-0.0912963635428427,2.92653410573011,1.19937388826368,1443.682,1072.781,3150.111,3185.722,-0.03928749,0.02828839,0.1070524,-0.539018452167511,-0.0856409966945648,0.133777782320976,-0.163714777034477,-0.0704418948965508,0.101347245800684,5
0.55999755859375,-0.213799089193344,2.89684510231018,1.16265285015106,-0.094676112580471,2.92507989413848,1.20146611391775,1486.399,1114.588,3136.293,3113.565,-0.03687839,0.03133136,0.1010524,-0.549662709236145,-0.0820321142673492,0.142112791538239,-0.17448465888317,-0.0750758741803766,0.108014315705644,5
0.579986572265625,-0.224977433681488,2.89527368545532,1.16566836833954,-0.0982734311149,2.92353206847056,1.2036930254546,1521.345,1148.727,3146.791,3033.948,-0.03512869,0.03434762,0.09465012,-0.558916509151459,-0.0785746499896049,0.150775283575058,-0.185481935470438,-0.0798076950675377,0.114822153786096,5
0.600006103515625,-0.236312121152878,2.89376521110535,1.16885232925415,-0.102098762959148,2.92188613504538,1.20606108809202,1537.511,1166.298,3164.872,2981.267,-0.03429086,0.03715857,0.08862471,-0.566735565662384,-0.0754190683364868,0.159198731184006,-0.196713446836865,-0.0846403006364086,0.121774994352997,5
0.6199951171875,-0.247777387499809,2.89231181144714,1.17219460010529,-0.106144683970236,2.92014528826426,1.20856570593183,1537.416,1167.892,3179.74,2963.166,-0.03441124,0.03963528,0.0834526,-0.57326352596283,-0.0726643726229668,0.16711251437664,-0.208134604141382,-0.0895545055543457,0.128845234789665,5
0.6400146484375,-0.259352654218674,2.89090418815613,1.17568755149841,-0.110427588881679,2.91830247393137,1.21121702809507,1507.244,1156.448,3195.801,2985.606,-0.03534334,0.04170114,0.07928992,-0.578763604164124,-0.070377379655838,0.174646303057671,-0.21977002223474,-0.0945609009039674,0.136048112861281,5
0.660003662109375,-0.271022379398346,2.88953232765198,1.17932069301605,-0.114938248900541,2.91636166293851,1.21400934151928,1466.359,1144.363,3196.781,3032.504,-0.03679423,0.04338568,0.07590382,-0.583485841751099,-0.0685933381319046,0.181659445166588,-0.231574097577923,-0.0996398647564507,0.143355397804799,5
0.67999267578125,-0.282775402069092,2.88818573951721,1.18309056758881,-0.119686638739014,2.91431856344567,1.21694882102647,1428.641,1139.548,3192.167,3074.391,-0.03846084,0.04477558,0.07288549,-0.587650835514069,-0.0673253983259201,0.188496634364128,-0.243554411173546,-0.104794659005432,0.150771782621969,5
0.70001220703125,-0.294602423906326,2.88685417175293,1.18699359893799,-0.124683985757554,2.91216834463331,1.22004241688759,1401.285,1145.661,3178.576,3104.19,-0.04017112,0.04596316,0.06987193,-0.591351747512817,-0.0665789693593979,0.195153966546059,-0.255719729227087,-0.11002905550423,0.158302694011575,5
0.720001220703125,-0.306494683027267,2.88552689552307,1.1910285949707,-0.129918284978346,2.90991617190799,1.22328269744952,1397.75,1163.372,3160.334,3105.168,-0.04191869,0.04702466,0.06662603,-0.594612717628479,-0.0663618296384811,0.201752126216888,-0.268023157655716,-0.11532287703907,0.16591910230247,5
0.739990234375,-0.318443179130554,2.88419270515442,1.19519972801208,-0.135400001298574,2.90755754251682,1.2266761409821,1393.308,1185.271,3154.363,3092.431,-0.04382977,0.04795462,0.06321531,-0.597424447536469,-0.0667088180780411,0.208555847406387,-0.280473432677602,-0.12067988256057,0.173626415629864,5
0.760009765625,-0.330438375473022,2.88283944129944,1.19950544834137,-0.141140917956636,2.9050873864615,1.23023004187122,1387.823,1207.008,3151.3,3078.068,-0.04600664,0.04872959,0.05982471,-0.599758744239807,-0.0676620751619339,0.215286269783974,-0.293080296154222,-0.126104263719567,0.181430664670081,5
0.779998779296875,-0.342471182346344,2.88145446777344,1.20394229888916,-0.147126184485884,2.90251209348295,1.23393520697061,1390.647,1226.877,3148.476,3057.763,-0.04853345,0.04932109,0.05664282,-0.601641714572906,-0.0692539066076279,0.221840232610703,-0.305795832832518,-0.131575403921268,0.189302187598958,5
0.79998779296875,-0.354534268379211,2.88002419471741,1.20850932598114,-0.153366821193532,2.89982692185086,1.2377984583754,1374.698,1240.901,3155.297,3052.541,-0.05147304,0.04966339,0.05392532,-0.603153467178345,-0.0715186670422554,0.228353843092918,-0.318629798715703,-0.137097500901303,0.197247023847227,5
0.82000732421875,-0.366622120141983,2.87853479385376,1.21319985389709,-0.159875221826383,2.89702653888221,1.24182746840525,1348.391,1250.407,3157.744,3065.131,-0.05474713,0.0497366,0.05176702,-0.604392528533936,-0.0744689404964447,0.234526038169861,-0.331592781842754,-0.14267511039705,0.205271727915392,4
0.839996337890625,-0.378731846809387,2.87697291374207,1.21800696849823,-0.166633637018892,2.89411858163313,1.24601124935738,1331.131,1259.808,3152.991,3076.106,-0.05823854,0.04956539,0.05008933,-0.605486929416656,-0.0780950263142586,0.240354239940643,-0.344636106234817,-0.148287288494656,0.213346167053785,4
0.860015869140625,-0.390862941741943,2.87532520294189,1.22292935848236,-0.173664618315387,2.89109334680413,1.25036376171199,1301.078,1269.377,3152.942,3095.403,-0.06187269,0.04915504,0.04885314,-0.606554865837097,-0.0823893547058105,0.246117532253265,-0.357790534090669,-0.153947271308859,0.221489384528856,4
0.8800048828125,-0.403016269207001,2.87357878684998,1.22796046733856,-0.180948461186242,2.88795931270381,1.25487280742661,1276.195,1280.922,3144.399,3115.712,-0.06553613,0.04855384,0.04792048,-0.607664406299591,-0.0873215198516846,0.251555532217026,-0.371007022483504,-0.159633957038354,0.229671020432672,4
0.899993896484375,-0.415193945169449,2.8717212677002,1.23310005664825,-0.18849723509595,2.8847112861788,1.25954585807468,1258.432,1294.998,3140.743,3122.863,-0.06914046,0.04780329,0.04718554,-0.608885526657104,-0.0928726717829704,0.256980776786804,-0.384296738353309,-0.165352150505452,0.237897987633041,4
0.920013427734375,-0.427398502826691,2.86974120140076,1.23834419250488,-0.196324452211266,2.88134345332121,1.26439127833112,1242.075,1310.437,3133.808,3131.107,-0.0726766,0.04692667,0.04663181,-0.610228300094604,-0.0990032553672791,0.26220691204071,-0.397671404529394,-0.171106895716105,0.246177543119742,4
0.94000244140625,-0.439632773399353,2.86762762069702,1.24368941783905,-0.204407453948074,2.87786556348678,1.26939504145298,1242.383,1326.81,3124.688,3125.727,-0.07616162,0.04595222,0.04622788,-0.611715614795685,-0.105676233768463,0.267263203859329,-0.411081631631503,-0.176876941799768,0.254479112513653,4
0.959991455078125,-0.451900392770767,2.86537003517151,1.24913811683655,-0.212759000778906,2.87427212620069,1.27456504678061,1228.55,1341.423,3126.622,3126.519,-0.07967006,0.04485479,0.04609743,-0.613379657268524,-0.11287884414196,0.272432893514633,-0.424539267042903,-0.182667386354485,0.262810029909387,3
0.980010986328125,-0.464205145835876,2.8629584312439,1.25468635559082,-0.221393324468958,2.87055701793193,1.27991010445463,1210.665,1352.938,3126.755,3135.704,-0.08316093,0.043638,0.04629062,-0.615240037441254,-0.120574422180653,0.277412891387939,-0.438056556301695,-0.188483498293199,0.271177875878363,3
1,-0.476552098989487,2.86038398742676,1.26032996177673,-0.230284798736574,2.86673126495361,1.28541435058594,1209.132,1363.701,3122.398,3134.871,-0.08658416,0.04232875,0.04676599,-0.617345690727234,-0.128719538450241,0.282181143760681,-0.451584000205995,-0.194303979492187,0.279552008056641,3
1.01998901367188,-0.488947093486786,2.85763812065125,1.26607036590576,-0.239446912293295,2.86278906344998,1.29108613532954,1192.891,1372.754,3125.822,3143.759,-0.08996158,0.04090982,0.04759322,-0.619751870632172,-0.137288853526115,0.287022411823273,-0.46513400752272,-0.200134169097193,0.287940108062054,3
1.04000854492188,-0.501396834850311,2.85471367835999,1.27190387248993,-0.248894644448595,2.85872396824263,1.29693473159157,1174.718,1379.744,3125.112,3160.312,-0.09321436,0.03940341,0.04873402,-0.622487902641296,-0.14622700214386,0.291673719882965,-0.47871923339115,-0.205979512261105,0.296350010028666,3
1.05999755859375,-0.513908743858337,2.85160422325134,1.27782714366913,-0.258599401509697,2.85454828239877,1.30294243851408,1175.159,1387.632,3119,3164.157,-0.09628393,0.03785554,0.05006754,-0.625595688819885,-0.155477732419968,0.29616391658783,-0.492290296490434,-0.211818761581115,0.30475114456651,3
1.07998657226563,-0.526490926742554,2.84830403327942,1.28384375572205,-0.268575430648764,2.85025587575821,1.30911807577533,1162.699,1395.162,3121.864,3173.683,-0.09920115,0.03626176,0.05161836,-0.629109382629395,-0.165013000369072,0.300828158855438,-0.50586005237609,-0.217657448443621,0.313151469876847,3
1.10000610351563,-0.539151430130005,2.84480857849121,1.28995168209076,-0.278838480013141,2.84583997233313,1.31547139222872,1150.488,1401.291,3121.742,3187.057,-0.101908,0.03464912,0.05334304,-0.633022129535675,-0.174772903323174,0.305395424365997,-0.519441457145546,-0.223501147495394,0.321559006401169,3
1.1199951171875,-0.551898300647736,2.84111452102661,1.29614913463593,-0.289357002179081,2.84131414609862,1.32198285851614,1159.101,1408.291,3116.778,3185.161,-0.1043783,0.03305977,0.05514748,-0.637343525886536,-0.184699445962906,0.309870779514313,-0.532985466132485,-0.229328756186667,0.329943393154705,3
1.1400146484375,-0.564740002155304,2.83721923828125,1.30244088172913,-0.300162704591434,2.83666475422696,1.32867210305637,1154.051,1414.046,3121.819,3189.639,-0.106683,0.03147497,0.05710426,-0.642086803913116,-0.19476842880249,0.314585655927658,-0.54652589017629,-0.235154822377061,0.338325560657667,3
1.16000366210938,-0.577684581279755,2.83312082290649,1.30882477760315,-0.311222084148811,2.83190621216671,1.33551838583369,1152.31,1418.124,3121.079,3198.038,-0.108812,0.02991208,0.05919586,-0.647228062152863,-0.204916179180145,0.319197535514832,-0.560014026276883,-0.240958390526247,0.34667535943296,3
1.17999267578125,-0.590740442276001,2.82881832122803,1.31530487537384,-0.322550701230474,2.8270318247214,1.34253133946411,1151.837,1420.49,3127.767,3200.495,-0.11073,0.02838053,0.06140696,-0.652796983718872,-0.21512097120285,0.324004948139191,-0.573463232144024,-0.246745208083563,0.355001058539242,3
1.20001220703125,-0.603915810585022,2.82431197166443,1.32188034057617,-0.334165615614823,2.82203425154496,1.34972152476313,1149.057,1422.051,3129.878,3210.534,-0.1124323,0.02688741,0.06373876,-0.658770024776459,-0.225321054458618,0.328775316476822,-0.586886736182789,-0.252520966862155,0.363310846989412,3
1.22000122070313,-0.617218911647797,2.81960272789001,1.32855081558228,-0.346030421585499,2.81692915700008,1.35706640485806,1162.348,1423.963,3126.82,3210.601,-0.1139258,0.02546259,0.06610875,-0.665152072906494,-0.235462516546249,0.333521395921707,-0.600236516861372,-0.258265004538453,0.371574997167698,3
1.239990234375,-0.630658090114594,2.81469202041626,1.33532297611237,-0.358161486344149,2.81170949873715,1.36457611182642,1159.224,1424.207,3135.167,3218.26,-0.1152691,0.02408422,0.06856615,-0.671960532665253,-0.245536506175995,0.338607966899872,-0.613526094901141,-0.263983138701136,0.379801879044709,2
1.260009765625,-0.644241273403168,2.80958223342896,1.34219753742218,-0.37057666480527,2.80636759428526,1.37226169871082,1154.24,1422.942,3140.638,3231.079,-0.1164041,0.02277014,0.07107624,-0.679159939289093,-0.255494803190231,0.343727082014084,-0.626768731761373,-0.26968107538565,0.387999702095469,2
1.27999877929688,-0.657975971698761,2.80427646636963,1.34917414188385,-0.383236695417198,2.80092033679326,1.3800988607405,1170.597,1423.262,3138.962,3229.071,-0.1173037,0.0215603,0.07353447,-0.68673837184906,-0.265286952257156,0.348828941583633,-0.639917282339435,-0.275338529371412,0.396139281255613,2
1.29998779296875,-0.671869933605194,2.79877829551697,1.35625958442688,-0.396158759015336,2.79536033382764,1.388098233671,1173.367,1422.234,3147.506,3232.828,-0.1180425,0.02042907,0.07600137,-0.69469952583313,-0.274905920028687,0.354269802570343,-0.652985332144132,-0.280961346123326,0.404229026602261,2
1.32000732421875,-0.685929894447327,2.7930920124054,1.36345481872559,-0.409361504843077,2.78967956113998,1.39627136227237,1173.5,1419.741,3153.037,3242.728,-0.118598,0.01938361,0.07846735,-0.702995777130127,-0.284308463335037,0.359764397144318,-0.6659860834168,-0.286555206197011,0.41227711095171,2
1.33999633789063,-0.700162053108215,2.78722286224365,1.37076044082642,-0.422802873722428,2.78389611561957,1.40459220990988,1192.014,1418.682,3152.039,3240.101,-0.1189714,0.01845335,0.08084778,-0.711610615253448,-0.293454170227051,0.365278422832489,-0.678873453515705,-0.29210028151913,0.420255006953505,2
1.36001586914063,-0.714573085308075,2.7811758518219,1.37818384170532,-0.4365219692899,2.77799317206405,1.4130849835973,1194.725,1415.68,3162.59,3244.27,-0.1192308,0.01760671,0.08320959,-0.720549046993256,-0.302349805831909,0.371168524026871,-0.691680442442074,-0.297610771068296,0.428183143180414,2
1.3800048828125,-0.729168117046356,2.77495670318604,1.38572490215302,-0.450474904562636,2.77198961381608,1.4217225152016,1200.347,1412.566,3165.826,3251.806,-0.1193629,0.01685609,0.08552457,-0.729751884937286,-0.310954928398132,0.377054154872894,-0.704361775018035,-0.303067194200314,0.436033492140578,2
1.39999389648438,-0.743952691555023,2.76857113838196,1.39338910579681,-0.464680216184654,2.76587746507559,1.43051627978847,1207.047,1408.123,3175.971,3252.923,-0.119332,0.01620501,0.08777022,-0.739230334758759,-0.319272637367249,0.38320854306221,-0.716930938559026,-0.308475354130225,0.443814403124744,2
1.42001342773438,-0.758931219577789,2.76202583312988,1.40117681026459,-0.479157861067077,2.75964813894125,1.43947863163655,1212.818,1404.12,3180.399,3259.523,-0.1191434,0.01565433,0.08994448,-0.748928844928741,-0.327266037464142,0.389388173818588,-0.729400843645231,-0.313840805920001,0.451533868397062,2
1.44000244140625,-0.774107754230499,2.7553277015686,1.40908861160278,-0.493861275572861,2.75332167044526,1.4485807456364,1233.635,1402.016,3178.123,3256.606,-0.118842,0.01522239,0.09197678,-0.758826076984406,-0.334905833005905,0.395591050386429,-0.741727567798258,-0.319144650954242,0.459164697851088,2
1.45999145507813,-0.789486348628998,2.74848341941833,1.41713285446167,-0.508809800712713,2.74688973769103,1.45783459479497,1236.034,1397.34,3190.034,3260.672,-0.1184952,0.0148713,0.09393596,-0.768930733203888,-0.342220097780228,0.402211636304855,-0.753924423002454,-0.324392617007921,0.466715132239272,2
1.48001098632813,-0.805069863796234,2.74149942398071,1.42531073093414,-0.524024159888143,2.74034342397783,1.467253007885,1235.004,1391.883,3198.804,3270.033,-0.1180451,0.01460747,0.09581257,-0.779177129268646,-0.349195390939713,0.408893346786499,-0.766004036374583,-0.329590137176618,0.474192988348404,2
1.5,-0.82086056470871,2.73438334465027,1.4336211681366,-0.539455198877605,2.73370387899399,1.4768055561018,1255.582,1389.313,3197.735,3264.922,-0.1174758,0.01446262,0.09751778,-0.789532780647278,-0.355806082487106,0.415522485971451,-0.777924000354858,-0.334718964672088,0.481572013878822,1
1.51998901367188,-0.836860656738281,2.72714185714722,1.44207072257996,-0.555123050061237,2.72696244033876,1.48650470234772,1261.882,1384.654,3207.897,3265.404,-0.1168622,0.01439733,0.09912758,-0.800003826618195,-0.362074375152588,0.422476291656494,-0.789697369743256,-0.339784716610053,0.488860290373601,1
1.54000854492188,-0.853071212768555,2.71978211402893,1.45065987110138,-0.571049184024557,2.72010986981902,1.49636373793799,1263.438,1379.297,3214.516,3273.161,-0.1161868,0.01440769,0.1006495,-0.810529410839081,-0.36799031496048,0.429456263780594,-0.801336412291853,-0.344792671461508,0.496065412155667,1
1.55999755859375,-0.869492888450623,2.71231126785278,1.45938777923584,-0.587181951496087,2.71316839067337,1.50635068951315,1282.346,1376.598,3212.819,3269.289,-0.115456,0.01451775,0.1020034,-0.821085035800934,-0.373539924621582,0.436393260955811,-0.812800388649436,-0.349725300221754,0.503162159625937,1
1.57998657226563,-0.886126518249512,2.70473599433899,1.46826112270355,-0.603542258451077,2.7061290076447,1.51647849886779,1284.99,1371.391,3224.362,3270.944,-0.1147215,0.01468868,0.1032599,-0.831683158874512,-0.378759622573853,0.443667203187943,-0.82410201904291,-0.354588076049064,0.510158407210813,0
1.60000610351563,-0.902971684932709,2.69706296920776,1.47727954387665,-0.620152298932711,2.69898217125626,1.52676090517188,1284.219,1365.938,3231.426,3278.65,-0.1139359,0.01492284,0.1044186,-0.842257440090179,-0.38364651799202,0.450920969247818,-0.835253140422976,-0.35938609205264,0.51706148254665,0
1.6199951171875,-0.920027196407318,2.68929934501648,1.48644077777863,-0.636958033083316,2.69175113334911,1.53716445517924,1303.856,1363.847,3228.186,3273.016,-0.1130991,0.01524786,0.1053939,-0.852780222892761,-0.388186097145081,0.458059757947922,-0.846214826007804,-0.364102599125749,0.523847288101157,0
1.6400146484375,-0.937292635440826,2.68145108222961,1.49575066566467,-0.654007271984653,2.68441532215046,1.54771874622704,1307.522,1359.26,3238.085,3272.936,-0.1122799,0.01562131,0.1062641,-0.863268196582794,-0.39241561293602,0.465494126081467,-0.857015715678588,-0.368749920209162,0.530533553325099,0
1.66000366210938,-0.954765617847443,2.67352437973022,1.50520706176758,-0.671244443874359,2.67699864863716,1.55838937674714,1311.592,1355.815,3239.701,3277.851,-0.1114789,0.01604556,0.1070226,-0.873650789260864,-0.396331816911697,0.472819805145264,-0.867618167158098,-0.373311858882592,0.53709697585572,0
1.67999267578125,-0.972444534301758,2.66552495956421,1.51481330394745,-0.688691692550512,2.66949158495151,1.56919005480539,1315.49,1350.856,3249.404,3275.959,-0.1106474,0.01651833,0.1076614,-0.883947610855103,-0.399967879056931,0.480313330888748,-0.878034183119987,-0.377793579561193,0.543544985919778,0
1.70001220703125,-0.990326404571533,2.65745854377747,1.5245668888092,-0.706372354049449,2.66188409024902,1.58013522651994,1318.323,1347.025,3252.101,3279.693,-0.1097792,0.01703636,0.1081915,-0.894097745418549,-0.403317034244537,0.487681895494461,-0.888274735793774,-0.382199803288802,0.549884375850026,0
1.72000122070313,-1.0084080696106,2.64933109283447,1.53446507453918,-0.724228658537036,2.6542010212754,1.5911891296115,1337.148,1346.258,3246.131,3273.481,-0.1089228,0.01761441,0.1085498,-0.904084146022797,-0.406371712684631,0.494907289743423,-0.898304216251578,-0.386515208538549,0.556093102023817,0
1.739990234375,-1.02668678760529,2.64114737510681,1.54451370239258,-0.74228345468553,2.64643254688532,1.60236590849663,1335.91,1342.179,3256.5,3274.219,-0.1081419,0.01820585,0.1088235,-0.913935124874115,-0.409183323383331,0.502430081367493,-0.908134108040217,-0.390744736359816,0.562178273303667,0
1.760009765625,-1.04515850543976,2.63291192054749,1.55471074581146,-0.760560719141003,2.63856835059778,1.61368040586141,1329.297,1337.811,3263.09,3281.848,-0.1073675,0.01881318,0.1090207,-0.923587620258331,-0.411767065525055,0.50985324382782,-0.91777478390713,-0.394892849856044,0.568146310914365,0
1.77999877929688,-1.06381893157959,2.62462973594666,1.56505143642426,-0.779000609654483,2.63063418086074,1.62509557650306,1345.607,1337.293,3257.868,3274.457,-0.1065754,0.01947034,0.109052,-0.933017492294312,-0.414114892482758,0.517033457756042,-0.927192788821983,-0.398945154262308,0.57397650459845,0
1.79998779296875,-1.08266401290894,2.61630439758301,1.57553935050964,-0.797626646773287,2.62261991743975,1.63662598076079,1347.157,1334.294,3265.417,3271.927,-0.1058308,0.0201345,0.1090027,-0.942252397537231,-0.416264235973358,0.524393916130066,-0.936399026186941,-0.402906341007953,0.579675604081262,0
1.82000732421875,-1.10168874263763,2.60793995857239,1.5861713886261,-0.816463410111527,2.61451498441355,1.64828683458664,1342.428,1331.031,3268.729,3278.221,-0.1051091,0.02079965,0.1088941,-0.951239466667175,-0.418223977088928,0.531603753566742,-0.94540321420156,-0.406780591562751,0.585249625391268,0
1.83999633789063,-1.12088811397552,2.59954023361206,1.59694302082062,-0.835449117627072,2.60634596486888,1.66003989195343,1356.488,1331.085,3262.396,3272.082,-0.1044098,0.02149294,0.1086439,-0.959967315196991,-0.419991612434387,0.538580477237701,-0.954174163352093,-0.410554485950274,0.590679260733698,0
1.86001586914063,-1.14025747776031,2.59110808372498,1.60785806179047,-0.854637305360818,2.59808982374295,1.67191829422076,1353.435,1328.341,3270.864,3271.11,-0.1037775,0.02217356,0.1083336,-0.968470513820648,-0.421612948179245,0.54574978351593,-0.962735018414262,-0.414237982720922,0.595978837827261,0
1.8800048828125,-1.15979111194611,2.58264636993408,1.61891090869904,-0.873964974649439,2.58977366760063,1.68388304221498,1351.77,1327.192,3269.235,3275.379,-0.1031916,0.02284951,0.1079554,-0.976684749126434,-0.423090040683746,0.552641689777374,-0.971056158224177,-0.417818336715394,0.601130019760457,0
1.89999389648438,-1.17948389053345,2.57415723800659,1.63010215759277,-0.893456683142228,2.58138692997148,1.69594933829086,1352.171,1324.778,3275.357,3270.972,-0.102594,0.02352371,0.1074976,-0.984646499156952,-0.424453616142273,0.55956095457077,-0.979147395688901,-0.421299770153459,0.606138881190213,0
1.92001342773438,-1.19933009147644,2.56564331054688,1.64142656326294,-0.913137923350175,2.5729186421402,1.70813296352707,1350.541,1323.572,3274.12,3273.67,-0.1019874,0.02419082,0.1069808,-0.992307364940643,-0.425697594881058,0.566218316555023,-0.987017247723777,-0.424685947625853,0.611010694492843,0
1.94000244140625,-1.21932327747345,2.55710697174072,1.6528787612915,-0.932943991899774,2.5643966441608,1.72039386345315,1365.034,1325.327,3264.529,3266.281,-0.1014206,0.02486773,0.1063415,-0.999665856361389,-0.426814764738083,0.572613000869751,-0.994638524886308,-0.427965170275055,0.615728628108227,0
1.95999145507813,-1.23945868015289,2.54854989051819,1.66446304321289,-0.952900013794853,2.55581012544606,1.73274759164336,1358.179,1323.73,3272.553,3266.007,-0.1009503,0.02550877,0.1056736,-1.00676560401917,-0.427855998277664,0.579214751720428,-1.00202031904361,-0.431141350077486,0.620298310335216,0
1.98001098632813,-1.25972962379456,2.53997325897217,1.67617475986481,-0.973031969359004,2.54714790738853,1.74521023115561,1345.525,1321.8,3276.177,3273.712,-0.1004949,0.02612036,0.1049876,-1.01355409622192,-0.428835034370422,0.585585534572601,-1.00917036754089,-0.434217816196637,0.624724530959079,0
2,-1.28013014793396,2.53137850761414,1.68800640106201,-0.993273599084619,2.53843849960327,1.7577407641983,1358.647,1323.68,3267.4,3264.442,-0.1000177,0.0267439,0.1041844,-1.02002131938934,-0.429738610982895,0.591583788394928,-1.01606400046349,-0.437183953857422,0.628992018127441,0
2.01998901367188,-1.30065429210663,2.52276659011841,1.69995987415314,-1.01365055070775,2.52967086658596,1.77035506794184,1356.193,1323.209,3272.044,3260.425,-0.09958891,0.0273355,0.1033594,-1.02620804309845,-0.430597066879272,0.597672820091248,-1.02270954399163,-0.440043345582587,0.633105926142498,0
2.04000854492188,-1.32129573822021,2.51413822174072,1.71202993392944,-1.03418924440916,2.52083364047092,1.78306949773667,1346.297,1322.236,3272.167,3267.046,-0.09918411,0.02789092,0.1025378,-1.03207290172577,-0.431413143873215,0.603500247001648,-1.02911391720548,-0.442798968459032,0.637070538244476,0
2.05999755859375,-1.34204816818237,2.50549459457397,1.72420990467072,-1.05482201812353,2.5119559343546,1.79584216754118,1356.99,1324.274,3262.946,3259.679,-0.09878942,0.028443,0.101628,-1.03761982917786,-0.432178318500519,0.608998894691467,-1.03525504859546,-0.445441325732794,0.640872191117535,0
2.07998657226563,-1.36290597915649,2.49683594703674,1.73650217056274,-1.07557499515204,2.50302650811029,1.80868924892322,1349.555,1323.783,3268.894,3258.112,-0.09845068,0.02895303,0.1007168,-1.04289269447327,-0.43292972445488,0.614615678787231,-1.04114045847258,-0.4479736531836,0.644515540192423,0
2.10000610351563,-1.38386285305023,2.48816251754761,1.74890089035034,-1.09647498538954,2.49403382618922,1.82162733848484,1337.307,1323.058,3269.353,3265.008,-0.09810606,0.02942752,0.09981318,-1.04784691333771,-0.43366813659668,0.619935154914856,-1.04677621342161,-0.450398561093403,0.648004340974112,0
2.1199951171875,-1.40491247177124,2.4794750213623,1.76139831542969,-1.11745308225396,2.48500753716864,1.83461377976925,1349.594,1325.686,3258.755,3255.603,-0.09773482,0.02990469,0.09881824,-1.05248320102692,-0.434375733137131,0.624870479106903,-1.0521429102862,-0.45270770082608,0.651326581984514,0
2.1400146484375,-1.4260493516922,2.47077345848083,1.77399635314941,-1.13856809990831,2.47592233495728,1.84768498154507,1343.975,1325.993,3262.859,3252.458,-0.09740778,0.03034154,0.09782879,-1.05684542655945,-0.435081869363785,0.629902005195618,-1.05725481901126,-0.454907212340279,0.654491096999312,0
2.16000366210938,-1.4472668170929,2.4620578289032,1.78668761253357,-1.15975039167652,2.46680818657414,1.86079782920208,1337.793,1327.095,3257.502,3256.958,-0.09711749,0.03074525,0.09684369,-1.06088590621948,-0.435777693986893,0.634562969207764,-1.0620943502576,-0.456989527434725,0.657486997379635,0
2.17999267578125,-1.46856009960175,2.45332813262939,1.799471616745,-1.18102676265167,2.45765355853653,1.8739689163698,1333.434,1326.67,3261.44,3251.949,-0.09679525,0.03112304,0.09584633,-1.06465518474579,-0.436486482620239,0.639198541641235,-1.06666760390386,-0.458957270716794,0.660318059240953,0
2.20001220703125,-1.48992228507996,2.44458436965942,1.81234133243561,-1.20242455577657,2.44844668594002,1.88721516963236,1326.449,1327.193,3257.808,3255.188,-0.09642933,0.03147516,0.09485626,-1.06811439990997,-0.437190383672714,0.643483340740204,-1.07097916161324,-0.460812413548163,0.662987118851036,0
2.22000122070313,-1.51134765148163,2.43582701683044,1.82528960704803,-1.22387315175433,2.43921795429519,1.90049287228091,1339.176,1330.227,3245.547,3245.794,-0.0960501,0.03182677,0.09379645,-1.07127165794373,-0.437868416309357,0.647413551807404,-1.07501419914593,-0.462548577472581,0.665484999299265,0
2.239990234375,-1.53283107280731,2.42705583572388,1.83831930160522,-1.24539969505118,2.42995568409656,1.91381882803312,1329.895,1330.578,3250.302,3244.57,-0.09572839,0.03213332,0.09276728,-1.07417392730713,-0.438554674386978,0.651486456394196,-1.07877792518082,-0.464168003639063,0.667814925005999,0
2.260009765625,-1.55436670780182,2.41827082633972,1.85142457485199,-1.26703177594152,2.42064800401982,1.92721011658316,1314.056,1330.07,3250.854,3252.679,-0.09538963,0.03240395,0.0917759,-1.07678186893463,-0.439247906208038,0.655265629291534,-1.08227399942825,-0.465672266718726,0.669979161506271,0
2.27999877929688,-1.57594859600067,2.40947222709656,1.86459720134735,-1.28869796983554,2.41132564607061,1.9406225227075,1325.234,1332.483,3240.271,3242.448,-0.0949843,0.03268366,0.0907129,-1.07909739017487,-0.439925014972687,0.658632099628448,-1.08549040888332,-0.467056197851165,0.67197027217779,0
2.29998779296875,-1.59757196903229,2.40066003799438,1.8778383731842,-1.31042570636616,2.40197680804417,1.95407302665558,1320.105,1333.178,3242.949,3237.958,-0.09458483,0.0329324,0.08967504,-1.08116018772125,-0.440604269504547,0.662058234214783,-1.08843144721369,-0.468321644481621,0.673790915005368,0
2.32000732421875,-1.61923062801361,2.39183449745178,1.8911417722702,-1.33224276726637,2.39258953623693,1.96757882664355,1307.926,1332.957,3240.833,3244.572,-0.09416299,0.03315048,0.08868213,-1.08293604850769,-0.441273808479309,0.665170252323151,-1.09109983431736,-0.469469776906228,0.675442773735451,0
2.33999633789063,-1.6409193277359,2.38299608230591,1.90450012683868,-1.35407709248145,2.38319483607731,1.98109531406483,1318.701,1335.025,3229.874,3235.373,-0.0936964,0.0333749,0.08763299,-1.08443510532379,-0.44191300868988,0.667916595935822,-1.09348640563071,-0.470496651869278,0.67692017506657,0
2.36001586914063,-1.66263318061829,2.3741455078125,1.91791546344757,-1.3759897762471,2.37376642042246,1.99466030916165,1310.254,1335.241,3233.714,3233.077,-0.09324685,0.03356705,0.0866202,-1.08569836616516,-0.442546188831329,0.670765101909637,-1.09559752564474,-0.471405007833448,0.678227058921845,0
2.3800048828125,-1.68436694145203,2.36528253555298,1.93137967586517,-1.39790843013262,2.36433543599182,2.00822900004707,1303.077,1335.881,3227.433,3237.614,-0.09278719,0.03374131,0.08562849,-1.08668148517609,-0.443154066801071,0.673209428787231,-1.09742594550583,-0.472191725819537,0.679358937915576,0
2.39999389648438,-1.70611560344696,2.3564076423645,1.94489192962646,-1.41986083522252,2.35488992936084,2.02181858453579,1300.124,1335.301,3229.817,3230.89,-0.09224764,0.0339084,0.08463165,-1.08743238449097,-0.4437495470047,0.675612568855286,-1.09897439291323,-0.472857979480329,0.680317500623536,0
2.42001342773438,-1.72787404060364,2.34752130508423,1.95844519138336,-1.44187496577138,2.34541786398928,2.035446380024,1293.984,1335.566,3224.688,3233.293,-0.09163404,0.03406659,0.08365317,-1.0879145860672,-0.444305509328842,0.677663266658783,-1.1002439936861,-0.473404253224357,0.681103443981416,0
2.44000244140625,-1.74963665008545,2.33862566947937,1.97203266620636,-1.46387808506052,2.33595053645515,2.04906735901791,1307.287,1337.575,3212.173,3222.972,-0.09097784,0.03424018,0.08261625,-1.08813714981079,-0.444797247648239,0.679376304149628,-1.10123038958312,-0.473828671822132,0.681714070030222,0
2.45999145507813,-1.77139925956726,2.32972049713135,1.98565745353699,-1.48589810917879,2.32647593524532,2.06269880290633,1297.889,1337.496,3215.928,3221.704,-0.09035733,0.03438647,0.08162037,-1.088139295578,-0.445252120494843,0.681237757205963,-1.10193535162022,-0.474131997292339,0.68215047511319,0
2.48001098632813,-1.79315710067749,2.32080745697021,1.99931383132935,-1.5079630509786,2.31698200721197,2.07635805297935,1282.344,1336.194,3215.959,3229.307,-0.0896942,0.03451604,0.0806665,-1.0878871679306,-0.445663899183273,0.68281763792038,-1.10235904000526,-0.474314298567936,0.682412758406602,0
2.5,-1.81490468978882,2.31188726425171,2.01299381256104,-1.52999999932945,2.30750012397766,2.08999997377396,1294.343,1337.188,3205.414,3218.16,-0.08893307,0.03467349,0.07964249,-1.08738172054291,-0.446006536483765,0.683994352817535,-1.10250000050292,-0.474374949932098,0.682500019669533,0
2.51998901367188,-1.83663785457611,2.3029613494873,2.02669858932495,-1.5520369476803,2.29801824074336,2.10364189456856,1290.538,1337.14,3207.223,3212.59,-0.0881533,0.03482056,0.07864358,-1.08665478229523,-0.446292489767075,0.685238420963287,-1.10235904000526,-0.474314298567936,0.682412758406603,0
2.54000854492188,-1.85835123062134,2.29403114318848,2.04042220115662,-1.57410188948011,2.28852431271001,2.11730114464159,1279.403,1335.88,3204.375,3218.672,-0.08733357,0.03495679,0.07768898,-1.08567464351654,-0.446505665779114,0.686179876327515,-1.10193535162022,-0.474131997292339,0.682150475113189,0
2.55999755859375,-1.88004040718079,2.28509855270386,2.05415773391724,-1.59612191359838,2.27904971150017,2.13093258853001,1291.396,1336.287,3193.63,3208.479,-0.08644887,0.03511804,0.07667477,-1.08445143699646,-0.446625560522079,0.686780691146851,-1.10123038958312,-0.473828671822132,0.681714070030222,0
2.57998657226563,-1.90170061588287,2.27616500854492,2.06790781021118,-1.61812503288753,2.26958238396605,2.14455356752391,1283.806,1335.546,3196.795,3205.759,-0.08556843,0.03526622,0.07569273,-1.08301711082458,-0.446672409772873,0.687498331069946,-1.1002439936861,-0.473404253224357,0.681103443981416,0
2.60000610351563,-1.92332744598389,2.2672324180603,2.08166599273682,-1.64013916343638,2.26011031859448,2.15818136301212,1271.044,1333.684,3195.098,3212.299,-0.0846326,0.03541041,0.07474304,-1.08133888244629,-0.446633815765381,0.687915325164795,-1.09897439291323,-0.472857979480329,0.680317500623536,0
2.6199951171875,-1.94491589069366,2.25830268859863,2.09542536735535,-1.66209156852628,2.2506648119635,2.17177094750084,1284.634,1333.783,3184.15,3200.489,-0.08360302,0.03559031,0.07371571,-1.07942116260529,-0.446485906839371,0.6879643201828,-1.09742594550583,-0.472191725819537,0.679358937915576,0
2.6400146484375,-1.9664614200592,2.24937772750854,2.10918760299683,-1.68404365734903,2.24121944141343,2.18536033620513,1280.055,1333.1,3186.05,3195.741,-0.08256812,0.035766,0.07270831,-1.07729077339172,-0.446243762969971,0.688114643096924,-1.09559452046326,-0.471403714787811,0.678225198571351,0
2.66000366210938,-1.98795974254608,2.24045991897583,2.12294554710388,-1.70592290617745,2.23180541187802,2.19890463348308,1275.14,1332.049,3179.321,3198.927,-0.08152096,0.03594512,0.07171401,-1.07491087913513,-0.445889472961426,0.687903165817261,-1.09348640563071,-0.470496651869278,0.67692017506657,0
2.67999267578125,-2.00940632820129,2.23155117034912,2.13669919967651,-1.72775723139253,2.2224107117184,2.21242112090437,1272.912,1329.789,3181.513,3192.039,-0.08040083,0.03613571,0.07070791,-1.07232105731964,-0.445437043905258,0.687687277793884,-1.09109983431736,-0.469469776906228,0.675442773735451,0
2.70001220703125,-2.03079605102539,2.22265362739563,2.15044236183167,-1.74957429229274,2.21302343991116,2.22592692089233,1267.238,1328.211,3176.84,3193.935,-0.0792056,0.03633701,0.06970812,-1.06948912143707,-0.444864958524704,0.687157154083252,-1.08843144721369,-0.468321644481621,0.673790915005369,0
2.72000122070313,-2.05212426185608,2.21377086639404,2.1641685962677,-1.77130202882336,2.20367460188472,2.23937742484041,1281.787,1327.875,3165.259,3182.232,-0.07795072,0.036573,0.0686353,-1.06641948223114,-0.444152623414993,0.686312079429626,-1.08549040888332,-0.467056197851165,0.671970272177789,0
2.739990234375,-2.07338714599609,2.20490431785583,2.17788076400757,-1.79296822271738,2.1943522439355,2.25278983096475,1274.974,1326.528,3167.787,3179.406,-0.07672407,0.03680298,0.0675861,-1.06313800811768,-0.443321615457535,0.685611724853516,-1.08227399942825,-0.465672266718727,0.669979161506271,0
2.760009765625,-2.09457921981812,2.19605731964111,2.19157385826111,-1.81460030360772,2.18504456385877,2.26618111951479,1261.743,1323.723,3166.922,3185.814,-0.07546227,0.03703425,0.06656145,-1.05961763858795,-0.442368447780609,0.684654533863068,-1.07877792518082,-0.464168003639063,0.667814925005998,0
2.77999877929688,-2.1156964302063,2.18723154067993,2.20524072647095,-1.83612684690458,2.17578229366013,2.27950707526701,1274.869,1322.5,3157.119,3173.687,-0.07410938,0.03730652,0.06545208,-1.0558602809906,-0.441275626420975,0.683341145515442,-1.07501419914593,-0.462548577472581,0.665484999299265,0
2.79998779296875,-2.13673448562622,2.17843008041382,2.21888303756714,-1.85757544288233,2.1665535620153,2.29278477791556,1271.993,1321.125,3158.62,3167.382,-0.07274744,0.03758281,0.06435178,-1.05188536643982,-0.440055876970291,0.682115614414215,-1.07097916161324,-0.460812413548163,0.662987118851036,0
2.82000732421875,-2.15768766403198,2.1696560382843,2.23249506950378,-1.87897323600723,2.1573466894188,2.30603103117811,1262.168,1318.353,3155.549,3172.443,-0.07135408,0.03786207,0.06327662,-1.04766607284546,-0.43869936466217,0.680605173110962,-1.06666760390385,-0.458957270716794,0.660318059240952,0
2.83999633789063,-2.17855191230774,2.16091275215149,2.24607062339783,-1.90024960698239,2.14819206138118,2.31920211834584,1275.801,1316.731,3145.371,3160.618,-0.06989893,0.03817755,0.0621239,-1.0432106256485,-0.437192559242249,0.678779602050781,-1.06209435025759,-0.456989527434725,0.657486997379635,0
2.86001586914063,-2.19932270050049,2.1522011756897,2.25961208343506,-1.9214641634913,2.13906403038149,2.33233493941432,1270.211,1315.009,3147.343,3156.646,-0.06846348,0.03849161,0.06098578,-1.03853893280029,-0.435553342103958,0.677073538303375,-1.05724722779031,-0.454903946049977,0.654486397671922,0
2.8800048828125,-2.21999549865723,2.14352583885193,2.27311277389526,-1.94254691640495,2.12999271078668,2.34538616777867,1265.045,1312.618,3141.563,3159.144,-0.06702111,0.03881403,0.0598477,-1.03362262248993,-0.43377348780632,0.675029277801514,-1.0521429102862,-0.45270770082608,0.651326581984514,0
2.89999389648438,-2.24056529998779,2.13488864898682,2.28657197952271,-1.96352501326936,2.1209664217661,2.35837260906308,1264.3,1309.59,3142.722,3151.259,-0.0655079,0.03915437,0.05868054,-1.02849066257477,-0.431864768266678,0.672955811023712,-1.04677621342161,-0.450398561093403,0.648004340974112,0
2.92001342773438,-2.26102757453918,2.12629246711731,2.29998373985291,-1.98442500350686,2.11197373984504,2.37131069862469,1261.167,1307.334,3137.224,3151.046,-0.06393344,0.03951001,0.05750204,-1.02311670780182,-0.429811328649521,0.670582354068756,-1.04114045847258,-0.4479736531836,0.644515540192422,0
2.94000244140625,-2.28137731552124,2.11774063110352,2.31334233283997,-2.00517798053537,2.10304431360073,2.38415778000673,1275.802,1305.871,3126.201,3138.746,-0.06232276,0.03989802,0.05624644,-1.01750385761261,-0.427600473165512,0.66792756319046,-1.03525504859546,-0.445441325732794,0.640872191117535,0
2.95999145507813,-2.30161094665527,2.10923528671265,2.32665061950684,-2.02581075424974,2.0941666074844,2.39693044981124,1269.311,1304.046,3128.245,3135.359,-0.06076321,0.04028002,0.05500887,-1.01167011260986,-0.425253510475159,0.66541975736618,-1.02911391720548,-0.442798968459032,0.637070538244476,0
2.98001098632813,-2.32172298431396,2.10077977180481,2.33990383148193,-2.04634944795115,2.08532938136936,2.40964487960608,1256.349,1300.635,3127.056,3141.258,-0.05919035,0.04066211,0.05378959,-1.00559711456299,-0.422773957252502,0.662663102149963,-1.02270954399162,-0.440043345582586,0.633105926142498,0
3,-2.34170842170715,2.0923764705658,2.35309529304504,-2.06672639957428,2.07656174835205,2.42225918334961,1269.394,1298.326,3117.96,3128.381,-0.05754132,0.04108107,0.05248187,-0.999289095401764,-0.420152574777603,0.659570038318634,-1.01606400046349,-0.437183953857422,0.628992018127441,0
3.01998901367188,-2.36156368255615,2.08402872085571,2.36622619628906,-2.0869680292999,2.06785234056679,2.43478971639231,1267.492,1296.731,3118.303,3121.264,-0.05589975,0.04150192,0.05117678,-0.992756962776184,-0.417399734258652,0.656547605991364,-1.00917036754089,-0.434217816196637,0.624724530959079,0
3.04000854492188,-2.38128328323364,2.07573843002319,2.37929129600525,-2.10709998486405,2.05919012250926,2.44725235590455,1258.483,1293.631,3114.557,3125.454,-0.05425285,0.0419226,0.04989083,-0.98598313331604,-0.414512515068054,0.653253614902496,-1.00202031904361,-0.431141350077486,0.620298310335216,0
3.05999755859375,-2.40086269378662,2.06750845909119,2.39228487014771,-2.12705600675913,2.05060360379452,2.45960608409476,1271.248,1291.18,3105.437,3113.151,-0.05256441,0.04237111,0.04852971,-0.978977799415588,-0.411486268043518,0.649680435657501,-0.994638524886308,-0.427965170275055,0.615728628108227,0
3.07998657226563,-2.42029762268066,2.05934190750122,2.40520906448364,-2.14686207530873,2.04208160581513,2.47186698402085,1265.63,1289.418,3106.674,3108.758,-0.05091272,0.04281322,0.04718363,-0.971752405166626,-0.408336341381073,0.646209001541138,-0.987017247723776,-0.424685947625853,0.611010694492843,0
3.10000610351563,-2.43958377838135,2.05124044418335,2.41805839538574,-2.16654331551667,2.03361331798384,2.48405060925705,1255.022,1286.134,3103.686,3113.456,-0.04924931,0.04325393,0.04585145,-0.964293122291565,-0.405064135789871,0.642462968826294,-0.979147395688901,-0.421299770153459,0.606138881190213,0
3.1199951171875,-2.45871567726135,2.04320764541626,2.43082690238953,-2.18603502400946,2.02522658035469,2.49611690533293,1268.403,1283.698,3094.581,3100.066,-0.04752677,0.0437245,0.04443495,-0.95660787820816,-0.401664048433304,0.638419926166534,-0.971056158224178,-0.417818336715394,0.601130019760458,0
3.1400146484375,-2.47768998146057,2.03524446487427,2.44351601600647,-2.20539207344272,2.01689778275692,2.50809984103626,1264.869,1282.297,3094.464,3094.366,-0.0458362,0.04419001,0.04302698,-0.948703229427338,-0.398146718740463,0.634452342987061,-0.962722140342815,-0.41423244164655,0.595970865687568,0
3.16000366210938,-2.49650120735168,2.0273540019989,2.45611953735352,-2.22455088103183,2.00865428308644,2.51996005559448,1260.907,1279.672,3087.977,3095.493,-0.044168,0.04465505,0.0416208,-0.940566062927246,-0.39451202750206,0.630170464515686,-0.954174163352092,-0.410554485950274,0.590679260733698,0
3.17999267578125,-2.51514530181885,2.01953887939453,2.46863698959351,-2.24353658854737,2.00048526354177,2.53171311296128,1260.163,1276.746,3088.406,3087.144,-0.0424705,0.04512559,0.04019384,-0.932220041751862,-0.390773266553879,0.625878632068634,-0.945403214201559,-0.406780591562751,0.585249625391267,0
3.20001220703125,-2.53361845016479,2.01180028915405,2.4810631275177,-2.26237335188561,1.99238033051557,2.54337396678712,1255.288,1274.381,3083.013,3087.515,-0.04075009,0.04559767,0.03876666,-0.92365026473999,-0.386924922466278,0.621311485767365,-0.93639902618694,-0.402906341007952,0.579675604081262,0
3.22000122070313,-2.55191540718079,2.00414085388184,2.49339294433594,-2.28099938900442,1.98436606709459,2.55490437104486,1267.996,1272.218,3073.56,3074.957,-0.03900626,0.04608895,0.03727347,-0.914862990379333,-0.382962733507156,0.616490483283997,-0.927192788821982,-0.398945154262308,0.573976504598449,0
3.239990234375,-2.57003307342529,1.99656295776367,2.50562834739685,-2.2994392795179,1.97643189735754,2.5663195416865,1262.27,1270.87,3073.869,3070.776,-0.03732154,0.04656672,0.03580276,-0.905866086483002,-0.378900140523911,0.611770689487457,-0.917774783907129,-0.394892849856044,0.568146310914365,0
3.260009765625,-2.58796620368958,1.98906815052032,2.51776432991028,-2.31771654397337,1.96856770107001,2.57763403905129,1250.939,1267.839,3070.995,3075.473,-0.03564854,0.04703553,0.03435318,-0.896655857563019,-0.374744296073914,0.606805086135864,-0.908134108040216,-0.390744736359816,0.562178273303667,0
3.27999877929688,-2.60571098327637,1.98165822029114,2.52979564666748,-2.33577134012187,1.96079922667992,2.58881081793642,1262.532,1265.286,3062.886,3062.506,-0.03392654,0.04752462,0.03283128,-0.887241899967194,-0.370494157075882,0.601563096046448,-0.898304216251578,-0.386515208538549,0.556093102023818,0
3.29998779296875,-2.6232635974884,1.97433495521545,2.54172325134277,-2.35362764460945,1.95311615770631,2.59986472102797,1259.174,1264.276,3062.248,3056.271,-0.0322381,0.04800376,0.0313249,-0.877626657485962,-0.366156697273254,0.59637850522995,-0.888274735793772,-0.382199803288803,0.549884375850026,0
3.32000732421875,-2.64061975479126,1.9671003818512,2.553542137146,-2.37130830610839,1.94550866300381,2.61080989274252,1250.508,1261.555,3058.11,3059.352,-0.03056031,0.04847319,0.02984299,-0.867806851863861,-0.361735135316849,0.59093964099884,-0.878034183119985,-0.377793579561194,0.543544985919778,0
3.33999633789063,-2.65777540206909,1.95995593070984,2.56524705886841,-2.38875555478454,1.93800159931817,2.62161057080077,1261.739,1259.014,3049.769,3047.153,-0.02885535,0.04895647,0.02830317,-0.857793927192688,-0.357229113578796,0.585249900817871,-0.867618167158097,-0.373311858882592,0.53709697585572,0
3.3599853515625,-2.67472720146179,1.95290303230286,2.57683992385864,-2.40599272667425,1.93058492580486,2.63228120132087,1256.835,1258.046,3049.335,3042.247,-0.02720046,0.04942431,0.02678849,-0.847591876983643,-0.3526471555233,0.579638361930847,-0.857015715678588,-0.368749920209162,0.530533553325099,0
3.3800048828125,-2.69147109985352,1.94594311714172,2.58831572532654,-2.42304196557559,1.92324911460621,2.64283549236868,1246.695,1255.378,3045.726,3046.129,-0.02555942,0.04987992,0.02530085,-0.837201654911041,-0.347995221614838,0.573786199092865,-0.846214826007803,-0.364102599125748,0.523847288101157,0
3.39999389648438,-2.70800423622131,1.93907713890076,2.59966945648193,-2.43984769972619,1.91601807669906,2.65323904237604,1257.476,1252.881,3037.832,3033.769,-0.02388003,0.05034894,0.02375441,-0.826634287834167,-0.343273222446442,0.567683935165405,-0.835253140422974,-0.35938609205264,0.51706148254665,0
3.42001342773438,-2.7243218421936,1.93230772018433,2.61090230941772,-2.45645774020782,1.90887124031063,2.66352144868012,1253.569,1252.2,3036.8,3028.17,-0.02224166,0.05080346,0.02223138,-0.815890491008759,-0.338486135005951,0.561643600463867,-0.824102019042908,-0.354588076049064,0.510158407210813,0
3.44000244140625,-2.74042129516602,1.92563498020172,2.62200856208801,-2.47281804716281,1.90183185728196,2.67364925803476,1249.469,1249.901,3029.866,3029.319,-0.02063524,0.05124849,0.02072304,-0.804971158504486,-0.333637446165085,0.555306971073151,-0.812800388649434,-0.349725300221754,0.503162159625937,0
3.45999145507813,-2.75629949569702,1.91906023025513,2.6329882144928,-2.48895081463434,1.8948903781363,2.68363620960993,1249.634,1247.771,3029.354,3020.184,-0.01901603,0.05168975,0.01920528,-0.793893933296204,-0.328736156225204,0.548981428146362,-0.80133641229185,-0.344792671461508,0.496065412155666,0
3.48001098632813,-2.77195262908936,1.91258454322815,2.64383673667908,-2.50487694859767,1.88803780761656,2.69349524520019,1243.434,1246.157,3024.115,3021.073,-0.01740003,0.05212113,0.01770852,-0.782653987407684,-0.323780924081802,0.542430222034454,-0.789697369743255,-0.339784716610052,0.488860290373601,0
3.5,-2.78737759590149,1.90620923042297,2.65455007553101,-2.5205447997813,1.88129636896134,2.70319439144611,1253.651,1243.967,3016.069,3009.59,-0.01576751,0.052559,0.01617015,-0.771260261535645,-0.318771183490753,0.53566312789917,-0.777924000354857,-0.334718964672089,0.481572013878822,0
3.51998901367188,-2.80257201194763,1.89993488788605,2.66512942314148,-2.53597583877076,1.87465682397749,2.71274693966292,1249.042,1243.437,3014.859,3005.044,-0.01419571,0.05297866,0.01466533,-0.759714245796204,-0.313712328672409,0.528972506523132,-0.766004036374581,-0.329590137176618,0.474192988348404,0
3.54000854492188,-2.81753253936768,1.89376258850098,2.67557096481323,-2.55119019794619,1.86811051026429,2.72216535275294,1239.184,1241.211,3011.381,3008.559,-0.01265055,0.05338268,0.01319604,-0.748024225234985,-0.308612138032913,0.522082626819611,-0.753924423002452,-0.324392617007921,0.466715132239272,0
3.55999755859375,-2.83225655555725,1.88769316673279,2.68587064743042,-2.56613872308604,1.86167857751006,2.73141920191151,1247.834,1238.848,3004.653,2997.43,-0.01107662,0.05379298,0.01168613,-0.736202239990234,-0.3034727871418,0.514983117580414,-0.741727567798258,-0.319144650954242,0.459164697851087,0
3.57998657226563,-2.84674143791199,1.88172709941864,2.69602918624878,-2.58084213759183,1.85535210901407,2.74052131591136,1244.337,1238.494,3002.993,2992.069,-0.009541574,0.05418799,0.01020634,-0.724246621131897,-0.298295885324478,0.507929384708405,-0.72940084364523,-0.31384080592,0.451533868397061,0
3.60000610351563,-2.86098456382751,1.87586557865143,2.70604252815247,-2.59531978247425,1.84912278287974,2.74948366775945,1236.931,1236.463,2998.675,2994.115,-0.008026768,0.05456895,0.008761332,-0.712165117263794,-0.293085873126984,0.500672578811646,-0.716930938559024,-0.308475354130224,0.443814403124743,0
3.6199951171875,-2.87498426437378,1.87010884284973,2.71590709686279,-2.60952509409627,1.84301063413925,2.75827743234631,1245.721,1234.222,2991.797,2983.334,-0.00649545,0.05495305,0.007285847,-0.699968993663788,-0.287844240665436,0.493232607841492,-0.704361775018033,-0.303067194200314,0.436033492140578,0
3.6400146484375,-2.88873720169067,1.86445736885071,2.72562432289124,-2.62349913748426,1.83699799365897,2.76692803087948,1241.213,1233.941,2990.306,2979.107,-0.005017396,0.05531884,0.005849197,-0.687657594680786,-0.282573074102402,0.485859245061874,-0.691660998977508,-0.297602405088683,0.428171106749629,0
3.66000366210938,-2.90224170684814,1.85891175270081,2.73518943786621,-2.63719712493647,1.83110413233575,2.77540773763803,1236.629,1231.922,2984.629,2980.079,-0.003572897,0.05567196,0.004440426,-0.675241708755493,-0.277278423309326,0.478258222341537,-0.678873453515702,-0.29210028151913,0.420255006953505,0
3.67999267578125,-2.91549682617188,1.8534722328186,2.7446026802063,-2.65063849381582,1.82532068681534,2.78372858527554,1236.806,1230.259,2983.403,2972.032,-0.002119343,0.05601838,0.003035223,-0.662732899188995,-0.271964997053146,0.470662027597427,-0.665986083416798,-0.286555206197011,0.41227711095171,0
3.70001220703125,-2.92849946022034,1.84813964366913,2.75386047363281,-2.66384123964357,1.81963991412768,2.79190171387692,1232.129,1229.082,2978.288,2971.985,-0.000674845,0.05635387,0.001658514,-0.650132894515991,-0.266631841659546,0.462893307209015,-0.65298533214413,-0.280961346123326,0.404229026602262,0
3.72000122070313,-2.94124841690063,1.84291410446167,2.7629599571228,-2.6767633032417,1.81407991116207,2.79990108680742,1240.336,1227.15,2971.484,2962.139,0.0007744796,0.05668992,0.0002628099,-0.63744992017746,-0.261279106140137,0.454970866441727,-0.639917282339434,-0.275338529371411,0.396139281255611,0
3.739990234375,-2.95374178886414,1.8377959728241,2.77190256118774,-2.68942333385363,1.80863265367006,2.80773824883709,1236.384,1226.957,2969.772,2958.179,0.002162405,0.05700763,-0.001090298,-0.624683022499084,-0.255908459424973,0.447125434875488,-0.62676873176137,-0.26968107538565,0.387999702095468,0
3.760009765625,-2.96597909927368,1.8327853679657,2.78068518638611,-2.70183851231475,1.80329074921818,2.81542383572149,1228.19,1225.188,2966.349,2960.905,0.003514986,0.05730975,-0.002401106,-0.611846208572388,-0.250527322292328,0.439134508371353,-0.613526094901139,-0.263983138701136,0.379801879044709,0
3.77999877929688,-2.97795820236206,1.82788276672363,2.7893054485321,-2.7139695770734,1.79807109095524,2.82293354268985,1234.696,1223.1,2961.121,2951.52,0.004882757,0.05761246,-0.003729491,-0.59895133972168,-0.245138972997665,0.431007593870163,-0.60023651686137,-0.258265004538452,0.371574997167698,0
3.79998779296875,-2.9896776676178,1.82308793067932,2.79776382446289,-2.72583438304408,1.79296599641037,2.83027842278479,1231.729,1222.982,2959.007,2947.121,0.006209555,0.05790055,-0.005018993,-0.585995554924011,-0.239742532372475,0.422923594713211,-0.586886736182787,-0.252520966862155,0.36331084698941,0
3.82000732421875,-3.00113773345947,1.81840133666992,2.8060576915741,-2.73744929742843,1.78796842323393,2.8374686080838,1226.502,1221.331,2955.013,2947.893,0.00751006,0.0581753,-0.006269614,-0.572990953922272,-0.234342575073242,0.414698958396912,-0.573463232144022,-0.246745208083563,0.355001058539243,0
3.83999633789063,-3.01233649253845,1.81382250785828,2.81418490409851,-2.74877791451009,1.78309403578861,2.84448156171422,1232.937,1219.418,2949.657,2939.196,0.008810292,0.0584482,-0.007526093,-0.559947490692139,-0.228940933942795,0.406365633010864,-0.560014026276881,-0.240958390526246,0.346675359432959,0
3.8599853515625,-3.02327394485474,1.80935144424438,2.82214689254761,-2.75983729406747,1.77833549372837,2.85132784449154,1229.359,1219.251,2947.821,2935.741,0.01005626,0.05870418,-0.008736233,-0.546864151954651,-0.223537728190422,0.398097008466721,-0.546525890176286,-0.235154822377061,0.338325560657667,0
3.8800048828125,-3.03394889831543,1.80498886108398,2.82994103431702,-2.77064299647982,1.77368610185671,2.85801708903178,1223.072,1217.624,2944.379,2937.49,0.01127007,0.05894584,-0.009902698,-0.533755719661713,-0.218139007687569,0.389710813760757,-0.532985466132484,-0.229328756186666,0.329943393154704,0
3.89999389648438,-3.04436159133911,1.80073380470276,2.83756566047668,-2.78116151864576,1.76916027562219,2.86452855531919,1229.164,1215.73,2939.438,2929.143,0.0124879,0.05918613,-0.01107609,-0.520632445812225,-0.212747275829315,0.381225764751434,-0.519441457145543,-0.223501147495394,0.321559006401168,0
3.92001342773438,-3.0545117855072,1.79658651351929,2.84502172470093,-2.79142456801014,1.76474437219711,2.87088187177258,1226.521,1215.703,2937.45,2925.282,0.01365656,0.05941192,-0.0122074,-0.507491827011108,-0.207361355423927,0.372806876897812,-0.505860052376089,-0.217657448443621,0.313151469876846,0
