t,x_s1,x_s2,x_s3,x_s_d1,x_s_d2,x_s_d3,propellers_rpms1,propellers_rpms2,propellers_rpms3,propellers_rpms4,rollRad,pitchRad,yawRad,v_s1,v_s2,v_s3,v_s_d1,v_s_d2,v_s_d3,insideCount
0,-0.0599999986588955,2.94000005722046,1.17999994754791,-0.0599999986588955,2.94000005722046,1.17999994754791,0,0,0,0,0,0,0,0,0,0,-1.06581410364015E-15,4.44089209850063E-16,4.44089209850063E-16,0
0.019989013671875,-0.0599999986588955,2.94000005722046,1.17811644077301,-0.0600018659130177,2.93999925379318,1.18000110346716,0,0,0,0,-0.01635288,0.0001297794,-0.01587137,-1.10653664009419E-09,-7.76775763711157E-08,-0.0941759571433067,-0.000279680311988734,-0.000120338624884473,0.000173135436141649,5
0.040008544921875,-0.0599999986588955,2.94000005722046,1.17242503166199,-0.060014880898484,2.93999365380853,1.18000916036316,0,0,0,0,-0.03270202,0.0005238493,-0.03175127,-1.08383135799528E-09,-7.60859677484405E-08,-0.284568399190903,-0.00111143977225461,-0.000478221483967637,0.00068803416424398,5
0.05999755859375,-0.0599058866500854,2.93990302085876,1.16596496105194,-0.0600498857373401,2.93997859220429,1.18003083002592,1868.637,3252.903,3183.539,1722.181,-0.04942454,0.000330191,-0.0136961,0.00470551569014788,-0.00484904320910573,-0.32300192117691,-0.00247936261166862,-0.00106680046642749,0.00153484356504269,5
0.079986572265625,-0.0598203726112843,2.93960738182068,1.16000318527222,-0.0601174907153006,2.93994950367094,1.18007268072775,1925.04,2314.229,3252.61,2829.559,-0.07543723,-0.00213692,0.0209493,0.00427562370896339,-0.0147794876247644,-0.298089414834976,-0.00437104534358026,-0.00188073869847162,0.00270588528944111,5
0.100006103515625,-0.0599374510347843,2.93904495239258,1.15498673915863,-0.0602282404704493,2.93990185114529,1.18014124010193,979.8604,1498.825,3915.135,3896.708,-0.1031991,-0.008064052,0.06331196,-0.0058539817109704,-0.0281186141073704,-0.25082266330719,-0.00677739276378709,-0.00291612276782231,0.00419552897277328,4
0.1199951171875,-0.0604638531804085,2.93818354606628,1.15081310272217,-0.0603918861403606,2.93983143898525,1.18024254456713,346.7827,980.5504,4172.278,4613.394,-0.1214359,-0.01542183,0.1040051,-0.0263201259076595,-0.0430696196854115,-0.208680123090744,-0.00967801353495435,-0.00416417885169243,0.00599115140585487,4
0.139984130859375,-0.061563678085804,2.93704128265381,1.14728283882141,-0.0606183773949454,2.93973398612584,1.18038275344299,352.6307,746.7843,3975.87,4855.073,-0.1254035,-0.0211684,0.1351094,-0.054991353303194,-0.0571161657571793,-0.17651554942131,-0.0130632593357409,-0.00562075554695178,0.00808677981816243,4
0.160003662109375,-0.0633409917354584,2.93568086624146,1.14427495002747,-0.0609177895434042,2.93960515744296,1.18056810382587,820.7041,814.7951,3463.009,4692.467,-0.1184558,-0.02352583,0.1522733,-0.088865727186203,-0.0680177286267281,-0.150393575429916,-0.0169265510445065,-0.00728302204135792,0.0104783414199936,3
0.17999267578125,-0.0658470541238785,2.9341721534729,1.14182507991791,-0.0612985250199726,2.93944133760391,1.18080379722281,1349.314,1083.925,3005.585,4255.208,-0.1079784,-0.02277961,0.1557775,-0.125303074717522,-0.0754311233758926,-0.122494615614414,-0.0212433804254414,-0.00914043312572283,0.0131506644458931,3
0.20001220703125,-0.0690852105617523,2.93255376815796,1.140061378479,-0.0617708265342762,2.93923811945689,1.181096174359,1636.322,1380.934,2918.999,3666.222,-0.09982699,-0.02030074,0.1501536,-0.161907717585564,-0.0809157937765121,-0.0881838649511337,-0.0260142813927851,-0.0111932185284278,0.0161040794142088,3
0.220001220703125,-0.0730105862021446,2.93082594871521,1.13903546333313,-0.0623420644491781,2.93899233174064,1.18144979784016,1641.615,1581.027,3147.8,3112.981,-0.09584397,-0.01735422,0.1421842,-0.196268960833549,-0.0863868966698647,-0.0512971505522728,-0.03121219533433,-0.0134297356845702,0.019321835755004,3
0.239990234375,-0.077550396323204,2.92897343635559,1.13863325119019,-0.0630214373585105,2.93870001655724,1.18187036203406,1523.693,1623.991,3418.637,2777.249,-0.09476166,-0.01467828,0.1377317,-0.22699062526226,-0.0926281064748764,-0.0201082676649094,-0.0368316683029241,-0.015847637913056,0.022800557215184,3
0.260009765625,-0.0826393365859985,2.92699217796326,1.13863575458527,-0.0638185570309634,2.93835703823113,1.18236381708338,1438.463,1500.541,3533.796,2744.378,-0.09438775,-0.01258983,0.1393062,-0.254447132349014,-0.0990631654858589,0.000123552978038788,-0.0428699302682246,-0.0184457333472145,0.0265385290140116,3
0.279998779296875,-0.0882451757788658,2.9249005317688,1.13885188102722,-0.0647390625194898,2.93796097043536,1.18293365383054,1401.616,1276.545,3474.974,2977.662,-0.09320957,-0.01110485,0.1456863,-0.280291944742203,-0.104586772620678,0.0108041586354375,-0.0492963837173861,-0.0212108567320638,0.030516809833474,3
0.29998779296875,-0.0943710058927536,2.92273235321045,1.13920676708221,-0.0657918945890516,2.93750796620855,1.18358540703494,1350.46,1061.224,3345.691,3324.891,-0.09053522,-0.009935189,0.1533123,-0.306291669607162,-0.10840829461813,0.0177448354661465,-0.0561078595514081,-0.0241416444928383,0.0347334378503248,3
0.32000732421875,-0.101036429405212,2.92052555084229,1.13972508907318,-0.0669865614821475,2.93699393441958,1.18432496275165,1279.903,940.6004,3238.609,3590.951,-0.08597536,-0.008525311,0.158364,-0.333270817995071,-0.11034531891346,0.0259172562509775,-0.0633036493784043,-0.0272377918282996,0.0391879745362408,3
0.339996337890625,-0.108252018690109,2.91831183433533,1.14046132564545,-0.068326768706371,2.93641728069206,1.18515461486636,1254.037,944.9572,3169.414,3649.704,-0.07944263,-0.006290919,0.158475,-0.360779464244843,-0.110681012272835,0.036809965968132,-0.0708499516420146,-0.0304847548730522,0.0438594951176439,4
0.3599853515625,-0.116003647446632,2.91611456871033,1.14145255088806,-0.0698213312158394,2.93577421219747,1.18607982025561,1319.793,1047.091,3121.291,3497.654,-0.07154742,-0.002961968,0.1534692,-0.38758197426796,-0.109858967363834,0.049562431871891,-0.0787457139191101,-0.0338820807988248,0.0487473480944833,4
0.3800048828125,-0.12425209581852,2.91394948959351,1.14270782470703,-0.0714797725314022,2.93506063123087,1.18710647443246,1454.277,1181.089,3091.933,3231.736,-0.06360801,0.001258194,0.1450389,-0.412422508001328,-0.108258984982967,0.0627615824341774,-0.0869921272359981,-0.0374302820709642,0.0538522707687797,4
0.399993896484375,-0.132943853735924,2.91182613372803,1.14421689510345,-0.0733036822025899,2.9342758538535,1.18823556140379,1580.879,1274.452,3102.868,2981.496,-0.05701242,0.005828485,0.1357432,-0.434587806463242,-0.106165520846844,0.0754523351788521,-0.0955525119207663,-0.0411135764513579,0.0591515566763244,4
0.420013427734375,-0.142024263739586,2.90975022315979,1.14595770835876,-0.0753050585276311,2.93341471753282,1.18947450868777,1631.368,1288.453,3159.692,2844.282,-0.0524403,0.01017697,0.1278524,-0.45402055978775,-0.103800937533379,0.0870389044284821,-0.104441553474511,-0.0449382827008623,0.0646542968418633,4
0.44000244140625,-0.151446655392647,2.90772438049316,1.14789545536041,-0.077483988232608,2.93247718495301,1.19082336997196,1606.796,1238.192,3218.941,2843.417,-0.04966795,0.01397537,0.1224592,-0.471119970083237,-0.101289883255959,0.0968860685825348,-0.113620829717891,-0.048887868829098,0.0703367061060819,4
0.459991455078125,-0.161177426576614,2.9057514667511,1.14999735355377,-0.0798493430620752,2.93145943885026,1.19228763728888,1540.71,1157.944,3254.114,2937.987,-0.04789695,0.01718475,0.1193426,-0.486538708209991,-0.0986412018537521,0.105093024671078,-0.123092454730403,-0.0529632444654124,0.0762000931848968,4
0.480010986328125,-0.171194314956665,2.90383577346802,1.15223968029022,-0.0824109101018722,2.93035726811493,1.19387336931088,1472.894,1085.59,3249.247,3067.821,-0.04628521,0.01998467,0.1173879,-0.500844359397888,-0.095783494412899,0.112116314470768,-0.132860437136906,-0.0571661344090936,0.082246939608052,5
0.5,-0.181481689214706,2.90198302268982,1.15461540222168,-0.085166398670376,2.92917165836334,1.1955791479969,1434.244,1047.084,3213.681,3169.056,-0.04432512,0.02264623,0.1152247,-0.514369249343872,-0.0926421731710434,0.118785656988621,-0.142884000065179,-0.0614789935111996,0.0884520025491718,5
0.519989013671875,-0.192024946212769,2.90019845962524,1.15713453292847,-0.0881248588203387,2.92789871561062,1.19741057576073,1423.996,1044.954,3178.009,3209.755,-0.04192082,0.02537997,0.111886,-0.527163028717041,-0.0892268046736717,0.125957071781158,-0.153166947611899,-0.0659034585682559,0.0948176369253132,5
0.540008544921875,-0.202805325388908,2.89848566055298,1.15981018543243,-0.0912963635428427,2.92653410573011,1.19937388826368,1442.929,1072.658,3150.471,3186.268,-0.03929335,0.02828589,0.1070576,-0.539018929004669,-0.0856395438313484,0.133783310651779,-0.163714777034477,-0.0704418948965508,0.101347245800684,5
0.55999755859375,-0.213798612356186,2.89684510231018,1.16265261173248,-0.094676112580471,2.92507989413848,1.20146611391775,1485.923,1114.611,3136.562,3113.697,-0.03688105,0.03132953,0.101054,-0.549664735794067,-0.082031786441803,0.142119944095612,-0.17448465888317,-0.0750758741803766,0.108014315705644,5
0.579986572265625,-0.224976986646652,2.89527368545532,1.16566812992096,-0.0982734311149,2.92353206847056,1.2036930254546,1521.618,1148.877,3146.696,3033.577,-0.03512603,0.03434769,0.09464733,-0.558918356895447,-0.0785751342773438,0.150775611400604,-0.185481935470438,-0.0798076950675377,0.114822153786096,5
0.600006103515625,-0.236311703920364,2.89376521110535,1.16885197162628,-0.102098762959148,2.92188613504538,1.20606108809202,1538.074,1166.433,3164.658,2980.8,-0.03428607,0.03715974,0.08861995,-0.566736280918121,-0.0754193514585495,0.159195095300674,-0.196713446836865,-0.0846403006364086,0.121774994352997,5
0.6199951171875,-0.247776970267296,2.89231204986572,1.17219424247742,-0.106144683970236,2.92014528826426,1.20856570593183,1537.66,1167.926,3179.68,2962.998,-0.03440964,0.03963637,0.08344924,-0.573263168334961,-0.0726640373468399,0.167110666632652,-0.208134604141382,-0.0895545055543457,0.128845234789665,5
0.639984130859375,-0.259352207183838,2.89090442657471,1.17568719387054,-0.110420882305709,2.91830535958365,1.21121287640506,1507.067,1156.396,3195.863,2985.803,-0.03534601,0.04170105,0.07928928,-0.578762650489807,-0.0703770220279694,0.174646511673927,-0.219752140575416,-0.0945532069255159,0.136037043262338,5
0.660003662109375,-0.271021962165833,2.88953256607056,1.17932116985321,-0.114938248900541,2.91636166293851,1.21400934151928,1463.275,1143.651,3199.23,3033.718,-0.03678251,0.04338249,0.07591393,-0.583488285541534,-0.068594716489315,0.181699886918068,-0.231574097577923,-0.0996398647564507,0.143355397804799,5
0.67999267578125,-0.282774865627289,2.88818621635437,1.18308937549591,-0.119686638739014,2.91431856344567,1.21694882102647,1432.167,1140.115,3188.094,3074.171,-0.03843634,0.04477981,0.07287806,-0.587644338607788,-0.0673226043581963,0.188412755727768,-0.243554411173546,-0.104794659005432,0.150771782621969,5
0.70001220703125,-0.294601827859879,2.88685488700867,1.18699252605438,-0.124683985757554,2.91216834463331,1.22004241688759,1404.98,1146.354,3178.302,3100.592,-0.04016633,0.04596993,0.06985098,-0.591348826885223,-0.0665708929300308,0.195157617330551,-0.255719729227087,-0.11002905550423,0.158302694011575,5
0.720001220703125,-0.30649396777153,2.88552784919739,1.19102847576141,-0.129918284978346,2.90991617190799,1.22328269744952,1393.014,1162.915,3162.477,3108.292,-0.04194692,0.04702082,0.06662789,-0.594608902931213,-0.0663560926914215,0.201796978712082,-0.268023157655716,-0.11532287703907,0.16591910230247,5
0.739990234375,-0.318442404270172,2.88419365882874,1.19520008563995,-0.135400001298574,2.90755754251682,1.2266761409821,1391.578,1185.008,3155.317,3093.167,-0.04384895,0.047951,0.06321996,-0.597421586513519,-0.0667093023657799,0.208578363060951,-0.280473432677602,-0.12067988256057,0.173626415629864,5
0.760009765625,-0.330437541007996,2.88284039497375,1.19950568675995,-0.141140917956636,2.9050873864615,1.23023004187122,1389.055,1207.073,3150.984,3076.904,-0.04600611,0.0487296,0.05982511,-0.599756240844727,-0.0676656439900398,0.21527948975563,-0.293080296154222,-0.126104263719567,0.181430664670081,5
0.779998779296875,-0.342470288276672,2.88145518302917,1.20394206047058,-0.147126184485884,2.90251209348295,1.23393520697061,1392.073,1226.93,3147.695,3057.097,-0.04852652,0.04932215,0.05664391,-0.601638376712799,-0.0692565068602562,0.221818402409554,-0.305795832832518,-0.131575403921268,0.189302187598958,5
0.79998779296875,-0.354533314704895,2.88002490997314,1.20850884914398,-0.153366821193532,2.89982692185086,1.2377984583754,1375.087,1240.858,3154.934,3052.687,-0.05147251,0.049663,0.05393007,-0.603150546550751,-0.0715193673968315,0.228340610861778,-0.318629798715703,-0.137097500901303,0.197247023847227,5
0.82000732421875,-0.366621106863022,2.8785355091095,1.21319937705994,-0.159875221826383,2.89702653888221,1.24182746840525,1347.564,1250.31,3157.877,3065.983,-0.05475459,0.049734,0.05177456,-0.60439133644104,-0.0744691044092178,0.234526067972183,-0.331592781842754,-0.14267511039705,0.205271727915392,4
0.839996337890625,-0.378730863332748,2.8769736289978,1.21800661087036,-0.166633637018892,2.89411858163313,1.24601124935738,1330.352,1259.777,3153.286,3076.583,-0.05824599,0.0495625,0.05009465,-0.605487942695618,-0.0780961290001869,0.240360721945763,-0.344636106234817,-0.148287288494656,0.213346167053785,4
0.8599853515625,-0.390861988067627,2.87532591819763,1.22292900085449,-0.173653699721778,2.89109804476993,1.25035700258242,1300.983,1269.448,3153.036,3095.268,-0.06187429,0.04915356,0.04885345,-0.606556951999664,-0.0823915004730225,0.246120572090149,-0.357770416714212,-0.153938615363784,0.221476930914505,4
0.8800048828125,-0.403015375137329,2.87357950210571,1.22796106338501,-0.180948461186242,2.88795931270381,1.25487280742661,1272.613,1280.539,3146.896,3116.987,-0.06551536,0.04855062,0.04792821,-0.607668697834015,-0.0873267352581024,0.251601755619049,-0.371007022483504,-0.159633957038354,0.229671020432672,4
0.899993896484375,-0.41519296169281,2.87172222137451,1.2330983877182,-0.18849723509595,2.8847112861788,1.25954585807468,1264.299,1295.368,3135.732,3121.441,-0.06909944,0.04781152,0.04716576,-0.608879625797272,-0.0928665772080421,0.256866753101349,-0.384296738353309,-0.165352150505452,0.237897987633041,4
0.920013427734375,-0.427397429943085,2.86974239349365,1.23834264278412,-0.196324452211266,2.88134345332121,1.26439127833112,1247.27,1311.222,3133.672,3126.03,-0.07266435,0.04693713,0.04659922,-0.610225200653076,-0.0989940091967583,0.262212961912155,-0.397671404529394,-0.171106895716105,0.246177543119742,4
0.94000244140625,-0.439631640911102,2.8676290512085,1.24368906021118,-0.204407453948074,2.87786556348678,1.26939504145298,1235.3,1326.621,3127.08,3130.743,-0.07620423,0.04594799,0.0462332,-0.61170893907547,-0.10567120462656,0.267322927713394,-0.411081631631503,-0.176876941799768,0.254479112513653,4
0.959991455078125,-0.451899081468582,2.86537146568298,1.24913835525513,-0.212759000778906,2.87427212620069,1.27456504678061,1226.022,1340.782,3128.242,3127.642,-0.07970095,0.04484947,0.04610736,-0.613374292850494,-0.112881548702717,0.272465705871582,-0.424539267042903,-0.182667386354485,0.262810029909387,3
0.980010986328125,-0.464203804731369,2.86295986175537,1.25468647480011,-0.221393324468958,2.87055701793193,1.27991010445463,1212.185,1352.914,3126.477,3134.201,-0.08316253,0.0436369,0.04629469,-0.615235567092896,-0.120580442249775,0.277405291795731,-0.438056556301695,-0.188483498293199,0.271177875878363,3
1,-0.47655063867569,2.86038541793823,1.26032948493958,-0.230284798736574,2.86673126495361,1.28541435058594,1211.089,1363.815,3121.227,3133.991,-0.08657511,0.04232913,0.04677008,-0.617340922355652,-0.128723472356796,0.282149761915207,-0.451584000205995,-0.194303979492187,0.279552008056641,3
1.01998901367188,-0.488945573568344,2.85763955116272,1.26606953144073,-0.239446912293295,2.86278906344998,1.29108613532954,1193.516,1372.758,3125.118,3144.011,-0.08996052,0.04090863,0.04760047,-0.619748771190643,-0.137290105223656,0.287000387907028,-0.46513400752272,-0.200134169097193,0.287940108062054,3
1.04000854492188,-0.501395285129547,2.85471487045288,1.2719030380249,-0.248894644448595,2.85872396824263,1.29693473159157,1173.614,1379.677,3125.31,3161.386,-0.09322449,0.03939975,0.04874334,-0.622488141059875,-0.146228313446045,0.291675239801407,-0.47871923339115,-0.205979512261105,0.296350010028666,3
1.05999755859375,-0.513907253742218,2.85160517692566,1.27782654762268,-0.258599401509697,2.85454828239877,1.30294243851408,1173.949,1387.597,3119.578,3164.77,-0.09629351,0.03785168,0.05007355,-0.625598847866058,-0.155481234192848,0.296176880598068,-0.492290296490434,-0.211818761581115,0.30475114456651,3
1.07998657226563,-0.526489496231079,2.84830474853516,1.2838431596756,-0.268575430648764,2.85025587575821,1.30911807577533,1162.672,1395.246,3122.041,3173.344,-0.09920115,0.03626026,0.05161766,-0.629113018512726,-0.16501772403717,0.300832837820053,-0.50586005237609,-0.217657448443621,0.313151469876847,3
1.10000610351563,-0.539150059223175,2.84480929374695,1.28995096683502,-0.278838480013141,2.84583997233313,1.31547139222872,1151.504,1401.452,3121.437,3186.174,-0.1019,0.03465016,0.05333734,-0.633024513721466,-0.174776941537857,0.305388331413269,-0.519441457145546,-0.223501147495394,0.321559006401169,3
1.1199951171875,-0.551896870136261,2.84111523628235,1.29614818096161,-0.289357002179081,2.84131414609862,1.32198285851614,1159.871,1408.397,3116.439,3184.713,-0.1043725,0.03306139,0.05514235,-0.637344300746918,-0.184702008962631,0.309861809015274,-0.532985466132485,-0.229328756186667,0.329943393154705,3
1.13998413085938,-0.564738690853119,2.83721971511841,1.30243992805481,-0.300146026259498,2.83667193044725,1.3286617783744,1153.987,1414.024,3121.863,3189.776,-0.1066852,0.03147514,0.05710337,-0.64208710193634,-0.19477054476738,0.314584881067276,-0.546505271550557,-0.235145950758426,0.338312796746137,3
1.16000366210938,-0.57768326997757,2.83312129974365,1.30882513523102,-0.311222084148811,2.83190621216671,1.33551838583369,1146.425,1417.313,3124.717,3200.867,-0.1087971,0.029906,0.05921354,-0.647232472896576,-0.204925462603569,0.319263070821762,-0.560014026276883,-0.240958390526247,0.34667535943296,3
1.17999267578125,-0.590739011764526,2.82881903648376,1.31530272960663,-0.322550701230474,2.8270318247214,1.34253133946411,1158.304,1420.953,3121.968,3199.032,-0.1106874,0.02838825,0.06139184,-0.652787089347839,-0.21511098742485,0.323877364397049,-0.573463232144024,-0.246745208083563,0.355001058539242,3
1.20001220703125,-0.603914439678192,2.82431292533875,1.32187819480896,-0.334165615614823,2.82203425154496,1.34972152476313,1155.076,1422.979,3129.204,3205.103,-0.11242,0.02689928,0.0637043,-0.658769071102142,-0.225309252738953,0.328771650791168,-0.586886736182789,-0.252520966862155,0.363310846989412,3
1.22000122070313,-0.617217361927032,2.81960368156433,1.32855010032654,-0.346030421585499,2.81692915700008,1.35706640485806,1154.728,1423.807,3129.825,3215.576,-0.1139716,0.02545813,0.06611271,-0.66515040397644,-0.235458791255951,0.333597093820572,-0.600236516861372,-0.258265004538453,0.371574997167698,3
1.239990234375,-0.630656480789185,2.814692735672,1.33532309532166,-0.358161486344149,2.81170949873715,1.36457611182642,1156.12,1423.381,3137.399,3219.443,-0.1153,0.02407803,0.06857712,-0.67195737361908,-0.245542377233505,0.338652759790421,-0.613526094901141,-0.263983138701136,0.379801879044709,2
1.260009765625,-0.644239544868469,2.80958271026611,1.3421972990036,-0.37057666480527,2.80636759428526,1.37226169871082,1156.42,1422.913,3140.047,3229.169,-0.1163988,0.0227695,0.07108121,-0.67915415763855,-0.255502164363861,0.343712091445923,-0.626768731761373,-0.26968107538565,0.387999702095469,2
1.27999877929688,-0.657974243164063,2.80427694320679,1.34917294979095,-0.383236695417198,2.80092033679326,1.3800988607405,1173.29,1423.498,3137.19,3227.995,-0.1172899,0.0215615,0.07354003,-0.686731338500977,-0.265289068222046,0.348785400390625,-0.639917282339435,-0.275338529371412,0.396139281255613,2
1.29998779296875,-0.671868145465851,2.79877877235413,1.35625791549683,-0.396158759015336,2.79536033382764,1.388098233671,1173.641,1422.258,3146.7,3233.6,-0.1180441,0.02042731,0.07601204,-0.694696307182312,-0.274904042482376,0.354246437549591,-0.652985332144132,-0.280961346123326,0.404229026602261,2
1.32000732421875,-0.685928046703339,2.79309272766113,1.36345338821411,-0.409361504843077,2.78967956113998,1.39627136227237,1171.63,1419.57,3153.668,3244.236,-0.1186135,0.01937844,0.07847986,-0.702998757362366,-0.284308016300201,0.35977566242218,-0.6659860834168,-0.286555206197011,0.41227711095171,2
1.33999633789063,-0.700160443782806,2.78722357749939,1.37075936794281,-0.422802873722428,2.78389611561957,1.40459220990988,1190.522,1418.593,3152.842,3240.752,-0.1189826,0.01844896,0.08085416,-0.711616992950439,-0.293457388877869,0.365296870470047,-0.678873453515705,-0.29210028151913,0.420255006953505,2
1.3599853515625,-0.714571535587311,2.78117656707764,1.37818276882172,-0.436500861174643,2.77800225429635,1.41307191666844,1195.222,1415.831,3162.656,3243.423,-0.119226,0.01760648,0.08320565,-0.720554769039154,-0.302354604005814,0.371171981096268,-0.69166099897751,-0.297602405088682,0.428171106749628,2
1.3800048828125,-0.729166686534882,2.77495718002319,1.38572490215302,-0.450474904562636,2.77198961381608,1.4217225152016,1196.27,1411.729,3169.177,3253.106,-0.1193235,0.01685398,0.08553065,-0.729760229587555,-0.310965657234192,0.37710702419281,-0.704361775018035,-0.303067194200314,0.436033492140578,2
1.39999389648438,-0.743951022624969,2.76857209205627,1.39338600635529,-0.464680216184654,2.76587746507559,1.43051627978847,1215.318,1409.438,3168.484,3250.68,-0.1192745,0.01621928,0.08774189,-0.739214956760406,-0.319257855415344,0.383057206869125,-0.716930938559026,-0.308475354130225,0.443814403124744,2
1.42001342773438,-0.758929550647736,2.76202726364136,1.40117371082306,-0.479157861067077,2.75964813894125,1.43947863163655,1218.404,1405.139,3179.611,3254.782,-0.1191397,0.01566924,0.08990154,-0.748925507068634,-0.327246695756912,0.389384508132935,-0.729400843645231,-0.313840805920001,0.451533868397062,2
1.44000244140625,-0.774106085300446,2.75532937049866,1.40908765792847,-0.493861275572861,2.75332167044526,1.4485807456364,1224.545,1401.285,3182.9,3261.874,-0.1189043,0.01521633,0.09197861,-0.758826613426208,-0.334900408983231,0.395699799060822,-0.741727567798258,-0.319144650954242,0.459164697851088,2
1.45999145507813,-0.789484679698944,2.74848484992981,1.41713321208954,-0.508809800712713,2.74688973769103,1.45783459479497,1231.781,1396.237,3193.138,3262.197,-0.118533,0.01486269,0.09395161,-0.768927395343781,-0.342229723930359,0.402275174856186,-0.753924423002454,-0.324392617007921,0.466715132239272,2
1.48001098632813,-0.805067956447601,2.74150061607361,1.42531049251556,-0.524024159888143,2.74034342397783,1.467253007885,1238.192,1391.885,3197.479,3267.679,-0.118034,0.01460725,0.09582233,-0.779166996479034,-0.349206030368805,0.408862113952637,-0.766004036374583,-0.329590137176618,0.474192988348404,2
1.5,-0.820858299732208,2.73438453674316,1.43361961841583,-0.539455198877605,2.73370387899399,1.4768055561018,1259.495,1389.723,3194.872,3263.633,-0.1174566,0.01446511,0.0975269,-0.789521098136902,-0.355807423591614,0.41545507311821,-0.777924000354858,-0.334718964672088,0.481572013878822,1
1.51998901367188,-0.83685827255249,2.72714304924011,1.44206857681274,-0.555123050061237,2.72696244033876,1.48650470234772,1261.835,1384.7,3206.961,3266.735,-0.1168691,0.01439459,0.09914191,-0.79999965429306,-0.362069845199585,0.422450006008148,-0.789697369743256,-0.339784716610053,0.488860290373601,1
1.54000854492188,-0.853068947792053,2.71978330612183,1.45065820217133,-0.571049184024557,2.72010986981902,1.49636373793799,1260.394,1379.002,3215.857,3275.249,-0.1162118,0.01440007,0.1006647,-0.810535252094269,-0.367989093065262,0.429482996463776,-0.801336412291853,-0.344792671461508,0.496065412155667,1
1.55999755859375,-0.869490921497345,2.71231245994568,1.45938670635223,-0.587181951496087,2.71316839067337,1.50635068951315,1280.433,1376.464,3214.128,3269.783,-0.1154683,0.0145122,0.1020093,-0.821094632148743,-0.37354502081871,0.436423569917679,-0.812800388649436,-0.349725300221754,0.503162159625937,1
1.57998657226563,-0.886124730110168,2.70473718643188,1.46826004981995,-0.603542258451077,2.7061290076447,1.51647849886779,1286.223,1371.68,3224.082,3269.506,-0.1147093,0.0146899,0.1032522,-0.831689476966858,-0.378766268491745,0.443664401769638,-0.82410201904291,-0.354588076049064,0.510158407210813,0
1.60000610351563,-0.902969896793365,2.69706416130066,1.47727799415588,-0.620152298932711,2.69898217125626,1.52676090517188,1286.61,1366.372,3230.295,3277.051,-0.1139172,0.0149283,0.1044048,-0.842258989810944,-0.383649677038193,0.450898170471191,-0.835253140422976,-0.35938609205264,0.51706148254665,0
1.6199951171875,-0.92002546787262,2.68930053710938,1.48643898963928,-0.636958033083316,2.69175113334911,1.53716445517924,1304.656,1363.996,3227.767,3272.733,-0.1130949,0.0152517,0.105385,-0.852780044078827,-0.388186275959015,0.458050131797791,-0.846214826007804,-0.364102599125749,0.523847288101157,0
1.63998413085938,-0.937290847301483,2.68145227432251,1.49574911594391,-0.653981118189727,2.68442657539777,1.54770255578211,1306.38,1359.047,3238.749,3273.749,-0.1122911,0.01562074,0.1062649,-0.863269150257111,-0.392416775226593,0.465507000684738,-0.856999388527105,-0.368742895092007,0.53052344604056,0
1.66000366210938,-0.954764068126678,2.67352533340454,1.50520730018616,-0.671244443874359,2.67699864863716,1.55838937674714,1304.479,1354.003,3245.158,3280.91,-0.1114581,0.01603706,0.107047,-0.873660624027252,-0.396344095468521,0.47290763258934,-0.867618167158098,-0.373311858882592,0.53709697585572,0
1.67999267578125,-0.972442626953125,2.6655261516571,1.51481032371521,-0.688691692550512,2.66949158495151,1.56919005480539,1323.173,1352.496,3240.997,3274.602,-0.1105958,0.01652886,0.1076475,-0.883928596973419,-0.399957537651062,0.48015296459198,-0.878034183119987,-0.377793579561193,0.543544985919778,0
1.70001220703125,-0.990324556827545,2.65746021270752,1.5245635509491,-0.706372354049449,2.66188409024902,1.58013522651994,1325.712,1348.372,3250.349,3273.77,-0.1097702,0.01705202,0.1081487,-0.894094109535217,-0.403297364711761,0.48766103386879,-0.888274735793774,-0.382199803288802,0.549884375850026,0
1.72000122070313,-1.00840616226196,2.64933300018311,1.53446388244629,-0.724228658537036,2.6542010212754,1.5911891296115,1328.452,1345.501,3251.023,3278.376,-0.1089813,0.01760864,0.1085473,-0.904088139533997,-0.406363964080811,0.49501559138298,-0.898304216251578,-0.386515208538549,0.556093102023817,0
1.739990234375,-1.02668488025665,2.64114904403687,1.54451394081116,-0.74228345468553,2.64643254688532,1.60236590849663,1331.139,1341.101,3259.952,3275.912,-0.1081787,0.01819718,0.1088353,-0.913935720920563,-0.409192562103271,0.502502501010895,-0.908134108040217,-0.390744736359816,0.562178273303667,0
1.760009765625,-1.04515647888184,2.63291335105896,1.55471050739288,-0.760560719141003,2.63856835059778,1.61368040586141,1332.393,1337.848,3261.874,3279.409,-0.1073542,0.01881387,0.1090267,-0.923579275608063,-0.411779403686523,0.509826183319092,-0.91777478390713,-0.394892849856044,0.568146310914365,0
1.77999877929688,-1.0638165473938,2.62463092803955,1.5650497674942,-0.779000609654483,2.63063418086074,1.62509557650306,1349.911,1337.748,3254.879,3272.857,-0.1065531,0.01947454,0.1090574,-0.933005154132843,-0.414117962121964,0.516964316368103,-0.927192788821983,-0.398945154262308,0.57397650459845,0
1.79998779296875,-1.08266150951385,2.61630582809448,1.57553708553314,-0.797626646773287,2.62261991743975,1.63662598076079,1347.365,1334.335,3264.444,3273.08,-0.1058372,0.0201327,0.1090155,-0.942246675491333,-0.416260212659836,0.524366855621338,-0.936399026186941,-0.402906341007953,0.579675604081262,0
1.82000732421875,-1.10168647766113,2.60794138908386,1.58616971969604,-0.816463410111527,2.61451498441355,1.64828683458664,1339.135,1330.669,3270.06,3280.646,-0.1051368,0.02079142,0.108911,-0.951243817806244,-0.418222278356552,0.531629860401154,-0.94540321420156,-0.406780591562751,0.585249625391268,0
1.83999633789063,-1.12088584899902,2.59954142570496,1.59694194793701,-0.835449117627072,2.60634596486888,1.66003989195343,1354.295,1330.875,3263.832,3272.789,-0.1044257,0.02148633,0.1086526,-0.959976851940155,-0.419996738433838,0.538613319396973,-0.954174163352093,-0.410554485950274,0.590679260733698,0
1.8599853515625,-1.14025545120239,2.59110903739929,1.60785698890686,-0.854607925216182,2.59810246519841,1.67190010651166,1354.517,1328.599,3270.691,3269.712,-0.1037669,0.02217373,0.1083286,-0.968477606773376,-0.421620666980743,0.545749485492706,-0.962722140342816,-0.41423244164655,0.595970865687568,0
1.8800048828125,-1.15978944301605,2.58264708518982,1.61891090869904,-0.873964974649439,2.58977366760063,1.68388304221498,1348.113,1326.031,3273.05,3276.107,-0.1031362,0.02284878,0.1079623,-0.976695597171783,-0.42310231924057,0.552695035934448,-0.971056158224177,-0.417818336715394,0.601130019760457,0
1.89999389648438,-1.17948198318481,2.57415843009949,1.63009834289551,-0.893456683142228,2.58138692997148,1.69594933829086,1361.261,1326.773,3265.719,3269.439,-0.1025285,0.02354015,0.1074682,-0.984624564647675,-0.424438208341599,0.559373378753662,-0.979147395688901,-0.421299770153459,0.606138881190213,0
1.92001342773438,-1.19932806491852,2.56564497947693,1.64142274856567,-0.913137923350175,2.5729186421402,1.70813296352707,1356.877,1324.745,3273.428,3268.166,-0.10199,0.02420701,0.1069308,-0.992302596569061,-0.425672560930252,0.566219687461853,-0.987017247723777,-0.424685947625853,0.611010694492843,0
1.94000244140625,-1.21932148933411,2.55710887908936,1.65287780761719,-0.932943991899774,2.5643966441608,1.72039386345315,1353.746,1324.235,3270.927,3272.483,-0.1014984,0.02485807,0.1063428,-0.999668896198273,-0.426806271076202,0.572755336761475,-0.994638524886308,-0.427965170275055,0.615728628108227,0
1.95999145507813,-1.23945665359497,2.54855155944824,1.66446363925934,-0.952900013794853,2.55581012544606,1.73274759164336,1353.018,1322.468,3276.267,3267.76,-0.1009924,0.02549778,0.1056907,-1.00676393508911,-0.427868008613586,0.579292476177216,-1.00202031904361,-0.431141350077486,0.620298310335216,0
1.98001098632813,-1.25972747802734,2.53997468948364,1.67617440223694,-0.973031969359004,2.54714790738853,1.74521023115561,1350.166,1321.897,3274.139,3270.423,-0.1004741,0.02612194,0.1049954,-1.01354241371155,-0.428849428892136,0.585538506507874,-1.00917036754089,-0.434217816196637,0.624724530959079,0
2,-1.28012776374817,2.53137993812561,1.68800437450409,-0.993273599084619,2.53843849960327,1.7577407641983,1363.87,1324.199,3263.768,3262.624,-0.09999105,0.0267486,0.104192,-1.02000641822815,-0.42974117398262,0.591497719287872,-1.01606400046349,-0.437183953857422,0.628992018127441,0
2.01998901367188,-1.30065178871155,2.52276802062988,1.69995725154877,-1.01365055070775,2.52967086658596,1.77035506794184,1355.789,1323.206,3271.128,3262.275,-0.09960009,0.02733193,0.1033766,-1.0262017250061,-0.430591464042664,0.597645580768585,-1.02270954399163,-0.440043345582587,0.633105926142498,0
2.04000854492188,-1.32129323482513,2.51413989067078,1.71202802658081,-1.03418924440916,2.52083364047092,1.78306949773667,1342.058,1321.822,3274.005,3269.935,-0.0992182,0.02788011,0.1025583,-1.03207886219025,-0.431411296129227,0.603538393974304,-1.02911391720548,-0.442798968459032,0.637070538244476,0
2.05999755859375,-1.34204602241516,2.50549626350403,1.72420871257782,-1.05482201812353,2.5119559343546,1.79584216754118,1354.537,1324.108,3264.488,3260.402,-0.09880647,0.02843554,0.1016365,-1.03763091564178,-0.432184427976608,0.609035730361938,-1.03525504859546,-0.445441325732794,0.640872191117535,0
2.07998657226563,-1.36290407180786,2.4968376159668,1.73650097846985,-1.07557499515204,2.50302650811029,1.80868924892322,1351.29,1324.14,3268.49,3256.17,-0.09843576,0.02895473,0.1007071,-1.04290056228638,-0.43293833732605,0.61461067199707,-1.04114045847258,-0.4479736531836,0.644515540192423,0
2.10000610351563,-1.38386106491089,2.48816418647766,1.748899102211,-1.09647498538954,2.49403382618922,1.82162733848484,1340.383,1323.574,3267.967,3262.93,-0.09808209,0.02943441,0.09979544,-1.04784893989563,-0.43367275595665,0.619906187057495,-1.04677621342161,-0.450398561093403,0.648004340974112,0
2.1199951171875,-1.40491056442261,2.47947645187378,1.76139628887177,-1.11745308225396,2.48500753716864,1.83461377976925,1350.614,1325.868,3258.232,3255.239,-0.09772842,0.02990925,0.09880684,-1.05248260498047,-0.434376418590546,0.624858021736145,-1.0521429102862,-0.45270770082608,0.651326581984514,0
2.13998413085938,-1.42604756355286,2.47077512741089,1.77399468421936,-1.13853583516761,2.47593621757383,1.84766500813359,1342.558,1325.762,3263.672,3253.449,-0.09742109,0.03034042,0.09782988,-1.05684578418732,-0.435083448886871,0.629918396472931,-1.05724722779031,-0.454903946049977,0.654486397671922,0
2.16000366210938,-1.447265625,2.46205925941467,1.78668797016144,-1.15975039167652,2.46680818657414,1.86079782920208,1329.533,1325.312,3263.398,3260.65,-0.09709939,0.03073531,0.09687223,-1.06089568138123,-0.435790538787842,0.634662866592407,-1.0620943502576,-0.456989527434725,0.657486997379635,0
2.17999267578125,-1.46855819225311,2.45332980155945,1.79946839809418,-1.18102676265167,2.45765355853653,1.8739689163698,1341.782,1328.043,3252.493,3250.648,-0.09673826,0.03113383,0.09583151,-1.06463646888733,-0.436477929353714,0.639019131660461,-1.06666760390386,-0.458957270716794,0.660318059240953,0
2.20001220703125,-1.48992037773132,2.44458627700806,1.81233763694763,-1.20242455577657,2.44844668594002,1.88721516963236,1335.551,1328.597,3256.126,3247.544,-0.09641335,0.03149249,0.09480765,-1.06811046600342,-0.4371717274189,0.643463551998138,-1.07097916161324,-0.460812413548163,0.662987118851036,0
2.22000122070313,-1.511345744133,2.43582916259766,1.82528817653656,-1.22387315175433,2.43921795429519,1.90049287228091,1329.049,1329.769,3250.361,3251.948,-0.09611455,0.0318197,0.09379715,-1.07127249240875,-0.437860071659088,0.647528171539307,-1.07501419914593,-0.462548577472581,0.665484999299265,0
2.239990234375,-1.53282928466797,2.42705774307251,1.83831942081451,-1.24539969505118,2.42995568409656,1.91381882803312,1324.471,1329.434,3253.803,3246.874,-0.0957726,0.03212338,0.0927818,-1.07417285442352,-0.438563197851181,0.651560604572296,-1.07877792518082,-0.464168003639063,0.667814925005999,0
2.260009765625,-1.5543646812439,2.41827273368835,1.85142421722412,-1.26703177594152,2.42064800401982,1.92721011658316,1317.368,1329.999,3249.873,3249.853,-0.09537791,0.03240439,0.09178029,-1.07677495479584,-0.439261019229889,0.655241847038269,-1.08227399942825,-0.465672266718726,0.669979161506271,0
2.27999877929688,-1.57594656944275,2.40947413444519,1.86459541320801,-1.28869796983554,2.41132564607061,1.9406225227075,1329.91,1332.892,3237.362,3240.427,-0.09495927,0.03268813,0.09071548,-1.07908642292023,-0.439930111169815,0.658562898635864,-1.08549040888332,-0.467056197851165,0.67197027217779,0
2.29998779296875,-1.5975695848465,2.4006621837616,1.87783598899841,-1.31042570636616,2.40197680804417,1.95407302665558,1320.649,1333.261,3241.797,3238.932,-0.09458803,0.03293121,0.08968611,-1.08115363121033,-0.440602213144302,0.66202712059021,-1.08843144721369,-0.468321644481621,0.673790915005368,0
2.32000732421875,-1.61922824382782,2.39183664321899,1.89113986492157,-1.33224276726637,2.39258953623693,1.96757882664355,1304.689,1332.688,3241.953,3247.099,-0.09419068,0.03314243,0.0886991,-1.0829381942749,-0.441273212432861,0.665193617343903,-1.09109983431736,-0.469469776906228,0.675442773735451,0
2.33999633789063,-1.64091718196869,2.38299822807312,1.90449893474579,-1.35407709248145,2.38319483607731,1.98109531406483,1316.15,1334.832,3231.327,3236.419,-0.09371664,0.03336759,0.08764304,-1.0844429731369,-0.441918790340424,0.667951166629791,-1.09348640563071,-0.470496651869278,0.67692017506657,0
2.3599853515625,-1.66263127326965,2.37414717674255,1.91791427135468,-1.37595634130987,2.37378080654189,1.99463961134278,1310.95,1335.42,3233.723,3231.933,-0.093241,0.03356631,0.08661599,-1.08570528030396,-0.442555159330368,0.6707683801651,-1.09559452046326,-0.471403714787811,0.678225198571351,0
2.3800048828125,-1.68436515331268,2.36528348922729,1.93137967586517,-1.39790843013262,2.36433543599182,2.00822900004707,1299.007,1335.004,3231.332,3238.358,-0.09273446,0.03374018,0.08563533,-1.08669209480286,-0.44316840171814,0.673271715641022,-1.09742594550583,-0.472191725819537,0.679358937915576,0
2.39999389648438,-1.70611333847046,2.35640907287598,1.94488799571991,-1.41986083522252,2.35488992936084,2.02181858453579,1310.027,1336.697,3220.468,3228.8,-0.0921752,0.03392529,0.08459999,-1.08741390705109,-0.443737357854843,0.675416648387909,-1.09897439291323,-0.472857979480329,0.680317500623536,0
2.41998291015625,-1.72787165641785,2.34752368927002,1.95844113826752,-1.4418413890156,2.34543231112926,2.03542559441269,1301.682,1336.729,3223.854,3226.652,-0.09162659,0.03408371,0.08360192,-1.08790850639343,-0.444283843040466,0.677659392356873,-1.10024227275454,-0.473403512755585,0.681102378642803,0
2.44000244140625,-1.74963450431824,2.338627576828,1.97203302383423,-1.46387808506052,2.33595053645515,2.04906735901791,1288.267,1335.83,3222.432,3233.432,-0.09102897,0.03422453,0.08264317,-1.08814179897308,-0.444795846939087,0.679592311382294,-1.10123038958312,-0.473828671822132,0.681714070030222,0
2.45999145507813,-1.77139687538147,2.32972240447998,1.98565590381622,-1.48589810917879,2.32647593524532,2.06269880290633,1300.668,1337.251,3211.363,3222.412,-0.09034774,0.03438795,0.08161741,-1.08811891078949,-0.445247858762741,0.681142210960388,-1.10193535162022,-0.474131997292339,0.68215047511319,0
2.48001098632813,-1.79315423965454,2.32080936431885,1.99931144714355,-1.5079630509786,2.31698200721197,2.07635805297935,1294.837,1337.326,3213.647,3218.537,-0.0896633,0.03453356,0.08062211,-1.08787333965302,-0.445656031370163,0.682776987552643,-1.10235904000526,-0.474314298567936,0.682412758406602,0
2.5,-1.81490182876587,2.3118896484375,2.01299214363098,-1.52999999932945,2.30750012397766,2.08999997377396,1289.215,1337.388,3206.697,3222.312,-0.08896822,0.03467152,0.07964801,-1.08736574649811,-0.445999681949615,0.684029161930084,-1.10250000050292,-0.474374949932098,0.682500019669533,0
2.51998901367188,-1.83663463592529,2.3029637336731,2.02669763565063,-1.5520369476803,2.29801824074336,2.10364189456856,1285.87,1336.082,3209.159,3216.106,-0.08820017,0.03480982,0.07867175,-1.08664178848267,-0.446293205022812,0.685269594192505,-1.10235904000526,-0.474314298567936,0.682412758406603,0
2.54000854492188,-1.85834789276123,2.29403352737427,2.0404212474823,-1.57410188948011,2.28852431271001,2.11730114464159,1279.181,1335.476,3204.709,3218.574,-0.08735328,0.03494863,0.07771219,-1.0856671333313,-0.446512341499329,0.686181128025055,-1.10193535162022,-0.474131997292339,0.682150475113189,0
2.55999755859375,-1.8800368309021,2.28510093688965,2.05415630340576,-1.59612191359838,2.27904971150017,2.13093258853001,1292.896,1336.445,3192.545,3207.771,-0.08644728,0.03511412,0.0766888,-1.08444714546204,-0.446632087230682,0.686752676963806,-1.10123038958312,-0.473828671822132,0.681714070030222,0
2.57998657226563,-1.90169715881348,2.27616739273071,2.06790566444397,-1.61812503288753,2.26958238396605,2.14455356752391,1285.216,1335.823,3195.691,3205.296,-0.0855631,0.03526457,0.07569859,-1.0830157995224,-0.446675807237625,0.687469840049744,-1.1002439936861,-0.473404253224357,0.681103443981416,0
2.60000610351563,-1.92332410812378,2.26723456382751,2.0816638469696,-1.64013916343638,2.26011031859448,2.15818136301212,1270.873,1333.879,3194.962,3212.582,-0.08463579,0.03540836,0.07474477,-1.08134078979492,-0.446635872125626,0.687910437583923,-1.09897439291323,-0.472857979480329,0.680317500623536,0
2.6199951171875,-1.94491243362427,2.25830483436584,2.09542346000671,-1.66209156852628,2.2506648119635,2.17177094750084,1283.624,1333.849,3184.783,3200.837,-0.08361154,0.03558777,0.07371493,-1.07942509651184,-0.446489751338959,0.687978088855743,-1.09742594550583,-0.472191725819537,0.679358937915576,0
2.63998413085938,-1.96645832061768,2.24938011169434,2.10918593406677,-1.6840102224118,2.24123382753286,2.18533963838626,1279.782,1333.15,3186.442,3195.509,-0.08257131,0.03576476,0.07270459,-1.07729411125183,-0.44624987244606,0.688122987747192,-1.09559752564474,-0.471405007833448,0.678227058921845,0
2.66000366210938,-1.98795652389526,2.24046182632446,2.12294554710388,-1.70592290617745,2.23180541187802,2.19890463348308,1269.315,1331.14,3183.626,3201.028,-0.08149006,0.03594047,0.07172757,-1.07491838932037,-0.445902585983276,0.68797755241394,-1.09348640563071,-0.470496651869278,0.67692017506657,0
2.67999267578125,-2.00940299034119,2.23155331611633,2.13669562339783,-1.72775723139253,2.2224107117184,2.21242112090437,1282.111,1330.598,3173.362,3189.886,-0.08033904,0.03614889,0.07068243,-1.07230627536774,-0.445429921150208,0.687507033348083,-1.09109983431736,-0.469469776906228,0.675442773735451,0
2.70001220703125,-2.03079271316528,2.22265625,2.1504385471344,-1.74957429229274,2.21302343991116,2.22592692089233,1275.494,1329.317,3175.922,3186.727,-0.07919335,0.03635231,0.06966192,-1.06948304176331,-0.444849818944931,0.687147617340088,-1.08843144721369,-0.468321644481621,0.673790915005369,0
2.72000122070313,-2.05212068557739,2.21377325057983,2.16416692733765,-1.77130202882336,2.20367460188472,2.23937742484041,1270.46,1327.715,3169.598,3189.689,-0.07802583,0.03656343,0.06864629,-1.06641411781311,-0.444146513938904,0.686423420906067,-1.08549040888332,-0.467056197851165,0.671970272177789,0
2.739990234375,-2.07338333129883,2.20490670204163,2.17788052558899,-1.79296822271738,2.1943522439355,2.25278983096475,1269.539,1325.272,3171.251,3181.826,-0.07677627,0.03679121,0.06760867,-1.06313490867615,-0.443331599235535,0.685681462287903,-1.08227399942825,-0.465672266718727,0.669979161506271,0
2.760009765625,-2.09457564353943,2.19605875015259,2.19157314300537,-1.81460030360772,2.18504456385877,2.26618111951479,1265.027,1323.539,3165.982,3183.069,-0.07545428,0.03703267,0.06657068,-1.0596137046814,-0.442383527755737,0.684626877307892,-1.07877792518082,-0.464168003639063,0.667814925005998,0
2.77999877929688,-2.11569309234619,2.18723320960999,2.20523858070374,-1.83612684690458,2.17578229366013,2.27950707526701,1279.758,1322.842,3154.549,3171.172,-0.07408168,0.03730925,0.06545707,-1.05585503578186,-0.441284656524658,0.68327534198761,-1.07501419914593,-0.462548577472581,0.665484999299265,0
2.79998779296875,-2.13673067092896,2.17843198776245,2.21888017654419,-1.85757544288233,2.1665535620153,2.29278477791556,1272.626,1321.272,3157.176,3168.479,-0.07274584,0.03758054,0.06436513,-1.05188238620758,-0.440057545900345,0.682076156139374,-1.07097916161324,-0.460812413548163,0.662987118851036,0
2.82000732421875,-2.1576840877533,2.16965770721436,2.23249268531799,-1.87897323600723,2.1573466894188,2.30603103117811,1259.545,1318.216,3156.313,3174.635,-0.07137804,0.03785458,0.06329354,-1.0476701259613,-0.438700646162033,0.68062037229538,-1.06666760390385,-0.458957270716794,0.660318059240952,0
2.83999633789063,-2.17854833602905,2.16091394424438,2.24606895446777,-1.90024960698239,2.14819206138118,2.31920211834584,1272.919,1316.628,3146.857,3161.938,-0.06992076,0.03817011,0.0621351,-1.04322052001953,-0.437198907136917,0.678815841674805,-1.06209435025759,-0.456989527434725,0.657486997379635,0
2.8599853515625,-2.19931936264038,2.15220260620117,2.25961065292358,-1.92143189875059,2.13907791299805,2.33231496600284,1270.466,1315.121,3147.697,3155.66,-0.06845975,0.03848983,0.06098342,-1.03854954242706,-0.435563206672668,0.677083432674408,-1.05725481901126,-0.454907212340279,0.654491096999312,0
2.8800048828125,-2.2199923992157,2.14352679252625,2.27311229705811,-1.94254691640495,2.12999271078668,2.34538616777867,1261.358,1312.175,3144.576,3159.976,-0.06697477,0.03881304,0.05985318,-1.03363454341888,-0.433786630630493,0.675081312656403,-1.0521429102862,-0.45270770082608,0.651326581984514,0
2.89999389648438,-2.24056196212769,2.13488960266113,2.28656792640686,-1.96352501326936,2.1209664217661,2.35837260906308,1274.086,1310.221,3134.892,3148.564,-0.06543706,0.03916984,0.05864847,-1.02848339080811,-0.431858599185944,0.672776639461517,-1.04677621342161,-0.450398561093403,0.648004340974112,0
2.91998291015625,-2.2610239982605,2.12629365921021,2.29997968673706,-1.98439323028747,2.1119874109737,2.37129102948832,1268.639,1308.343,3136.755,3144.313,-0.06392013,0.03952501,0.05745653,-1.02311372756958,-0.429796576499939,0.670583248138428,-1.0411492471255,-0.447977434695422,0.644520980787238,0
2.94000244140625,-2.28137397766113,2.11774182319641,2.31334209442139,-2.00517798053537,2.10304431360073,2.38415778000673,1257.75,1305.12,3134.351,3149.385,-0.06237496,0.03988378,0.05627873,-1.01750385761261,-0.427597641944885,0.668116092681885,-1.03525504859546,-0.445441325732794,0.640872191117535,0
2.95999145507813,-2.30160713195801,2.10923671722412,2.3266487121582,-2.02581075424974,2.0941666074844,2.39693044981124,1271.559,1303.064,3124.591,3136.556,-0.06075896,0.04028001,0.05501243,-1.01165902614594,-0.425250709056854,0.665326774120331,-1.02911391720548,-0.442798968459032,0.637070538244476,0
2.98001098632813,-2.32171893119812,2.10078144073486,2.33990144729614,-2.04634944795115,2.08532938136936,2.40964487960608,1268.139,1301.45,3125.48,3130.716,-0.05915999,0.04067655,0.05375148,-1.00559198856354,-0.422769337892532,0.662633717060089,-1.02270954399162,-0.440043345582586,0.633105926142498,0
3,-2.34170460700989,2.09237837791443,2.35309338569641,-2.06672639957428,2.07656174835205,2.42225918334961,1264.104,1298.921,3118.715,3132.733,-0.05757222,0.0410791,0.05248953,-0.999279379844666,-0.420147567987442,0.659601747989655,-1.01606400046349,-0.437183953857422,0.628992018127441,0
3.01998901367188,-2.36155986785889,2.08403015136719,2.36622476577759,-2.0869680292999,2.06785234056679,2.43478971639231,1263.664,1295.792,3119.913,3124.17,-0.05593916,0.04149401,0.05120073,-0.992750287055969,-0.417400449514389,0.656572043895721,-1.00917036754089,-0.434217816196637,0.624724530959079,0
3.04000854492188,-2.3812792301178,2.07574009895325,2.37928986549377,-2.10709998486405,2.05919012250926,2.44725235590455,1258.511,1293.297,3114.954,3125.059,-0.05426776,0.04191715,0.04990932,-0.985982120037079,-0.414518266916275,0.653257191181183,-1.00202031904361,-0.431141350077486,0.620298310335216,0
3.05999755859375,-2.40085911750793,2.06751012802124,2.39228296279907,-2.12705600675913,2.05060360379452,2.45960608409476,1272.535,1291.297,3104.451,3112.629,-0.05256068,0.042369,0.04854101,-0.978979349136353,-0.411491960287094,0.649655163288116,-0.994638524886308,-0.427965170275055,0.615728628108227,0
3.07998657226563,-2.42029428482056,2.05934357643127,2.40520668029785,-2.14686207530873,2.04208160581513,2.47186698402085,1267.017,1289.596,3105.804,3108.188,-0.05090579,0.04281254,0.04718814,-0.971755981445313,-0.408339649438858,0.646185874938965,-0.987017247723776,-0.424685947625853,0.611010694492843,0
3.10000610351563,-2.43957996368408,2.05124235153198,2.41805601119995,-2.16654331551667,2.03361331798384,2.48405060925705,1254.76,1286.302,3103.591,3113.801,-0.04925144,0.04325287,0.04585385,-0.964298248291016,-0.405065953731537,0.642460823059082,-0.979147395688901,-0.421299770153459,0.606138881190213,0
3.1199951171875,-2.45871233940125,2.04320907592773,2.43082451820374,-2.18603502400946,2.02522658035469,2.49611690533293,1267.56,1283.768,3094.955,3100.495,-0.04753423,0.04372302,0.04443504,-0.956614136695862,-0.401666581630707,0.638429939746857,-0.971056158224178,-0.417818336715394,0.601130019760458,0
3.13998413085938,-2.47768688201904,2.03524613380432,2.44351387023926,-2.20536269329809,2.01691042421237,2.50808165332716,1264.549,1282.341,3094.993,3094.075,-0.04583992,0.04418957,0.04302453,-0.948709905147552,-0.398151010274887,0.63446569442749,-0.962735018414262,-0.414237982720922,0.59597883782726,0
3.16000366210938,-2.49649810791016,2.02735567092896,2.4561185836792,-2.22455088103183,2.00865428308644,2.51996005559448,1255.669,1279.285,3091.165,3097.667,-0.04414615,0.04465207,0.04163301,-0.940574467182159,-0.394519865512848,0.630233883857727,-0.954174163352092,-0.410554485950274,0.590679260733698,0
3.17999267578125,-2.51514267921448,2.01954007148743,2.46863317489624,-2.24353658854737,2.00048526354177,2.53171311296128,1268.139,1276.73,3082.248,3085.079,-0.04241617,0.04513666,0.04017114,-0.932218074798584,-0.390770435333252,0.6257284283638,-0.945403214201559,-0.406780591562751,0.585249625391267,0
3.20001220703125,-2.53361558914185,2.01180195808411,2.48105955123901,-2.26237335188561,1.99238033051557,2.54337396678712,1262.876,1275.267,3082.682,3080.408,-0.04073092,0.04561049,0.03872785,-0.923648834228516,-0.386915147304535,0.621313691139221,-0.93639902618694,-0.402906341007952,0.579675604081262,0
3.22000122070313,-2.55191278457642,2.00414276123047,2.4933910369873,-2.28099938900442,1.98436606709459,2.55490437104486,1257.864,1272.534,3076.186,3082.376,-0.03906697,0.0460819,0.03728792,-0.914857029914856,-0.382955491542816,0.616571843624115,-0.927192788821982,-0.398945154262308,0.573976504598449,0
3.239990234375,-2.57002997398376,1.99656462669373,2.50562739372253,-2.2994392795179,1.97643189735754,2.5663195416865,1258.075,1269.769,3076.36,3072.972,-0.03736628,0.0465585,0.03582175,-0.90586531162262,-0.378903448581696,0.611819386482239,-0.917774783907129,-0.394892849856044,0.568146310914365,0
3.260009765625,-2.58796310424805,1.98906970024109,2.51776337623596,-2.31771654397337,1.96856770107001,2.57763403905129,1253.351,1267.677,3070.719,3073.072,-0.03564588,0.0470349,0.03435777,-0.896658957004547,-0.374753177165985,0.606796264648438,-0.908134108040216,-0.390744736359816,0.562178273303667,0
3.27999877929688,-2.60570788383484,1.98165965080261,2.52979373931885,-2.33577134012187,1.96079922667992,2.58881081793642,1265.955,1265.518,3061.122,3060.668,-0.03390524,0.04752747,0.0328314,-0.88724422454834,-0.370500773191452,0.601519405841827,-0.898304216251578,-0.386515208538549,0.556093102023818,0
3.29998779296875,-2.6232602596283,1.97433662414551,2.54172086715698,-2.35362764460945,1.95311615770631,2.59986472102797,1260.504,1264.384,3061.212,3056.177,-0.03223064,0.04800441,0.03132952,-0.877628266811371,-0.366158872842789,0.596350967884064,-0.888274735793772,-0.382199803288803,0.549884375850026,0
3.32000732421875,-2.64061665534973,1.96710181236267,2.55353975296021,-2.37130830610839,1.94550866300381,2.61080989274252,1248.768,1261.533,3058.382,3061.019,-0.03057522,0.0484696,0.02985426,-0.867810070514679,-0.361735820770264,0.590946912765503,-0.878034183119985,-0.377793579561194,0.543544985919778,0
3.33999633789063,-2.65777254104614,1.95995700359344,2.56524515151978,-2.38875555478454,1.93800159931817,2.62161057080077,1259.521,1258.937,3050.744,3048.387,-0.02887346,0.04895142,0.02831333,-0.857800662517548,-0.357232064008713,0.585275948047638,-0.867618167158097,-0.373311858882592,0.53709697585572,0
3.3599853515625,-2.67472505569458,1.95290398597717,2.57683825492859,-2.40599272667425,1.93058492580486,2.63228120132087,1256.398,1258.074,3049.733,3042.068,-0.02720366,0.04942221,0.02679042,-0.847600936889648,-0.352652668952942,0.57965087890625,-0.857015715678588,-0.368749920209162,0.530533553325099,0
3.3800048828125,-2.6914689540863,1.94594407081604,2.58831381797791,-2.42304196557559,1.92324911460621,2.64283549236868,1248.16,1255.507,3045.286,3044.92,-0.02554717,0.04988171,0.02529418,-0.837210357189178,-0.348000824451447,0.573777079582214,-0.846214826007803,-0.364102599125748,0.523847288101157,0
3.39999389648438,-2.70800161361694,1.93907833099365,2.59966731071472,-2.43984769972619,1.91601807669906,2.65323904237604,1259.092,1253.029,3037.242,3032.727,-0.02386725,0.05035182,0.02374581,-0.826640665531158,-0.343276858329773,0.56767076253891,-0.835253140422974,-0.35938609205264,0.51706148254665,0
3.41998291015625,-2.72431969642639,1.93230867385864,2.61090016365051,-2.45643259034873,1.90888206159239,2.66350587971929,1253.699,1252.247,3036.671,3028.283,-0.02224166,0.05080456,0.02222825,-0.815894722938538,-0.338488161563873,0.561642110347748,-0.824119146742881,-0.354595445619869,0.510169010073001,0
3.44000244140625,-2.74041891098022,1.92563581466675,2.6220076084137,-2.47281804716281,1.90183185728196,2.67364925803476,1243.683,1249.685,3032.879,3032.191,-0.02063151,0.05124419,0.02073943,-0.804976463317871,-0.333641022443771,0.555375516414642,-0.812800388649434,-0.349725300221754,0.503162159625937,0
3.45999145507813,-2.75629687309265,1.91906094551086,2.63298511505127,-2.48895081463434,1.8948903781363,2.68363620960993,1254.365,1247.264,3025.303,3019.653,-0.01898354,0.0516948,0.01919543,-0.793897271156311,-0.328735858201981,0.548876464366913,-0.80133641229185,-0.344792671461508,0.496065412155666,0
3.48001098632813,-2.77195000648499,1.91258549690247,2.64383387565613,-2.50487694859767,1.88803780761656,2.69349524520019,1250.345,1246.798,3023.928,3014.395,-0.01737979,0.05213002,0.01767885,-0.782656013965607,-0.323776096105576,0.542434692382813,-0.789697369743255,-0.339784716610052,0.488860290373601,0
3.5,-2.78737545013428,1.90621018409729,2.65454816818237,-2.5205447997813,1.88129636896134,2.70319439144611,1246.219,1244.581,3017.365,3015.286,-0.01580852,0.05255425,0.01618078,-0.771256744861603,-0.318766117095947,0.535717010498047,-0.777924000354857,-0.334718964672089,0.481572013878822,0
3.51998901367188,-2.80256938934326,1.89993607997894,2.66512823104858,-2.53597583877076,1.87465682397749,2.71274693966292,1246.22,1242.593,3016.565,3006.611,-0.01422661,0.0529734,0.01467812,-0.759715139865875,-0.313713580369949,0.529005110263824,-0.766004036374581,-0.329590137176618,0.474192988348404,0
3.54000854492188,-2.81752991676331,1.89376378059387,2.67556977272034,-2.55119019794619,1.86811051026429,2.72216535275294,1240.698,1241.094,3011.249,3007.017,-0.01265055,0.05338208,0.0131979,-0.748028874397278,-0.308617413043976,0.522079825401306,-0.753924423002452,-0.324392617007921,0.466715132239272,0
3.55999755859375,-2.83225393295288,1.88769435882568,2.68586897850037,-2.56613872308604,1.86167857751006,2.73141920191151,1250.055,1239.004,3003.665,2996.066,-0.0110633,0.05379487,0.01168417,-0.736206769943237,-0.30347752571106,0.514960527420044,-0.741727567798258,-0.319144650954242,0.459164697851087,0
3.57998657226563,-2.84673881530762,1.88172841072083,2.69602727890015,-2.58084213759183,1.85535210901407,2.74052131591136,1245.248,1238.559,3002.346,2991.92,-0.009535715,0.05418879,0.01020773,-0.724249839782715,-0.298298299312592,0.507913589477539,-0.72940084364523,-0.31384080592,0.451533868397061,0
3.60000610351563,-2.8609824180603,1.87586641311646,2.70604085922241,-2.59531978247425,1.84912278287974,2.74948366775945,1236.028,1236.444,2998.775,2995.054,-0.008034757,0.05456692,0.008767634,-0.712168335914612,-0.293087273836136,0.500676572322845,-0.716930938559024,-0.308475354130224,0.443814403124743,0
3.6199951171875,-2.87498188018799,1.87010931968689,2.7159059047699,-2.60952509409627,1.84301063413925,2.75827743234631,1244.239,1234.184,2992.419,2984.191,-0.006507168,0.05495,0.007293128,-0.699974000453949,-0.287846505641937,0.493250787258148,-0.704361775018033,-0.303067194200314,0.436033492140578,0
3.63998413085938,-2.88873481750488,1.86445832252502,2.72562313079834,-2.623478029369,1.83700707589127,2.76691496395061,1240.815,1233.928,2990.51,2979.185,-0.005020059,0.05531703,0.005852076,-0.687664389610291,-0.282576650381088,0.485867023468018,-0.691680442442073,-0.297610771068296,0.428183143180413,0
3.66000366210938,-2.90223979949951,1.85891246795654,2.73518896102905,-2.63719712493647,1.83110413233575,2.77540773763803,1234.052,1231.99,2986.033,2981.027,-0.003555853,0.05567055,0.004446109,-0.67524915933609,-0.277282297611237,0.478292375802994,-0.678873453515702,-0.29210028151913,0.420255006953505,0
3.67999267578125,-2.91549491882324,1.85347318649292,2.74460029602051,-2.65063849381582,1.82532068681534,2.78372858527554,1242.146,1229.893,2979.99,2970.344,-0.002079396,0.05602525,0.003016723,-0.662739217281342,-0.271965384483337,0.470570951700211,-0.665986083416798,-0.286555206197011,0.41227711095171,0
3.70001220703125,-2.9284975528717,1.84814023971558,2.7538583278656,-2.66384123964357,1.81963991412768,2.79190171387692,1237.119,1229.664,2978.219,2967.133,-0.0006572682,0.05636153,0.001631131,-0.650133371353149,-0.266627192497253,0.462900042533875,-0.65298533214413,-0.280961346123326,0.404229026602262,0
3.72000122070313,-2.941246509552,1.84291505813599,2.76295876502991,-2.6767633032417,1.81407991116207,2.79990108680742,1233.62,1227.645,2972.797,2967.18,0.0007367038,0.05668592,0.0002721637,-0.637444615364075,-0.261273801326752,0.455022275447845,-0.639917282339434,-0.275338529371411,0.396139281255611,0
3.739990234375,-2.95374011993408,1.83779716491699,2.77190184593201,-2.68942333385363,1.80863265367006,2.80773824883709,1233.742,1226.169,2971.184,2959.824,0.002132512,0.05700301,-0.00107858,-0.624682307243347,-0.255908578634262,0.447151601314545,-0.62676873176137,-0.26968107538565,0.387999702095468,0
3.760009765625,-2.96597719192505,1.83278632164001,2.78068447113037,-2.70183851231475,1.80329074921818,2.81542383572149,1229.581,1225.057,2966.334,2959.419,0.003513805,0.05730915,-0.002399508,-0.611849784851074,-0.250531435012817,0.439133822917938,-0.613526094901139,-0.263983138701136,0.379801879044709,0
3.77999877929688,-2.97795629501343,1.82788336277008,2.78930425643921,-2.7139695770734,1.79807109095524,2.82293354268985,1236.536,1223.255,2960.33,2950.321,0.004894462,0.05761373,-0.003730556,-0.598955154418945,-0.2451431453228,0.430990099906921,-0.60023651686137,-0.258265004538452,0.371574997167698,0
3.79998779296875,-2.98967599868774,1.82308852672577,2.79776239395142,-2.72583438304408,1.79296599641037,2.83027842278479,1232.638,1223.014,2958.442,2946.885,0.006216764,0.05790089,-0.005017396,-0.585998058319092,-0.239744961261749,0.422908931970596,-0.586886736182787,-0.252520966862155,0.36331084698941,0
3.82000732421875,-3.001136302948,1.81840181350708,2.80605626106262,-2.73744929742843,1.78796842323393,2.8374686080838,1225.87,1221.304,2954.968,2948.705,0.007505692,0.05817367,-0.006263222,-0.572993040084839,-0.234343647956848,0.414698451757431,-0.573463232144022,-0.246745208083563,0.355001058539243,0
3.83999633789063,-3.0123348236084,1.81382274627686,2.81418371200562,-2.74877791451009,1.78309403578861,2.84448156171422,1231.789,1219.385,2950.016,2940.008,0.008801319,0.05844545,-0.007519169,-0.559950828552246,-0.228942081332207,0.406376779079437,-0.560014026276881,-0.240958390526246,0.346675359432959,0
3.8599853515625,-3.02327251434326,1.80935204029083,2.82214593887329,-2.75983729406747,1.77833549372837,2.85132784449154,1228.903,1219.274,2948.063,2935.849,0.01005269,0.05870236,-0.008733571,-0.546869218349457,-0.223539680242538,0.398106306791306,-0.546525890176286,-0.235154822377061,0.338325560657667,0
3.8800048828125,-3.03394746780396,1.80498933792114,2.8299400806427,-2.77064299647982,1.77368610185671,2.85801708903178,1223.528,1217.682,2944.195,2937.111,0.01127401,0.05894604,-0.009905894,-0.533761441707611,-0.218141287565231,0.389708936214447,-0.532985466132484,-0.229328756186666,0.329943393154704,0
3.89999389648438,-3.04436039924622,1.8007345199585,2.83756446838379,-2.78116151864576,1.76916027562219,2.86452855531919,1230.09,1215.822,2939.315,2928.292,0.01249471,0.05918756,-0.01108248,-0.520637273788452,-0.212749093770981,0.381224930286407,-0.519441457145543,-0.223501147495394,0.321559006401168,0
3.91998291015625,-3.05451011657715,1.79658710956573,2.84502053260803,-2.79140913007042,1.76475101471128,2.87087231495249,1226.54,1215.762,2937.33,2925.383,0.01365815,0.05941265,-0.01221059,-0.507494986057281,-0.207362547516823,0.372806310653687,-0.505880764601328,-0.217666360335509,0.313164291730931,0
