t,x_s1,x_s2,x_s3,x_s_d1,x_s_d2,x_s_d3,propellers_rpms1,propellers_rpms2,propellers_rpms3,propellers_rpms4,rollRad,pitchRad,yawRad,v_s1,v_s2,v_s3,v_s_d1,v_s_d2,v_s_d3,insideCount
0,-0.0599999986588955,2.94000005722046,1.17999994754791,-0.0599999986588955,2.94000005722046,1.17999994754791,0,0,0,0,0,0,0,0,0,0,-1.06581410364015E-15,4.44089209850063E-16,4.44089209850063E-16,0
0.019989013671875,-0.0599999986588955,2.94000005722046,1.17811644077301,-0.0600018659130177,2.93999925379318,1.18000110346716,0,0,0,0,-0.01635288,0.0001297794,-0.01587137,-1.10653664009419E-09,-7.76775763711157E-08,-0.0941759571433067,-0.000279680311988734,-0.000120338624884473,0.000173135436141649,5
0.03997802734375,-0.0599999986588955,2.94000005722046,1.17242503166199,-0.060014847005691,2.93999366839165,1.1800091393819,0,0,0,0,-0.03270202,0.0005238493,-0.03175127,-1.08383135799528E-09,-7.60859677484405E-08,-0.284568399190903,-0.00110975851463131,-0.000477498085781228,0.000686993385685745,5
0.05999755859375,-0.0599058829247952,2.93990302085876,1.16596508026123,-0.0600498857373401,2.93997859220429,1.18003083002592,1868.072,3252.779,3183.935,1722.446,-0.04942134,0.0003294809,-0.01369504,0.00470571499317884,-0.00484924810007215,-0.322995662689209,-0.00247936261166862,-0.00106680046642749,0.00153484356504269,5
0.079986572265625,-0.059820368885994,2.93960738182068,1.16000294685364,-0.0601174907153006,2.93994950367094,1.18007268072775,1925.918,2314.482,3251.728,2829.28,-0.07543351,-0.002135855,0.02094678,0.00427568424493074,-0.0147781055420637,-0.298104643821716,-0.00437104534358026,-0.00188073869847162,0.00270588528944111,5
0.0999755859375,-0.0599374547600746,2.93904495239258,1.15498650074005,-0.0602280337026576,2.93990194011169,1.18014111210282,979.7985,1498.691,3915.455,3896.663,-0.1031986,-0.008062987,0.06330869,-0.00585421733558178,-0.0281175076961517,-0.250819474458694,-0.00677334142420609,-0.00291437958958193,0.00419302100058057,4
0.1199951171875,-0.0604638606309891,2.93818354606628,1.15081322193146,-0.0603918861403606,2.93983143898525,1.18024254456713,346.0985,980.2968,4173.12,4613.439,-0.1214322,-0.01542183,0.1040046,-0.0263202358037233,-0.0430699847638607,-0.20866596698761,-0.00967801353495435,-0.00416417885169243,0.00599115140585487,4
0.139984130859375,-0.061563603579998,2.93704128265381,1.14728260040283,-0.0606183773949454,2.93973398612584,1.18038275344299,353.3564,747.382,3974.569,4854.985,-0.1254019,-0.0211668,0.1351072,-0.0549871101975441,-0.0571137107908726,-0.176532119512558,-0.0130632593357409,-0.00562075554695178,0.00808677981816243,4
0.15997314453125,-0.0633408799767494,2.93568086624146,1.14427471160889,-0.0609172730813211,2.93960537966217,1.18056778411123,820.7548,814.631,3463.234,4692.448,-0.118459,-0.02352423,0.1522708,-0.0888639092445374,-0.0680151954293251,-0.150393977761269,-0.0169203082141145,-0.00728033592584475,0.0104744768105937,3
0.17999267578125,-0.0658469572663307,2.9341721534729,1.1418251991272,-0.0612985250199726,2.93944133760391,1.18080379722281,1348.395,1083.174,3007.15,4255.266,-0.1079752,-0.02278068,0.1557795,-0.125304073095322,-0.0754317045211792,-0.122475892305374,-0.0212433804254414,-0.00914043312572283,0.0131506644458931,3
0.199981689453125,-0.069084994494915,2.93255376815796,1.14006114006042,-0.0617700327574899,2.93923846099686,1.18109568297336,1637.074,1381.759,2917.251,3666.304,-0.0998238,-0.02030021,0.150154,-0.161901831626892,-0.0809138864278793,-0.0882059186697006,-0.0260066742439309,-0.011189945384795,0.0160993702266893,3
0.220001220703125,-0.0730103477835655,2.93082618713379,1.13903534412384,-0.0623420644491781,2.93899233174064,1.18144979784016,1641.26,1580.447,3148.792,3112.982,-0.09583811,-0.01735422,0.1421851,-0.196267813444138,-0.0863847136497498,-0.0512904152274132,-0.03121219533433,-0.0134297356845702,0.019321835755004,3
0.239990234375,-0.0775500535964966,2.92897367477417,1.13863277435303,-0.0630214373585105,2.93870001655724,1.18187036203406,1524.318,1624.529,3417.295,2777.407,-0.0947606,-0.01467668,0.1377284,-0.226985350251198,-0.0926231741905212,-0.0201278980821371,-0.0368316683029241,-0.015847637913056,0.022800557215184,3
0.259979248046875,-0.0826389640569687,2.92699241638184,1.1386353969574,-0.0638172488896441,2.93835760108779,1.18236300728159,1438.531,1500.598,3534.165,2743.996,-0.09439468,-0.01258823,0.1392999,-0.254445642232895,-0.0990587696433067,0.000131908804178238,-0.0428604193878216,-0.0184416410810803,0.0265326413259761,3
0.279998779296875,-0.0882448256015778,2.92490077018738,1.1388521194458,-0.0647390625194898,2.93796097043536,1.18293365383054,1399.937,1275.611,3477.277,2977.867,-0.09320691,-0.01110645,0.1456877,-0.280293017625809,-0.104587256908417,0.0108364168554544,-0.0492963837173861,-0.0212108567320638,0.030516809833474,3
0.29998779296875,-0.0943704694509506,2.92273259162903,1.13920629024506,-0.0657918945890516,2.93750796620855,1.18358540703494,1351.756,1062.207,3343.323,3324.824,-0.09052937,-0.009933591,0.1533117,-0.306282460689545,-0.108406588435173,0.0177114922553301,-0.0561078595514081,-0.0241416444928383,0.0347334378503248,3
0.319976806640625,-0.101035766303539,2.92052578926086,1.13972437381744,-0.0669846297797139,2.93699476557717,1.18432376693582,1280.87,940.8392,3238.037,3590.505,-0.08597963,-0.008523181,0.1583601,-0.333264946937561,-0.110340714454651,0.0259050168097019,-0.0632924014512957,-0.0272329521594955,0.0391810115335476,3
0.339996337890625,-0.108251377940178,2.91831231117249,1.14046120643616,-0.068326768706371,2.93641728069206,1.18515461486636,1251.973,943.5586,3172.264,3650.31,-0.07944209,-0.00629305,0.1584799,-0.360780656337738,-0.11067970097065,0.0368427038192749,-0.0708499516420146,-0.0304847548730522,0.0438594951176439,4
0.3599853515625,-0.116002842783928,2.91611528396606,1.14145183563232,-0.0698213312158394,2.93577421219747,1.18607982025561,1320.658,1048.004,3118.991,3498.011,-0.07154316,-0.002961435,0.1534702,-0.387573271989822,-0.109856583178043,0.0495298393070698,-0.0787457139191101,-0.0338820807988248,0.0487473480944833,4
0.379974365234375,-0.124251201748848,2.91395020484924,1.14270687103271,-0.0714771179380247,2.93506177342824,1.1871048311127,1455.508,1181.575,3091.326,3230.808,-0.0636128,0.001260601,0.1450325,-0.412417829036713,-0.108253955841064,0.0627546161413193,-0.0869793044824472,-0.0374247647983375,0.0538443328734993,4
0.399993896484375,-0.132942974567413,2.91182684898376,1.14421677589417,-0.0733036822025899,2.9342758538535,1.18823556140379,1578.363,1273.09,3105.992,2982.216,-0.05701135,0.00582625,0.1357465,-0.434589385986328,-0.106164067983627,0.0754926279187202,-0.0955525119207663,-0.0411135764513579,0.0591515566763244,4
0.41998291015625,-0.142023205757141,2.90975093841553,1.14595675468445,-0.075301871434707,2.93341608884986,1.18947253572543,1632.655,1289.357,3157.135,2844.45,-0.05243338,0.01017866,0.1278506,-0.454011827707291,-0.10379933565855,0.0869996845722198,-0.104427768518458,-0.0449323514193797,0.064645763297398,4
0.44000244140625,-0.151445552706718,2.9077250957489,1.14789474010468,-0.077483988232608,2.93247718495301,1.19082336997196,1607.024,1237.953,3220.071,2842.433,-0.0496573,0.01397719,0.1224561,-0.471117377281189,-0.101286396384239,0.0969012901186943,-0.113620829717891,-0.048887868829098,0.0703367061060819,4
0.459991455078125,-0.161176115274429,2.90575242042542,1.1499959230423,-0.0798493430620752,2.93145943885026,1.19228763728888,1541.417,1158.329,3252.295,2938.688,-0.04789589,0.01718679,0.1193376,-0.486528635025024,-0.0986354649066925,0.105058133602142,-0.123092454730403,-0.0529632444654124,0.0762000931848968,4
0.47998046875,-0.171192899346352,2.90383696556091,1.15223848819733,-0.082406855753501,2.93035901258777,1.1938708594761,1473.532,1085.893,3249.582,3066.753,-0.04629906,0.01998627,0.1173792,-0.500839054584503,-0.0957769453525543,0.112128987908363,-0.132845337826091,-0.057159637597476,0.0822375924153778,5
0.5,-0.181480273604393,2.90198421478271,1.15461528301239,-0.085166398670376,2.92917165836334,1.1955791479969,1430.178,1045.701,3217.397,3170.631,-0.04433098,0.02264142,0.1152334,-0.514368832111359,-0.092641569674015,0.118841700255871,-0.142884000065179,-0.0614789935111996,0.0884520025491718,5
0.519989013671875,-0.192023307085037,2.90019965171814,1.15713322162628,-0.0881248588203387,2.92789871561062,1.19741057576073,1426.149,1045.822,3174.659,3209.777,-0.0419107,0.02538158,0.1118863,-0.527151525020599,-0.0892272964119911,0.125898092985153,-0.153166947611899,-0.0659034585682559,0.0948176369253132,5
0.53997802734375,-0.202803552150726,2.89848685264587,1.15980851650238,-0.0912913676125048,2.92653625533937,1.19937079554481,1446.132,1073.341,3149.452,3183.735,-0.03929335,0.02829074,0.1070475,-0.539011478424072,-0.0856353864073753,0.133767664432526,-0.16369851368286,-0.0704348972306956,0.101337178011302,5
0.55999755859375,-0.213796809315681,2.89684629440308,1.16265201568604,-0.094676112580471,2.92507989413848,1.20146611391775,1481.234,1113.141,3140.363,3116.071,-0.03688638,0.03132483,0.1010658,-0.549663126468658,-0.0820296332240105,0.142173632979393,-0.17448465888317,-0.0750758741803766,0.108014315705644,5
0.579986572265625,-0.224974974989891,2.89527487754822,1.16566646099091,-0.0982734311149,2.92353206847056,1.2036930254546,1522.982,1149.479,3143.668,3034.341,-0.0351207,0.03434783,0.09464956,-0.558908402919769,-0.0785737335681915,0.150719359517097,-0.185481935470438,-0.0798076950675377,0.114822153786096,5
0.5999755859375,-0.236309602856636,2.89376664161682,1.16885030269623,-0.102092760004862,2.92188871794891,1.20605737197736,1541.241,1167.15,3164.137,2977.746,-0.03428767,0.03716386,0.08860791,-0.566731333732605,-0.0754147991538048,0.159193202853203,-0.196696165293826,-0.0846328648712294,0.121764296254622,5
0.6199951171875,-0.247774839401245,2.8923134803772,1.17219376564026,-0.106144683970236,2.92014528826426,1.20856570593183,1532.233,1166.726,3183.466,2965.78,-0.03441497,0.03963126,0.0834601,-0.573261976242065,-0.0726625323295593,0.167170971632004,-0.208134604141382,-0.0895545055543457,0.128845234789665,5
0.639984130859375,-0.259349882602692,2.89090585708618,1.17568528652191,-0.110420882305709,2.91830535958365,1.21121287640506,1509.447,1156.949,3192.419,2985.983,-0.03533535,0.04170264,0.07928625,-0.578753173351288,-0.0703758746385574,0.174578383564949,-0.219752140575416,-0.0945532069255159,0.136037043262338,5
0.65997314453125,-0.271019518375397,2.88953399658203,1.17931926250458,-0.114931182097002,2.91636470358665,1.21400496683125,1467.258,1144.383,3198.745,3029.889,-0.03678092,0.04338839,0.07589693,-0.58348274230957,-0.0685901790857315,0.181697711348534,-0.231555939228262,-0.0996320517258771,0.143344156921357,5
0.67999267578125,-0.282772332429886,2.88818764686584,1.18308889865875,-0.119686638739014,2.91431856344567,1.21694882102647,1425.603,1138.98,3192.126,3077.798,-0.03844593,0.04477397,0.07289191,-0.587641358375549,-0.0673213228583336,0.188480943441391,-0.243554411173546,-0.104794659005432,0.150771782621969,5
0.699981689453125,-0.294599115848541,2.88685631752014,1.18699049949646,-0.124676182095571,2.91217170233105,1.22003758604909,1407.384,1146.674,3174.76,3101.022,-0.04015834,0.04597101,0.06985072,-0.591338217258453,-0.0665694773197174,0.195082694292068,-0.25570106256044,-0.110021023759057,0.158291138455704,5
0.720001220703125,-0.306491196155548,2.88552927970886,1.19102716445923,-0.129918284978346,2.90991617190799,1.22328269744952,1394.347,1163.024,3164.429,3105.177,-0.04192934,0.04702392,0.06662145,-0.594606161117554,-0.0663534328341484,0.201836049556732,-0.268023157655716,-0.11532287703907,0.16591910230247,5
0.739990234375,-0.318439364433289,2.88419532775879,1.19519746303558,-0.135400001298574,2.90755754251682,1.2266761409821,1391.588,1185.12,3152.602,3095.665,-0.04384682,0.04795262,0.06321685,-0.597409129142761,-0.0667027086019516,0.208516225218773,-0.280473432677602,-0.12067988256057,0.173626415629864,5
0.759979248046875,-0.330434381961823,2.88284206390381,1.19950342178345,-0.141131974150567,2.90509123473139,1.23022450522921,1391.682,1207.499,3151.52,3073.675,-0.04601889,0.04873291,0.05981169,-0.599749088287354,-0.0676590129733086,0.215298384428024,-0.293060978423328,-0.126095951839638,0.181418706074426,5
0.779998779296875,-0.342467039823532,2.88145685195923,1.20394146442413,-0.147126184485884,2.90251209348295,1.23393520697061,1383.877,1226.033,3152.157,3061.521,-0.0485457,0.04931369,0.05666384,-0.60163426399231,-0.0692570582032204,0.221905082464218,-0.305795832832518,-0.131575403921268,0.189302187598958,5
0.79998779296875,-0.354529857635498,2.8800265789032,1.20850646495819,-0.153366821193532,2.89982692185086,1.2377984583754,1378.81,1240.968,3150.909,3052.353,-0.05145813,0.04966478,0.05392851,-0.603139638900757,-0.0715183764696121,0.228248491883278,-0.318629798715703,-0.137097500901303,0.197247023847227,5
0.819976806640625,-0.366617560386658,2.87853717803955,1.21319675445557,-0.159865102720482,2.89703089285078,1.24182120419666,1353.848,1251.106,3157.103,3060.211,-0.05474394,0.0497418,0.05175427,-0.604385077953339,-0.0744654387235641,0.234514400362968,-0.331572942526109,-0.142666574093344,0.205259446433311,4
0.839996337890625,-0.378727197647095,2.87697529792786,1.21800541877747,-0.166633637018892,2.89411858163313,1.24601124935738,1321.524,1259.051,3157.253,3082.197,-0.05826038,0.0495547,0.05011704,-0.605482518672943,-0.078096054494381,0.24043582379818,-0.344636106234817,-0.148287288494656,0.213346167053785,4
0.8599853515625,-0.390858083963394,2.87532758712769,1.22292602062225,-0.173653699721778,2.89109804476993,1.25035700258242,1303.95,1269.291,3149.329,3095.71,-0.0618663,0.04915407,0.04885484,-0.60654616355896,-0.0823870599269867,0.246031165122986,-0.357770416714212,-0.153938615363784,0.221476930914505,4
0.879974365234375,-0.403011381626129,2.87358117103577,1.22795820236206,-0.180937139259224,2.88796418421271,1.25486579861444,1278.014,1281.296,3146.796,3111.432,-0.06551217,0.04855656,0.04790894,-0.607664704322815,-0.0873222574591637,0.251607626676559,-0.370986786595025,-0.159625250100867,0.229658493453734,4
0.899993896484375,-0.415188908576965,2.87172389030457,1.23309731483459,-0.18849723509595,2.8847112861788,1.25954585807468,1254.628,1294.8,3139.991,3127.326,-0.06911595,0.04780286,0.04718811,-0.608876347541809,-0.092868410050869,0.256953924894333,-0.384296738353309,-0.165352150505452,0.237897987633041,4
0.91998291015625,-0.427393227815628,2.86974406242371,1.23833954334259,-0.196312316554895,2.88134867495511,1.26438376578173,1251.446,1311.052,3129.606,3125.568,-0.07264891,0.04693942,0.04659509,-0.61021488904953,-0.0989894568920135,0.262113809585571,-0.397650971463704,-0.171098103938772,0.246164894078718,4
0.94000244140625,-0.439627349376678,2.86763072013855,1.24368703365326,-0.204407453948074,2.87786556348678,1.26939504145298,1237.36,1326.947,3129.403,3126.437,-0.07617652,0.04595247,0.0462207,-0.611707210540771,-0.10566982626915,0.267372041940689,-0.411081631631503,-0.176876941799768,0.254479112513653,4
0.959991455078125,-0.451894581317902,2.86537337303162,1.24913477897644,-0.212759000778906,2.87427212620069,1.27456504678061,1225.935,1341.024,3124.764,3130.887,-0.07969723,0.04485216,0.0461018,-0.613360166549683,-0.112870112061501,0.27238854765892,-0.424539267042903,-0.182667386354485,0.262810029909387,3
0.97998046875,-0.464199185371399,2.86296200752258,1.25468337535858,-0.221379956358585,2.87056276985637,1.27990182895749,1215.575,1353.112,3127.468,3130.086,-0.08317798,0.04364088,0.04627796,-0.615228474140167,-0.12057251483202,0.277429550886154,-0.438035925118965,-0.188474621271639,0.271165104193453,3
1,-0.476545870304108,2.86038756370544,1.26032853126526,-0.230284798736574,2.86673126495361,1.28541435058594,1200.16,1363.178,3126.274,3140.244,-0.0866044,0.04231792,0.04679747,-0.617335855960846,-0.128727465867996,0.282258003950119,-0.451584000205995,-0.194303979492187,0.279552008056641,3
1.01998901367188,-0.488940566778183,2.85764193534851,1.26606643199921,-0.239446912293295,2.86278906344998,1.29108613532954,1198.513,1372.507,3120.745,3142.957,-0.08994347,0.04091077,0.0475985,-0.6197350025177,-0.137285456061363,0.28689244389534,-0.46513400752272,-0.200134169097193,0.287940108062054,3
1.03997802734375,-0.501390159130096,2.85471749305725,1.27189946174622,-0.248880035413094,2.85873025410248,1.29692568790267,1181.369,1380.557,3124.154,3154.546,-0.0932101,0.03940892,0.04871898,-0.622481644153595,-0.14622275531292,0.29165381193161,-0.478698517198992,-0.205970598662363,0.296337185718871,3
1.05999755859375,-0.513902008533478,2.85160779953003,1.27782475948334,-0.258599401509697,2.85454828239877,1.30294243851408,1163.141,1387.095,3123.967,3171.759,-0.09631375,0.03784206,0.05010072,-0.625594139099121,-0.155483737587929,0.296266406774521,-0.492290296490434,-0.211818761581115,0.30475114456651,3
1.07998657226563,-0.52648401260376,2.84830760955811,1.28383946418762,-0.268575430648764,2.85025587575821,1.30911807577533,1166.233,1394.884,3118.126,3173.511,-0.09919316,0.03626069,0.05161889,-0.62910008430481,-0.165009990334511,0.300734519958496,-0.50586005237609,-0.217657448443621,0.313151469876847,3
1.0999755859375,-0.539144456386566,2.8448121547699,1.28994727134705,-0.278822628233634,2.845846792911,1.31546157922208,1157.706,1402.259,3121.114,3180.051,-0.1018973,0.03465717,0.05331435,-0.633021295070648,-0.17477160692215,0.305388599634171,-0.519420764586993,-0.223492244065532,0.321546196721701,3
1.1199951171875,-0.551891326904297,2.8411180973053,1.29614663124084,-0.289357002179081,2.84131414609862,1.32198285851614,1148.791,1407.853,3121.436,3191.25,-0.1043922,0.03305113,0.05516663,-0.637343108654022,-0.184708312153816,0.309966117143631,-0.532985466132485,-0.229328756186667,0.329943393154705,3
1.13998413085938,-0.564732789993286,2.83722281455994,1.30243611335754,-0.300146026259498,2.83667193044725,1.3286617783744,1158.853,1413.858,3117.339,3188.985,-0.1066665,0.03147826,0.05709829,-0.642073273658752,-0.194764107465744,0.314475119113922,-0.546505271550557,-0.235145950758426,0.338312796746137,3
1.15997314453125,-0.577677369117737,2.83312439918518,1.30882108211517,-0.311204994190806,2.83191356549821,1.33550780633558,1153.831,1418.226,3123.728,3194.214,-0.1087875,0.02991568,0.05918536,-0.64722752571106,-0.204919040203094,0.319247454404831,-0.559993461530388,-0.240949542090342,0.346662628875245,3
1.17999267578125,-0.590732991695404,2.82882213592529,1.315300822258,-0.322550701230474,2.8270318247214,1.34253133946411,1146.715,1420.23,3127.316,3206.014,-0.1107103,0.02837804,0.0614174,-0.652785539627075,-0.215116918087006,0.323985606431961,-0.573463232144024,-0.246745208083563,0.355001058539242,3
1.19998168945313,-0.603908061981201,2.82431602478027,1.32187414169312,-0.334147705564643,2.8220419577392,1.34971043758889,1159.031,1422.779,3124.908,3205.004,-0.1124088,0.02690057,0.06370436,-0.658753871917725,-0.225302577018738,0.328668773174286,-0.586866312357874,-0.25251217906087,0.363298203668868,3
1.22000122070313,-0.617211043834686,2.81960678100586,1.32854700088501,-0.346030421585499,2.81692915700008,1.35706640485806,1156.46,1423.872,3132.396,3211.558,-0.1139444,0.02546155,0.06610294,-0.665149927139282,-0.235459834337234,0.333644866943359,-0.600236516861372,-0.258265004538453,0.371574997167698,3
1.239990234375,-0.630649864673615,2.81469631195068,1.33531832695007,-0.358161486344149,2.81170949873715,1.36457611182642,1157.147,1424.082,3133.158,3221.904,-0.1152946,0.02408195,0.068569,-0.671940863132477,-0.24552857875824,0.338567316532135,-0.613526094901141,-0.263983138701136,0.379801879044709,2
1.25997924804688,-0.64423280954361,2.80958652496338,1.34219300746918,-0.370557537648727,2.80637582416637,1.37224985808977,1159.607,1423.143,3140.902,3225.443,-0.1164206,0.02277438,0.07106217,-0.679148554801941,-0.255493521690369,0.343733012676239,-0.626748599474006,-0.269672413024826,0.387987239250554,2
1.27999877929688,-0.657967507839203,2.80428051948547,1.34917140007019,-0.383236695417198,2.80092033679326,1.3800988607405,1161.291,1422.257,3143.884,3234.236,-0.1173208,0.0215482,0.07356868,-0.68673187494278,-0.265299767255783,0.348917812108994,-0.639917282339435,-0.275338529371412,0.396139281255613,2
1.29998779296875,-0.671860992908478,2.79878258705139,1.35625398159027,-0.396158759015336,2.79536033382764,1.388098233671,1179.219,1422.476,3141.403,3232.302,-0.1180228,0.02042978,0.07601104,-0.69467705488205,-0.274900794029236,0.354127734899521,-0.652985332144132,-0.280961346123326,0.404229026602261,2
1.31997680664063,-0.685920774936676,2.7930965423584,1.36344861984253,-0.409341180862083,2.78968830598122,1.39625878075997,1180.392,1420.677,3151.391,3237.375,-0.1185996,0.01938948,0.07845366,-0.702989518642426,-0.284300595521927,0.359730809926987,-0.665966334939128,-0.286546708978778,0.412264885703281,2
1.33999633789063,-0.700153112411499,2.78722739219666,1.37075674533844,-0.422802873722428,2.78389611561957,1.40459220990988,1178.997,1417.423,3158.8,3247.641,-0.1190039,0.01843712,0.08088288,-0.711617469787598,-0.293463468551636,0.365406304597855,-0.678873453515705,-0.29210028151913,0.420255006953505,2
1.3599853515625,-0.71456390619278,2.7811803817749,1.37817823886871,-0.436500861174643,2.77800225429635,1.41307191666844,1198.141,1415.958,3158.186,3244.204,-0.1192212,0.01760553,0.08321099,-0.720538377761841,-0.302348107099533,0.371073424816132,-0.69166099897751,-0.297602405088682,0.428171106749628,2
1.37997436523438,-0.72915905714035,2.77496123313904,1.38572013378143,-0.45045340944128,2.77199886256629,1.42170920869753,1202.996,1412.655,3168.25,3246.942,-0.119324,0.0168615,0.08550704,-0.729757010936737,-0.310959964990616,0.377094835042953,-0.704342498157629,-0.303058899905815,0.436021558845703,2
1.39999389648438,-0.743943393230438,2.76857590675354,1.39338362216949,-0.464680216184654,2.76587746507559,1.43051627978847,1204.13,1408.159,3174.89,3256.666,-0.1192899,0.01620781,0.08776563,-0.739220023155212,-0.31926816701889,0.383175373077393,-0.716930938559026,-0.308475354130225,0.443814403124744,2
1.41998291015625,-0.758921563625336,2.76203107833862,1.40116894245148,-0.479135601808478,2.75965771647838,1.43946485209513,1223.371,1405.676,3174.076,3254.158,-0.1191184,0.0156725,0.08989756,-0.748907744884491,-0.327242136001587,0.389267027378082,-0.729381927869995,-0.313832666990362,0.451522158631107,2
1.44000244140625,-0.774098098278046,2.75533318519592,1.40908372402191,-0.493861275572861,2.75332167044526,1.4485807456364,1226.697,1401.165,3185.323,3257.863,-0.1188702,0.01522202,0.09196524,-0.758826553821564,-0.33490052819252,0.39573672413826,-0.741727567798258,-0.319144650954242,0.459164697851088,2
1.45999145507813,-0.789476335048676,2.74848890304565,1.41712749004364,-0.508809800712713,2.74688973769103,1.45783459479497,1232.968,1397.232,3188.573,3264.636,-0.1185314,0.01486755,0.09394024,-0.768908500671387,-0.342214465141296,0.402188837528229,-0.753924423002454,-0.324392617007921,0.466715132239272,2
1.47998046875,-0.805059492588043,2.74150490760803,1.42530536651611,-0.524000783579472,2.74035348215039,1.46723853683636,1240.379,1392.079,3198.874,3264.473,-0.1180675,0.01461071,0.09580322,-0.779162406921387,-0.349197030067444,0.408896565437317,-0.76598572865452,-0.329582259876133,0.474181654997567,2
1.5,-0.820850074291229,2.73438835144043,1.43361747264862,-0.539455198877605,2.73370387899399,1.4768055561018,1246.871,1387.664,3203.14,3269.612,-0.1174869,0.01444903,0.09755902,-0.789526224136353,-0.35582223534584,0.415606558322906,-0.777924000354858,-0.334718964672088,0.481572013878822,1
1.51998901367188,-0.836849629878998,2.72714686393738,1.44206368923187,-0.555123050061237,2.72696244033876,1.48650470234772,1268.083,1385.491,3200.351,3265.408,-0.1168414,0.01439714,0.09914532,-0.79997593164444,-0.362070441246033,0.422313183546066,-0.789697369743256,-0.339784716610053,0.488860290373601,1
1.53997802734375,-0.853059947490692,2.71978735923767,1.45065200328827,-0.571024729446907,2.7201203919406,1.49634859938949,1270.175,1380.367,3212.541,3268.266,-0.1161969,0.01441227,0.1006399,-0.810523271560669,-0.367980390787125,0.429417192935944,-0.801318788528229,-0.344785088448372,0.496054502206448,1
1.55999755859375,-0.869481980800629,2.71231627464294,1.45938289165497,-0.587181951496087,2.71316839067337,1.50635068951315,1268.327,1374.64,3221.296,3276.792,-0.1154917,0.01449854,0.1020409,-0.821099996566772,-0.373550117015839,0.436545342206955,-0.812800388649436,-0.349725300221754,0.503162159625937,1
1.57998657226563,-0.886115372180939,2.70474100112915,1.46825432777405,-0.603542258451077,2.7061290076447,1.51647849886779,1288.214,1372.175,3219.381,3271.011,-0.1147093,0.01468713,0.1032616,-0.831673979759216,-0.378761559724808,0.443570703268051,-0.82410201904291,-0.354588076049064,0.510158407210813,0
1.5999755859375,-0.902960598468781,2.6970682144165,1.47727203369141,-0.620126809287134,2.69899313873865,1.52674512586702,1293.686,1367.444,3229.137,3270.593,-0.1139194,0.01493598,0.10438,-0.842257499694824,-0.383644491434097,0.450883746147156,-0.835236272052476,-0.359378834064062,0.517051040221759,0
1.6199951171875,-0.920016348361969,2.68930435180664,1.48643553256989,-0.636958033083316,2.69175113334911,1.53716445517924,1293.745,1362.243,3235.056,3278.031,-0.1131039,0.01524035,0.1054071,-0.852790236473083,-0.388197630643845,0.458176553249359,-0.846214826007804,-0.364102599125749,0.523847288101157,0
1.63998413085938,-0.937281429767609,2.68145608901978,1.49574303627014,-0.653981118189727,2.68442657539777,1.54770255578211,1311.519,1360.054,3232.211,3273.485,-0.1122666,0.0156246,0.1062611,-0.863250017166138,-0.392413675785065,0.46537646651268,-0.856999388527105,-0.368742895092007,0.53052344604056,0
1.65997314453125,-0.954754531383514,2.67352938652039,1.50520050525665,-0.671217966514002,2.67701004110563,1.55837298599979,1312.769,1355.228,3243.152,3274.246,-0.1114549,0.01604912,0.1070159,-0.873654663562775,-0.396335035562515,0.472873628139496,-0.86760212115283,-0.373304954734798,0.537087042614082,0
1.67999267578125,-0.97243320941925,2.66552996635437,1.51480650901794,-0.688691692550512,2.66949158495151,1.56919005480539,1310.389,1350.346,3249.313,3281.288,-0.1106197,0.01651522,0.1076754,-0.883938312530518,-0.399965703487396,0.480297893285751,-0.878034183119987,-0.377793579561193,0.543544985919778,0
1.69998168945313,-0.990314722061157,2.65746402740479,1.52455747127533,-0.706345246291743,2.66189575395985,1.5801184455266,1328.911,1349.071,3244.709,3274.698,-0.1097601,0.01705149,0.1081552,-0.894076228141785,-0.403295636177063,0.487550556659698,-0.88825927318574,-0.382193150160541,0.549874803759068,0
1.72000122070313,-1.00839650630951,2.64933681488037,1.53445863723755,-0.724228658537036,2.6542010212754,1.5911891296115,1331.038,1345.132,3253.816,3273.693,-0.1089446,0.01761333,0.1085391,-0.904091715812683,-0.406365782022476,0.495056569576263,-0.898304216251578,-0.386515208538549,0.556093102023817,0
1.739990234375,-1.02667486667633,2.64115333557129,1.54450654983521,-0.74228345468553,2.64643254688532,1.60236590849663,1333.152,1342.455,3254.217,3278.332,-0.1081723,0.01820267,0.1088246,-0.9139164686203,-0.409177839756012,0.502396166324615,-0.908134108040217,-0.390744736359816,0.562178273303667,0
1.75997924804688,-1.04514646530151,2.63291788101196,1.55470371246338,-0.760532711099173,2.63858040167573,1.61366306754931,1335.288,1338.239,3262.99,3275.715,-0.1073888,0.0188185,0.1090035,-0.923577427864075,-0.411767691373825,0.509857654571533,-0.917760245372929,-0.394886594330938,0.568137310869129,0
1.77999877929688,-1.06380677223206,2.62463521957397,1.56504654884338,-0.779000609654483,2.63063418086074,1.62509557650306,1336.074,1335.214,3264.577,3279.113,-0.106585,0.01945748,0.1090898,-0.933017432689667,-0.414131611585617,0.517139792442322,-0.927192788821983,-0.398945154262308,0.57397650459845,0
1.79998779296875,-1.08265137672424,2.61630988121033,1.57553100585938,-0.797626646773287,2.62261991743975,1.63662598076079,1353.366,1335.379,3257.116,3272.345,-0.1058079,0.02013583,0.1090189,-0.942224264144897,-0.416262954473495,0.52422159910202,-0.936399026186941,-0.402906341007953,0.579675604081262,0
1.81997680664063,-1.10167598724365,2.60794568061829,1.5861622095108,-0.816434558901977,2.61452739828301,1.64826897431355,1350.34,1332.201,3266.455,3272.427,-0.1051192,0.02080639,0.1088806,-0.951233208179474,-0.418213844299316,0.531560778617859,-0.945389654806995,-0.406774757334075,0.585241231480109,0
1.83999633789063,-1.12087571620941,2.59954571723938,1.59693717956543,-0.835449117627072,2.60634596486888,1.66003989195343,1341.484,1328.764,3271.805,3280.03,-0.1044486,0.02147277,0.1086852,-0.959985077381134,-0.420000672340393,0.538748204708099,-0.954174163352093,-0.410554485950274,0.590679260733698,0
1.8599853515625,-1.14024496078491,2.59111332893372,1.60785007476807,-0.854607925216182,2.59810246519841,1.67190010651166,1356.26,1329.202,3265.244,3272.046,-0.1037674,0.02217088,0.1083404,-0.968461513519287,-0.421615868806839,0.545643150806427,-0.962722140342816,-0.41423244164655,0.595970865687568,0
1.87997436523438,-1.15977883338928,2.58265137672424,1.61890375614166,-0.873935340558452,2.5897864183221,1.683864697301,1356.033,1327.158,3271.88,3268.824,-0.10314,0.0228577,0.1079353,-0.976695895195007,-0.423096090555191,0.552682399749756,-0.971043628570469,-0.417812945555442,0.601122263307942,0
1.89999389648438,-1.17947149276733,2.57416248321533,1.63009417057037,-0.893456683142228,2.58138692997148,1.69594933829086,1349.183,1324.828,3273.907,3275.188,-0.1025402,0.02352795,0.1074936,-0.984638452529907,-0.424449056386948,0.559518337249756,-0.979147395688901,-0.421299770153459,0.606138881190213,0
1.91998291015625,-1.19931721687317,2.56564903259277,1.64141571521759,-0.91310780215452,2.5729316024492,1.70811431707208,1362.059,1325.791,3266.227,3268.378,-0.1019639,0.02421117,0.1069291,-0.99228447675705,-0.425670593976974,0.566076457500458,-0.98700543065471,-0.424680863071164,0.611003379164165,0
1.94000244140625,-1.21931064128876,2.5571129322052,1.65287160873413,-0.932943991899774,2.5643966441608,1.72039386345315,1357.197,1323.979,3273.74,3267.048,-0.1014563,0.02486627,0.1063273,-0.99967348575592,-0.426804542541504,0.572796761989594,-0.994638524886308,-0.427965170275055,0.615728628108227,0
1.95999145507813,-1.23944568634033,2.54855585098267,1.66445553302765,-0.952900013794853,2.55581012544606,1.73274759164336,1353.565,1323.664,3270.931,3271.466,-0.1009945,0.02550264,0.1056805,-1.00674533843994,-0.427850991487503,0.579194784164429,-1.00202031904361,-0.431141350077486,0.620298310335216,0
1.97998046875,-1.25971639156342,2.53997898101807,1.67616724967957,-0.973001172086935,2.54716115859433,1.74519116617712,1352.543,1322.097,3276.05,3266.578,-0.1005168,0.02612547,0.104974,-1.01354217529297,-0.428837895393372,0.585588037967682,-1.0091596546337,-0.434213206731958,0.624717899159203,0
2,-1.28011679649353,2.5313835144043,1.68800091743469,-0.993273599084619,2.53843849960327,1.7577407641983,1349.324,1321.724,3273.66,3269.208,-0.1000246,0.02673032,0.1042296,-1.02001917362213,-0.42975589632988,0.59168154001236,-1.01606400046349,-0.437183953857422,0.628992018127441,0
2.01998901367188,-1.30064058303833,2.52277183532715,1.69995057582855,-1.01365055070775,2.52967086658596,1.77035506794184,1362.825,1324.173,3263.089,3261.232,-0.09956441,0.0273357,0.103382,-1.02617955207825,-0.430594891309738,0.597481369972229,-1.02270954399163,-0.440043345582587,0.633105926142498,0
2.03997802734375,-1.32128179073334,2.51414370536804,1.71201980113983,-1.03415783849082,2.52084715356021,1.78305005597715,1354.399,1323.382,3270.024,3261.043,-0.09919582,0.02789617,0.1025272,-1.0320690870285,-0.431401520967484,0.603459537029266,-1.02910434715509,-0.442794850733705,0.637064613927399,0
2.05999755859375,-1.34203457832336,2.50550007820129,1.72420346736908,-1.05482201812353,2.5119559343546,1.79584216754118,1340.501,1322.167,3272.742,3268.489,-0.09883417,0.02842027,0.1016734,-1.03764069080353,-0.432186275720596,0.609182178974152,-1.03525504859546,-0.445441325732794,0.640872191117535,0
2.07998657226563,-1.3628922700882,2.49684143066406,1.7364935874939,-1.07557499515204,2.50302650811029,1.80868924892322,1352.477,1324.535,3263.161,3259.067,-0.09844002,0.0289503,0.1007213,-1.04288756847382,-0.432932466268539,0.614504635334015,-1.04114045847258,-0.4479736531836,0.644515540192423,0
2.0999755859375,-1.38384926319122,2.48816800117493,1.74889159202576,-1.09644304044274,2.49404757120739,1.82160756304102,1349.093,1324.697,3266.992,3254.649,-0.09808315,0.02944368,0.09976567,-1.04785251617432,-0.433666467666626,0.619898498058319,-1.04676782045836,-0.450394949835787,0.647999145330045,0
2.1199951171875,-1.40489912033081,2.47948026657104,1.76139175891876,-1.11745308225396,2.48500753716864,1.83461377976925,1338.04,1324.24,3266.241,3261.345,-0.09773908,0.02989716,0.0988324,-1.05249738693237,-0.43438646197319,0.625006496906281,-1.0521429102862,-0.45270770082608,0.651326581984514,0
2.13998413085938,-1.42603576183319,2.470778465271,1.77398705482483,-1.13853583516761,2.47593621757383,1.84766500813359,1348.198,1326.589,3256.225,3253.656,-0.09739234,0.03034551,0.0978262,-1.05682945251465,-0.43507981300354,0.629764497280121,-1.05724722779031,-0.454903946049977,0.654486397671922,0
2.15997314453125,-1.44725346565247,2.46206307411194,1.78667962551117,-1.15971797923886,2.46682213274057,1.86077776435915,1339.938,1326.569,3261.502,3251.88,-0.0970898,0.03074997,0.09683503,-1.06089377403259,-0.435780018568039,0.6346315741539,-1.06208716414724,-0.456986435452193,0.657482548835001,0
2.17999267578125,-1.46854639053345,2.45333337783813,1.79946327209473,-1.18102676265167,2.45765355853653,1.8739689163698,1326.666,1326.18,3261.152,3259.075,-0.09676968,0.03111856,0.09586633,-1.06464815139771,-0.436483114957809,0.639181792736053,-1.06666760390386,-0.458957270716794,0.660318059240953,0
2.19998168945313,-1.48990833759308,2.44459009170532,1.8123300075531,-1.20239187218348,2.44846074877705,1.8871949369313,1338.771,1328.906,3250.143,3249.063,-0.0964059,0.03149142,0.09481717,-1.06809663772583,-0.437168329954147,0.643339395523071,-1.07097279461286,-0.460809674005774,0.6629831773745,0
2.22000122070313,-1.51133406162262,2.43583297729492,1.82528162002563,-1.22387315175433,2.43921795429519,1.90049287228091,1332.529,1329.513,3253.632,3245.831,-0.09607407,0.03182558,0.09378692,-1.07128143310547,-0.437860786914825,0.647583484649658,-1.07501419914593,-0.462548577472581,0.665484999299265,0
2.239990234375,-1.53281724452972,2.42706203460693,1.8383104801178,-1.24539969505118,2.42995568409656,1.91381882803312,1326.02,1330.701,3247.656,3250.226,-0.09576461,0.03212936,0.09277203,-1.07415771484375,-0.438547283411026,0.651444137096405,-1.07877792518082,-0.464168003639063,0.667814925005999,0
2.25997924804688,-1.55435276031494,2.41827702522278,1.85141599178314,-1.26699874763832,2.42066221517598,1.92718967049012,1321.502,1330.369,3251.061,3244.942,-0.09540934,0.03241088,0.0917542,-1.07677626609802,-0.439247637987137,0.655275583267212,-1.08226887897249,-0.465670063529659,0.669975991700231,0
2.27999877929688,-1.57593464851379,2.40947818756104,1.86459100246429,-1.28869796983554,2.41132564607061,1.9406225227075,1314.236,1330.915,3246.996,3248.049,-0.09499868,0.03267051,0.09075274,-1.07910001277924,-0.439940750598907,0.658752977848053,-1.08549040888332,-0.467056197851165,0.67197027217779,0
2.29998779296875,-1.59755766391754,2.40066623687744,1.87782847881317,-1.31042570636616,2.40197680804417,1.95407302665558,1326.889,1333.718,3234.528,3238.387,-0.0945598,0.03293445,0.08968944,-1.08113753795624,-0.440602898597717,0.661872327327728,-1.08843144721369,-0.468321644481621,0.673790915005368,0
2.31997680664063,-1.61921620368958,2.39184093475342,1.89113104343414,-1.33220946960077,2.39260386329221,1.96755821380235,1317.492,1334.065,3238.753,3237.088,-0.09416618,0.03315888,0.08866358,-1.08293390274048,-0.441264629364014,0.665130853652954,-1.09109597826566,-0.469468117754907,0.675440386655758,0
2.33999633789063,-1.64090514183044,2.38300251960754,1.90449297428131,-1.35407709248145,2.38319483607731,1.98109531406483,1301.749,1333.444,3238.847,3245.009,-0.0937438,0.0333536,0.08767998,-1.08445191383362,-0.441921383142471,0.668094754219055,-1.09348640563071,-0.470496651869278,0.67692017506657,0
2.3599853515625,-1.66261911392212,2.37415146827698,1.91790592670441,-1.37595634130987,2.37378080654189,1.99463961134278,1313.111,1335.478,3228.19,3234.424,-0.09324153,0.03356367,0.08662842,-1.08569395542145,-0.442548334598541,0.670649945735931,-1.09559452046326,-0.471403714787811,0.678225198571351,0
2.37997436523438,-1.68435299396515,2.36528825759888,1.93137121200562,-1.39787493938994,2.36434984612278,2.00820826768196,1308.033,1336.006,3230.555,3229.774,-0.092735,0.03374932,0.0856057,-1.08669722080231,-0.443161457777023,0.673266887664795,-1.09742336725307,-0.472190616469403,0.679357341854299,0
2.39999389648438,-1.70610153675079,2.3564133644104,1.94488263130188,-1.41986083522252,2.35488992936084,2.02181858453579,1296.116,1335.51,3228.1,3236.187,-0.09219597,0.03391178,0.08462985,-1.08742833137512,-0.443746119737625,0.675569891929626,-1.09897439291323,-0.472857979480329,0.680317500623536,0
2.41998291015625,-1.72785949707031,2.34752774238586,1.95843291282654,-1.4418413890156,2.34543231112926,2.03542559441269,1307.305,1337.072,3217.127,3226.579,-0.09160102,0.0340878,0.08359856,-1.08789777755737,-0.444280713796616,0.677513539791107,-1.10024227275454,-0.473403512755585,0.681102378642803,0
2.44000244140625,-1.7496223449707,2.33863210678101,1.9720242023468,-1.46387808506052,2.33595053645515,2.04906735901791,1299.126,1337.021,3220.645,3224.117,-0.09101513,0.03423896,0.08260462,-1.08814334869385,-0.444787383079529,0.679563224315643,-1.10123038958312,-0.473828671822132,0.681714070030222,0
2.45999145507813,-1.77138471603394,2.32972717285156,1.98564851284027,-1.48589810917879,2.32647593524532,2.06269880290633,1292.258,1337.183,3214.348,3228.373,-0.09041005,0.03437932,0.08163152,-1.08812284469604,-0.445245862007141,0.681216657161713,-1.10193535162022,-0.474131997292339,0.68215047511319,0
2.47998046875,-1.79314231872559,2.32081389427185,1.99930512905121,-1.50792940965705,2.3169964821328,2.07633722739875,1289.753,1336.194,3216.455,3221.435,-0.08971817,0.03452015,0.0806518,-1.08788096904755,-0.445667326450348,0.682830929756165,-1.10235860927677,-0.474314113237503,0.682412491765153,0
2.5,-1.81488990783691,2.31189346313477,2.01298713684082,-1.52999999932945,2.30750012397766,2.08999997377396,1284.099,1336.017,3211.148,3223.56,-0.08894639,0.03465959,0.07968749,-1.08738255500793,-0.446024268865585,0.684100925922394,-1.10250000050292,-0.474374949932098,0.682500019669533,0
2.51998901367188,-1.83662271499634,2.30296754837036,2.02668809890747,-1.5520369476803,2.29801824074336,2.10364189456856,1297.838,1337.401,3198.743,3212.904,-0.08812613,0.03482154,0.07866153,-1.08663547039032,-0.446292370557785,0.685043036937714,-1.10235904000526,-0.474314298567936,0.682412758406603,0
2.53997802734375,-1.85833621025085,2.29403758049011,2.0404109954834,-1.57406826106879,2.28853878207593,2.11728032705303,1288.838,1336.929,3202.493,3211.226,-0.08733677,0.03496316,0.07767394,-1.08567583560944,-0.446498185396194,0.686143755912781,-1.10193621258339,-0.474132367740737,0.682151008090402,0
2.55999755859375,-1.88002562522888,2.28510499000549,2.05415010452271,-1.59612191359838,2.27904971150017,2.13093258853001,1273.672,1335.158,3202.182,3218.85,-0.0865016,0.03509536,0.07672471,-1.08446943759918,-0.446634322404861,0.686960816383362,-1.10123038958312,-0.473828671822132,0.681714070030222,0
2.57998657226563,-1.90168595314026,2.27617144584656,2.06789779663086,-1.61812503288753,2.26958238396605,2.14455356752391,1286.65,1335.493,3191.79,3206.864,-0.08556364,0.03526237,0.07569937,-1.08301866054535,-0.446676343679428,0.687388956546783,-1.1002439936861,-0.473404253224357,0.681103443981416,0
2.5999755859375,-1.92331290245056,2.26723861694336,2.08165550231934,-1.64010562536668,2.26012474908893,2.15816060134934,1283.108,1335.044,3193.398,3201.257,-0.08460809,0.03542459,0.07469635,-1.08135092258453,-0.44663593173027,0.687890708446503,-1.09897654259203,-0.472858904427064,0.680318831377119,0
2.6199951171875,-1.94490170478821,2.25830864906311,2.09541749954224,-1.66209156852628,2.2506648119635,2.17177094750084,1272.429,1333.262,3190.549,3207.025,-0.08361261,0.03558223,0.07373259,-1.07943618297577,-0.446498364210129,0.688099384307861,-1.09742594550583,-0.472191725819537,0.679358937915576,0
2.63998413085938,-1.96644735336304,2.24938368797302,2.10917711257935,-1.6840102224118,2.24123382753286,2.18533963838626,1284.719,1332.986,3180.039,3196.579,-0.08255107,0.03576955,0.07270472,-1.07728374004364,-0.446244686841965,0.687976539134979,-1.09559752564474,-0.471405007833448,0.678227058921845,0
2.65997314453125,-1.9879457950592,2.24046564102173,2.12293648719788,-1.70588953556828,2.23181977031887,2.19888397548635,1277.833,1331.858,3182.955,3193.386,-0.08149273,0.03594998,0.07170281,-1.07492196559906,-0.445894330739975,0.687973022460938,-1.09348983658457,-0.470498128112872,0.676922298990445,0
2.67999267578125,-2.00939226150513,2.23155689239502,2.13668990135193,-1.72775723139253,2.2224107117184,2.21242112090437,1265.607,1329.546,3181.125,3199.605,-0.08038165,0.03613111,0.070728,-1.07231950759888,-0.445436298847198,0.687676668167114,-1.09109983431736,-0.469469776906228,0.675442773735451,0
2.69998168945313,-2.03078150749207,2.22266006469727,2.15043044090271,-1.74954107593572,2.21303773198162,2.22590635838503,1279.563,1328.994,3170.412,3187.454,-0.07917897,0.03635154,0.06967092,-1.06948053836823,-0.444849252700806,0.687023460865021,-1.08843572622736,-0.468323485621663,0.673793563918671,0
2.72000122070313,-2.05211019515991,2.21377682685852,2.16416001319885,-1.77130202882336,2.20367460188472,2.23937742484041,1275.51,1327.957,3172.031,3182.406,-0.07797469,0.03657153,0.06862818,-1.06642818450928,-0.444147795438766,0.68647301197052,-1.08549040888332,-0.467056197851165,0.671970272177789,0
2.739990234375,-2.07337260246277,2.20491075515747,2.17787146568298,-1.79296822271738,2.1943522439355,2.25278983096475,1270.804,1326.387,3165.522,3185.28,-0.07676189,0.03679827,0.06759398,-1.06312870979309,-0.443317115306854,0.685574173927307,-1.08227399942825,-0.465672266718727,0.669979161506271,0
2.75997924804688,-2.09456491470337,2.19606328010559,2.1915647983551,-1.81456738183361,2.18505872917844,2.26616073936833,1269.046,1323.75,3167.401,3178.184,-0.07547984,0.03703951,0.06654221,-1.05961763858795,-0.442370921373367,0.684667706489563,-1.07878346314437,-0.464170386470068,0.667818353269249,0
2.77999877929688,-2.11568212509155,2.18723750114441,2.20523405075073,-1.83612684690458,2.17578229366013,2.27950707526701,1264.01,1321.792,3162.758,3179.405,-0.07412855,0.03729406,0.06549078,-1.05586552619934,-0.441290825605392,0.683459639549255,-1.07501419914593,-0.462548577472581,0.665484999299265,0
2.79998779296875,-2.13671970367432,2.17843627929688,2.21887278556824,-1.85757544288233,2.1665535620153,2.29278477791556,1278.436,1320.914,3151.413,3167.695,-0.07272294,0.03758421,0.06436418,-1.05187523365021,-0.440058678388596,0.681942939758301,-1.07097916161324,-0.460812413548163,0.662987118851036,0
2.81997680664063,-2.15767312049866,2.16966247558594,2.23248434066772,-1.87894068379188,2.15736069572766,2.30601087980613,1272.171,1319.282,3153.828,3164.275,-0.07134928,0.03787018,0.0632567,-1.04767024517059,-0.438695907592773,0.680572986602783,-1.0666743814704,-0.458960186914335,0.660322254877504,0
2.83999633789063,-2.17853784561157,2.16091823577881,2.24606323242188,-1.90024960698239,2.14819206138118,2.31920211834584,1259.252,1316.196,3152.543,3170.648,-0.06994846,0.03815858,0.06217016,-1.04322516918182,-0.437200427055359,0.678942680358887,-1.06209435025759,-0.456989527434725,0.657486997379635,0
2.8599853515625,-2.19930863380432,2.15220737457275,2.25960278511047,-1.92143189875059,2.13907791299805,2.33231496600284,1272.652,1314.479,3143.18,3157.895,-0.06846135,0.03848782,0.06099562,-1.03854382038116,-0.435558617115021,0.676974833011627,-1.05725481901126,-0.454907212340279,0.654491096999312,0
2.87997436523438,-2.21998119354248,2.14353179931641,2.273104429245,-1.94251480742951,2.13000652638179,2.34536629079331,1269.766,1312.946,3144.069,3151.907,-0.06697371,0.03882091,0.05982719,-1.03364086151123,-0.433782011270523,0.675082266330719,-1.05215090364426,-0.452711140144745,0.65133153025393,0
2.89999389648438,-2.24055099487305,2.13489484786987,2.2865629196167,-1.96352501326936,2.1209664217661,2.35837260906308,1260.736,1309.966,3140.981,3156.011,-0.06546316,0.03915791,0.0586773,-1.02849423885345,-0.431864559650421,0.672919571399689,-1.04677621342161,-0.450398561093403,0.648004340974112,0
2.91998291015625,-2.26101350784302,2.12629866600037,2.29997205734253,-1.98439323028747,2.1119874109737,2.37129102948832,1273.624,1307.973,3131.272,3144.383,-0.06389882,0.03952862,0.0574513,-1.02311098575592,-0.429796040058136,0.670452833175659,-1.0411492471255,-0.447977434695422,0.644520980787238,0
2.94000244140625,-2.28136348724365,2.11774682998657,2.3133339881897,-2.00517798053537,2.10304431360073,2.38415778000673,1268.329,1306.094,3133.217,3139.806,-0.06235685,0.03989733,0.05623839,-1.01750838756561,-0.42759370803833,0.668100833892822,-1.03525504859546,-0.445441325732794,0.640872191117535,0
2.95999145507813,-2.30159664154053,2.10924172401428,2.32664179801941,-2.02581075424974,2.0941666074844,2.39693044981124,1263.542,1303.492,3126.729,3142.4,-0.06081381,0.04027349,0.05502378,-1.01166069507599,-0.425250351428986,0.665394484996796,-1.02911391720548,-0.442798968459032,0.637070538244476,0
2.97998046875,-2.3217089176178,2.10078620910645,2.33989524841309,-2.04631823718085,2.08534281049189,2.40962555865248,1263.828,1300.396,3127.745,3133.373,-0.05921006,0.04066593,0.05377639,-1.00559735298157,-0.422779053449631,0.662677109241486,-1.0227194988233,-0.440047628868552,0.633112088657521,0
3,-2.34169483184814,2.09238290786743,2.35308861732483,-2.06672639957428,2.07656174835205,2.42225918334961,1259.485,1298.042,3122.325,3133.997,-0.05755997,0.04106918,0.05252247,-0.999293148517609,-0.420167207717896,0.659668147563934,-1.01606400046349,-0.437183953857422,0.628992018127441,0
3.01998901367188,-2.36154961585999,2.08403515815735,2.36621618270874,-2.0869680292999,2.06785234056679,2.43478971639231,1273.829,1296.217,3111.717,3121.458,-0.05587631,0.04150274,0.05119007,-0.992752552032471,-0.417405158281326,0.656381368637085,-1.00917036754089,-0.434217816196637,0.624724530959079,0
3.03997802734375,-2.38126945495605,2.07574462890625,2.37928080558777,-2.10706940546153,2.05920327997188,2.4472334257977,1267.806,1294.486,3113.224,3117.605,-0.05424699,0.04192895,0.04987332,-0.985990047454834,-0.414512276649475,0.653229951858521,-1.00203140433628,-0.431146119769234,0.620305172659443,0
3.05999755859375,-2.40084934234619,2.06751465797424,2.39227747917175,-2.12705600675913,2.05060360379452,2.45960608409476,1255.363,1291.13,3111.69,3122.938,-0.05261288,0.04235313,0.04857435,-0.978991091251373,-0.411493748426437,0.649833858013153,-0.994638524886308,-0.427965170275055,0.615728628108227,0
3.07998657226563,-2.42028474807739,2.0593478679657,2.40519976615906,-2.14686207530873,2.04208160581513,2.47186698402085,1267.928,1288.64,3102.835,3110.136,-0.05091112,0.04280961,0.04719109,-0.971761167049408,-0.4083431661129,0.646112084388733,-0.987017247723776,-0.424685947625853,0.611010694492843,0
3.0999755859375,-2.43957090377808,2.05124664306641,2.41804885864258,-2.16651343412374,2.03362617511243,2.48403211125138,1265.815,1287.101,3102.815,3103.156,-0.04922534,0.04326495,0.04581193,-0.964308857917786,-0.405070096254349,0.642454624176025,-0.979159571260203,-0.421305008961644,0.606146418448853,0
3.1199951171875,-2.45870304107666,2.043212890625,2.43081951141357,-2.18603502400946,2.02522658035469,2.49611690533293,1257.089,1284.055,3098.996,3106.762,-0.04754062,0.04371749,0.04445205,-0.956620872020721,-0.401674151420593,0.638533473014832,-0.971056158224178,-0.417818336715394,0.601130019760458,0
3.13998413085938,-2.47767734527588,2.03524971008301,2.44350624084473,-2.20536269329809,2.01691042421237,2.50808165332716,1269.258,1281.499,3090.167,3094.531,-0.04582022,0.04419307,0.04302246,-0.948707461357117,-0.398152410984039,0.634339988231659,-0.962735018414262,-0.414237982720922,0.59597883782726,0
3.15997314453125,-2.49648880958557,2.02735948562622,2.45611095428467,-2.22452176174551,2.00866681230185,2.51994202936911,1263.678,1279.869,3090.836,3090.198,-0.0441419,0.04465939,0.04161007,-0.940577983856201,-0.394518285989761,0.630235552787781,-0.954187384555097,-0.410560174664568,0.590687445288169,0
3.17999267578125,-2.51513314247131,2.01954412460327,2.46862816810608,-2.24353658854737,2.00048526354177,2.53171311296128,1253.484,1276.705,3087.594,3094.385,-0.04245878,0.04512179,0.04021231,-0.932223439216614,-0.390775054693222,0.625865042209625,-0.945403214201559,-0.406780591562751,0.585249625391267,0
3.19998168945313,-2.53360629081726,2.01180553436279,2.48105239868164,-2.26234477504321,1.99239262633251,2.54335627636037,1266.171,1274.234,3078.727,3081.242,-0.04072506,0.04560867,0.038736,-0.923652231693268,-0.386919170618057,0.62120908498764,-0.936412917636688,-0.402912318110697,0.579684203550396,0
3.22000122070313,-2.55190420150757,2.00414633750916,2.49338507652283,-2.28099938900442,1.98436606709459,2.55490437104486,1262.359,1273.008,3078.595,3075.393,-0.03902703,0.04608705,0.03727238,-0.914869248867035,-0.382960289716721,0.616630673408508,-0.927192788821982,-0.398945154262308,0.573976504598449,0
3.239990234375,-2.57002115249634,1.99656820297241,2.505619764328,-2.2994392795179,1.97643189735754,2.5663195416865,1258.063,1270.42,3071.756,3076.917,-0.03735456,0.04656213,0.03581395,-0.905864894390106,-0.378899246454239,0.611729323863983,-0.917774783907129,-0.394892849856044,0.568146310914365,0
3.25997924804688,-2.58795404434204,1.98907339572906,2.51775622367859,-2.31768882969315,1.96857962575054,2.57761688259161,1258.281,1267.698,3071.827,3067.626,-0.03565653,0.04704015,0.03433413,-0.896661996841431,-0.37474849820137,0.606824576854706,-0.908148960779607,-0.390751127078637,0.562187467856884,0
3.27999877929688,-2.60569930076599,1.98166346549988,2.52978944778442,-2.33577134012187,1.96079922667992,2.58881081793642,1252.753,1265.58,3066.472,3068.266,-0.03394732,0.04751543,0.0328618,-0.887247979640961,-0.370504051446915,0.601659953594208,-0.898304216251578,-0.386515208538549,0.556093102023818,0
3.29998779296875,-2.62325191497803,1.97433996200562,2.54171442985535,-2.35362764460945,1.95311615770631,2.59986472102797,1264.48,1263.331,3057.382,3056.233,-0.03221892,0.04800547,0.03133055,-0.877630293369293,-0.366163372993469,0.596246838569641,-0.888274735793772,-0.382199803288803,0.549884375850026,0
3.31997680664063,-2.64060831069946,1.96710550785065,2.55353307723999,-2.37128151039117,1.94552019245235,2.61079330491711,1259.137,1262.21,3057.366,3051.624,-0.03054912,0.04847979,0.02982383,-0.867815256118774,-0.361737728118896,0.590929925441742,-0.878049940595779,-0.377800359562814,0.543554740547926,0
3.33999633789063,-2.65776419639587,1.9599609375,2.56524038314819,-2.38875555478454,1.93800159931817,2.62161057080077,1248.104,1259.421,3054.073,3056.164,-0.02889583,0.04894289,0.02834244,-0.857802331447601,-0.357234388589859,0.585369884967804,-0.867618167158097,-0.373311858882592,0.53709697585572,0
3.3599853515625,-2.67471647262573,1.95290768146515,2.57683134078979,-2.40599272667425,1.93058492580486,2.63228120132087,1259.213,1256.894,3046.345,3043.27,-0.02719993,0.04942159,0.02679625,-0.847602605819702,-0.352653741836548,0.579553723335266,-0.857015715678588,-0.368749920209162,0.530533553325099,0
3.37997436523438,-2.69146084785461,1.94594776630402,2.58830714225769,-2.42301614089521,1.92326022624472,2.64281950566132,1255.407,1256.122,3045.45,3037.46,-0.02554131,0.04988748,0.02527198,-0.837216734886169,-0.348001211881638,0.573792338371277,-0.846231427202182,-0.364109742155906,0.523857565031302,0
3.39999389648438,-2.70799374580383,1.93908190727234,2.59966278076172,-2.43984769972619,1.91601807669906,2.65323904237604,1246.966,1253.559,3041.079,3040.42,-0.02389708,0.05034166,0.02377482,-0.826645374298096,-0.343280524015427,0.567781567573547,-0.835253140422974,-0.35938609205264,0.51706148254665,0
3.41998291015625,-2.72431182861328,1.93231213092804,2.61089372634888,-2.45643259034873,1.90888206159239,2.66350587971929,1257.779,1251.103,3033.26,3028.1,-0.02222621,0.05080606,0.02222648,-0.815900385379791,-0.338492214679718,0.561543464660645,-0.824119146742881,-0.354595445619869,0.510169010073001,0
3.44000244140625,-2.74041152000427,1.92563915252686,2.62200117111206,-2.47281804716281,1.90183185728196,2.67364925803476,1252.549,1250.384,3032.309,3023.82,-0.02060914,0.0512532,0.02070899,-0.80498343706131,-0.333642512559891,0.555371642112732,-0.812800388649434,-0.349725300221754,0.503162159625937,0
3.45999145507813,-2.7562894821167,1.91906452178955,2.63297963142395,-2.48895081463434,1.8948903781363,2.68363620960993,1247.745,1248.013,3026.151,3024.951,-0.01902136,0.05168986,0.01920748,-0.793898522853851,-0.328736692667007,0.548921048641205,-0.80133641229185,-0.344792671461508,0.496065412155666,0
3.47998046875,-2.77194237709045,1.91258895397186,2.64382886886597,-2.50485284867397,1.88804817714046,2.69348032619939,1247.563,1245.919,3025.344,3016.344,-0.01741494,0.05212301,0.01769653,-0.782661557197571,-0.323782533407211,0.542460143566132,-0.789715229532172,-0.33979240117828,0.488871346433721,0
3.5,-2.78736782073975,1.90621328353882,2.65454435348511,-2.5205447997813,1.88129636896134,2.70319439144611,1242.844,1244.359,3019.808,3016.071,-0.01580533,0.05254844,0.01620125,-0.771268308162689,-0.318777740001678,0.535773754119873,-0.777924000354857,-0.334718964672089,0.481572013878822,0
3.51998901367188,-2.80256271362305,1.89993858337402,2.66512203216553,-2.53597583877076,1.87465682397749,2.71274693966292,1252.845,1242.325,3011.755,3004.788,-0.014184,0.05297879,0.01466861,-0.759726226329803,-0.313721239566803,0.528883993625641,-0.766004036374581,-0.329590137176618,0.474192988348404,0
3.53997802734375,-2.81752300262451,1.89376640319824,2.67556357383728,-2.55116718971613,1.86812041006291,2.72215110956251,1247.81,1241.801,3010.631,3000.654,-0.01262605,0.05338991,0.01317257,-0.748037159442902,-0.308618545532227,0.522073984146118,-0.753942941956194,-0.324400585196356,0.466726596353819,0
3.55999755859375,-2.83224773406982,1.88769674301147,2.68586492538452,-2.56613872308604,1.86167857751006,2.73141920191151,1238.153,1239.575,3006.999,3004.19,-0.01109633,0.05378553,0.01171127,-0.736210465431213,-0.303477674722672,0.515062093734741,-0.741727567798258,-0.319144650954242,0.459164697851087,0
3.57998657226563,-2.84673237800598,1.88173079490662,2.69602203369141,-2.58084213759183,1.85535210901407,2.74052131591136,1246.615,1237.276,3000.623,2992.938,-0.009537845,0.05418722,0.01021059,-0.724258184432983,-0.298301130533218,0.507856726646423,-0.72940084364523,-0.31384080592,0.451533868397061,0
3.5999755859375,-2.86097598075867,1.87586915493011,2.70603585243225,-2.59529790318687,1.84913219692586,2.7494701234383,1243,1236.975,2998.849,2987.81,-0.008018778,0.05457346,0.008741906,-0.712177991867065,-0.29309019446373,0.500689744949341,-0.716950039288888,-0.308483572640672,0.443826227386424,0
3.6199951171875,-2.87497568130493,1.87011218070984,2.71590232849121,-2.60952509409627,1.84301063413925,2.75827743234631,1235.967,1234.948,2994.489,2989.636,-0.006519418,0.05494573,0.007307884,-0.699978530406952,-0.287849307060242,0.493322789669037,-0.704361775018033,-0.303067194200314,0.436033492140578,0
3.63998413085938,-2.88872909545898,1.86446046829224,2.72561812400818,-2.623478029369,1.83700707589127,2.76691496395061,1244.579,1232.754,2987.87,2978.852,-0.005005145,0.0553203,0.005846555,-0.687670946121216,-0.282579779624939,0.485784560441971,-0.691680442442073,-0.297610771068296,0.428183143180413,0
3.65997314453125,-2.90223383903503,1.85891485214233,2.73518419265747,-2.63717640706374,1.8311130466576,2.77539491228788,1239.995,1232.475,2986.244,2974.919,-0.003544135,0.05567651,0.004426461,-0.675254225730896,-0.277283400297165,0.478306710720062,-0.678893054168409,-0.29210871513241,0.420267140691237,0
3.67999267578125,-2.91548871994019,1.85347557067871,2.74459719657898,-2.65063849381582,1.82532068681534,2.78372858527554,1232.162,1230.475,2982.283,2977.429,-0.002107626,0.05601785,0.003043658,-0.662740349769592,-0.271966338157654,0.47064745426178,-0.665986083416798,-0.286555206197011,0.41227711095171,0
3.69998168945313,-2.92849159240723,1.84814310073853,2.7538537979126,-2.66382131180924,1.81964848851807,2.79188937759817,1240.017,1228.351,2976.197,2967.077,-0.0006514092,0.05636153,0.001634278,-0.650140523910522,-0.266630470752716,0.462831377983093,-0.653005218467595,-0.280969902652754,0.404241337183804,0
3.72000122070313,-2.9412407875061,1.84291732311249,2.76295518875122,-2.6767633032417,1.81407991116207,2.79990108680742,1236.205,1228.233,2974.257,2962.842,0.0007578676,0.05668903,0.0002627986,-0.637451887130737,-0.261275857686996,0.45506763458252,-0.639917282339434,-0.275338529371411,0.396139281255611,0
3.739990234375,-2.95373439788818,1.8377993106842,2.771897315979,-2.68942333385363,1.80863265367006,2.80773824883709,1232.769,1226.382,2968.75,2962.938,0.002135225,0.05700419,-0.001079645,-0.624686300754547,-0.255907952785492,0.447104454040527,-0.62676873176137,-0.26968107538565,0.387999702095468,0
3.75997924804688,-2.96597146987915,1.83278870582581,2.78068041801453,-2.70181978867538,1.80329880547712,2.81541224489679,1233.048,1224.907,2967.203,2955.537,0.00351107,0.05731217,-0.002412291,-0.611853122711182,-0.250530391931534,0.439153522253036,-0.6135463347885,-0.263991847359231,0.379814408499146,0
3.77999877929688,-2.97795057296753,1.82788574695587,2.78930163383484,-2.7139695770734,1.79807109095524,2.82293354268985,1228.684,1223.812,2962.518,2955.321,0.004868459,0.05760799,-0.003711381,-0.598956525325775,-0.245143368840218,0.431063115596771,-0.60023651686137,-0.258265004538452,0.371574997167698,0
3.79998779296875,-2.989670753479,1.82309079170227,2.79775857925415,-2.72583438304408,1.79296599641037,2.83027842278479,1235.329,1221.964,2956.618,2946.615,0.006223624,0.05790195,-0.005018461,-0.586005210876465,-0.239748105406761,0.422848582267761,-0.586886736182787,-0.252520966862155,0.36331084698941,0
3.81997680664063,-3.00113081932068,1.81840407848358,2.80605268478394,-2.73743179640664,1.78797595343468,2.83745777411762,1231.633,1221.726,2954.784,2943.072,0.007521429,0.05817885,-0.006281332,-0.572998881340027,-0.234345659613609,0.414700567722321,-0.573483731835694,-0.246754028528195,0.355013748824923,0
3.83999633789063,-3.01233005523682,1.81382501125336,2.81418132781982,-2.74877791451009,1.78309403578861,2.84448156171422,1224.808,1220.07,2951.344,2945.03,0.008785143,0.05844124,-0.007501592,-0.559952080249786,-0.228942662477493,0.406428247690201,-0.560014026276881,-0.240958390526246,0.346675359432959,0
3.8599853515625,-3.02326726913452,1.80935418605804,2.8221423625946,-2.75983729406747,1.77833549372837,2.85132784449154,1230.816,1218.166,2946.591,2936.201,0.01005632,0.05870264,-0.00873144,-0.546875476837158,-0.223541989922523,0.398052215576172,-0.546525890176286,-0.235154822377061,0.338325560657667,0
3.87997436523438,-3.03394269943237,1.80499172210693,2.82993674278259,-2.77062673073895,1.77369310055059,2.85800701976334,1227.938,1218.058,2944.378,2932.46,0.01128169,0.05894927,-0.009919209,-0.533766806125641,-0.21814276278019,0.389721035957336,-0.533006127404299,-0.22933764615472,0.329956183466192,0
3.89999389648438,-3.04435539245605,1.80073642730713,2.83756232261658,-2.78116151864576,1.76916027562219,2.86452855531919,1223.177,1216.489,2940.621,2933.204,0.01247595,0.05918304,-0.01106597,-0.520639419555664,-0.212749898433685,0.381276607513428,-0.519441457145543,-0.223501147495394,0.321559006401168,0
3.91998291015625,-3.05450534820557,1.79658949375153,2.8450174331665,-2.79140913007042,1.76475101471128,2.87087231495249,1228.954,1214.758,2936.119,2924.858,0.01366504,0.05941344,-0.01221272,-0.507502555847168,-0.207365661859512,0.372759968042374,-0.505880764601328,-0.217666360335509,0.313164291730931,0
