t,x_s1,x_s2,x_s3,x_s_d1,x_s_d2,x_s_d3,propellers_rpms1,propellers_rpms2,propellers_rpms3,propellers_rpms4,rollRad,pitchRad,yawRad,v_s1,v_s2,v_s3,v_s_d1,v_s_d2,v_s_d3,insideCount
0,-0.0599999986588955,2.94000005722046,1.17999994754791,-0.0599999986588955,2.94000005722046,1.17999994754791,0,0,0,0,0,0,0,0,0,0,-1.06581410364015E-15,4.44089209850063E-16,4.44089209850063E-16,0
0.0200004577636719,-0.0599999986588955,2.94000005722046,1.17811644077301,-0.0600018691155303,2.93999925241522,1.18000110544967,0,0,0,0,-0.01635288,0.0001297794,-0.01587137,-1.10653664009419E-09,-7.76775763711157E-08,-0.0941759571433067,-0.000279999361409376,-0.000120475902936966,0.000173332942931458,5
0.0400009155273438,-0.0599999986588955,2.94000005722046,1.17242503166199,-0.0600148724204753,2.93999365745638,1.18000915511487,0,0,0,0,-0.03270202,0.0005238493,-0.03175127,-1.08383135799528E-09,-7.60859677484405E-08,-0.284568399190903,-0.00111101934050116,-0.00047804058392963,0.00068777389696065,5
0.0600013732910156,-0.0599058866500854,2.93990302085876,1.16596508026123,-0.0600498951959519,2.93997858813451,1.18003083588125,1868.158,3252.8,3183.883,1722.412,-0.04942188,0.0003295469,-0.01369504,0.00470569217577577,-0.00484922388568521,-0.322996377944946,-0.0024796740721389,-0.00106693447916665,0.00153503637391071,5
0.0800018310546875,-0.0598203726112843,2.93960738182068,1.16000306606293,-0.0601175574246769,2.93994947496775,1.18007272202403,1925.485,2314.352,3252.117,2829.462,-0.07543244,-0.002136388,0.02094808,0.0042757336050272,-0.0147785618901253,-0.298098176717758,-0.00437268608126799,-0.00188144466206175,0.00270690098422899,5
0.100002288818359,-0.059937447309494,2.93904495239258,1.15498650074005,-0.0602282146177137,2.939901862269,1.18014122409785,980.1899,1498.867,3914.947,3896.591,-0.1031959,-0.008062987,0.06330824,-0.00585369300097227,-0.0281167067587376,-0.250826597213745,-0.00677688628291668,-0.00291590484325321,0.00419521543698747,4
0.120002746582031,-0.0604638494551182,2.93818354606628,1.15081310272217,-0.0603919599823235,2.93983140721312,1.18024259027882,346.3973,980.3658,4172.893,4613.372,-0.1214327,-0.01542077,0.1040022,-0.0263200812041759,-0.043068565428257,-0.208669185638428,-0.00967921398219614,-0.00416469537060396,0.00599189453988277,4
0.140003204345703,-0.0615636222064495,2.93704128265381,1.14728271961212,-0.0606186265898167,2.93973387890425,1.18038290770649,352.8918,747.0881,3975.384,4854.959,-0.1254019,-0.0211668,0.1351063,-0.0549886450171471,-0.0571140795946121,-0.176518157124519,-0.0130667168743004,-0.0056222432292015,0.00808892019923618,4
0.159999847412109,-0.0633408725261688,2.93568086624146,1.14427483081818,-0.0609177249752248,2.93960518522485,1.18056806385509,820.9543,814.9475,3462.727,4692.401,-0.1184595,-0.02352423,0.1522703,-0.0888625755906105,-0.0680151954293251,-0.150395616889,-0.0169257706321904,-0.00728268625174051,0.0104778583075938,3
0.180000305175781,-0.0658469274640083,2.9341721534729,1.14182531833649,-0.0612986871007165,2.9394412678651,1.18080389755851,1348.651,1083.32,3006.849,4255.219,-0.10798,-0.02278015,0.1557789,-0.125302851200104,-0.0754313990473747,-0.122477516531944,-0.0212451141043368,-0.00914117907931815,0.0131517376757159,3
0.200000762939453,-0.0690850019454956,2.93255376815796,1.14006149768829,-0.0617705288407759,2.93923824754608,1.18109599007255,1636.496,1381.211,2918.332,3666.364,-0.09982593,-0.02030074,0.1501569,-0.161903724074364,-0.0809156894683838,-0.0881907939910889,-0.0260114285934326,-0.0111919910485645,0.016102313395512,3
0.220001220703125,-0.0730103403329849,2.93082594871521,1.13903558254242,-0.0623420644491781,2.93899233174064,1.18144979784016,1641.483,1580.72,3148.109,3113.121,-0.09583864,-0.01735475,0.1421886,-0.196266904473305,-0.086386151611805,-0.0512968078255653,-0.03121219533433,-0.0134297356845702,0.019321835755004,3
0.240001678466797,-0.077550083398819,2.92897343635559,1.1386331319809,-0.0630218588825902,2.9386998351872,1.18187062297754,1524.104,1624.235,3417.792,2777.439,-0.09475687,-0.01467775,0.1377327,-0.226987227797508,-0.09262465685606,-0.0201215017586946,-0.0368350039519641,-0.0158490731496507,0.0228026221408387,3
0.260002136230469,-0.0826389938592911,2.92699217796326,1.13863551616669,-0.0638182299684225,2.938357178957,1.18236361461609,1438.925,1500.849,3533.326,2744.177,-0.09439095,-0.01258823,0.1393014,-0.254445463418961,-0.0990580916404724,0.000120664015412331,-0.0428675524613532,-0.0184447102433459,0.0265370570382875,3
0.280002593994141,-0.0882448852062225,2.9249005317688,1.13885223865509,-0.06473925057268,2.93796088952133,1.18293377024442,1400.527,1275.987,3476.668,2977.619,-0.0932117,-0.01110538,0.1456837,-0.280294269323349,-0.104584984481335,0.0108331758528948,-0.0492976472675982,-0.0212114004024205,0.0305175920312465,3
0.300003051757813,-0.0943706482648849,2.92273235321045,1.13920712471008,-0.0657927507678135,2.93750759781875,1.18358593705038,1350.623,1061.568,3345.128,3324.81,-0.09053363,-0.009935189,0.1533109,-0.306288570165634,-0.108407557010651,0.0177426412701607,-0.0561132031658829,-0.0241439437008635,0.0347367458022363,3
0.319999694824219,-0.101035967469215,2.92052555084229,1.13972520828247,-0.0669860785243584,2.93699414222283,1.18432466377777,1280.953,941.1394,3237.479,3590.546,-0.08597963,-0.008523713,0.1583607,-0.333265662193298,-0.110343053936958,0.0259036533534527,-0.0633008373176985,-0.0272365818771378,0.0391862337367069,3
0.340000152587891,-0.108251556754112,2.91831183433533,1.1404618024826,-0.0683270389802989,2.93641716440073,1.1851547821788,1252.969,944.056,3171.236,3649.898,-0.07944635,-0.006292517,0.1584786,-0.36078006029129,-0.110680714249611,0.0368321686983109,-0.0708514254995047,-0.0304853890327553,0.0438604075056398,4
0.360000610351563,-0.116003111004829,2.91611456871033,1.14145278930664,-0.0698225328270578,2.93577369517774,1.1860805641102,1319.723,1047.221,3120.586,3498.18,-0.07154635,-0.002963033,0.153475,-0.387577950954437,-0.109859079122543,0.0495511628687382,-0.0787518717320621,-0.0338847303337087,0.0487511600740379,4
0.380001068115234,-0.124251484870911,2.91394948959351,1.14270770549774,-0.0714794406858296,2.93506077401475,1.18710626900424,1455.511,1181.72,3090.61,3231.281,-0.0636128,0.001259029,0.1450388,-0.412418723106384,-0.108256734907627,0.0627450123429298,-0.0869905243502129,-0.0374295923939903,0.0538512785061227,4
0.400001525878906,-0.13294330239296,2.91182613372803,1.14421725273132,-0.0733044112230977,2.93427554017634,1.18823601270221,1579.575,1273.666,3104.773,2981.744,-0.05701828,0.005826445,0.135747,-0.434590816497803,-0.106164753437042,0.0754792168736458,-0.0955558400788823,-0.0411150084648172,0.0591536169647403,4
0.420001983642578,-0.142023697495461,2.90974998474121,1.14595782756805,-0.0753038633184856,2.93341523179792,1.18947376879637,1631.197,1288.604,3159.103,2844.757,-0.05244084,0.01017589,0.1278559,-0.45401993393898,-0.103801712393761,0.0870310217142105,-0.104436384033078,-0.0449360584346311,0.0646510967113616,4
0.44000244140625,-0.151446133852005,2.90772414207458,1.14789569377899,-0.077483988232608,2.93247718495301,1.19082336997196,1606.853,1238.095,3219.49,2842.901,-0.04965837,0.01397512,0.1224612,-0.471122145652771,-0.101290620863438,0.0968954563140869,-0.113620829717891,-0.048887868829098,0.0703367061060819,4
0.460002899169922,-0.161176845431328,2.9057514667511,1.1499969959259,-0.0798507517749224,2.93145883272047,1.19228850934924,1541.516,1158.225,3252.759,2938.224,-0.04788683,0.01718593,0.119341,-0.486536115407944,-0.0986394733190536,0.105067208409309,-0.123097959028495,-0.0529656128111088,0.0762035006076214,4
0.479999542236328,-0.171193689107895,2.9038360118866,1.15223908424377,-0.0824093896672336,2.93035792231548,1.19387242808941,1474.444,1086.193,3248.156,3066.956,-0.04628947,0.01998726,0.1173783,-0.500842273235321,-0.0957783684134483,0.112103842198849,-0.13285477482153,-0.0571636980729742,0.0822434343651008,5
0.5,-0.181481152772903,2.9019832611084,1.15461587905884,-0.085166398670376,2.92917165836334,1.1955791479969,1431.5,1046.189,3216.673,3169.748,-0.04433471,0.02264335,0.1152253,-0.514373421669006,-0.0926398783922195,0.118837282061577,-0.142884000065179,-0.0614789935111996,0.0884520025491718,5
0.520000457763672,-0.192024379968643,2.90019869804382,1.15713477134705,-0.0881266117110474,2.92789796139072,1.19741166088358,1423.52,1045.027,3177.332,3210.549,-0.04191869,0.02537866,0.1118881,-0.527161061763763,-0.0892280638217926,0.125946864485741,-0.153172907027918,-0.0659060227384819,0.0948213260877149,5
0.540000915527344,-0.202804684638977,2.89848589897156,1.15980994701385,-0.0912951145137283,2.92653464315245,1.19937311505516,1445.989,1073.49,3148.572,3184.364,-0.03929121,0.02828951,0.1070493,-0.539015233516693,-0.0856389775872231,0.133756145834923,-0.163710711144578,-0.0704401454577151,0.101344728821151,5
0.560001373291016,-0.213797986507416,2.89684534072876,1.16265296936035,-0.0946767781905844,2.92507960774504,1.20146652596211,1484.214,1113.907,3138.665,3114.145,-0.03688638,0.03132824,0.1010575,-0.549665689468384,-0.0820312350988388,0.142152011394501,-0.174486736240074,-0.0750767680090178,0.108015601688526,5
0.580001831054688,-0.224976301193237,2.8952739238739,1.16566812992096,-0.0982762614093182,2.92353085067394,1.20369477754168,1520.896,1148.772,3145.949,3034.982,-0.03512923,0.0343455,0.09465448,-0.558915555477142,-0.0785760208964348,0.150758519768715,-0.185490414529404,-0.0798113433697334,0.11482740272751,5
0.600002288818359,-0.236310988664627,2.89376544952393,1.1688517332077,-0.10209801256102,2.92188645792073,1.20606062355983,1540.523,1167.035,3163.356,2979.166,-0.03429299,0.03716112,0.08861634,-0.566734910011292,-0.0754190385341644,0.159177795052528,-0.19671128661765,-0.0846393711544298,0.121773657074397,5
0.620002746582031,-0.247776329517365,2.89231204986572,1.17219483852386,-0.106146271928021,2.92014460501038,1.20856668895334,1534.99,1167.318,3182.144,2963.876,-0.03442136,0.03963247,0.08345735,-0.573267161846161,-0.0726657137274742,0.167155012488365,-0.208139001499973,-0.0895563976148993,0.128847956964108,5
0.639999389648438,-0.259351581335068,2.89090442657471,1.17568731307983,-0.110424235525481,2.91830391678686,1.21121495220784,1506.69,1156.364,3194.87,2986.957,-0.0353476,0.04169853,0.07929689,-0.578763544559479,-0.0703809037804604,0.174625173211098,-0.219761081350814,-0.0945570538913933,0.136042578028218,5
0.659999847412109,-0.271021395921707,2.88953256607056,1.17932093143463,-0.114937365519793,2.91636204303257,1.21400879466451,1466.487,1144.23,3197.887,3031.412,-0.03678145,0.04338494,0.07590809,-0.583490550518036,-0.0685970261693001,0.181679174304008,-0.231571827761751,-0.0996388881179631,0.143353992680462,5
0.680000305175781,-0.282774388790131,2.88818597793579,1.18308997154236,-0.119688496929273,2.91431776391831,1.21694997133476,1429.426,1139.639,3190.302,3075.287,-0.03844326,0.04477646,0.0728857,-0.587650239467621,-0.0673258453607559,0.18845309317112,-0.243559016194652,-0.104796640417365,0.150774633349401,5
0.700000762939453,-0.294601410627365,2.88685441017151,1.18699264526367,-0.124681059317553,2.91216960379868,1.22004060528183,1404.782,1146.312,3177.12,3101.802,-0.0401658,0.04596775,0.06985699,-0.591351449489594,-0.0665746703743935,0.195131585001945,-0.255712729184339,-0.110026043581393,0.158298360651655,5
0.720001220703125,-0.306493729352951,2.88552713394165,1.19102895259857,-0.129918284978346,2.90991617190799,1.22328269744952,1393.513,1162.908,3163.482,3106.85,-0.04193254,0.04702105,0.06662852,-0.594615817070007,-0.0663595423102379,0.201817572116852,-0.268023157655716,-0.11532287703907,0.16591910230247,5
0.740001678466797,-0.318442225456238,2.884192943573,1.19519972801208,-0.135403211103301,2.90755616142752,1.22667812800413,1392.143,1185.111,3153.681,3094.067,-0.04383297,0.04795243,0.06321791,-0.597423195838928,-0.0667092278599739,0.208541840314865,-0.280480600923771,-0.120682966856639,0.173630853115714,5
0.760002136230469,-0.330437332391739,2.88283967971802,1.19950497150421,-0.14113868194985,2.90508834855275,1.23022865767651,1392.456,1207.612,3149.766,3074.472,-0.04600291,0.04873449,0.0598099,-0.599757671356201,-0.0676618665456772,0.215261965990067,-0.293075466693575,-0.12610218573757,0.181427675003881,5
0.780002593994141,-0.342470169067383,2.88145446777344,1.20394277572632,-0.147127351009062,2.90251159156062,1.23393592910403,1387.547,1226.554,3150.861,3058.944,-0.0485425,0.04931848,0.05664907,-0.601642608642578,-0.0692559704184532,0.221887812018394,-0.30579827106028,-0.131576453022558,0.189303696978092,5
0.799999237060547,-0.354533195495605,2.88002395629883,1.20850920677185,-0.153370467664426,2.8998253528763,1.23780071571459,1374.048,1240.607,3154.102,3054.417,-0.05147677,0.04966071,0.0539356,-0.60315078496933,-0.0715206861495972,0.228321999311447,-0.318637178554805,-0.1371006762399,0.197251592319181,5
0.819999694824219,-0.366621047258377,2.87853455543518,1.21319937705994,-0.159872691993147,2.89702762739878,1.24182590231796,1352.191,1250.755,3156.674,3062.229,-0.0547482,0.04973834,0.05176326,-0.604393064975739,-0.0744697824120522,0.234506264328957,-0.331587821991737,-0.142672976311719,0.205268657531342,4
0.840000152587891,-0.378730833530426,2.87697267532349,1.21800744533539,-0.166634951706069,2.89411801595997,1.24601206321137,1326.796,1259.513,3155.413,3078.385,-0.05825079,0.04955955,0.05010512,-0.605491101741791,-0.0780987441539764,0.240404397249222,-0.344638604388044,-0.148288363380199,0.213347713529636,4
0.860000610351563,-0.390861988067627,2.87532472610474,1.22292900085449,-0.173659158941841,2.89109569582005,1.2503603820997,1301.067,1269.179,3151.446,3096.793,-0.06187056,0.04915201,0.04886194,-0.60655689239502,-0.0823916271328926,0.246080175042152,-0.357780475378537,-0.153942943326036,0.221483157706883,4
0.880001068115234,-0.403015404939651,2.87357831001282,1.22796058654785,-0.180947045911593,2.88795992165696,1.25487193130418,1277.25,1281.005,3145.536,3113.513,-0.06551376,0.04855443,0.04791833,-0.607671618461609,-0.0873245447874069,0.251578539609909,-0.37100449298811,-0.159632868667153,0.229669454554527,4
0.900001525878906,-0.4151930809021,2.87172102928162,1.23309922218323,-0.188500167066783,2.88471002463366,1.2595476731043,1259.124,1295.191,3138.688,3123.968,-0.06911862,0.04780598,0.04717911,-0.608886182308197,-0.0928691253066063,0.25693467259407,-0.384301823631742,-0.165354338558695,0.237901135662636,4
0.920001983642578,-0.427397668361664,2.86974120140076,1.2383428812027,-0.196319901267052,2.88134541146536,1.26438846107986,1246.506,1310.91,3132.559,3127.824,-0.07266914,0.04693383,0.04660859,-0.610228598117828,-0.0989957600831985,0.262185573577881,-0.397663742114492,-0.171103598793035,0.246172799719906,4
0.94000244140625,-0.439631998538971,2.86762762069702,1.24368977546692,-0.204407453948074,2.87786556348678,1.26939504145298,1236.643,1326.634,3128.215,3128.263,-0.07618185,0.04594909,0.04623113,-0.611717522144318,-0.105675131082535,0.267345905303955,-0.411081631631503,-0.176876941799768,0.254479112513653,4
0.960002899169922,-0.45189955830574,2.86537003517151,1.24913811683655,-0.212763859289405,2.87427003571935,1.27456805443005,1227.307,1341.014,3125.928,3128.387,-0.07967645,0.04485306,0.04610147,-0.613376021385193,-0.112877823412418,0.272414743900299,-0.424546983768002,-0.182670706645715,0.262814806929822,3
0.979999542236328,-0.46420431137085,2.86295866966248,1.25468575954437,-0.221388311353785,2.87055917493534,1.27990700109753,1216.758,1353.339,3125.082,3131.015,-0.08315507,0.04364412,0.04627428,-0.615237474441528,-0.120572194457054,0.277380168437958,-0.438048819599778,-0.188480169406503,0.271173086491326,3
1,-0.476551234722137,2.86038422584534,1.26033055782318,-0.230284798736574,2.86673126495361,1.28541435058594,1204.24,1363.542,3125.204,3137.278,-0.08659641,0.04232437,0.0467797,-0.617346048355103,-0.128723233938217,0.282242268323898,-0.451584000205995,-0.194303979492187,0.279552008056641,3
1.02000045776367,-0.488946169614792,2.85763835906982,1.26607012748718,-0.239452235373992,2.86278677307706,1.29108943057007,1192.262,1372.286,3124.196,3146.096,-0.08996105,0.04090671,0.04760697,-0.619747579097748,-0.137288078665733,0.286976933479309,-0.465141770078335,-0.200137509108014,0.287944913453762,3
1.04000091552734,-0.501395881175995,2.85471391677856,1.27190279960632,-0.24889099213045,2.8587255397331,1.29693247063265,1180.776,1380.192,3123.228,3155.955,-0.09320904,0.03940802,0.04872224,-0.622488081455231,-0.146223232150078,0.291635274887085,-0.478714054341683,-0.205977283860805,0.296346803950333,3
1.06000137329102,-0.513907909393311,2.85160422325134,1.277827501297,-0.258601279453084,2.85454747437219,1.3029436010505,1169.606,1387.619,3122.058,3166.868,-0.0963031,0.03784987,0.05008043,-0.625601172447205,-0.155481413006783,0.296235203742981,-0.492292886511004,-0.21181987599461,0.304752747912622,3
1.08000183105469,-0.526490092277527,2.84830403327942,1.28384351730347,-0.268583149539609,2.85025255453512,1.30912285413647,1161.613,1394.821,3120.879,3175.67,-0.09920595,0.03625792,0.05162757,-0.629109859466553,-0.165014147758484,0.300802052021027,-0.50587040849135,-0.217661904390701,0.313157880805523,3
1.10000228881836,-0.539150655269623,2.84480857849121,1.28995072841644,-0.278836498506168,2.84584082492022,1.31547016558151,1156.731,1401.828,3119.894,3182.326,-0.1019032,0.0346544,0.05332611,-0.633025109767914,-0.174771830439568,0.30536025762558,-0.519438870577854,-0.223500034567576,0.321557405192552,3
1.12000274658203,-0.551897585391998,2.84111452102661,1.29614949226379,-0.289361068555186,2.84131239645058,1.32198537579665,1154.326,1408.249,3119.739,3187.242,-0.1043948,0.0330552,0.05515699,-0.637350857257843,-0.184706583619118,0.309938073158264,-0.532990631455731,-0.229330978680957,0.329946590735853,3
1.13999938964844,-0.564739406108856,2.83721899986267,1.30244052410126,-0.300154365346813,2.83666834237095,1.3286669406667,1153.283,1413.692,3120.59,3191.632,-0.10669,0.0314714,0.0571152,-0.642087638378143,-0.194771930575371,0.314553201198578,-0.546515580872639,-0.235150386571708,0.338319178707607,3
1.15999984741211,-0.577684104442596,2.83312058448792,1.30882513523102,-0.311219947869739,2.83190713134792,1.33551706337518,1152.34,1417.8,3122.944,3196.448,-0.1087912,0.02991077,0.05920136,-0.64723664522171,-0.204924494028091,0.319228738546371,-0.560011455688534,-0.240957284473894,0.346673768116318,3
1.18000030517578,-0.590740025043488,2.82881832122803,1.31530392169952,-0.322555076427271,2.82702994219644,1.34253404791935,1153.346,1420.798,3124.776,3201.527,-0.1106996,0.0283832,0.06140451,-0.652796566486359,-0.215117424726486,0.323938876390457,-0.573468357077025,-0.246747413199059,0.355004231116904,3
1.20000076293945,-0.603915452957153,2.82431221008301,1.32187867164612,-0.334158899272964,2.82203714139922,1.34971736702757,1154.902,1422.733,3127.685,3206.704,-0.1124189,0.02689669,0.06371258,-0.658771872520447,-0.225310534238815,0.328734844923019,-0.586879077262985,-0.252517671442929,0.363306105753208,3
1.22000122070313,-0.617218613624573,2.81960296630859,1.32855105400085,-0.346030421585499,2.81692915700008,1.35706640485806,1155.365,1423.643,3131.245,3213.729,-0.1139487,0.02545885,0.06611118,-0.665160536766052,-0.235463514924049,0.333622217178345,-0.600236516861372,-0.258265004538453,0.371574997167698,3
1.2400016784668,-0.63065779209137,2.81469225883484,1.33532309532166,-0.358168507636529,2.81170647767119,1.36458045834087,1157.436,1423.808,3134.852,3220.185,-0.1152749,0.0240823,0.06856833,-0.671958386898041,-0.245536863803864,0.338601917028427,-0.613533684877226,-0.263986404455806,0.379806577601466,2
1.26000213623047,-0.644240915775299,2.80958247184753,1.34219682216644,-0.370571882958536,2.80636965178032,1.3722587385199,1161.279,1423.578,3138.305,3225.841,-0.1163945,0.0227788,0.07105391,-0.679156243801117,-0.255491644144058,0.343685388565063,-0.626763698705669,-0.269678909802388,0.38799658639423,2
1.28000259399414,-0.657975792884827,2.80427670478821,1.34917461872101,-0.383239136512677,2.80091928645807,1.38010037189488,1166.424,1422.958,3141.908,3230.85,-0.1173154,0.02155752,0.07354315,-0.686740279197693,-0.26529198884964,0.348890066146851,-0.639919784131908,-0.275339605822821,0.396140829984331,2
1.29999923706055,-0.671869575977325,2.79877853393555,1.3562593460083,-0.396166231882091,2.79535711846185,1.3881028597315,1172.358,1421.877,3146.062,3235.303,-0.1180494,0.02042539,0.07601703,-0.694693148136139,-0.274905890226364,0.35423356294632,-0.652992789539212,-0.280964554832093,0.404233643085061,2
1.31999969482422,-0.685929536819458,2.79309248924255,1.36345398426056,-0.409356423791328,2.7896817473746,1.39626821685929,1178.197,1420.152,3151.324,3239.544,-0.1186039,0.01938592,0.07846391,-0.702995002269745,-0.284305900335312,0.359732210636139,-0.665981146317813,-0.286553081901244,0.412274054652251,2
1.34000015258789,-0.700161874294281,2.78722333908081,1.37076103687286,-0.422805463423808,2.78389500134342,1.4045938130584,1186.198,1418.134,3155.637,3242.956,-0.1189895,0.01844515,0.08086703,-0.711620271205902,-0.293462008237839,0.365350902080536,-0.678875903610019,-0.292101335726266,0.4202565236786,2
1.36000061035156,-0.714572846889496,2.78117632865906,1.37818360328674,-0.436511415158101,2.77799771321212,1.41307845008695,1194.716,1415.624,3160.886,3245.586,-0.1192265,0.01760352,0.08321904,-0.720550060272217,-0.302352994680405,0.371131092309952,-0.691670720740693,-0.297606588091785,0.42817712498415,2
1.38000106811523,-0.729168117046356,2.77495718002319,1.3857250213623,-0.450472217640295,2.7719907699237,1.42172085186868,1201.648,1412.459,3166.898,3249.561,-0.1193293,0.01685834,0.08551946,-0.729760348796844,-0.310959845781326,0.3770692050457,-0.704359365424783,-0.303066157419654,0.436032000487571,2
1.40000152587891,-0.743952631950378,2.7685718536377,1.39338803291321,-0.464685685951852,2.76587511158757,1.43051966583492,1209.125,1408.816,3172.885,3253.254,-0.119299,0.01621194,0.08775477,-0.739227414131165,-0.319265007972717,0.383148074150085,-0.716935713767318,-0.308477408768949,0.443817359206152,2
1.42000198364258,-0.758931159973145,2.7620267868042,1.40117526054382,-0.479149513777454,2.75965173054678,1.43947346426664,1217.514,1405,3178.506,3256.385,-0.1191418,0.01566541,0.08991089,-0.748926937580109,-0.327252209186554,0.389361828565598,-0.729393750263411,-0.31383775383597,0.45152947725581,2
1.44000244140625,-0.774107754230499,2.75532865524292,1.40908944606781,-0.493861275572861,2.75332167044526,1.4485807456364,1226.105,1401.058,3183.928,3259.443,-0.1188707,0.01521822,0.09197649,-0.758833885192871,-0.334908097982407,0.395711809396744,-0.741727567798258,-0.319144650954242,0.459164697851088,2
1.45999908447266,-0.789486229419708,2.74848413467407,1.41713345050812,-0.508815552717244,2.74688726276417,1.45783815555978,1234.578,1396.983,3189.482,3262.341,-0.118499,0.01486909,0.09394082,-0.768922388553619,-0.342223346233368,0.4022017121315,-0.753929052770513,-0.324394609067776,0.466717998286247,2
1.47999954223633,-0.805069625377655,2.74150037765503,1.42531025409698,-0.524015393706918,2.74034719582071,1.46724758120123,1242.143,1392.642,3195.822,3265.21,-0.1180329,0.01461563,0.09579737,-0.779165863990784,-0.349193036556244,0.408837676048279,-0.76599717101811,-0.329587183205524,0.474188738365705,2
1.5,-0.820860207080841,2.73438429832458,1.43362164497375,-0.539455198877605,2.73370387899399,1.4768055561018,1251.466,1388.594,3200.61,3267.141,-0.1174822,0.01445853,0.09753261,-0.789531111717224,-0.3558090031147,0.415570348501205,-0.777924000354858,-0.334718964672088,0.481572013878822,1
1.52000045776367,-0.836860060691833,2.72714281082153,1.44207036495209,-0.555132087468752,2.72695855179478,1.48651029693349,1260.999,1384.518,3206.048,3267.966,-0.1168648,0.01439307,0.09914398,-0.799994051456451,-0.362071454524994,0.42243430018425,-0.789704067205609,-0.339787598340998,0.488864436421842,1
1.54000091552734,-0.853070616722107,2.71978306770325,1.45065867900848,-0.571043070329722,2.72011250037111,1.49635995326965,1268.492,1380.166,3212.123,3269.899,-0.1161969,0.01441111,0.1006393,-0.810525238513947,-0.367983102798462,0.429418206214905,-0.801332006385301,-0.344790775723006,0.496062684689629,1
1.56000137329102,-0.869492471218109,2.7123122215271,1.45938849449158,-0.587185052087651,2.71316705657544,1.50635260892703,1276.101,1375.712,3217.887,3271.475,-0.11548,0.01450982,0.1020153,-0.821096122264862,-0.373546689748764,0.436491966247559,-0.812802561098952,-0.349726234966089,0.503163504475676,1
1.58000183105469,-0.886125981807709,2.70473694801331,1.46826124191284,-0.60355483331529,2.70612359703193,1.51648628330776,1284.238,1371.398,3222.924,3272.552,-0.1147199,0.01468505,0.1032682,-0.831680119037628,-0.378765404224396,0.44363808631897,-0.824110582941666,-0.354591760855452,0.510163708672098,0
1.60000228881836,-0.902971088886261,2.69706416130066,1.47727835178375,-0.620149112698862,2.69898354220367,1.52675893274134,1292.064,1367.183,3227.709,3273.557,-0.1139295,0.01493155,0.1043972,-0.842252790927887,-0.383645057678223,0.45085546374321,-0.835251031898628,-0.359385184813519,0.517060177269636,0
1.61999893188477,-0.920026838779449,2.6893002986908,1.48644113540649,-0.636961261140657,2.69174974440622,1.53716645350051,1298.966,1363.031,3232.468,3274.83,-0.1131194,0.01524291,0.1054021,-0.852789700031281,-0.388194173574448,0.458137780427933,-0.846216901179681,-0.364103492014234,0.523848572731403,0
1.63999938964844,-0.937292158603668,2.68145179748535,1.49575078487396,-0.653994195024907,2.68442094880091,1.54771065096602,1304.727,1358.827,3237.751,3276.053,-0.1122906,0.01561421,0.106283,-0.863267660140991,-0.392424464225769,0.465482354164124,-0.857007552155828,-0.368746407673381,0.530528499715628,0
1.65999984741211,-0.954765379428864,2.67352485656738,1.50520741939545,-0.671241134177535,2.67700007270724,1.55838732788714,1311.979,1355.232,3241.102,3276.434,-0.1114474,0.01604368,0.1070326,-0.873657524585724,-0.39634308218956,0.472833544015884,-0.867616161431205,-0.373310995874343,0.537095734215228,0
1.68000030517578,-0.972444176673889,2.66552567481995,1.51481187343597,-0.688698391434734,2.66948870260877,1.56919420173384,1319.041,1351.806,3244.938,3275.884,-0.1106064,0.01652441,0.107654,-0.883941113948822,-0.399963796138763,0.48022386431694,-0.878038122530658,-0.377795274579551,0.543547424602645,0
1.70000076293945,-0.990326046943665,2.65745973587036,1.5245646238327,-0.706362188585011,2.66188846416437,1.5801289336132,1323.826,1348.324,3249.201,3276.501,-0.1097771,0.01704714,0.1081589,-0.894095182418823,-0.403302073478699,0.487638026475906,-0.888268937369113,-0.38219730838866,0.549880786348944,0
1.72000122070313,-1.00840795040131,2.64933228492737,1.53446555137634,-0.724228658537036,2.6542010212754,1.5911891296115,1328.556,1344.96,3253.143,3276.599,-0.1089568,0.0176081,0.1085488,-0.904098391532898,-0.406372964382172,0.495047807693481,-0.898304216251578,-0.386515208538549,0.556093102023817,0
1.7400016784668,-1.02668654918671,2.64114856719971,1.54451417922974,-0.742293847487497,2.64642807515297,1.60237234213612,1333.534,1341.884,3256.348,3276.231,-0.1081462,0.01820254,0.1088262,-0.91393107175827,-0.409190148115158,0.502432286739349,-0.908139677873146,-0.390747132903322,0.562181721295579,0
1.76000213623047,-1.0451580286026,2.63291311264038,1.55470979213715,-0.76055371708895,2.63857136338517,1.61367607125764,1338.184,1339.061,3258.97,3275.918,-0.1073536,0.01882458,0.1089955,-0.923575818538666,-0.411767482757568,0.509781658649445,-0.917771149318994,-0.394891285994308,0.568144060931169,0
1.78000259399414,-1.06381833553314,2.62463068962097,1.56505167484283,-0.779004146617669,2.63063265900429,1.62509776605176,1342.047,1336.43,3261.5,3275.667,-0.1065856,0.01946812,0.1090608,-0.933017909526825,-0.414120972156525,0.517094612121582,-0.927194566064376,-0.39894591896006,0.573977604796153,0
1.79999923706055,-1.08266317844391,2.61630535125732,1.57553887367249,-0.79763736303951,2.62261530652977,1.63663261464007,1344.965,1333.998,3263.911,3275.598,-0.1058447,0.02012785,0.109026,-0.942242383956909,-0.416267246007919,0.524358868598938,-0.936404235539493,-0.402908582446823,0.579678828918647,0
1.81999969482422,-1.1016880273819,2.6079409122467,1.5861701965332,-0.816456197270346,2.61451808789761,1.64828236949435,1346.846,1331.635,3266.675,3275.433,-0.1051251,0.02079966,0.1088957,-0.951236248016357,-0.418224066495895,0.531569182872772,-0.945399824400851,-0.406779133026206,0.585247526943151,0
1.84000015258789,-1.12088751792908,2.5995409488678,1.59694361686707,-0.835452757515797,2.60634439872645,1.66004214521794,1350.315,1329.993,3267.292,3274.488,-0.1044289,0.02148226,0.1086666,-0.959981083869934,-0.420003175735474,0.538670003414154,-0.954175816030892,-0.41055519705179,0.590680283820602,0
1.86000061035156,-1.14025688171387,2.59110856056213,1.60785758495331,-0.854622615239374,2.59809614449182,1.6719092003358,1353.497,1328.566,3268.432,3272.702,-0.1037674,0.02216965,0.108346,-0.968470692634583,-0.421621531248093,0.545700490474701,-0.962728579444532,-0.414235212212131,0.595974851798267,0
1.88000106811523,-1.15979087352753,2.58264660835266,1.61891055107117,-0.873961270367154,2.58977526144981,1.68388074908779,1353.994,1327.063,3270.211,3272.373,-0.1031469,0.02285306,0.10795,-0.976694047451019,-0.423097431659698,0.552650332450867,-0.97105459204677,-0.41781766283301,0.601129050222035,0
1.90000152587891,-1.17948353290558,2.57415771484375,1.63010025024414,-0.893464153455626,2.58138371570432,1.69595396277071,1354.39,1325.698,3271.566,3271.717,-0.1025567,0.02353121,0.1074819,-0.984641194343567,-0.424446851015091,0.559487283229828,-0.979150439632688,-0.421301079877433,0.606140765536421,0
1.92000198364258,-1.19932973384857,2.56564402580261,1.64142405986786,-0.913126627859543,2.57292350227426,1.70812597108029,1355.464,1324.696,3271.977,3270.428,-0.1019916,0.02420174,0.1069438,-0.992304027080536,-0.42568251490593,0.566191494464874,-0.987012816387451,-0.424684040945629,0.611007951284563,0
1.94000244140625,-1.21932315826416,2.55710768699646,1.65287935733795,-0.932943991899774,2.5643966441608,1.72039386345315,1356.241,1323.95,3271.926,3269.206,-0.1014558,0.02486127,0.1063416,-0.999677360057831,-0.426816791296005,0.572762966156006,-0.994638524886308,-0.427965170275055,0.615728628108227,0
1.95999908447266,-1.23945844173431,2.54855036735535,1.66446340084076,-0.952907658613767,2.55580683609405,1.73275232415044,1356.151,1323.383,3271.779,3268.292,-0.100953,0.02550538,0.1056811,-1.00675714015961,-0.427862912416458,0.579201698303223,-1.00202309041976,-0.431142542523221,0.620300025949072,0
1.97999954223633,-1.2597291469574,2.53997373580933,1.6761736869812,-0.973020420343666,2.54715287660719,1.74520308176496,1354.474,1322.774,3272.335,3267.745,-0.1004763,0.02613111,0.1049688,-1.01354098320007,-0.428835362195969,0.585513055324554,-1.00916635026771,-0.434216087676217,0.62472204407561,0
2,-1.2801296710968,2.53137898445129,1.6880065202713,-0.993273599084619,2.53843849960327,1.7577407641983,1354.451,1322.811,3270.804,3266.479,-0.1000214,0.02674024,0.1042004,-1.02002000808716,-0.429742038249969,0.591639339923859,-1.01606400046349,-0.437183953857422,0.628992018127441,0
2.02000045776367,-1.3006534576416,2.52276706695557,1.69995903968811,-1.01366225471101,2.52966583068033,1.7703623132774,1354.439,1323.024,3269.91,3264.162,-0.0995937,0.02732969,0.1033814,-1.02619695663452,-0.43059504032135,0.597624719142914,-1.022713277122,-0.440044951844294,0.633108237128032,0
2.04000091552734,-1.3212947845459,2.51413893699646,1.71202826499939,-1.0341813929022,2.52083701875502,1.78306463727984,1352.109,1323.161,3269.537,3263.227,-0.09919636,0.02789408,0.1025277,-1.03206861019135,-0.43140634894371,0.603458881378174,-1.02911152474823,-0.442797939051516,0.637069057199471,0
2.06000137329102,-1.34204745292664,2.50549530982971,1.72421050071716,-1.05482596731032,2.51195423512985,1.79584461227593,1349.91,1323.347,3268.734,3262.028,-0.09881659,0.02843359,0.1016423,-1.03763318061829,-0.432184994220734,0.609114646911621,-1.03525619623725,-0.445441819530995,0.640872901562472,0
2.08000183105469,-1.36290538311005,2.49683666229248,1.73650217056274,-1.07559088172821,2.50301967256038,1.80869908347065,1348.39,1323.77,3267.178,3260.328,-0.09844907,0.02894902,0.1007271,-1.04289078712463,-0.432937055826187,0.614580869674683,-1.04114485287423,-0.447975543971863,0.644518260536375,0
2.10000228881836,-1.38386225700378,2.48816323280334,1.74889934062958,-1.09647099225719,2.49403554432252,1.82162486654569,1346.642,1324.336,3265.306,3258.756,-0.09809541,0.02943821,0.09978709,-1.04784345626831,-0.433668076992035,0.619861662387848,-1.04677516433438,-0.450398109700476,0.648003691539142,0
2.11999893188477,-1.40491199493408,2.47947549819946,1.76139855384827,-1.11745709586255,2.485005810225,1.83461626438416,1344.207,1324.964,3263.502,3257.431,-0.09775505,0.02990005,0.09882689,-1.05249381065369,-0.434383928775787,0.62496143579483,-1.0521439094894,-0.452708130755304,0.651327200538896,0
2.13999938964844,-1.42604887485504,2.47077369689941,1.77399623394012,-1.138551967509,2.47592927627801,1.8476749948214,1340.455,1325.477,3262.285,3256.559,-0.0974195,0.03033371,0.09785158,-1.05684506893158,-0.435090959072113,0.629884421825409,-1.05725102347782,-0.454905579228273,0.654488747383304,0
2.15999984741211,-1.4472668170929,2.4620578289032,1.78668785095215,-1.15974634010981,2.46680992985011,1.86079532108929,1338.637,1326.474,3259.116,3254.91,-0.09708288,0.03074395,0.09685449,-1.06089460849762,-0.435789108276367,0.634580969810486,-1.06209345202774,-0.456989140951513,0.657486441332569,0
2.18000030517578,-1.46855986118317,2.45332813262939,1.79946982860565,-1.18103490068612,2.45765005696766,1.87397395420079,1336.976,1327.541,3256.721,3252.201,-0.09674945,0.03112968,0.09583975,-1.06465017795563,-0.436482489109039,0.639101386070251,-1.06666929835407,-0.458957999791384,0.660319108186354,0
2.20000076293945,-1.48992228507996,2.444584608078,1.81233859062195,-1.20241229940639,2.4484519595137,1.88720758235537,1332.976,1328.426,3254.864,3251.142,-0.09642188,0.03148713,0.09482148,-1.06811273097992,-0.437174826860428,0.643436789512634,-1.07097677406178,-0.460811386251471,0.662985640842948,0
2.22000122070313,-1.5113480091095,2.43582725524902,1.8252899646759,-1.22387315175433,2.43921795429519,1.90049287228091,1329.509,1329.233,3252.717,3249.569,-0.09608579,0.03182003,0.09379894,-1.07128500938416,-0.437867492437363,0.647566437721252,-1.07501419914593,-0.462548577472581,0.665484999299265,0
2.2400016784668,-1.53283143043518,2.42705607414246,1.83831965923309,-1.24541204069667,2.4299503721102,1.91382647057578,1326.893,1330.15,3249.958,3247.454,-0.09573531,0.03212984,0.0927726,-1.07417035102844,-0.43855881690979,0.651483356952667,-1.07878000199166,-0.46416889723275,0.667816210650843,0
2.26000213623047,-1.55436682701111,2.4182710647583,1.85142350196838,-1.26702351885107,2.42065155681516,1.92720500505083,1324.255,1331.088,3246.927,3245.489,-0.09537046,0.03241721,0.09174576,-1.07677316665649,-0.439246594905853,0.655193209648132,-1.08227271937422,-0.465671715947234,0.669978369091845,0
2.27999877929688,-1.57594883441925,2.40947246551514,1.86459755897522,-1.28869796983554,2.41132564607061,1.9406225227075,1321.124,1331.958,3244.006,3243.806,-0.09499336,0.03268223,0.09072096,-1.07909834384918,-0.439929217100143,0.658704102039337,-1.08549040888332,-0.467056197851165,0.67197027217779,0
2.29999923706055,-1.59757173061371,2.40066003799438,1.87783801555634,-1.31043816248474,2.40197144852433,1.95408073758635,1316.765,1332.595,3241.799,3242.617,-0.09459388,0.03292576,0.08970109,-1.08115124702454,-0.440605789422989,0.662025988101959,-1.08843305191934,-0.468322334941636,0.673791908394614,0
2.31999969482422,-1.61923038959503,2.39183497428894,1.89114022254944,-1.33223444283894,2.39259311800549,1.96757367342642,1314.579,1333.547,3237.841,3240.491,-0.09416671,0.03315382,0.08867729,-1.0829313993454,-0.441269874572754,0.665113210678101,-1.09109887036509,-0.469469362144493,0.675442177003072,0
2.34000015258789,-1.64091944694519,2.38299655914307,1.90450048446655,-1.35408126380187,2.38319304127467,1.98109789631088,1312.583,1334.489,3234.444,3237.674,-0.09371717,0.03336665,0.08765116,-1.08444619178772,-0.441918581724167,0.668011665344238,-1.09348683453544,-0.470496836415,0.676920440579027,0
2.36000061035156,-1.66263341903687,2.3741455078125,1.9179151058197,-1.37597305876702,2.37377361348711,1.99464996024512,1308.682,1335.16,3231.966,3235.91,-0.09324792,0.03356243,0.08663309,-1.08569884300232,-0.442550212144852,0.67072856426239,-1.09559602313537,-0.471404361345641,0.678226128796969,0
2.38000106811523,-1.68436717987061,2.36528205871582,1.93137979507446,-1.39790424378549,2.36433723726004,2.00822640849877,1305.038,1335.633,3229.176,3234.119,-0.09274618,0.03374469,0.08562253,-1.08669114112854,-0.443160325288773,0.67323637008667,-1.09742562325992,-0.472191587166127,0.67935873843001,0
2.40000152587891,-1.70611560344696,2.35640740394592,1.9448903799057,-1.4198692197338,2.35488632173988,2.02182377494768,1302.771,1336.098,3225.827,3231.422,-0.0922045,0.03391676,0.08461617,-1.08742654323578,-0.44374218583107,0.67553186416626,-1.09897493039424,-0.472858210743393,0.680317833349887,0
2.42000198364258,-1.72787404060364,2.34752130508423,1.95844280719757,-1.44186237448181,2.34542328166942,2.03543858541595,1300.527,1336.523,3222.094,3229.094,-0.09162766,0.03407956,0.08361555,-1.08790874481201,-0.444288492202759,0.677620649337769,-1.10024334841354,-0.4734039755816,0.681103044526962,0
2.43999862670898,-1.74963688850403,2.33862566947937,1.97203326225281,-1.46387388420027,2.33595234396796,2.0490647584853,1297.858,1336.767,3218.865,3226.791,-0.09101672,0.0342339,0.08262116,-1.08814287185669,-0.444794178009033,0.679523408412933,-1.10123022817855,-0.473828602374257,0.681713970113108,0
2.45999908447266,-1.77139925956726,2.32972049713135,1.98565804958344,-1.48590651627916,2.32647231790489,2.06270400730194,1293.838,1336.743,3216.105,3225.412,-0.09036585,0.03438096,0.08163447,-1.08813190460205,-0.445254266262054,0.681239545345306,-1.10193556692257,-0.474132089930926,0.682150608395601,0
2.47999954223633,-1.79315686225891,2.32080745697021,1.99931275844574,-1.50795043548148,2.31698743530794,2.07635024338568,1292.546,1336.91,3211.873,3222.466,-0.0896681,0.03452748,0.08064277,-1.08787548542023,-0.445659726858139,0.682734072208405,-1.10235887855907,-0.474314229102152,0.682412658463722,0
2.5,-1.81490445137024,2.31188702583313,2.01299381256104,-1.52999999932945,2.30750012397766,2.08999997377396,1291.127,1337.022,3208.327,3219.103,-0.08893254,0.03467292,0.07964917,-1.08737874031067,-0.44600522518158,0.684053063392639,-1.10250000050292,-0.474374949932098,0.682500019669533,0
2.52000045776367,-1.83663725852966,2.3029613494873,2.02669763565063,-1.55204956317742,2.29801281264738,2.10364970416224,1288.033,1336.816,3205.496,3216.842,-0.08816128,0.03481605,0.07866201,-1.08664286136627,-0.446286350488663,0.685196936130524,-1.10235887855907,-0.474314229102152,0.682412658463722,0
2.54000091552734,-1.85835075378418,2.29403114318848,2.04042053222656,-1.57409348237975,2.28852793005043,2.11729594024597,1285.425,1336.373,3202.27,3214.513,-0.08734529,0.03496039,0.0776778,-1.08566844463348,-0.44649663567543,0.686141908168793,-1.10193556692257,-0.474132089930926,0.682150608395601,0
2.56000137329102,-1.88003981113434,2.28509879112244,2.05415844917297,-1.59612611445863,2.27904790398737,2.13093518906262,1284.021,1335.867,3198.834,3211.197,-0.0864803,0.03510849,0.07669229,-1.08445835113525,-0.446628987789154,0.686895549297333,-1.10123022817855,-0.473828602374257,0.681713970113108,0
2.58000183105469,-1.90170001983643,2.2761652469635,2.0679075717926,-1.61814182127198,2.26957516039323,2.14456396033363,1282.44,1335.29,3195.03,3208.449,-0.0855711,0.03526132,0.07570639,-1.08301329612732,-0.446675717830658,0.687457144260406,-1.10024313330221,-0.473403883025206,0.681102911362804,0
2.60000228881836,-1.92332673072815,2.2672324180603,2.08166456222534,-1.64013497118126,2.26011212240475,2.15817876780649,1280.88,1334.535,3191.607,3205.412,-0.08461981,0.03541974,0.07471798,-1.08133637905121,-0.446631461381912,0.687844514846802,-1.09897466165884,-0.47285809511406,0.680317666989874,0
2.61999893188477,-1.94491517543793,2.25830292701721,2.09542560577393,-1.66209575487342,2.25066301069528,2.17177353904914,1278.767,1333.638,3188.326,3202.781,-0.08362592,0.03558466,0.07372712,-1.07942819595337,-0.446491032838821,0.688055396080017,-1.09742562325992,-0.472191587166126,0.67935873843001,0
2.63999938964844,-1.96646106243134,2.24937796592712,2.10918736457825,-1.68402693989188,2.24122663446822,2.18534998730279,1276.389,1332.505,3185.35,3200.177,-0.0825825,0.03575774,0.07273121,-1.07728981971741,-0.44624924659729,0.688091814517975,-1.09559602313537,-0.471404361345641,0.67822612879697,0
2.65999984741211,-1.98795962333679,2.24045968055725,2.12294578552246,-1.70591873485703,2.23180720668066,2.19890205123703,1276.417,1331.53,3180.936,3196.382,-0.08148847,0.03594428,0.07172038,-1.07491874694824,-0.44589775800705,0.687922954559326,-1.09348683453544,-0.470496836414999,0.676920440579028,0
2.68000030517578,-2.00940561294556,2.23155117034912,2.13669776916504,-1.72776555581996,2.22240712994983,2.2124262741215,1276.236,1330.477,3177.392,3192.098,-0.08035663,0.03614187,0.0706986,-1.07231819629669,-0.44543269276619,0.68759948015213,-1.09109887036509,-0.469469362144494,0.675442177003072,0
2.70000076293945,-2.03079533576965,2.22265410423279,2.15043997764587,-1.74956183617416,2.213028799431,2.22591920996157,1274.008,1329.132,3174.194,3189.6,-0.07919335,0.03634826,0.06967362,-1.06948661804199,-0.444850713014603,0.68710994720459,-1.08843305191934,-0.468322334941636,0.673791908394614,0
2.72000122070313,-2.0521240234375,2.21377086639404,2.16416907310486,-1.77130202882336,2.20367460188472,2.23937742484041,1272.506,1327.523,3171.199,3186.234,-0.07798854,0.03656688,0.06863943,-1.06642544269562,-0.444149047136307,0.686450362205505,-1.08549040888332,-0.467056197851165,0.671970272177789,0
2.7400016784668,-2.07338643074036,2.20490455627441,2.17788124084473,-1.79298060834939,2.19434691474406,2.25279749826098,1271.57,1325.896,3167.786,3182.62,-0.07673792,0.03679858,0.06759407,-1.06313383579254,-0.443323075771332,0.685611128807068,-1.08227207933222,-0.465671440555045,0.66997797287536,0
2.76000213623047,-2.09457874298096,2.19605731964111,2.19157314300537,-1.81459207318004,2.18504810518187,2.26617602448799,1271.362,1324.233,3163.862,3178.781,-0.07544576,0.03704448,0.06653481,-1.0596114397049,-0.442367404699326,0.684590816497803,-1.07877930973132,-0.464168599372462,0.667815782108711,0
2.77999877929688,-2.11569595336914,2.18723177909851,2.20524120330811,-1.83612684690458,2.17578229366013,2.27950707526701,1270.887,1322.483,3160.193,3175.006,-0.07411897,0.03730419,0.06546152,-1.05585932731628,-0.441279023885727,0.683408677577972,-1.07501419914593,-0.462548577472581,0.665484999299265,0
2.79999923706055,-2.1367335319519,2.17843055725098,2.21888279914856,-1.85758769925251,2.16654828844162,2.29279236519255,1268.974,1320.507,3157.316,3171.926,-0.07275596,0.0375764,0.06437672,-1.05187773704529,-0.440056800842285,0.682076394557953,-1.07097677406178,-0.460811386251471,0.662985640842947,0
2.81999969482422,-2.15768671035767,2.16965675354004,2.23249387741089,-1.87896509797278,2.15735019098767,2.30602599334712,1269.052,1318.604,3153.008,3168.039,-0.07135461,0.03786514,0.06327005,-1.0476633310318,-0.43869623541832,0.68054872751236,-1.06666929835407,-0.458957999791384,0.660319108186353,0
2.84000015258789,-2.17855095863342,2.16091275215149,2.24607133865356,-1.90025365854909,2.14819031810522,2.31920462645863,1269.675,1316.747,3149.285,3163.055,-0.06992236,0.03816945,0.062141,-1.04321837425232,-0.437196344137192,0.678871393203735,-1.06209345202774,-0.456989140951513,0.657486441332568,0
2.86000061035156,-2.19932174682617,2.15220165252686,2.25961232185364,-1.9214480311499,2.13907097167731,2.33232495272651,1268.227,1314.718,3146.141,3159.563,-0.06846827,0.0384863,0.06099944,-1.0385410785675,-0.43555736541748,0.677044153213501,-1.05725102347782,-0.454905579228273,0.654488747383304,0
2.88000106811523,-2.21999454498291,2.14352583885193,2.27311325073242,-1.94254290279636,2.12999443773033,2.34538368316376,1267.172,1312.449,3142.848,3155.839,-0.06698436,0.03881666,0.05984186,-1.03363108634949,-0.433778911828995,0.675047278404236,-1.0521439094894,-0.452708130755304,0.651327200538896,0
2.90000152587891,-2.24056434631348,2.1348888874054,2.28657078742981,-1.96353299953007,2.12096298550123,2.3583775529389,1267.146,1310.195,3139.25,3151.294,-0.06546795,0.03916164,0.05866482,-1.02848851680756,-0.431859970092773,0.672881245613098,-1.04677411523767,-0.450397658303471,0.648003042098304,0
2.92000198364258,-2.26102638244629,2.12629294395447,2.29998159408569,-1.98441308858102,2.11197886650476,2.37130332271801,1267.127,1307.958,3135.241,3147.083,-0.06392545,0.03952059,0.05746908,-1.02311265468597,-0.42979907989502,0.670544922351837,-1.04114375428791,-0.447975071280863,0.644517580459114,0
2.93999862670898,-2.28137636184692,2.11774110794067,2.31334280967712,-2.00517403134858,2.10304601282548,2.38415533527198,1267.019,1305.66,3131.552,3142.64,-0.06236165,0.03989199,0.05625428,-1.01750469207764,-0.427596837282181,0.668055176734924,-1.03525619623725,-0.445441819530995,0.640872901562472,0
2.95999908447266,-2.30160999298096,2.1092357635498,2.32665109634399,-2.02581860575671,2.0941632292003,2.39693531026807,1265.298,1303.229,3128.449,3139.17,-0.0607776,0.04027446,0.05502411,-1.01166498661041,-0.425255119800568,0.665417850017548,-1.02911152474823,-0.442797939051516,0.637069057199471,0
2.97999954223633,-2.32172179222107,2.10078048706055,2.33990287780762,-2.04633774394789,2.08533441727499,2.40963763427052,1265.668,1300.862,3124.084,3134.655,-0.05916745,0.04067114,0.05376846,-1.00559175014496,-0.42277318239212,0.662593245506287,-1.022713277122,-0.440044951844293,0.633108237128031,0
3,-2.34170746803284,2.09237718582153,2.35309529304504,-2.06672639957428,2.07656174835205,2.42225918334961,1266.508,1298.635,3120.063,3129.264,-0.05754079,0.0410805,0.05248773,-0.999286651611328,-0.420152604579926,0.659619867801666,-1.01606400046349,-0.437183953857422,0.628992018127441,0
3.02000045776367,-2.36156249046326,2.08402943611145,2.36622548103333,-2.08697957831524,2.06784737134813,2.43479686578296,1265.37,1296.318,3116.719,3125.125,-0.05590721,0.04149847,0.05119208,-0.992749333381653,-0.417396664619446,0.656504452228546,-1.00916635026771,-0.434216087676216,0.62472204407561,0
3.04000091552734,-2.38128232955933,2.07573914527893,2.37928986549377,-2.10709234004513,2.05919341186127,2.44724762339747,1264.223,1293.803,3113.133,3121.208,-0.05425978,0.04192565,0.04987966,-0.985980272293091,-0.414507985115051,0.653222322463989,-1.00202309041976,-0.43114254252322,0.620300025949072,0
3.06000137329102,-2.40086150169373,2.06750965118408,2.39228534698486,-2.12705980100126,2.05060197123813,2.45960843291139,1264.309,1291.334,3109.406,3116.092,-0.05259477,0.04236317,0.04854643,-0.978981137275696,-0.411488801240921,0.649778842926025,-0.994637093194808,-0.4279645542582,0.615727741822988,0
3.08000183105469,-2.42029666900635,2.05934286117554,2.40520882606506,-2.14687713595163,2.04207512564123,2.47187630727625,1264.25,1288.961,3105.223,3111.436,-0.05091858,0.04280884,0.04719551,-0.971751987934113,-0.408340454101563,0.646169185638428,-0.987011339258122,-0.424683405378145,0.611007036871143,0
3.09999847412109,-2.43958234786987,2.05124163627625,2.41805696487427,-2.16653584520328,2.033616532251,2.4840459847772,1263.941,1286.532,3101.353,3106.73,-0.04923492,0.04326149,0.0458278,-0.964295089244843,-0.405066043138504,0.642409086227417,-0.979150439632689,-0.421301079877433,0.606140765536421,0
3.11999893188477,-2.45871448516846,2.04320812225342,2.43082690238953,-2.18603872829175,2.02522498650551,2.49611919846012,1262.427,1284.057,3097.88,3102.731,-0.04754435,0.04371943,0.04444647,-0.956612229347229,-0.401669323444366,0.638502061367035,-0.971054592046769,-0.41781766283301,0.601129050222034,0
3.13999938964844,-2.4776885509491,2.03524541854858,2.44351530075073,-2.20537738341953,2.01690410346351,2.50809074721212,1262.712,1281.658,3093.283,3097.878,-0.04584312,0.04418477,0.04304358,-0.94870388507843,-0.398152112960815,0.634414553642273,-0.962728579444533,-0.414235212212131,0.595974851798267,0
3.15999984741211,-2.49650025367737,2.02735471725464,2.45611906051636,-2.2245472411431,2.00865584922888,2.51995780232997,1263.085,1279.419,3089.118,3092.431,-0.0441403,0.04465578,0.04162082,-0.94057285785675,-0.394518166780472,0.630184829235077,-0.954175816030892,-0.41055519705179,0.590680283820602,0
3.18000030517578,-2.51514434814453,2.01953959465027,2.46863532066345,-2.24354380138856,2.00048216005771,2.53171757805356,1261.639,1277.155,3085.61,3088.052,-0.04244227,0.04512871,0.04018763,-0.932220935821533,-0.390772342681885,0.625817716121674,-0.94539982440085,-0.406779133026206,0.58524752694315,0
3.20000076293945,-2.53361749649048,2.01180124282837,2.48106098175049,-2.26236263561939,1.99238494142555,2.54336733290784,1260.48,1274.753,3081.593,3083.858,-0.0407421,0.04560452,0.03874182,-0.923650085926056,-0.386918783187866,0.621282875537872,-0.936404235539492,-0.402908582446823,0.579678828918646,0
3.22000122070313,-2.55191469192505,2.00414204597473,2.49339294433594,-2.28099938900442,1.98436606709459,2.55490437104486,1260.479,1272.437,3077.631,3078.379,-0.03903715,0.04608348,0.03728059,-0.914864063262939,-0.382961094379425,0.616596698760986,-0.927192788821982,-0.398945154262308,0.573976504598449,0
3.2400016784668,-2.57003164291382,1.99656391143799,2.50562810897827,-2.29944978258558,1.97642737818094,2.56632604358572,1259.836,1270.226,3073.379,3073.705,-0.03733326,0.04656341,0.03580974,-0.905864655971527,-0.378902405500412,0.611754238605499,-0.91776933201357,-0.394890504058554,0.568142935932542,0
3.2599983215332,-2.58796501159668,1.98906898498535,2.51776337623596,-2.31770615117141,1.96857217280235,2.57762760541179,1259.348,1267.968,3069.196,3068.835,-0.03563309,0.04704325,0.03432906,-0.896655678749084,-0.374746441841125,0.606761753559113,-0.908139677873146,-0.390747132903322,0.562181721295578,0
3.27999877929688,-2.60570955276489,1.98165917396545,2.52979588508606,-2.33577134012187,1.96079922667992,2.58881081793642,1257.643,1265.735,3065.423,3064.688,-0.03393666,0.04752148,0.03284205,-0.887241005897522,-0.370497763156891,0.601630330085754,-0.898304216251578,-0.386515208538549,0.556093102023818,0
3.29999923706055,-2.62326216697693,1.97433590888977,2.54172253608704,-2.35363781007389,1.95311178379095,2.59987101393471,1257.616,1263.556,3060.62,3059.782,-0.03224129,0.04800011,0.03134156,-0.877623498439789,-0.366159439086914,0.596327900886536,-0.888268937369113,-0.38219730838866,0.549880786348944,0
3.31999969482422,-2.64061808586121,1.96710133552551,2.55354046821594,-2.37130160722417,1.94551154534655,2.61080574581408,1257.534,1261.577,3056.533,3054.146,-0.03055338,0.04847705,0.02983096,-0.867807626724243,-0.361735939979553,0.590899169445038,-0.878038122530657,-0.377795274579551,0.543547424602645,0
3.34000015258789,-2.6577742099762,1.95995664596558,2.56524705886841,-2.38875886448137,1.93800017524809,2.62161261966077,1255.644,1259.588,3052.511,3050.166,-0.02887985,0.0489497,0.02831932,-0.857796251773834,-0.357231914997101,0.585328698158264,-0.867616161431205,-0.373310995874343,0.537095734215228,0
3.36000061035156,-2.6747260093689,1.95290350914001,2.57683944702148,-2.406005803634,1.93057929915441,2.6322892965819,1254.546,1257.466,3048.585,3045.376,-0.02721111,0.0494189,0.02680294,-0.847594916820526,-0.352652102708817,0.5796138048172,-0.857007552155826,-0.36874640767338,0.530528499715627,0
3.38000106811523,-2.69146990776062,1.94594359397888,2.58831453323364,-2.42303873751824,1.9232505035491,2.64283349404741,1253.85,1255.482,3044.298,3040.431,-0.0255477,0.04988452,0.02528304,-0.837207734584808,-0.347999900579453,0.573750853538513,-0.846216901179679,-0.364103492014234,0.523848572731403,0
3.40000152587891,-2.70800280570984,1.9390777349472,2.59966945648193,-2.43985407218584,1.9160153348077,2.65324298723213,1253.283,1253.546,3039.861,3035.528,-0.02389228,0.05034526,0.02376148,-0.826639235019684,-0.343278616666794,0.5677450299263,-0.835248923368004,-0.359384277571698,0.517058871988738,0
3.42000198364258,-2.72432065010071,1.93230819702148,2.61090159416199,-2.45644830907191,1.90887529826493,2.66351561035773,1252.26,1251.651,3035.69,3030.822,-0.02224964,0.05080011,0.02224124,-0.815894603729248,-0.338492155075073,0.561609089374542,-0.824108441976121,-0.354590839657789,0.510162383312438,0
3.43999862670898,-2.7404203414917,1.92563509941101,2.62200832366943,-2.47281494657125,1.90183319137989,2.67364733862088,1250.854,1249.764,3031.333,3026.665,-0.02061979,0.05124854,0.02072294,-0.804979085922241,-0.333644449710846,0.555334568023682,-0.812802561098952,-0.34972623496609,0.503163504475677,0
3.45999908447266,-2.75629806518555,1.91906046867371,2.63298726081848,-2.48895692832918,1.89488774758421,2.68363999427827,1249.314,1247.927,3027.645,3021.956,-0.01899739,0.05169033,0.01920683,-0.79389876127243,-0.328739821910858,0.548943519592285,-0.801332006385299,-0.344790775723006,0.496062684689628,0
3.47999954223633,-2.77195143699646,1.91258490085602,2.64383506774902,-2.50486791119015,1.88804169616054,2.69348965061443,1248.662,1246.143,3022.727,3017.537,-0.01738405,0.05212637,0.01769102,-0.78265780210495,-0.32378077507019,0.542394280433655,-0.789704067205609,-0.339787598340998,0.488864436421841,0
3.5,-2.78737640380859,1.90620934963226,2.65454983711243,-2.5205447997813,1.88129636896134,2.70319439144611,1248.755,1244.484,3018.513,3011.769,-0.01578349,0.05255602,0.01617579,-0.771262109279633,-0.318770885467529,0.535735189914703,-0.777924000354857,-0.334718964672089,0.481572013878822,0
3.52000045776367,-2.80257081985474,1.89993524551392,2.66512894630432,-2.53598460495198,1.87465305213461,2.71275236634669,1246.691,1242.912,3014.475,3007.891,-0.0142053,0.05297586,0.01467292,-0.759716510772705,-0.313714027404785,0.528959631919861,-0.765997171018108,-0.329587183205523,0.474188738365705,0
3.54000091552734,-2.81753158569336,1.89376294612885,2.67557001113892,-2.55118444594166,1.86811298519115,2.72216179198813,1245.1,1241.123,3010.418,3003.765,-0.01264043,0.05338744,0.0131787,-0.74802827835083,-0.308614462614059,0.522057175636292,-0.753929052770513,-0.324394609067776,0.466717998286246,0
3.56000137329102,-2.83225536346436,1.88769340515137,2.68587064743042,-2.5661415525477,1.86167736007175,2.73142095348307,1244.241,1239.474,3006.327,2998.909,-0.01108621,0.05379104,0.01169189,-0.736203789710999,-0.303475350141525,0.515037059783936,-0.741725227577293,-0.319143644022539,0.45916324914283,0
3.58000183105469,-2.84674024581909,1.8817275762558,2.69602870941162,-2.58085326729328,1.85534732021446,2.74052820572674,1243.256,1237.914,3002.011,2994.418,-0.009545835,0.05418609,0.01021594,-0.724248588085175,-0.298299252986908,0.50789749622345,-0.729391385793765,-0.313836736470737,0.451528013536464,0
3.59999847412109,-2.86098384857178,1.87586569786072,2.70604157447815,-2.59531431270705,1.84912513636775,2.74948028171299,1242.249,1236.339,2997.735,2990.045,-0.008021974,0.05457169,0.008751633,-0.712169110774994,-0.29308894276619,0.500645995140076,-0.716935713767317,-0.308477408768949,0.443817359206151,0
3.61999893188477,-2.87498331069946,1.87010860443115,2.71590757369995,-2.6095277810186,1.84300947803163,2.75827909567923,1240.518,1234.829,2993.936,2985.946,-0.006514092,0.05494769,0.007301754,-0.699971914291382,-0.28784766793251,0.493298560380936,-0.704359365424783,-0.303066157419654,0.436032000487571,0
3.63999938964844,-2.88873624801636,1.86445713043213,2.72562408447266,-2.6234885835008,1.83700253474321,2.76692149746096,1239.704,1233.282,2989.419,2981.746,-0.005020591,0.05531527,0.005863007,-0.687663614749908,-0.282578080892563,0.485828459262848,-0.691670720740692,-0.297606588091786,0.428177124984152,0
3.65999984741211,-2.90224123001099,1.85891151428223,2.73518943786621,-2.6371945352351,1.83110524661191,2.77540613448951,1239.453,1231.886,2985.289,2976.672,-0.003545733,0.05567392,0.004435803,-0.67525041103363,-0.277282923460007,0.478268444538116,-0.678875903610016,-0.292101335726265,0.420256523678599,0
3.68000030517578,-2.91549634933472,1.85347211360931,2.74460196495056,-2.65064357486757,1.82531850058072,2.78373173068862,1237.513,1230.571,2981.441,2973.007,-0.002095375,0.0560214,0.003028865,-0.662738382816315,-0.271965265274048,0.470620661973953,-0.665981146317811,-0.286553081901244,0.412274054652249,0
3.70000076293945,-2.9284987449646,1.84813940525055,2.7538595199585,-2.66383376677681,1.81964312949348,2.79189708781642,1235.909,1229.085,2977.679,2969.141,-0.0006631271,0.05635895,0.001640003,-0.650135517120361,-0.266628712415695,0.462877571582794,-0.65299278953921,-0.280964554832092,0.40423364308506,0
3.72000122070313,-2.94124794006348,1.84291410446167,2.76296043395996,-2.6767633032417,1.81407991116207,2.79990108680742,1235.251,1227.677,2973.688,2964.633,0.0007544588,0.05668736,0.0002677146,-0.637448728084564,-0.261275589466095,0.455039918422699,-0.639917282339434,-0.275338529371411,0.396139281255611,0
3.7400016784668,-2.95374155044556,1.83779585361481,2.77190279960632,-2.68943050660933,1.80862956743367,2.80774268911456,1234.371,1226.352,2969.582,2960.572,0.002151737,0.05700585,-0.001084972,-0.624684274196625,-0.255907893180847,0.44711509346962,-0.626761182173781,-0.26967782700902,0.387995028541112,0
3.7599983215332,-2.96597838401794,1.83278524875641,2.78068518638611,-2.70183149102237,1.80329377028414,2.81541948920704,1233.494,1225.032,2965.776,2956.367,0.003526798,0.05731417,-0.002416552,-0.611849129199982,-0.250528156757355,0.439116328954697,-0.613533684877225,-0.263986404455806,0.379806577601466,0
3.77999877929688,-2.9779577255249,1.82788252830505,2.78930616378784,-2.7139695770734,1.79807109095524,2.82293354268985,1231.71,1223.743,2962.141,2952.976,0.004878343,0.05761146,-0.003723099,-0.598950624465942,-0.245138972997665,0.431045800447464,-0.60023651686137,-0.258265004538452,0.371574997167698,0
3.79999923706055,-2.98967742919922,1.82308793067932,2.79776406288147,-2.72584109938593,1.7929631065561,2.83028258052034,1231.058,1222.359,2958.097,2949.097,0.006210275,0.05789956,-0.005010471,-0.585996508598328,-0.239742964506149,0.422890484333038,-0.586879077262983,-0.252517671442928,0.363306105753209,0
3.81999969482422,-3.00113749504089,1.81840062141418,2.8060576915741,-2.73744492223163,1.78797030575888,2.83746589962856,1230.785,1221.176,2954.358,2944.588,0.007518332,0.05817793,-0.006277071,-0.572993099689484,-0.234342306852341,0.414677947759628,-0.573468357077023,-0.246747413199059,0.355004231116903,0
3.84000015258789,-3.01233673095703,1.81382179260254,2.81418585777283,-2.74878005078916,1.78309311660741,2.84448288417273,1229.102,1220.067,2950.985,2941.183,0.008796917,0.05844496,-0.007514908,-0.55994713306427,-0.228939592838287,0.406413078308105,-0.560011455688534,-0.240957284473894,0.346673768116317,0
3.86000061035156,-3.02327394485474,1.80935144424438,2.82214736938477,-2.75984563331209,1.77833190558438,2.85133300688122,1227.808,1218.74,2947.326,2937.996,0.0100508,0.05870156,-0.008726646,-0.546867191791534,-0.223537892103195,0.398077726364136,-0.546515580872635,-0.235150386571708,0.338319178707605,0
3.88000106811523,-3.03394889831543,1.80498862266541,2.8299412727356,-2.77064096329669,1.77368697667861,2.85801583039457,1227.688,1217.507,2943.714,2933.739,0.01128142,0.05894899,-0.009915481,-0.533760547637939,-0.218139484524727,0.38969013094902,-0.532988048794546,-0.229329867434001,0.329944991945551,0
3.90000152587891,-3.04436182975769,1.80073356628418,2.837566614151,-2.78116548164984,1.76915857045225,2.8645310086075,1226.686,1216.462,2940.372,2930.114,0.0124816,0.05918546,-0.01107502,-0.520633578300476,-0.212746486067772,0.381263703107834,-0.519436284009554,-0.223498921639498,0.32155580398356,0
3.91999816894531,-3.05451154708862,1.79658627510071,2.84502243995667,-2.79141684911929,1.7647476934202,2.87087709341145,1225.304,1215.277,2937.02,2927.154,0.01365167,0.05941101,-0.01220367,-0.507494390010834,-0.207361742854118,0.372789621353149,-0.505870408491346,-0.2176619043907,0.313157880805522,0
